timestamp,timestamp_sample,yaw_composite,yaw_variance,yaw[0],yaw[1],yaw[2],yaw[3],yaw[4],innov_vn[0],innov_vn[1],innov_vn[2],innov_vn[3],innov_vn[4],innov_ve[0],innov_ve[1],innov_ve[2],innov_ve[3],innov_ve[4],weight[0],weight[1],weight[2],weight[3],weight[4]
219071573,218972173,3.0079389,3.7977512,-2.5132742,-1.2566371,0.0,1.2566371,2.5132742,0.0,0.0,0.0,0.0,0.0,0.0,0.0,0.0,0.0,0.0,0.2,0.2,0.2,0.2,0.2
219259331,219159853,2.8997116,3.702404,-2.5132666,-1.2566295,7.846855e-06,1.256645,2.513282,0.0,0.0,0.0,0.0,0.0,0.0,0.0,0.0,0.0,0.0,0.2,0.2,0.2,0.2,0.2
220256746,220157517,-2.054134,3.7619412,-2.5114043,-1.2548226,0.0018067884,1.2584946,2.5151715,-0.0088143125,-0.0022384785,-0.0012536459,-0.0072212163,-0.011894032,0.026562788,0.027664078,0.034258656,0.037232976,0.032476567,0.20002171,0.20001699,0.19998872,0.19997606,0.19999647
221254412,221155182,1.2233834,3.5543706,-2.507155,-1.2504425,0.006215082,1.2627896,2.519369,-0.022362065,-0.010060992,-0.006989157,-0.017392498,-0.026893428,-0.057370897,-0.05660376,-0.044667035,-0.038057398,-0.04590892,0.19997297,0.19997443,0.20001142,0.20003249,0.20000881
222262251,222162725,2.506711,3.552464,-2.475619,-1.2188199,0.03828118,1.2950432,2.551295,0.02802532,0.06156302,0.031226344,-0.02104194,-0.023016583,-0.022514608,0.02026875,0.065382175,0.050467215,-0.0038420707,0.20005308,0.19983251,0.19984372,0.20007053,0.20020014
223259757,223160392,1.919812,3.8663023,-2.4145083,-1.1572757,0.09990175,1.3562776,2.6122146,0.032119416,0.012983763,0.005585842,0.02014542,0.036532048,0.028929226,0.030501246,0.012783559,0.00028131902,0.010255225,0.19988818,0.19969754,0.19992518,0.2002559,0.2002332
224257570,224158061,1.2806593,3.4368982,-2.443773,-1.1678449,0.09379443,1.3341691,2.575985,0.19417426,0.20079935,0.017133133,-0.100734465,0.0054188874,-0.022207513,0.17449638,0.23910776,0.08721785,-0.07386497,0.19297528,0.19350524,0.20298798,0.20842835,0.20210308
225254991,225155726,1.4801795,3.252183,-2.4653835,-1.1577017,0.12081995,1.3408613,2.5530105,0.122178555,0.34481287,0.22822092,-0.04783888,-0.11570229,-0.38979596,-0.2017479,0.06057836,0.033100247,-0.23417689,0.18387121,0.18019123,0.20338054,0.22272761,0.20982942
226262546,226163272,1.3884516,2.9423788,-2.5015461,-1.1463119,0.14476198,1.3269565,2.5024266,0.17007482,0.3903613,0.2790379,0.027180508,-0.047336385,-0.3013295,-0.12432735,0.12324268,0.1009142,-0.1402497,0.16592835,0.16277833,0.2095109,0.24622776,0.21555465
227260173,227160940,1.4046824,2.79348,-2.5154333,-1.1356888,0.16614392,1.3300179,2.484992,-0.15048689,-0.035927817,0.09142674,0.059671104,-0.075539544,-0.21872593,-0.32881433,-0.2467347,-0.11302458,-0.08900282,0.15743908,0.15268226,0.21062613,0.2590546,0.22019786
228258135,228158610,1.432675,2.689572,-2.473167,-1.0739712,0.23002563,1.3786528,2.521945,-0.34093648,-0.3290686,-0.17085779,-0.10262387,-0.19008696,0.081789844,-0.08693165,-0.110932834,0.015284389,0.12874916,0.15078814,0.14688829,0.21316712,0.26786575,0.22129068
229255579,229156279,1.5047232,2.6046717,-2.4070427,-0.9911748,0.3166058,1.4535651,2.5857165,-0.1774321,-0.24070129,-0.16412322,-0.07686331,-0.07712447,0.16632791,0.06933957,-0.00740356,0.032790914,0.12871647,0.14558847,0.14156152,0.21439566,0.2754433,0.22301108
230253199,230153949,1.5239036,2.544832,-2.3936563,-0.9655104,0.34492105,1.4739965,2.5979173,-0.104661204,-0.20027429,-0.19415176,-0.116387084,-0.06266632,0.13984221,0.11354937,0.021691374,-0.0014721677,0.05886718,0.14187771,0.13773589,0.21519932,0.2809525,0.22423463
231260892,231161498,1.5686432,2.4811573,-2.3905697,-0.9500224,0.36858898,1.4921752,2.6048908,0.33611232,0.31619686,0.083654754,-0.00839372,0.11555451,-0.0610966,0.18978672,0.2172659,0.03422003,-0.1267013,0.13928674,0.1325488,0.21326688,0.28666365,0.22823389
232258453,232159169,1.6268846,2.241682,-2.4178042,-0.930447,0.41148356,1.5099779,2.583581,0.36117274,0.38546044,0.17139316,0.06287064,0.14696044,0.006966412,0.2473755,0.30556706,0.15244259,-0.011736363,0.12713969,0.11469427,0.2093075,0.30936155,0.23949696
233256065,233156841,1.6625026,2.1668272,-2.4811862,-0.98092824,0.38329864,1.4810877,2.53647,0.12545666,0.34636566,0.23113921,0.025213435,-0.04558684,-0.12716562,0.030920587,0.25352043,0.22539401,0.03672546,0.12672217,0.10627086,0.20004882,0.31582746,0.25113073
234253743,234154513,1.6066307,2.0203452,-2.53478,-1.0062174,0.36368376,1.4425792,2.4797065,-0.2398078,0.14391483,0.15647194,-0.113005035,-0.32803607,-0.40642303,-0.37178466,-0.016840756,0.089170724,-0.08780525,0.11769063,0.097782575,0.20088264,0.32998645,0.25365767
235261706,235162064,1.5024474,1.809415,-2.5621283,-0.98715216,0.3726547,1.41384,2.4305358,-0.3332178,-0.027452618,0.084398925,-0.07909137,-0.2933635,-0.358257,-0.45080978,-0.18795195,-0.030287579,-0.089070305,0.09985187,0.08820499,0.21204057,0.3538446,0.24605802
236258998,236159738,1.4919844,1.7183294,-2.5710282,-0.9744566,0.38703343,1.4135981,2.4185605,-0.29589254,-0.27395478,-0.06879639,-0.009905115,-0.10467629,0.09442623,-0.13743402,-0.13707477,0.011977293,0.13802025,0.09335702,0.08273504,0.21345492,0.36455536,0.24589764
237256665,237157412,1.532487,1.6574728,-2.5328743,-0.9199001,0.44247562,1.4594102,2.4555984,0.070841506,-0.069482975,-0.064830355,0.025139548,0.09862634,0.16689005,0.1497306,0.026676822,-0.0057245493,0.05222679,0.089140214,0.07904193,0.21409272,0.371814,0.24591115
238254308,238155087,1.5566123,1.630064,-2.505612,-0.8848018,0.47651848,1.4884598,2.480961,0.13622029,0.06682116,0.0036644936,0.02505906,0.086707085,0.02151619,0.08886163,0.033677615,-0.027664676,-0.042144656,0.087035194,0.07753534,0.21493176,0.375201,0.24529678
239261940,239162639,1.5741127,1.6261885,-2.485761,-0.8637178,0.49691164,1.508255,2.500133,0.013325987,0.0030256687,-0.032358207,-0.038219567,-0.019123722,-0.0044991337,0.035591215,0.029643616,0.0024481919,-0.016645495,0.0866224,0.077425905,0.21540083,0.37570456,0.24484634
240259596,240160316,1.6161216,1.6127852,-2.4533381,-0.8277453,0.53534365,1.545616,2.5345154,0.051749457,0.1372315,0.0834362,0.011925511,-0.013105221,-0.11751262,-0.04871028,0.030000402,0.014171677,-0.053145654,0.08610734,0.07620826,0.21421392,0.3772784,0.24619204
241257222,241157991,1.6453575,1.579166,-2.4327543,-0.7984735,0.5671859,1.572941,2.5560713,-0.14101522,0.03916328,0.07699404,-0.02131441,-0.13197444,-0.19308345,-0.22378466,-0.069840334,0.000976719,-0.04203552,0.084122635,0.07384909,0.21342164,0.38134322,0.2472634
242254977,242155668,1.6308846,1.5265226,-2.4251628,-0.77598244,0.5839575,1.5779926,2.5554507,-0.12738907,-0.035310324,-0.0032772906,-0.04792494,-0.10899718,-0.07983627,-0.11118422,-0.034136545,0.010589376,-0.0016658008,0.07918572,0.071588315,0.21757591,0.38841432,0.24323581
243262455,243163223,1.6383395,1.5125661,-2.4290292,-0.77588075,0.5871251,1.5798051,2.5541463,0.03334534,-0.09999712,-0.1270847,-0.056141607,0.024635367,0.12383135,0.14700809,0.03437096,-0.017291475,0.0127674565,0.07871945,0.070281714,0.21605165,0.39008826,0.24485892
244260215,244160900,1.6189504,1.408915,-2.458246,-0.773266,0.59139544,1.5665708,2.5231726,0.23522729,0.109665714,-0.0210277,0.009589255,0.122725934,0.14736034,0.2958629,0.19597156,0.07724878,0.035937905,0.071433574,0.06368287,0.21634471,0.40395755,0.2445813
245257841,245158579,1.65166,1.3549651,-2.4571066,-0.756148,0.6175368,1.5859917,2.5310109,0.112966254,0.32076734,0.17192131,0.006315753,-0.04734461,-0.25039226,-0.066349424,0.11482835,0.065694384,-0.09461623,0.069070995,0.059283085,0.21184167,0.41075385,0.2490504
246255845,246156256,1.679033,1.2287192,-2.4642582,-0.72238564,0.66021144,1.6085321,2.5291283,-0.15383425,0.23456594,0.20594126,-0.01734405,-0.20290133,-0.35649168,-0.31723005,0.00806126,0.08086239,-0.05257999,0.061427448,0.050790332,0.20765479,0.42795205,0.25217542
247263368,247163812,1.6574197,1.0901544,-2.4911623,-0.69864064,0.6823565,1.6014597,2.4972656,-0.4468361,-0.13845612,0.05201833,-0.05745311,-0.2726816,-0.20331524,-0.43877238,-0.18367314,0.010494858,0.041822374,0.051208448,0.042783495,0.20861092,0.44922477,0.24817239
248250848,248151613,1.6285179,0.95034707,-2.5237787,-0.6690885,0.70579654,1.5900304,2.4580672,-0.42782274,-0.5017738,-0.21920136,-0.10793197,-0.15994717,0.25352702,-0.09856738,-0.14688215,0.012644697,0.19721219,0.04050329,0.03481375,0.21046998,0.4732924,0.24092059
249258453,249159170,1.6466064,0.8294021,-2.5390096,-0.6170201,0.7577816,1.6104785,2.4477873,0.15748218,-0.25518653,-0.23366687,-0.037964433,0.14772528,0.53740746,0.53783715,0.21736619,0.13733512,0.23141088,0.032382634,0.027281392,0.20636784,0.4957075,0.23826066
250257105,250156849,1.6810268,0.6968083,-2.5418105,-0.53139126,0.8384191,1.65091,2.4495265,0.5427684,0.21026947,-0.079677925,-0.0046705008,0.22157036,0.15968317,0.5831498,0.2996294,0.054836124,-0.056567788,0.023653481,0.019713469,0.20186417,0.52266717,0.23210175
251253825,251154529,1.75576,0.59435034,-2.5489452,-0.45759746,0.92811424,1.7089309,2.4677262,0.35393816,0.5616166,0.12170845,-0.04800266,-0.023027956,-0.25910783,0.31119218,0.39696905,0.18768343,-0.074671105,0.01857739,0.013282228,0.18542534,0.54453963,0.23817539
252251879,252152209,1.7774414,0.33478332,-2.6300464,-0.19061573,1.1334058,1.7706043,2.3980803,1.7301663,0.30235368,-0.19561899,0.19451177,0.830469,0.5676171,1.6922812,0.55126655,-0.0013602972,-0.18227583,0.0035673638,0.002986427,0.17706761,0.62730587,0.18907273
253259013,253159767,1.843639,0.24340163,-2.717833,-0.05169219,1.2804892,1.8221265,2.3534846,0.35242075,0.9705072,0.21486098,-0.009129941,-0.0898968,-0.7329349,0.29101586,0.39473218,0.16116646,-0.17403841,0.0011152687,0.00061412837,0.14349768,0.6693695,0.18540342
254257255,254157448,1.608253,0.0940656,2.905539,0.24533166,1.2945186,1.6138266,1.9227198,-3.3493857,1.2647382,0.5693406,-0.22884542,-1.1625266,-0.703966,-2.752547,-0.091079116,0.42157412,0.580564,0.00016177997,0.00016177997,0.12474977,0.76422054,0.11070619
255254621,255155129,1.429251,0.034108423,2.2353444,0.58078504,1.2983038,1.4359554,1.5573388,-2.5698695,-0.024669647,-0.24120355,-0.3824265,-0.57490087,1.8562288,-2.5810857,-0.39788485,-0.013982534,0.45137239,0.00014684918,0.00014684918,0.1055063,0.8298755,0.06432452
256252460,256152810,1.2779151,0.025713393,1.9149477,0.55630344,1.1890416,1.2814693,1.3501676,-0.83244824,-0.99779356,-0.8037646,-0.7333996,-0.66176486,0.9147867,-1.0174093,-0.43102992,-0.37243405,-0.17622097,0.000156708,0.000156708,0.09029683,0.839563,0.06982664
257259768,257160369,1.1725123,0.020696597,1.7175041,0.5085468,1.0974201,1.1742325,1.2300072,0.8560699,-0.7989627,-0.36508387,-0.22579068,-0.08978747,-0.22044027,0.8220126,-0.13585353,-0.28246725,-0.27441657,0.00014925378,0.00014041952,0.08092544,0.8380608,0.08072405
258258280,258158051,1.0819933,0.01730177,1.5465739,0.47602478,1.0156565,1.0833201,1.1340115,0.0860326,0.15423408,-0.04589352,-0.031025767,0.004348308,0.53609776,0.8139459,0.5305774,0.45195317,0.47681236,0.00013929376,0.00013929376,0.07798773,0.8435061,0.07822748
259255423,259155733,1.1029298,0.016333949,1.559625,0.5188809,1.0400736,1.1046225,1.1556406,-1.3886182,0.73307085,-0.30455434,-0.43134522,-0.51901793,0.6025652,-0.2063595,0.37738246,0.38163084,0.43966478,0.00014616137,0.00014616137,0.080846965,0.84945697,0.06940361
260252905,260153416,1.1219766,0.015469112,1.566422,0.5712578,1.0666789,1.1240903,1.1716628,-0.8275726,0.42766714,-0.21331525,-0.27945554,-0.32209134,0.2723825,-0.14718562,0.14026684,0.1331814,0.17158836,0.00013861827,0.00016008272,0.08856896,0.8481806,0.062951796
261260365,261160976,1.1581597,0.015279233,1.5956881,0.6125931,1.1052461,1.1604891,1.2054595,-0.48068717,-0.16216886,-0.4514337,-0.46142134,-0.4583752,-0.3832003,0.24137011,-0.09423609,-0.15282775,-0.16557656,0.00014353519,0.00018403243,0.09148961,0.84682935,0.061353374
262258222,262158660,1.245899,0.014543221,1.6647159,0.7190101,1.1966953,1.2482314,1.2905421,0.3987732,0.24841551,0.20556583,0.22071004,0.24252813,-0.24031341,0.41601202,0.020055175,-0.031935453,-0.047788262,0.00013706583,0.00016224339,0.094131105,0.8454363,0.060133316
263255933,263156343,1.2968804,0.014330124,1.7061446,0.7778231,1.2486942,1.2991632,1.3407819,0.3209945,0.3856334,0.2738886,0.2751226,0.28262717,-0.10101703,0.33670354,0.088194706,0.05241032,0.042196035,0.00013826677,0.00013826677,0.094189875,0.845848,0.059685595
264253368,264154027,1.3352833,0.0142873535,1.7403477,0.8172151,1.2865337,1.3374615,1.379489,0.0436607,0.9693842,0.48291177,0.43357748,0.39515987,0.56889415,0.59048384,0.6632692,0.6520919,0.6550326,0.00015753071,0.00015753071,0.09217248,0.84727526,0.0602372
265261031,265161589,1.3541516,0.00980274,1.6396686,0.9454525,1.3188668,1.3560584,1.3851659,-1.7615328,1.89817,0.0779748,-0.12491143,-0.29410434,0.48118162,-0.55385494,0.31763697,0.3594799,0.3976283,0.00014842983,0.00014842983,0.09464836,0.8490321,0.056022596
266259134,266159274,1.2048821,0.005346804,1.3534484,0.96025276,1.1868546,1.206252,1.2202015,-1.6647298,1.2273831,-0.32239008,-0.46643114,-0.5817833,0.52656364,-0.89597464,-0.033826828,0.025748253,0.078022,0.00014953836,0.00014953836,0.1050077,0.8458401,0.0488531
267256458,267156958,1.1226391,0.0032459465,1.1947467,0.9836753,1.113815,1.1234664,1.1295402,-1.5939326,0.13132858,-0.8780823,-0.95354366,-1.0120058,-0.31608486,-1.4562693,-0.8894129,-0.84253883,-0.80219936,0.00020372821,0.00020372821,0.112737074,0.8416458,0.045209665
268254072,268154644,1.1424166,0.0024387168,1.1740403,1.0605779,1.1382486,1.1428812,1.1448648,-1.6644897,-0.75421906,-1.3517098,-1.3847961,-1.4090695,-1.3601351,-1.9874344,-1.7505932,-1.726366,-1.7046833,0.00043296325,0.00043296325,0.11469903,0.8395997,0.044835385
269251584,269152329,1.1490587,0.002179869,1.1618207,1.1046888,1.1474645,1.1493016,1.1502877,-1.9052987,-1.540184,-1.8261456,-1.8340721,-1.8384976,-2.8018093,-3.0958748,-3.052868,-3.042428,-3.031169,0.002622886,0.002622886,0.11147276,0.8366657,0.04661578
270259439,270159893,1.6046802,0.002100241,1.6046745,1.5850217,1.6056964,1.6050537,1.6044288,-3.196755,-3.026516,-3.2016935,-3.1990542,-3.195099,-3.2306585,-3.251873,-3.4576426,-3.449357,-3.426301,0.019951813,0.019951813,0.10172909,0.8077427,0.050624616
271256849,271157579,1.4831861,0.0016057024,1.484394,1.4779654,1.4850295,1.483302,1.4824955,-1.4698439,-1.4584703,-1.5119791,-1.5026951,-1.4932573,-2.4151802,-2.6072674,-2.704853,-2.675705,-2.6355686,0.1282249,0.061100226,0.06842025,0.682746,0.059508637
272254626,272155265,1.2461308,0.0015170339,1.2479665,1.242471,1.2472107,1.2453638,1.2445292,-1.0012292,-1.0127162,-1.0405743,-1.0331253,-1.0248227,-2.6358051,-2.8310623,-2.8396587,-2.8193321,-2.7947826,0.33980468,0.052461915,0.043232445,0.51001453,0.054486454
273252334,273152951,1.1466533,0.0015842712,1.1468543,1.1459563,1.1485476,1.1463077,1.1450471,-1.4877546,-1.5053048,-1.5203619,-1.5170571,-1.5114493,-3.4903631,-3.6582766,-3.634881,-3.6232233,-3.610096,0.642205,0.023528123,0.020782473,0.27884433,0.03464003
274260091,274160515,1.1107932,0.0016676827,1.1097791,1.114753,1.1188616,1.116065,1.113112,-1.9538696,-1.9606826,-1.9741077,-1.974313,-1.9714572,-3.5656385,-3.6909866,-3.6704988,-3.6626863,-3.6539888,0.83231556,0.008981778,0.009043726,0.13157018,0.018088738
275257815,275158201,1.1244836,0.0017410355,1.1237587,1.1328516,1.1350075,1.1319362,1.1287165,-1.9734755,-1.9673853,-1.9822142,-1.9847271,-1.9839509,-3.4817295,-3.5764694,-3.5633793,-3.5565758,-3.5488777,0.9103056,0.005915387,0.005961432,0.06779237,0.010025202
276255287,276155888,0.72432625,0.0017187252,0.7229201,0.73663163,0.7347227,0.73160595,0.728768,-1.247632,-1.1838894,-1.2197008,-1.2349977,-1.2418556,-4.8497467,-4.8532104,-4.8378687,-4.8489304,-4.861477,0.8587051,0.033703137,0.033703137,0.04018563,0.033703137
277253142,277153574,-0.070965596,0.001074229,-0.08099791,-0.06759136,-0.06722121,-0.0694482,-0.07253125,-1.5961914,-1.3688984,-1.4926395,-1.5273457,-1.5417576,-5.207294,-5.0899963,-5.0963964,-5.1221247,-5.1524043,0.17143913,0.2555093,0.22044688,0.18954253,0.16306213
278260542,278161137,-0.89728767,0.00047173197,-0.9025219,-0.8961121,-0.89624864,-0.8973049,-0.8986534,0.1432848,0.33107376,0.23198986,0.20619392,0.19572067,-3.977725,-3.9576368,-3.9676447,-3.974803,-3.9803,0.092120335,0.3308248,0.26216635,0.18600099,0.12888752
279258432,279158823,-1.6508763,0.0004025317,-1.6534039,-1.6491796,-1.6510173,-1.6517078,-1.6520832,-0.10548949,0.024680138,-0.04287815,-0.061727285,-0.069675446,-3.4809628,-3.524702,-3.576067,-3.5706158,-3.5487747,0.1167319,0.36221054,0.23185894,0.16557272,0.12362593
280256231,280156508,-1.919182,0.00039812212,-1.9231987,-1.9194952,-1.915843,-1.9166073,-1.9185532,0.5082984,0.5782237,0.52865124,0.51847506,0.51785755,-3.238779,-3.2971115,-3.3683777,-3.3585567,-3.3262558,0.20055439,0.39873388,0.16144086,0.12385456,0.11541635
281253426,281154193,-1.5993668,0.0004480316,-1.6002859,-1.5979518,-1.60002,-1.6004275,-1.6003518,1.4473624,1.4973693,1.4528446,1.4454255,1.4475088,-3.3570728,-3.384365,-3.4190369,-3.4149551,-3.4000092,0.2895377,0.38912877,0.11840516,0.096788846,0.10613947
282261015,282161756,-1.3059696,0.0005162712,-1.3069288,-1.3047359,-1.3061408,-1.3065374,-1.3066249,0.8653841,0.8994689,0.86868715,0.86355305,0.8650832,-3.0659676,-3.0602207,-3.0483704,-3.0510082,-3.0571365,0.31424084,0.36271724,0.11790849,0.09765664,0.10747674
283258981,283159440,-1.0159762,0.00058373576,-1.017383,-1.0151014,-1.015236,-1.0156702,-1.0161543,0.68195057,0.70565414,0.6833639,0.6798868,0.6812515,-2.737276,-2.7197323,-2.690565,-2.6954842,-2.7092285,0.29667637,0.35031268,0.13229457,0.108114146,0.11260215
284256501,284157124,-0.8163538,0.00064072956,-0.8181889,-0.8158691,-0.8150285,-0.81548256,-0.816262,0.39007092,0.40447712,0.3896675,0.38766956,0.3889017,-2.470396,-2.450613,-2.419344,-2.424406,-2.4389782,0.26500905,0.34041646,0.15367703,0.12261288,0.11828456
285254089,285154807,-0.7255217,0.0007052974,-0.7272173,-0.72498673,-0.7245644,-0.7249815,-0.7256049,0.035716057,0.04481983,0.034905434,0.03369999,0.03465557,-2.3702736,-2.3540745,-2.3291302,-2.333168,-2.3448105,0.23887604,0.33293363,0.17189957,0.13436076,0.12192987
286261919,286162368,-0.7091511,0.000787494,-0.7111976,-0.708957,-0.70779264,-0.70823044,-0.70908207,0.107933044,0.11476898,0.106882095,0.10598087,0.106842995,-2.0786219,-2.067277,-2.0499754,-2.0528154,-2.0609388,0.22178479,0.3273273,0.18466245,0.14229912,0.12392644
287259285,287160050,-0.7409905,0.0008776621,-0.7429228,-0.74074167,-0.7398415,-0.74026144,-0.74101907,0.057665825,0.063593864,0.056215286,0.055420876,0.056349754,-2.0569944,-2.0494165,-2.0379229,-2.0398436,-2.0452604,0.21059369,0.3230393,0.19355956,0.14771599,0.12509154
288257547,288157732,-0.7600541,0.00097225775,-0.761923,-0.759772,-0.75902015,-0.7594305,-0.76013595,0.20709705,0.2122364,0.20548344,0.20477867,0.2057066,-1.8762074,-1.8706474,-1.862257,-1.8636665,-1.86763,0.20360497,0.31987378,0.19945318,0.15127458,0.12579347
289254921,289155412,-0.752362,0.0010677683,-0.7542612,-0.7521101,-0.7513202,-0.75173116,-0.7524478,0.20017529,0.20474434,0.19847775,0.19783974,0.1987524,-1.7040768,-1.6999454,-1.6937332,-1.6947823,-1.6977177,0.199062,0.31756213,0.2034468,0.15367909,0.12624995
290252372,290153093,-0.74788225,0.0011635596,-0.7498013,-0.7476505,-0.7468366,-0.74724823,-0.74797165,0.18906116,0.19289875,0.18751049,0.18696976,0.1877842,-1.3942528,-1.3912563,-1.3867607,-1.3875237,-1.3896599,0.19597377,0.3158233,0.20625448,0.1553783,0.12657009
291260842,291160651,-0.6529339,0.0012617143,-0.655191,-0.6529521,-0.6515417,-0.65198207,-0.6529048,0.16380978,0.16558266,0.16330051,0.16305447,0.16338825,-1.1308079,-1.1272917,-1.1221018,-1.1229467,-1.1253691,0.19369061,0.31448936,0.20835379,0.15665254,0.12681364
292258052,292158330,-0.5498737,0.0013562834,-0.5524758,-0.55015117,-0.54813117,-0.5485997,-0.5497252,0.10123825,0.10113335,0.10173702,0.10176277,0.10164547,-0.9093399,-0.90545845,-0.89978313,-0.90067863,-0.9033079,0.19168557,0.31358132,0.2100781,0.15767193,0.12698306
293255238,293156008,-0.5732076,0.0014439601,-0.57426995,-0.57233465,-0.573111,-0.57344365,-0.5736352,0.123636246,0.12296772,0.12439442,0.124506,0.124258995,-0.6857672,-0.68186283,-0.6761427,-0.67702293,-0.6796541,0.18998227,0.3128892,0.21150927,0.15850778,0.12711146
294252983,294153686,-0.55867755,0.0015361487,-0.5596793,-0.55777043,-0.55863917,-0.55896527,-0.559123,0.09056759,0.09026241,0.09101486,0.09107876,0.09095287,-0.5614433,-0.5584135,-0.55394554,-0.5546341,-0.5566931,0.18875156,0.31234288,0.21256487,0.15912952,0.12721114
295261384,295161242,-0.58120286,0.0016324213,-0.58227307,-0.5803507,-0.5810918,-0.5814227,-0.5816214,-0.025367737,-0.025449753,-0.02510643,-0.025078773,-0.025130272,-0.7312412,-0.7293663,-0.72658634,-0.7270212,-0.72830486,0.18796284,0.3119605,0.21325725,0.15954,0.1272794
296258357,296158919,-0.5503663,0.0017302538,-0.55133265,-0.5494397,-0.5503616,-0.55068344,-0.55082136,0.0021247864,0.0020971298,0.0023059845,0.0023231506,0.0022964478,-0.42523766,-0.42397404,-0.42209244,-0.42238998,-0.42325974,0.18760014,0.31179023,0.213576,0.1597264,0.12730724
297256185,297156594,-0.5662617,0.0018280643,-0.5672793,-0.56537366,-0.5662041,-0.56652975,-0.56669843,-0.001405716,-0.0014753342,-0.0012273788,-0.0012111664,-0.0012378693,-0.32689,-0.32598686,-0.32463455,-0.32485008,-0.3254757,0.18740481,0.31170523,0.21374498,0.1598242,0.12732078
298253599,298154269,-0.5588818,0.0019262184,-0.55987453,-0.5579762,-0.5588496,-0.55917275,-0.55932677,-0.03201866,-0.032262802,-0.03173828,-0.031697273,-0.0317688,-0.17623806,-0.17554665,-0.1745081,-0.17467403,-0.17515564,0.1873283,0.3116692,0.2138125,0.1598636,0.1273264
299261970,299161822,-0.5800837,0.0020249637,-0.5811471,-0.57923037,-0.57997876,-0.5803077,-0.5805034,-0.07709408,-0.07747555,-0.07674217,-0.07668495,-0.0767889,-0.12344265,-0.12317276,-0.12276268,-0.122831345,-0.12303352,0.18730713,0.31164283,0.2138378,0.15988073,0.12733151
300259251,300159496,-0.56127125,0.0021244327,-0.56382024,-0.56154495,-0.55961007,-0.56006646,-0.56115454,-0.043391228,-0.04358101,-0.043175697,-0.043144226,-0.043193817,-0.039141655,-0.039413452,-0.039780617,-0.039726257,-0.039580345,0.1873087,0.31162977,0.21384215,0.15988524,0.12733418
301257264,301157169,-0.5416609,0.0022218523,-0.5442748,-0.5419814,-0.5399333,-0.5403956,-0.5415216,-0.06521797,-0.06587601,-0.06469345,-0.06459904,-0.06477356,0.131567,0.13153934,0.13153076,0.13153267,0.13151836,0.18730675,0.31161216,0.21385029,0.15989245,0.12733832
302254557,302154842,0.00085468375,0.0021785207,-0.0026947064,-0.00021513848,0.0036128983,0.0030819145,0.0013807839,-0.2267685,-0.23651123,-0.21988678,-0.21847343,-0.22130775,1.5263572,1.5328875,1.5425344,1.5411596,1.5368023,0.18927807,0.31245038,0.2121875,0.15890618,0.12717788
303262104,303162392,0.49894062,0.0013057957,0.49618655,0.49782237,0.50122243,0.5008559,0.49947444,-1.0661764,-1.0811214,-1.0533466,-1.0512257,-1.0562954,0.47584343,0.478055,0.47930908,0.47892094,0.4780712,0.19236217,0.30233514,0.21432452,0.16176791,0.12921016
304259659,304160064,0.74099517,0.0009078079,0.7390128,0.74009496,0.74265605,0.74240744,0.7414019,-0.68552494,-0.69449615,-0.67831993,-0.6770325,-0.67992973,-0.10862827,-0.11034012,-0.123166084,-0.12254238,-0.11827946,0.19179812,0.29576582,0.21739063,0.16451287,0.13053255
305257189,305157735,0.8036687,0.00079577364,0.8019441,0.8028147,0.8051448,0.8049394,0.80405015,-0.4208889,-0.42635632,-0.41582203,-0.415061,-0.41701794,-0.23869514,-0.24199677,-0.26230812,-0.26125526,-0.254385,0.19200666,0.29365376,0.21810293,0.16526514,0.13097148
306254750,306155406,1.1249475,0.0007916056,1.124399,1.124898,1.1252975,1.1251996,1.124973,-0.2858715,-0.28953075,-0.28129768,-0.280818,-0.28247643,0.03217697,0.026276588,-0.0052728653,-0.0035142899,0.0073080063,0.1934352,0.29415187,0.2169315,0.164582,0.1308994
307262883,307162952,1.9313279,0.0006732302,1.9316086,1.9317971,1.9309133,1.930898,1.931125,-1.2640781,-1.2663345,-1.2534533,-1.253325,-1.25669,-0.35274124,-0.36972237,-0.45215797,-0.44732857,-0.4187317,0.1919315,0.2893241,0.21976581,0.16695993,0.13201864
308260165,308160621,2.5469568,0.00054139487,2.5462,2.5465775,2.5476413,2.54755,2.5471475,-0.3926487,-0.39354515,-0.39182281,-0.39169216,-0.39194775,-0.48758698,-0.5031595,-0.5780897,-0.57368946,-0.5477066,0.20052156,0.2973159,0.2106717,0.16088097,0.13060986
309258175,309158290,3.0949466,0.00049996143,3.093582,3.0940905,3.096366,3.0962248,3.095427,-0.026029587,-0.030467987,-0.06437111,-0.0628376,-0.051546097,-0.49711466,-0.50718236,-0.55513,-0.55230165,-0.5356674,0.20875882,0.3055434,0.20194225,0.15486677,0.12888874
310255661,310155958,-3.0918596,0.00052357116,-3.0897295,-3.0902064,-3.0943322,-3.0941582,-3.092807,-0.23296738,-0.23802757,-0.27679253,-0.2750492,-0.26216888,0.18293265,0.17645888,0.14455362,0.14639223,0.15741281,0.21196645,0.30903795,0.19842173,0.15240884,0.128165
311252904,311153625,2.954873,0.00059049926,2.9536397,2.9540868,2.956199,2.9560726,2.9553356,-0.15353012,-0.15633774,-0.17670631,-0.1757679,-0.16895866,0.3153894,0.31092238,0.28840852,0.28968406,0.29743838,0.21199706,0.30942976,0.19819927,0.15223667,0.12813722
312260790,312161169,2.8111365,0.0006845543,2.8101692,2.8105385,2.8121576,2.8120556,2.8114848,-0.15054703,-0.15148926,-0.15699959,-0.1567173,-0.15480614,0.2977109,0.2948022,0.28004742,0.28087664,0.28594923,0.21100473,0.30854672,0.19916609,0.15291068,0.12837185
313258386,313158835,2.6632788,0.0007816993,2.6647162,2.6644216,2.6616123,2.6617246,2.6626348,-0.22527409,-0.2253046,-0.22392845,-0.22396088,-0.22432232,0.15894985,0.15709352,0.14764929,0.14817429,0.15140867,0.21033226,0.30788377,0.19985218,0.15339257,0.12853919
314255796,314156500,2.639127,0.00087662943,2.6404953,2.6402197,2.6375446,2.6376503,2.6385162,-0.26850986,-0.26818657,-0.26433563,-0.2644968,-0.26568222,0.29231358,0.29115152,0.28520536,0.2855339,0.28755903,0.20976594,0.30729768,0.20044395,0.15380913,0.12868327
315253737,315154165,2.6918886,0.00097233255,2.6934068,2.6930904,2.6901472,2.690266,2.6912222,-0.23941135,-0.23911953,-0.23587227,-0.23602009,-0.23701572,0.30742693,0.30656338,0.30217743,0.3024149,0.30390692,0.20918033,0.3066798,0.20106225,0.15424408,0.12883355
316261287,316161707,2.7055528,0.0010706342,2.7071095,2.706783,2.703774,2.703896,2.7048745,-0.41662598,-0.41654682,-0.4153471,-0.4154148,-0.41574478,0.16309023,0.16235352,0.15866995,0.15886736,0.16011953,0.20882267,0.30629647,0.20144252,0.15451078,0.12892744
317258897,317159371,2.7741108,0.0011692106,2.7758427,2.7754688,2.772143,2.7722797,2.7733648,-0.562562,-0.5625057,-0.5617552,-0.5618057,-0.5619993,0.366951,0.36642885,0.36386013,0.36399364,0.3648634,0.2085156,0.3059724,0.20176706,0.15473671,0.12900823
318256597,318157035,2.7119908,0.0012650371,2.7112594,2.7115598,2.7127368,2.7126567,2.7122352,-0.49425507,-0.49468517,-0.49814796,-0.49802113,-0.49683666,-0.15574265,-0.15620518,-0.15843964,-0.15832472,-0.15757132,0.20872977,0.30620286,0.20153895,0.15457122,0.12895726
319254383,319154698,-2.9317365,0.0013266791,-2.9297779,-2.9302216,-2.9339936,-2.9338334,-2.932595,-0.5799074,-0.5821705,-0.60101986,-0.60023975,-0.5940075,0.007585883,0.006676644,0.0022436678,0.002487272,0.0039999783,0.21088907,0.30861202,0.19919698,0.1529014,0.12840056
320261803,320162238,3.0148244,0.0013492489,3.013395,3.0138829,3.016388,3.0162463,3.0153816,-0.28502083,-0.2866907,-0.3006916,-0.3001175,-0.2954836,0.16160262,0.16101877,0.1581035,0.15825936,0.15924072,0.21243107,0.3103651,0.1975096,0.15169704,0.12799716
321259470,321159901,2.3755257,0.0014043679,2.3756642,2.375714,2.3753114,2.3753107,2.375422,0.24559498,0.2477684,0.2656927,0.2648945,0.2590456,0.5533824,0.55373526,0.5556426,0.5555291,0.5548539,0.21280234,0.3108072,0.1970911,0.15139914,0.12790029
322257232,322157563,2.3826385,0.0013462869,2.3825793,2.3826752,2.3826551,2.3826373,2.382623,0.03405857,0.036496162,0.056531906,0.05563736,0.049096107,0.20664787,0.20731735,0.21108246,0.2108736,0.20956135,0.21416242,0.312294,0.19562484,0.15036327,0.12755546
323254822,323155224,2.7094522,0.0013840145,2.7082896,2.708691,2.7107394,2.7106218,2.709915,0.0029277802,0.0039873123,0.01255703,0.01215744,0.0093746185,0.25641346,0.25571346,0.2519865,0.25218678,0.2534294,0.21417956,0.31232423,0.1955958,0.15034397,0.1275565
324262037,324162764,2.724608,0.001464576,2.7257476,2.7255037,2.7232544,2.7233446,2.7240777,0.24559975,0.24570465,0.24635315,0.2462902,0.24611282,0.2622919,0.26130438,0.25602484,0.25630808,0.25808048,0.21385777,0.3120212,0.19591568,0.15057003,0.1276353
325260128,325160425,2.7904823,0.0015593444,2.7917895,2.791499,2.7889385,2.789044,2.7898812,0.30947304,0.3095131,0.30958176,0.3095436,0.30956078,0.1491046,0.14857388,0.14583254,0.14597797,0.14688635,0.21363589,0.31180817,0.19613756,0.15072885,0.12768948
326257774,326158086,2.7289624,0.0016560284,2.727777,2.7281814,2.730272,2.7301526,2.7294328,0.36840153,0.36838818,0.36794662,0.36792946,0.3681097,0.13896751,0.13893127,0.13892174,0.13891792,0.13889313,0.21353668,0.31169793,0.1962419,0.15080775,0.12771572
327254987,327155749,2.6793306,0.0017537711,2.678277,2.6786447,2.6804895,2.680382,2.6797447,0.22670555,0.22683811,0.22756577,0.22749805,0.22729206,0.3066969,0.3067417,0.30717897,0.30715132,0.30697727,0.21357577,0.31173438,0.1962005,0.15078239,0.12770696
328262557,328163285,2.6912804,0.0018517434,2.6923409,2.6921191,2.6900182,2.6901016,2.6907854,0.20119858,0.20141602,0.20285988,0.20276451,0.2023201,0.12460852,0.124522686,0.12424898,0.12426281,0.12432909,0.21372953,0.31189987,0.19603482,0.15066822,0.12766755
329260503,329160945,2.7210455,0.0019487316,2.7221832,2.72194,2.7196934,2.719784,2.720516,0.3910923,0.3913622,0.39324474,0.39312935,0.3925438,0.07734871,0.07723904,0.07683182,0.0768528,0.07696438,0.21385579,0.31203774,0.19589846,0.15057425,0.12763375
330258173,330158605,2.715961,0.0020464081,2.7170842,2.7168453,2.7146244,2.7147133,2.715437,0.36811638,0.36825848,0.36908627,0.3690195,0.36877823,-0.017578125,-0.017469883,-0.016667843,-0.016715527,-0.017013073,0.21397372,0.3121584,0.19577539,0.15049097,0.1276016
331255552,331156265,2.7330985,0.0021412987,2.7342668,2.734015,2.7317107,2.7318037,2.7325554,0.38113213,0.3811512,0.38098907,0.3809595,0.38105297,-0.27653503,-0.27618122,-0.27401018,-0.27413273,-0.2748947,0.21394147,0.31211993,0.19581126,0.1505205,0.12760687
332253149,332153924,2.7681699,0.002230097,2.7694285,2.769152,2.7666812,2.766783,2.76759,0.23288155,0.23270226,0.23092747,0.23096466,0.23159027,-0.34138584,-0.3409233,-0.33814573,-0.33829832,-0.3392682,0.21362469,0.3117814,0.19614744,0.15076166,0.12768486
333260984,333161461,2.7684727,0.002314042,2.7697382,2.7694602,2.7669804,2.7670825,2.7678928,0.1234951,0.12324715,0.120928764,0.12099171,0.12180042,-0.23835707,-0.23792982,-0.2353406,-0.23548222,-0.23638678,0.21327971,0.31141773,0.19651176,0.15102085,0.12777
334258709,334159120,2.7643762,0.0024033647,2.7656364,2.7653599,2.762892,2.7629936,2.7638004,-0.13087654,-0.1310072,-0.13234806,-0.13232994,-0.13184452,-0.41979647,-0.41954565,-0.4179387,-0.41802406,-0.4185934,0.21308291,0.3112168,0.19671825,0.15116549,0.12781656
335256514,335156779,2.75696,0.0024999385,2.7582028,2.7579315,2.755495,2.7555952,2.7563918,-0.14814854,-0.14821815,-0.14900684,-0.14900875,-0.14871025,-0.26649857,-0.2666211,-0.26710033,-0.26707125,-0.26692963,0.213052,0.3111821,0.19675425,0.15118943,0.12782215
336253768,336154440,2.775914,0.0025888158,2.7772067,2.7769206,2.7743902,2.7744946,2.7753227,0.06391525,0.06394005,0.06388092,0.0638504,0.0639019,-0.43366385,-0.43427467,-0.437459,-0.4372821,-0.43622065,0.21333013,0.3114522,0.19647332,0.15099141,0.12775293
337261228,337161974,2.6659184,0.0026644594,2.6649299,2.6652784,2.6670067,2.6669047,2.6663063,0.36777878,0.36823082,0.37167358,0.37148094,0.3703785,-0.25082016,-0.25115585,-0.25279713,-0.25270557,-0.25216866,0.21391664,0.31202897,0.1958746,0.15057477,0.12760493
338259740,338159633,2.3736987,0.0026210616,2.3735678,2.3736737,2.3738055,2.3737817,2.3737206,0.8703995,0.8719883,0.88469887,0.88409996,0.87994957,-0.30576038,-0.30493546,-0.3000784,-0.30033875,-0.3020134,0.2155224,0.31381094,0.1941463,0.14935103,0.12716937
339256976,339157291,2.1482935,0.0021813314,2.1487274,2.1486604,2.147744,2.1477733,2.1480694,0.740222,0.7422724,0.7585926,0.75784683,0.75249577,-0.44409752,-0.44177914,-0.4278803,-0.42861462,-0.43333435,0.21766023,0.31631726,0.19179308,0.14766893,0.1265605
340254700,340154949,1.8812824,0.001638347,1.8824588,1.8821646,1.8798525,1.8799531,1.880722,0.7609515,0.76320314,0.78042126,0.77962637,0.7739501,-0.46119118,-0.45684433,-0.4300213,-0.43140984,-0.4404564,0.21888168,0.31791937,0.190366,0.14663877,0.12619425
341261740,341162485,1.6782556,0.0011551237,1.6801065,1.6796068,1.676034,1.6761991,1.6773932,0.43911374,0.44136858,0.4576304,0.45685565,0.45147467,-0.19957542,-0.19483376,-0.165102,-0.16662788,-0.17663193,0.21854776,0.31786686,0.19054876,0.1467632,0.12627347
342260186,342160142,1.3275979,0.0009969797,1.3295696,1.3290272,1.3252256,1.3254029,1.3266726,0.4837544,0.48545146,0.49738836,0.49680662,0.4928677,-0.14382553,-0.13905907,-0.109134674,-0.11066818,-0.12073517,0.21923903,0.31868723,0.18976465,0.14621082,0.12609832
343257567,343157799,1.1755538,0.0008470287,1.1775492,1.1769925,1.173145,1.173326,1.1746106,0.21908951,0.21959925,0.2230835,0.22289705,0.22178173,0.046527863,0.050201416,0.073280334,0.07209587,0.06432533,0.21994285,0.31946814,0.18899344,0.14567104,0.12592457
344255169,344155457,0.8861614,0.0007788961,0.88751376,0.88713706,0.8845255,0.8846475,0.8855182,0.08836746,0.08722496,0.07928753,0.07964611,0.08235359,0.07230282,0.075118065,0.09271717,0.09181595,0.08588505,0.22022474,0.31977057,0.18868573,0.14545877,0.12586017
345262875,345162991,0.6241718,0.00073833304,0.6247396,0.6245859,0.62348205,0.6235324,0.623899,-0.013176918,-0.016476631,-0.039100647,-0.038033485,-0.030405998,0.02009201,0.022298813,0.03612423,0.035419464,0.030755997,0.22021656,0.319781,0.18866983,0.14545408,0.12587847
346260704,346160648,0.36260915,0.0007233506,0.36239776,0.36246717,0.36286423,0.362843,0.3627078,-0.18662643,-0.19137192,-0.22380257,-0.22226143,-0.21134567,0.09016657,0.09203863,0.10391712,0.10331488,0.0993042,0.22341114,0.32313597,0.18532723,0.14308085,0.1250448
347257773,347158305,0.12934302,0.00071585056,0.12857102,0.12880626,0.13032442,0.13024966,0.12973891,-0.35220718,-0.3584404,-0.4008255,-0.39881706,-0.38456154,0.24240398,0.24410963,0.25512743,0.2545817,0.25085235,0.22827283,0.3281982,0.1802889,0.13949282,0.12374726
348256531,348155961,-0.072753474,0.00072046556,-0.07383095,-0.073499575,-0.0713243,-0.07143035,-0.072162025,-0.48598862,-0.492033,-0.5330486,-0.5310917,-0.51732063,0.38544405,0.38689357,0.39638567,0.3959214,0.39270473,0.2338301,0.3338858,0.17462169,0.13544291,0.12221939
349262877,349163495,-0.33890525,0.0007114184,-0.34000534,-0.3396625,-0.33739415,-0.33750454,-0.3382685,-0.09272385,-0.09840584,-0.13686371,-0.13502884,-0.12212753,0.66187286,0.66250277,0.66666937,0.66646624,0.6650367,0.23848395,0.33859974,0.16992356,0.132077,0.12091577
350260855,350161150,-0.54879916,0.0007162718,-0.54968566,-0.5494096,-0.54757833,-0.54766726,-0.54828554,0.13337612,0.1286354,0.0965395,0.098073006,0.10882568,0.6817732,0.68140316,0.6789408,0.67905426,0.6798525,0.23870428,0.33888522,0.16964026,0.13188325,0.12088696
351258571,351158806,-0.76418674,0.0007407428,-0.76460344,-0.76447415,-0.76361954,-0.76366115,-0.7639519,0.07470322,0.07059765,0.042808533,0.04413891,0.053437233,0.8119707,0.81042385,0.8001528,0.8006458,0.8040657,0.23693244,0.33718523,0.1713373,0.1331133,0.121431716
352256038,352156461,-1.0030348,0.0007270578,-1.002832,-1.0028913,-1.0032948,-1.0032754,-1.0031433,0.37520218,0.37195206,0.3499546,0.35100937,0.35836506,0.8899069,0.8865261,0.86400986,0.86509323,0.8726196,0.22868562,0.32900533,0.17948538,0.13897826,0.123845406
353253520,353154116,-1.2688962,0.0007469218,-1.2679834,-1.2682449,-1.2699997,-1.2699147,-1.2693291,0.46309662,0.46027184,0.4411521,0.44206715,0.4484644,1.0265923,1.022192,0.9928932,0.99430656,1.0041046,0.22028813,0.3204587,0.1879892,0.1450646,0.12619929
354260997,354161649,-1.5087873,0.00072477193,-1.5072776,-1.5076873,-1.5104289,-1.5102965,-1.5093805,0.64013255,0.6379399,0.6231025,0.6238066,0.62877655,0.8368969,0.83161354,0.79634666,0.79803467,0.8098507,0.20570041,0.30510446,0.20325306,0.15590559,0.13003653
355258578,355159303,-1.7507902,0.0007185163,-1.7489892,-1.7494596,-1.7525984,-1.7524474,-1.7513994,0.61715317,0.61580276,0.60662174,0.60704803,0.61013556,0.68047523,0.67519,0.63994026,0.6416416,0.6534519,0.19491999,0.29335326,0.21493983,0.16413589,0.1326511
356256306,356156957,-1.9847256,0.0007097376,-1.9830172,-1.9834545,-1.98636,-1.9862205,-1.9852518,0.83626556,0.83621025,0.83568764,0.83569145,0.8358898,0.5128803,0.50818634,0.47686005,0.4783783,0.4888897,0.18857093,0.28627756,0.22198337,0.16906917,0.1340989
357253871,357154611,-2.239232,0.0006930632,-2.238077,-2.2383723,-2.2403283,-2.2402346,-2.2395842,0.7310505,0.73297024,0.74557686,0.7449465,0.7407417,0.11200142,0.10797024,0.08107567,0.08237839,0.091407776,0.18765855,0.2852735,0.2229746,0.16977301,0.13432032
358261568,358162142,-2.589871,0.00066988735,-2.589893,-2.5898879,-2.5898473,-2.58985,-2.5898678,0.57408714,0.57841873,0.60710907,0.60570526,0.5961113,0.048783302,0.04538822,0.022778511,0.023875237,0.031464577,0.19103755,0.2891267,0.21911903,0.16710299,0.13361366
359259423,359159796,-2.9085333,0.00066806417,-2.9094496,-2.9092095,-2.9076064,-2.907684,-2.908225,0.4881382,0.49412727,0.5338898,0.53195,0.5186615,0.059701443,0.056709766,0.03680134,0.037763596,0.04443741,0.19554666,0.29422536,0.21402906,0.1635634,0.13263553
360256995,360157449,3.0858297,0.0006415725,3.0844269,3.0848012,3.0873,3.0871782,3.0863373,0.27474403,0.28191376,0.32959366,0.32727623,0.31134605,-0.16346848,-0.16595757,-0.1824925,-0.18169105,-0.17616415,0.20029438,0.29958543,0.20868555,0.15984224,0.13159236
361254931,361155102,2.7600176,0.0006284733,2.7587068,2.759059,2.7614143,2.7612991,2.7605054,-0.16289139,-0.15626907,-0.11228371,-0.114421844,-0.12910652,-0.13067341,-0.13215113,-0.14191866,-0.14144754,-0.13820219,0.20239434,0.301999,0.20628023,0.15817347,0.13115296
362261909,362162632,2.4130456,0.0005955335,2.4123788,2.4125583,2.413752,2.4136922,2.4132893,-0.2735262,-0.26809597,-0.2320137,-0.23375893,-0.24579811,0.18916607,0.1901226,0.19655895,0.19623852,0.19404411,0.20146689,0.301091,0.2071764,0.15882467,0.13144113
363259825,363160284,2.2423174,0.00060974906,2.2420912,2.2421527,2.242556,2.2425349,2.2423978,-0.3104515,-0.306015,-0.27657127,-0.2779951,-0.28781796,0.13431549,0.13691711,0.15437317,0.15351295,0.14762688,0.20081423,0.3004319,0.20782651,0.15929331,0.13163415
364257612,364157936,1.8643175,0.0006229408,1.8651361,1.8649181,1.8634467,1.8635166,1.8640096,0.069479465,0.073040485,0.09664345,0.09549618,0.08762312,0.3306713,0.33550262,0.36776543,0.36618614,0.35534286,0.2021629,0.30197462,0.20628844,0.15822491,0.13134904
365254832,365155587,1.611824,0.00062870106,1.6130711,1.6127319,1.6104497,1.6105587,1.6113242,-0.07430768,-0.07126117,-0.0511384,-0.05212164,-0.058837414,0.3962555,0.40249062,0.44418144,0.44214058,0.42813492,0.20691553,0.30723214,0.20106125,0.15455827,0.13023275
366262470,366163116,1.3777615,0.0006263079,1.3791804,1.3787879,1.3761525,1.3762789,1.3771625,0.09517074,0.09735012,0.11164069,0.11093426,0.10616851,0.35874557,0.3649292,0.4061699,0.40415192,0.39029694,0.21078333,0.3115053,0.1968159,0.15157767,0.12931783
367260068,367160767,1.1109264,0.0006364617,1.112082,1.1117558,1.1095732,1.109678,1.1104093,-0.14969444,-0.14865494,-0.14200878,-0.14234924,-0.14455223,0.40848732,0.41422653,0.45254707,0.45066452,0.43779755,0.21525997,0.3163387,0.19201785,0.14818868,0.12819476
368258145,368158418,0.8966361,0.00066661986,0.8973451,0.8971431,0.89579034,0.8958553,0.8963083,-0.056505203,-0.05663109,-0.057795525,-0.057759285,-0.05734825,0.277318,0.28221607,0.3149786,0.31337357,0.30236244,0.21777831,0.31903565,0.1893427,0.14629436,0.12754901
369255604,369156069,0.61579883,0.00068446633,0.6157582,0.61577034,0.6158482,0.6158445,0.61581874,-0.13862324,-0.14028835,-0.15178776,-0.15124798,-0.14736843,0.28424454,0.2881012,0.3139391,0.31267643,0.30397892,0.22124565,0.32269976,0.18571164,0.14371194,0.12663107
370262917,370163596,0.41984028,0.0006857001,0.41929984,0.41945904,0.4205233,0.42047203,0.42011678,-0.3078518,-0.31138802,-0.3354206,-0.33427048,-0.32618713,0.34294033,0.34593058,0.36599827,0.36501455,0.35825396,0.22584188,0.3275063,0.18095268,0.14031588,0.12538329
371260903,371161246,0.17401269,0.00072764925,0.1729871,0.1732923,0.17533523,0.1752368,0.1745539,-0.13345146,-0.13755608,-0.1653328,-0.16400719,-0.15465927,0.07947159,0.08195591,0.09868479,0.09785938,0.092222214,0.2285678,0.330335,0.17815189,0.13831368,0.12463161
372258283,372158896,-0.06177673,0.00072728144,-0.06308658,-0.06269181,-0.06004194,-0.06016949,-0.061056755,-0.08293724,-0.08798599,-0.12208748,-0.12045288,-0.10898781,0.32407928,0.32594848,0.33855462,0.33792132,0.3336665,0.23215503,0.33404922,0.17447488,0.13568364,0.123637214
373255798,373156545,-0.22546087,0.00073971605,-0.22685291,-0.22643012,-0.22358578,-0.2237226,-0.22467619,0.010381699,0.0056037903,-0.026525497,-0.024982452,-0.014186859,0.49523783,0.49643517,0.50449514,0.5040755,0.5013442,0.2344091,0.3363744,0.17216909,0.13403612,0.123011336
374253775,374154194,-0.45473257,0.0007708711,-0.45585626,-0.45551452,-0.45320797,-0.45331872,-0.45409316,-0.04922104,-0.053631783,-0.08320904,-0.08178425,-0.071852684,0.5110731,0.5115385,0.51466274,0.5144787,0.5133996,0.23530306,0.3373062,0.17124133,0.13337794,0.12277149
375261326,375161721,-0.6813416,0.0007821751,-0.6820346,-0.6818253,-0.6804031,-0.6804715,-0.6809496,0.10297775,0.09915161,0.073446274,0.074682236,0.083312035,0.71009254,0.7093229,0.70415497,0.70436573,0.7060671,0.23480332,0.336847,0.17168757,0.13371462,0.12294756
376258654,376159369,-0.90866065,0.0007677831,-0.9087967,-0.9087579,-0.9084797,-0.9084924,-0.9085875,0.25263977,0.2494812,0.22827435,0.22929001,0.23640823,0.77605534,0.77344894,0.755949,0.7567539,0.76258755,0.23086967,0.3329413,0.17554082,0.13651104,0.12413723
377256651,377157018,-1.1392081,0.0007866399,-1.1386946,-1.138848,-1.139856,-1.1398063,-1.1394703,0.21365976,0.21087456,0.19215012,0.19304371,0.19932508,0.724432,0.72060776,0.69493675,0.6961422,0.70471,0.22566266,0.32768032,0.18073465,0.1402595,0.12566276
378254247,378154666,-1.3703549,0.00078684103,-1.3692594,-1.3695737,-1.3716569,-1.3715553,-1.3708593,0.4253695,0.42301273,0.40711284,0.40786695,0.413198,0.6917038,0.6869526,0.655077,0.65658,0.66723824,0.21714666,0.3188938,0.18940435,0.14648603,0.1280692
379261441,379162191,-1.601899,0.000762488,-1.6003292,-1.6007624,-1.6036383,-1.6034992,-1.6025383,0.52891827,0.52715015,0.5151129,0.51567745,0.5197153,0.63323593,0.62784195,0.5915642,0.5932808,0.60541916,0.20744641,0.30862585,0.19952995,0.1537143,0.13068359
380259226,380159839,-1.8486139,0.00075555,-1.8469487,-1.8473974,-1.8503748,-1.8502312,-1.8492382,0.6085024,0.60758305,0.6011658,0.60145473,0.60361624,0.5761738,0.571064,0.5366039,0.53824425,0.549778,0.20114827,0.30180472,0.20625311,0.15848996,0.13230397
381257101,381157486,-2.1394663,0.0007660558,-2.1383042,-2.1386147,-2.140668,-2.1405692,-2.1398869,0.6043043,0.60438824,0.6046581,0.60462666,0.6045494,0.39324856,0.38862228,0.35746002,0.358943,0.36938477,0.19829284,0.29867396,0.20933461,0.16067578,0.13302277
382254446,382155133,-2.3800585,0.0007225576,-2.3794577,-2.3796182,-2.3806791,-2.3806293,-2.3802783,0.41554642,0.41796684,0.43382072,0.433033,0.4277439,0.016716957,0.0128240585,-0.013464928,-0.012214661,-0.003399849,0.1983746,0.29879412,0.20920084,0.16059712,0.13303326
383261925,383162658,-2.7110176,0.00071778696,-2.7114484,-2.7113335,-2.71056,-2.7105994,-2.7108612,0.30807304,0.31271172,0.34342575,0.34192657,0.3316574,0.110100746,0.10665655,0.083395004,0.08450413,0.09229326,0.20066121,0.30135316,0.20666222,0.15881819,0.13250528
384259766,384160305,-3.0093365,0.000678294,-3.0071328,-3.0077407,-3.0118105,-3.0116155,-3.010254,0.68510437,0.69088936,0.7293472,0.72747993,0.7146263,-0.2867763,-0.28894103,-0.30357134,-0.30289102,-0.29800653,0.20897633,0.31049576,0.1976207,0.15243952,0.13046776
385257208,385157951,-2.4244413,0.0007436016,-2.424279,-2.424325,-2.4246323,-2.42462,-2.4245203,1.834445,1.8358068,1.8446856,1.844244,1.8412943,-0.56172895,-0.56154203,-0.5604229,-0.5605197,-0.560935,0.21695426,0.3189997,0.18922886,0.14646637,0.12835085
386254873,386155597,-1.5782365,0.0007438047,-1.5760846,-1.5767074,-1.5808696,-1.5806695,-1.5792773,2.1946747,2.194218,2.1908598,2.1910052,2.1921625,1.5319681,1.5355129,1.5591097,1.557909,1.5499411,0.22090623,0.32307106,0.1851462,0.14358298,0.12729348
387262372,387163121,-1.0258946,0.00064580626,-1.0244768,-1.0249127,-1.0278391,-1.0276977,-1.0267164,1.0049353,1.0067756,1.0187297,1.018142,1.0141752,1.7515111,1.7552447,1.7800965,1.7788429,1.7704606,0.2366764,0.33903882,0.16928968,0.13220996,0.12278507
388260016,388160767,-0.9518752,0.0006399198,-0.9515785,-0.95167536,-0.9523116,-0.9522817,-0.95207036,0.2690599,0.27431726,0.30917192,0.3074758,0.2958243,1.3008449,1.3026426,1.3145425,1.3139307,1.3099024,0.24747612,0.34956154,0.15882051,0.12463139,0.11951046
389258439,389158412,-0.5409092,0.0006809357,-0.54105234,-0.5410038,-0.54068357,-0.54069924,-0.54080594,1.2482913,1.2533526,1.2869112,1.285279,1.2740564,0.66006577,0.6617312,0.67269236,0.6721239,0.6684108,0.25677028,0.35836148,0.1500561,0.11824026,0.11657188
390255574,390156058,0.66366327,0.00075782766,0.66444737,0.66417974,0.66238034,0.6624671,0.6630715,1.605402,1.608351,1.6278391,1.6268845,1.6203691,0.17612505,0.17688215,0.18176985,0.18149531,0.1798197,0.26154914,0.3627714,0.14565289,0.115012415,0.115014195
391262856,391163581,0.95912755,0.0008209907,0.9590726,0.95909303,0.9592263,0.9592198,0.95917606,1.7085385,1.7110219,1.727355,1.7265527,1.7210958,0.60189396,0.6035772,0.61460054,0.61402607,0.6102962,0.2763065,0.37582943,0.13252056,0.10532067,0.11002277
392260580,392161226,1.283388,0.00088432385,1.2848345,1.2842743,1.2805406,1.2807206,1.2819705,1.9307027,1.9334307,1.951376,1.9504974,1.9444973,0.56197137,0.56384885,0.5761232,0.575486,0.57133913,0.28826842,0.38585663,0.12232219,0.09773379,0.10581898
393258804,393158871,1.0515385,0.0009475922,1.0525477,1.05214,1.0494272,1.049558,1.050466,1.7575595,1.7591345,1.7693493,1.7688434,1.7654326,0.82292086,0.8247503,0.83666635,0.8360441,0.83201486,0.29702598,0.39284915,0.11511781,0.092343085,0.10266397
394256212,394156516,0.500883,0.0010182639,0.5006613,0.5007528,0.5013649,0.5013357,0.50113153,1.4764993,1.4777224,1.4855969,1.4852054,1.4825785,0.9392813,0.94080853,0.9507023,0.9501786,0.9468274,0.302473,0.39703628,0.11075132,0.08906454,0.100674815
395253866,395154161,0.2715222,0.001097843,0.27285752,0.2722911,0.26849875,0.2686827,0.26995635,1.2017019,1.2029278,1.2108023,1.2104104,1.2077796,1.0607958,1.0620087,1.0698011,1.06938,1.0667336,0.30800542,0.4011597,0.10640528,0.085792944,0.09863668
396261189,396161685,0.22239156,0.0011776413,0.2237498,0.22315682,0.21919027,0.2193826,0.22071458,0.90826297,0.9095876,0.91815734,0.91773486,0.9148629,1.0297868,1.0307394,1.0367928,1.0364573,1.0343941,0.31375965,0.40531963,0.101975694,0.08244758,0.096497424
397259447,397159330,0.25341606,0.0012645589,0.25472105,0.2541418,0.2502665,0.2504546,0.2517562,1.047921,1.0489347,1.0554492,1.0551231,1.0529397,1.0032073,1.0039259,1.0084198,1.0081613,1.0066206,0.3171215,0.407682,0.09943207,0.080522895,0.095241554
398256697,398156975,0.26505074,0.0013570968,0.26632884,0.26575533,0.26191843,0.26210463,0.26339343,0.8793981,0.8803985,0.8868339,0.88651204,0.8843539,0.94512993,0.94572157,0.94937915,0.9491632,0.9479039,0.3193002,0.4091811,0.097802885,0.07928912,0.09442676
399254660,399154621,0.22066759,0.0014472349,0.22197667,0.22138238,0.21740773,0.21760066,0.2189354,0.68022776,0.6812706,0.68798494,0.6876478,0.6853943,0.88282603,0.8833393,0.88647825,0.88628864,0.8852038,0.3215902,0.41073555,0.096104495,0.07800158,0.09356825
400261711,400162144,0.060307,0.0015363285,0.059622794,0.059936423,0.06203406,0.06193341,0.06123184,0.6738081,0.6745367,0.6791568,0.67891836,0.6773701,0.8756975,0.8761252,0.8786912,0.87852937,0.8776363,0.32365906,0.4121112,0.09458541,0.07685028,0.09279401
401259885,401159789,-0.009407154,0.0016302902,-0.010099877,-0.009780683,-0.0076449835,-0.0077474364,-0.008461821,0.6793761,0.6801386,0.68500423,0.68475056,0.68312454,0.9027772,0.9031407,0.9052774,0.90513676,0.90438795,0.3247503,0.4128221,0.09379061,0.076249026,0.09238796
402256807,402157435,-0.052682422,0.0017230919,-0.053367473,-0.053049907,-0.050924774,-0.05102674,-0.051737674,0.47102427,0.47162604,0.47541738,0.47521472,0.47394872,0.9099349,0.91027534,0.9122586,0.91212535,0.91142774,0.32597023,0.41360182,0.09290794,0.0755827,0.09193738
403254867,403155081,0.02586274,0.0018195817,0.027250735,0.026603375,0.02228323,0.022492709,0.023942303,0.39524722,0.39591336,0.40014005,0.39991498,0.39850163,0.9147512,0.91503954,0.916675,0.9165586,0.91597754,0.32669762,0.41406003,0.09238399,0.075187914,0.0916706
404261903,404162605,0.008505863,0.0019120062,0.009890957,0.009242093,0.0049127727,0.005122652,0.006575249,0.26451707,0.26513505,0.26906514,0.26884913,0.26754117,0.8755641,0.8757848,0.8769691,0.8768741,0.8764444,0.3275544,0.4145906,0.0917694,0.07472619,0.09135939
405259669,405160253,0.033610683,0.0020040807,0.034988,0.034341108,0.030023789,0.030233085,0.031681824,0.18094325,0.18163109,0.18602967,0.18579268,0.18432498,0.9206945,0.9208557,0.921644,0.92156786,0.921271,0.32810917,0.4149242,0.09137399,0.07443082,0.09116187
406257232,406157899,0.041448582,0.002095776,0.04282119,0.042175148,0.037863053,0.038072113,0.039519146,0.20685291,0.20753121,0.21186447,0.21163106,0.21018338,0.9499521,0.9500792,0.95063883,0.95057386,0.9503537,0.3285495,0.4151815,0.09106184,0.07419892,0.09100824
407255186,407155546,0.021103468,0.002182993,0.022478653,0.021831328,0.017511101,0.017720401,0.019169996,0.18768263,0.1884687,0.19353843,0.19326925,0.19157386,0.9730648,0.9729422,0.9718316,0.97184724,0.97218627,0.32857707,0.41517118,0.09104682,0.07419318,0.0910117
408262457,408163072,0.14178663,0.00224457,0.1431152,0.14249015,0.13831031,0.1385125,0.13991559,0.44866407,0.44943023,0.4543699,0.45410872,0.45245624,0.756794,0.7564991,0.75423783,0.75430965,0.7550342,0.32875997,0.4152476,0.090922944,0.0741075,0.090962
409260047,409160719,0.16573514,0.002311303,0.16512927,0.16541563,0.16732283,0.1672304,0.16659203,0.7597259,0.76028395,0.7638382,0.7636459,0.76245916,0.52087235,0.5206644,0.5189843,0.5190285,0.5195582,0.3291797,0.41548875,0.09062758,0.073888466,0.09081546
410257813,410158367,0.18730037,0.0023805655,0.18672241,0.18699555,0.18881154,0.1887231,0.18811487,1.3135283,1.3134329,1.3126256,1.3126452,1.3129208,0.65650225,0.65611374,0.6532346,0.6533377,0.65426874,0.32891434,0.41526824,0.09082942,0.074051656,0.09093642
411255629,411156015,0.25102732,0.0024489919,0.25228304,0.2516996,0.24778675,0.24797529,0.24928807,1.6625249,1.6616018,1.655246,1.6555333,1.6576695,0.8726826,0.87240696,0.8702836,0.87035084,0.8710282,0.32681146,0.41380796,0.092367016,0.07524042,0.09177319
412262814,412163541,0.19398049,0.0025334537,0.19528782,0.19468439,0.19063663,0.19083115,0.19218841,1.5799932,1.5804205,1.5830927,1.5829471,1.58206,1.4130154,1.4131708,1.4139258,1.4138538,1.413568,0.32563055,0.4128981,0.09325648,0.075941496,0.09227334
413260767,413161191,0.22638458,0.002604953,0.22764546,0.22705656,0.22310361,0.22329338,0.22461897,1.3215636,1.3225667,1.3290923,1.3287623,1.3265862,1.3526676,1.3530092,1.3550009,1.3548687,1.354169,0.32805666,0.41447058,0.091506004,0.07461025,0.091356516
414258120,414158840,0.34525645,0.0026049977,0.34633753,0.34582028,0.342343,0.34250996,0.34367654,1.0441885,1.0455551,1.0545093,1.0540634,1.0510749,1.0569618,1.0574242,1.0602165,1.0600462,1.0590782,0.33294302,0.41761565,0.08801744,0.07194256,0.08948141
415256187,415156490,0.35150382,0.0026327998,0.35107094,0.35128376,0.35268682,0.35261774,0.35214654,0.7739082,0.7750709,0.78266054,0.7822801,0.77974904,0.67777896,0.67815864,0.6804042,0.680261,0.67947716,0.3354912,0.41922048,0.0862237,0.07056728,0.08849738
416253695,416154141,0.2890203,0.002714238,0.28850514,0.2887585,0.290432,0.2903499,0.28978825,1.0057386,1.0052571,1.0018256,1.001973,1.0031347,0.61699915,0.61714435,0.61784244,0.61777425,0.6175089,0.33585894,0.41941094,0.085977815,0.07038444,0.08836786
417261056,417161669,0.20459686,0.002796947,0.20398769,0.20428632,0.20626566,0.20616908,0.20550494,0.83433574,0.8348985,0.8384654,0.83827615,0.83709395,1.1862569,1.1864532,1.1874886,1.1874022,1.1870263,0.33575502,0.41926372,0.08607184,0.07047032,0.08843908
418258621,418159321,0.3915383,0.002812198,0.3924831,0.39201954,0.388901,0.38905075,0.39009684,0.51744145,0.5187775,0.5275298,0.5270921,0.5241735,0.79475355,0.79512626,0.7973425,0.79719853,0.7964282,0.33794355,0.42060137,0.08455063,0.069305606,0.08759878
419256316,419156973,0.5026745,0.0028064467,0.503415,0.5030491,0.5005821,0.5007005,0.5015284,0.32451805,0.3256831,0.33329713,0.33291417,0.33037665,0.43560696,0.4360074,0.43841833,0.43826443,0.43742967,0.3395739,0.42159516,0.08342276,0.06843989,0.0869683
420254185,420154625,0.5253347,0.002850821,0.52509505,0.52521646,0.52601016,0.52597046,0.5257037,0.26342657,0.26432806,0.2701809,0.26988214,0.26793408,0.21612744,0.21646073,0.21843243,0.2182998,0.21761265,0.34021187,0.4219802,0.08298342,0.06810278,0.08672177
421261508,421162156,0.56588614,0.002910289,0.5657027,0.56579626,0.5664042,0.56637347,0.5661692,0.24068192,0.24130994,0.24534017,0.24512929,0.24379098,-0.0644715,-0.06425026,-0.06300855,-0.063104734,-0.06354591,0.34060988,0.4222194,0.082709976,0.06789301,0.08656772
422259110,422159809,0.57627916,0.0029968182,0.57610923,0.5761962,0.57675946,0.5767305,0.5765414,0.030563598,0.030888302,0.032887377,0.032773748,0.03211619,-0.07800286,-0.07784128,-0.07699287,-0.07707016,-0.07737948,0.34079468,0.42233196,0.0825836,0.06779544,0.0864943
423257121,423157463,0.5569163,0.0030923353,0.556712,0.5568163,0.5574943,0.5574601,0.557232,0.030456327,0.03065253,0.0317884,0.03171587,0.03134796,0.039916344,0.040068768,0.040857755,0.04078328,0.04049383,0.34082383,0.4223486,0.08256397,0.0677805,0.086483136
424254403,424155118,0.51557934,0.0031889956,0.51530415,0.5154439,0.5163588,0.5163132,0.51600605,-0.05129806,-0.05113872,-0.050253294,-0.050314344,-0.050598193,0.040105112,0.040197194,0.040586296,0.040530935,0.040375896,0.34084195,0.42235768,0.08255193,0.067771636,0.08647679
425262041,425162650,0.56695616,0.0032876567,0.5675504,0.56725496,0.5652608,0.56535685,0.56602645,-0.026789207,-0.026608314,-0.025580812,-0.025648989,-0.025980595,-0.014277488,-0.0142420605,-0.014230125,-0.014267333,-0.0142958015,0.34083003,0.42234993,0.08255992,0.06777805,0.08648219
426259642,426160306,0.52755094,0.0033837496,0.52729493,0.52742517,0.5282758,0.528233,0.52794725,-0.14406073,-0.1439113,-0.14309606,-0.14315403,-0.1434145,0.1124154,0.11242549,0.11226992,0.112240985,0.11226873,0.3408088,0.42233545,0.082574375,0.067789674,0.0864917
427257303,427157962,0.5243265,0.0034804472,0.5240648,0.5241979,0.5250677,0.5250238,0.52473176,-0.038079806,-0.037907295,-0.036940075,-0.03700538,-0.037316702,0.19129053,0.19131795,0.19127566,0.19124104,0.19123068,0.34080434,0.42232776,0.08257819,0.06779374,0.08649599
428255240,428155619,0.5635761,0.0035778193,0.5641759,0.56387776,0.56186616,0.56196284,0.562638,-0.020669818,-0.0204839,-0.019427996,-0.019497544,-0.019838415,0.1064072,0.10645013,0.10650996,0.106470205,0.10642549,0.34079862,0.42232078,0.082582526,0.067797914,0.086500145
429262540,429163154,0.50848794,0.0036739088,0.5081989,0.5083456,0.50930697,0.5092589,0.5089359,0.10992172,0.1101015,0.11111657,0.11104907,0.11072189,0.19186409,0.19190212,0.19193055,0.19189216,0.19185816,0.34081352,0.42232278,0.08257353,0.0677925,0.08649765
430260158,430160812,0.5012011,0.003770407,0.5009,0.50105274,0.5020547,0.50200456,0.5016681,0.12389533,0.1240552,0.124936044,0.12487501,0.12459318,0.18987598,0.1899588,0.1902851,0.19023216,0.19009812,0.3408739,0.42235002,0.082534276,0.067764044,0.086477704
431257759,431158470,0.4698783,0.0038653088,0.46952692,0.4697048,0.47087592,0.47081742,0.4704244,0.08050686,0.08070683,0.08185576,0.08178175,0.08141041,0.2741401,0.27425048,0.27475974,0.27469832,0.27450284,0.34094882,0.42238548,0.08248499,0.06772807,0.0864527
432255399,432156129,0.44545448,0.0039593894,0.44506538,0.44526228,0.44655973,0.4464952,0.44605976,0.09136866,0.0915512,0.09258418,0.09251571,0.092183605,0.27848986,0.278601,0.27911463,0.2790531,0.2788564,0.34102228,0.42242026,0.08243645,0.067692675,0.086428404
433263026,433163667,0.44281492,0.0040545682,0.442422,0.44262093,0.44393134,0.44386634,0.4434264,0.05132386,0.051546343,0.052845977,0.052764334,0.052343242,0.29605284,0.29612973,0.2964161,0.29636547,0.29624507,0.34107095,0.42243913,0.08240483,0.06767058,0.08641447
434260676,434161327,0.4002644,0.004149115,0.39980927,0.40003946,0.40155858,0.40148345,0.40097356,0.12460369,0.12479921,0.12591854,0.12584578,0.12548506,0.34227946,0.3423538,0.3426237,0.34257418,0.34245917,0.3411379,0.4224668,0.08236147,0.06763978,0.08639405
435258317,435158988,0.39487872,0.004242601,0.39441645,0.39465025,0.39619395,0.3961176,0.39559948,0.14449975,0.14473578,0.1461261,0.14604062,0.145589,0.35419655,0.35428035,0.35460922,0.35455653,0.35442194,0.34121725,0.4225008,0.082309745,0.067602806,0.08636939
436256783,436156649,0.39303982,0.0043354766,0.39257511,0.39281034,0.39436254,0.39428574,0.39376467,0.074680336,0.074923135,0.076359056,0.07627166,0.07580465,0.34425658,0.34433955,0.34466195,0.34460944,0.34447712,0.34129617,0.42253688,0.082258016,0.06756528,0.08634365
437253584,437154311,0.4838848,0.004427669,0.48461744,0.48425132,0.4817882,0.48190686,0.48273316,0.18457872,0.18480249,0.18611085,0.1860299,0.18560575,0.42064482,0.4207648,0.42133325,0.42126852,0.42105365,0.34146947,0.42262283,0.082143515,0.06748061,0.08628352
438261848,438161852,0.4395303,0.0045123287,0.43913475,0.4393356,0.4406583,0.44059274,0.4401485,0.07737799,0.0776881,0.07957487,0.07946606,0.078848094,0.40156606,0.40168205,0.40222418,0.40216082,0.40195495,0.34164998,0.42271253,0.08202364,0.06739212,0.086221665
439258845,439159516,0.43674693,0.0045976834,0.43634677,0.43655026,0.43788838,0.43782225,0.43737262,-0.03093256,-0.03061013,-0.028638996,-0.028751735,-0.029398318,0.33402032,0.33408862,0.33431673,0.3342688,0.3341686,0.34173554,0.4227503,0.08196756,0.067351766,0.08619476
440256896,440157180,0.42687365,0.004686506,0.4264584,0.42666975,0.42805833,0.42798963,0.4275234,0.079788074,0.08002442,0.08141804,0.08133325,0.08088007,0.35981172,0.35987836,0.36009657,0.360049,0.35995197,0.34182283,0.42278865,0.081910655,0.067310855,0.086167105
441254568,441154845,0.49759725,0.004778384,0.49830556,0.49795112,0.49556264,0.4956777,0.49647918,0.2569873,0.25725806,0.2588807,0.25878498,0.2582549,0.38532096,0.3853907,0.38562945,0.38558054,0.38547662,0.3419501,0.4228501,0.081826985,0.06724928,0.08612356
442262176,442162388,0.51580423,0.004860183,0.5164817,0.51614237,0.5138551,0.5139651,0.5147327,0.34597695,0.34631756,0.3484079,0.34829006,0.34760308,0.47819105,0.47831425,0.47890922,0.47884306,0.47861943,0.3421847,0.42297092,0.08167109,0.06713302,0.08604025
443259491,443160054,0.46891803,0.0049386015,0.46856657,0.46874648,0.46992388,0.4698651,0.46946988,0.37703115,0.37732953,0.37913662,0.37903264,0.37844065,0.41773713,0.41789255,0.41870236,0.4186256,0.41832995,0.34241265,0.4230919,0.081519015,0.06701881,0.08595766
444257829,444157721,0.5235011,0.005024697,0.52416295,0.52383107,0.52159005,0.5216977,0.5224501,0.27774885,0.27801687,0.27962103,0.2795269,0.27900293,0.38013458,0.38028067,0.38102883,0.3809549,0.38067982,0.34261894,0.42320088,0.08138178,0.06691571,0.08588278
445254834,445155389,0.44951466,0.0051022023,0.4491344,0.44932926,0.4506072,0.4505434,0.45011482,0.3951881,0.39547408,0.39719996,0.3971,0.3965351,0.45029822,0.45043868,0.45115086,0.45107883,0.45081598,0.3429123,0.42335552,0.081186704,0.06676915,0.085776344
