timestamp,rollspeed_integ,pitchspeed_integ,yawspeed_integ,additional_integ1
217458356,0.0,0.0,0.0,0.0
217463354,0.0,0.0,0.0,0.0
217660898,0.0,0.0,0.0,0.0
217860882,0.0,0.0,0.0,0.0
218060900,0.0,0.0,0.0,0.0
218260917,0.0,0.0,0.0,0.0
218460932,0.0,0.0,0.0,0.0
218658445,0.0,0.0,0.0,0.0
218858461,0.0,0.0,0.0,0.0
219060979,0.0,0.0,0.0,0.0
219260998,-0.008122668,0.0058685383,-6.016744e-05,0.0
219461011,-0.016496109,0.012028219,-8.12946e-05,0.0
219661028,-0.024535134,0.018317671,-0.00014530723,0.0
219861046,-0.032596588,0.024504777,-0.00017747412,0.0
220058561,-0.040555272,0.030433929,-0.000390991,0.0
220258581,-0.04729453,0.03590222,-0.00034107198,0.0
220461095,-0.05345476,0.040534504,-0.0006058258,0.0
220661112,-0.057626903,0.04440093,-0.0007071986,0.0
220858631,-0.06098537,0.04799368,-0.00082568126,0.0
221061148,-0.06365874,0.051715277,-0.00092691573,0.0
221261161,-0.06578899,0.054394253,-0.0010100262,0.0
221458680,-0.06725161,0.055685427,-0.0011816304,0.0
221658696,-0.06643553,0.0520799,-0.0012313161,0.0
221861213,-0.06564651,0.04631949,-0.0017756065,0.0
222061231,-0.06557277,0.03974851,-0.0031906995,0.0
222261244,-0.066483065,0.03401333,-0.004940975,0.0
222461262,-0.06606097,0.030159527,-0.006835229,0.0
222661281,-0.06308183,0.023007145,-0.008387595,0.0
222858796,-0.0546829,0.016280077,-0.009707582,0.0
223058871,-0.04522938,0.0142975915,-0.009936626,0.0
223261331,-0.02216124,0.012735958,-0.00884248,0.0
223461346,-0.00968071,0.01155782,-0.007248319,0.0
223661365,-0.023582764,0.010901372,-0.005715281,0.0
223861379,-0.026487075,0.0072283386,-0.004258198,0.0
224058899,-0.014548296,-0.00030767464,-0.0027219665,0.0
224258913,-0.013288009,0.00063700334,-0.0013680042,0.0
224458933,-0.014780908,0.0042719883,-0.00038331584,0.0
224661453,-0.0097595975,0.004091133,9.124489e-05,0.0
224861466,-0.00455453,0.0070547285,0.00022637102,0.0
225061483,0.0006246035,0.006149596,0.0005446401,0.0
225261500,-0.00289196,0.00234825,0.0008843708,0.0
225459017,-0.009495921,0.0017764536,0.0012105929,0.0
225659035,-0.007837037,0.002556382,0.001750443,0.0
225859049,-0.005435342,0.00029660197,0.002228153,0.0
226061568,-0.009211161,-1.4668492e-06,0.0024687287,0.0
226261587,-0.009356994,0.001040906,0.002658029,0.0
226461606,-0.007853842,0.00026599405,0.0026356217,0.0
226661627,-0.007408107,0.00063500466,0.0024426684,0.0
226859137,-0.005733573,0.002899583,0.0024489602,0.0
227059153,-0.0050103962,0.002298248,0.0026869997,0.0
227259171,-0.0055195377,0.00237517,0.0028295454,0.0
227461692,-0.0058489256,0.004084625,0.0025588616,0.0
227661708,-0.008270775,0.0049152495,0.0017383054,0.0
227861722,-0.011736198,0.0066640964,0.00040004714,0.0
228061743,-0.013598281,0.008540555,-0.0011835715,0.0
228259259,-0.01511837,0.007858623,-0.0028329922,0.0
228459274,-0.019042166,0.008080402,-0.004573565,0.0
228659293,-0.020198839,0.010297762,-0.006239051,0.0
228859310,-0.017892802,0.012331623,-0.0076918444,0.0
229061830,-0.0171115,0.016611824,-0.008844471,0.0
229261844,-0.014729249,0.019706994,-0.009364697,0.0
229459361,-0.011472464,0.020962289,-0.009452111,0.0
229659381,-0.008732457,0.022035116,-0.009348425,0.0
229859458,-0.005263901,0.022896012,-0.009053437,0.0
230059413,-0.0033249403,0.023726987,-0.008546289,0.0
230259431,-0.002747007,0.024413686,-0.0079769185,0.0
230461952,-0.0016800822,0.023355484,-0.0072719245,0.0
230661972,0.00018534363,0.023663905,-0.006603116,0.0
230859483,0.0009233785,0.025795871,-0.0060328837,0.0
231059501,0.0005489512,0.02508546,-0.0054693767,0.0
231259520,0.00096637936,0.021377014,-0.0048551834,0.0
231459540,0.0010220675,0.021006899,-0.004449613,0.0
231659553,0.0008330593,0.022130953,-0.004211877,0.0
231862076,0.0025540467,0.01958596,-0.0038402646,0.0
232062093,0.002480764,0.018291673,-0.003475296,0.0
232259611,0.0010758125,0.01832226,-0.0029474662,0.0
232459628,0.003714989,0.017566344,-0.0018904865,0.0
232659646,0.0052982043,0.016037682,-0.0005154649,0.0
232859660,0.003602967,0.015079896,0.00095678825,0.0
233059686,0.003603238,0.01333741,0.0023419939,0.0
233262197,0.0040148897,0.011710967,0.003579228,0.0
233462215,0.002958146,0.011499256,0.0046673752,0.0
233659735,0.0012794746,0.011602181,0.0055943266,0.0
233859752,0.0015432833,0.0108081065,0.0064724144,0.0
234059767,0.0020603414,0.010646805,0.0073019424,0.0
234259787,0.001124896,0.011599672,0.008050486,0.0
234462307,0.00026160746,0.011199421,0.008730114,0.0
234662324,0.0010086608,0.010758578,0.009247137,0.0
234859880,0.00045515812,0.011470992,0.009568526,0.0
235059858,-0.0010181719,0.01176751,0.009752811,0.0
235259874,-0.000112454916,0.012060371,0.009817585,0.0
235459895,0.001433515,0.011104137,0.009841016,0.0
235659911,0.003297392,0.008614178,0.010002588,0.0
235862430,0.006057855,0.009801469,0.010511288,0.0
236062450,0.009619293,0.010433719,0.0112228375,0.0
236259967,0.010029272,0.0074803634,0.011699038,0.0
236459982,0.009425052,0.005883433,0.011845572,0.0
236660003,0.009120545,0.00581996,0.011776524,0.0
236860018,0.005117712,0.006004377,0.011316264,0.0
237060040,0.0023738751,0.0029310454,0.010527012,0.0
237262563,0.0045072525,0.0032429923,0.009660492,0.0
237462585,0.005163755,0.004798118,0.009051478,0.0
237660092,0.0004314706,0.003946462,0.008888361,0.0
237860113,0.0014417091,0.005338518,0.008989735,0.0
238060134,0.005266737,0.005498916,0.009406092,0.0
238260207,0.0072285044,0.002054894,0.009859357,0.0
238460164,0.0075063314,0.0019096785,0.010392981,0.0
238662688,0.010587513,0.0014834362,0.010601088,0.0
238862710,0.013133137,0.00021591148,0.0106258,0.0
239060219,0.011509061,-0.001490595,0.010639255,0.0
239260238,0.011159047,-0.0011642629,0.010466464,0.0
239460257,0.013458135,-0.0013206447,0.0102008525,0.0
239660275,0.01352451,-0.0009786717,0.009990601,0.0
239857795,0.01308735,-0.0011419469,0.009796146,0.0
240062814,0.012157386,-0.001520617,0.009569147,0.0
240260332,0.012828028,-0.0016826423,0.009418,0.0
240460349,0.012973182,-0.0014634595,0.009222486,0.0
240660368,0.011971312,-0.0015709685,0.008960641,0.0
240860384,0.011893495,-0.001236888,0.008797928,0.0
241060405,0.012208376,-0.0006211799,0.008672821,0.0
241257924,0.0121730445,0.00036997334,0.008656707,0.0
241462943,0.011693521,0.00028836937,0.008844092,0.0
241660458,0.01005832,0.00064976874,0.009123917,0.0
241860481,0.008812685,0.0016283629,0.009227268,0.0
242060498,0.009837518,0.000684105,0.009269632,0.0
242260517,0.009906541,-0.0005189688,0.009235322,0.0
242460533,0.007972839,-0.00017029508,0.009234589,0.0
242658052,0.008160113,0.00085309066,0.009532098,0.0
242860573,0.0077982126,6.814273e-05,0.010184197,0.0
243060590,0.0069748648,-0.0008606608,0.011086425,0.0
243260608,0.00740229,-0.00091439363,0.012086073,0.0
243460633,0.008184161,-0.0014686496,0.013085835,0.0
243660648,0.0088154925,-0.001880568,0.0139236795,0.0
243860664,0.011233607,-0.0019020151,0.0145985065,0.0
244058233,0.012896092,-0.0016677442,0.015077455,0.0
244263206,0.012145575,-0.0008478068,0.0153110605,0.0
244460721,0.012829463,-0.00054619747,0.015475977,0.0
244660739,0.013944658,-0.0010088328,0.015610522,0.0
244860756,0.013999887,-0.0010559476,0.015705222,0.0
245060776,0.013134357,-0.00060288055,0.015797699,0.0
245258296,0.014604354,-0.00013704933,0.015858345,0.0
245458314,0.015670111,-0.00014814021,0.015682237,0.0
245660834,0.014717352,-0.0011008251,0.015384686,0.0
245860852,0.013658717,-0.0011250776,0.015173105,0.0
246060868,0.0150719,0.00017406896,0.015125845,0.0
246260888,0.01595589,-0.000113412374,0.015137644,0.0
246460908,0.01584379,-0.0012630678,0.015287976,0.0
246660927,0.015018576,-0.0012953231,0.015446933,0.0
246858446,0.0153859,-0.00045324943,0.015720634,0.0
247060964,0.016303571,3.7926195e-05,0.016204515,0.0
247260982,0.015753353,-0.00018760623,0.01669944,0.0
247461004,0.015652929,-0.0009339583,0.017234592,0.0
247661021,0.018243678,-0.0022010314,0.017651716,0.0
247861039,0.018209483,-0.0014506333,0.01779462,0.0
248058557,0.015570991,-4.7651083e-05,0.017867023,0.0
248258575,0.013094209,0.0014155426,0.017947005,0.0
248461092,0.012837466,0.0025582972,0.018094562,0.0
248661117,0.011067612,0.003500655,0.018142685,0.0
248861133,0.008713392,0.004428683,0.018163133,0.0
249061154,0.0070369435,0.0057975017,0.018196922,0.0
249261168,0.004694731,0.0065061823,0.018220754,0.0
249458688,0.0025629865,0.007133176,0.018177368,0.0
249658709,0.0010074952,0.008473749,0.018008169,0.0
249861229,-0.00042372255,0.009546509,0.017710099,0.0
250061243,-0.00110444,0.010162192,0.017290702,0.0
250261264,-0.0014386625,0.010630563,0.016905475,0.0
250461282,-0.002357959,0.011283344,0.016545696,0.0
250661307,-0.0036283417,0.012047908,0.016134663,0.0
250858821,-0.0045532454,0.012547143,0.015722241,0.0
251058839,-0.004415469,0.023941949,0.015257368,0.0
251261357,0.0012555063,0.024067217,0.015439,0.0
251461381,-0.00100795,0.009970258,0.016362784,0.0
251661394,-0.018079638,0.005721273,0.016308079,0.0
251861414,-0.012455033,0.0063242787,0.0151523,0.0
252058935,-0.0012207614,0.008250573,0.014048754,0.0
252258953,-0.011820779,0.016803943,0.012374655,0.0
252458976,-0.0062247356,0.01891635,0.011122198,0.0
252661493,0.011001555,0.024694996,0.0105386255,0.0
252861509,-0.009147076,0.017913152,0.010157504,0.0
253061533,-0.021681566,0.0075998744,0.008746685,0.0
253261547,-0.0038324958,0.018443307,0.0068132714,0.0
253459069,-0.0019171179,0.019645423,0.005345135,0.0
253659086,-0.0056161727,0.012492271,0.0041698925,0.0
253859105,-0.0060097687,0.012019921,0.0035506808,0.0
254061628,-0.015378915,0.043396723,0.010037942,0.0
254261645,-0.004168855,0.018215,0.013217469,0.0
254461663,-0.024150465,-0.012451425,0.0124547575,0.0
254661690,-0.015835067,0.0071676834,0.015202934,0.0
254859205,-0.011914192,0.009713849,0.019038945,0.0
255059220,-0.027382126,-0.0075852517,0.02142645,0.0
255259240,-0.03159736,-0.0031646495,0.024417363,0.0
255461759,-0.030543912,0.0046209935,0.027750725,0.0
255661777,-0.039887033,-0.0017399743,0.030183505,0.0
255861794,-0.04571724,-0.0008841271,0.03231621,0.0
256059315,-0.045520943,0.0084211975,0.034502447,0.0
256259333,-0.05709865,0.007272817,0.037851356,0.0
256459359,-0.069980115,0.0013736606,0.042162687,0.0
256659372,-0.07818324,0.0036866572,0.046244446,0.0
256861892,-0.07018737,0.013962081,0.05024312,0.0
257061913,-0.06583156,0.015844474,0.053203102,0.0
257261928,-0.0667731,0.007497715,0.0554108,0.0
257459448,-0.06127922,0.011201346,0.057641085,0.0
257659476,-0.057685666,0.022733659,0.05993694,0.0
257859568,-0.06056884,0.019446913,0.061798092,0.0
258059534,-0.054047786,0.020690568,0.063257076,0.0
258262034,-0.06041429,0.032868207,0.06319109,0.0
258462061,-0.059655916,0.018961743,0.06212084,0.0
258662093,-0.04797674,0.010438405,0.060612366,0.0
258859655,-0.045725744,0.020212222,0.060009204,0.0
259059681,-0.048923966,0.00061551377,0.058966026,0.0
259259726,-0.04929487,-0.016276097,0.05696166,0.0
259459766,-0.06307028,-0.014263357,0.054716047,0.0
259659781,-0.06559653,-0.022978803,0.051728405,0.0
259862273,-0.04870182,-0.019328745,0.049390838,0.0
260062304,-0.0458175,-0.010515586,0.048344575,0.0
260259868,-0.051435877,-0.009867062,0.0473363,0.0
260459897,-0.038756903,-0.011696599,0.047051087,0.0
260659927,-0.042971883,-0.010952613,0.04712092,0.0
260859779,-0.05431313,-0.011486004,0.0470684,0.0
261062459,-0.05637881,-0.0229809,0.046264872,0.0
261262318,-0.053950354,-0.016529372,0.04446467,0.0
261459832,-0.049268696,-0.008192394,0.042771474,0.0
261659852,-0.039046533,-0.013191954,0.04086281,0.0
261859877,-0.028647574,0.0050897487,0.03899713,0.0
262059898,-0.030826466,0.0072494615,0.0373985,0.0
262259912,-0.034602348,-0.0047749244,0.03591773,0.0
262462435,-0.025457637,0.0067142397,0.034520622,0.0
262662455,-0.022739347,0.013744418,0.033582967,0.0
262859974,-0.026984762,0.00395801,0.03274058,0.0
263059988,-0.024054203,0.0071119666,0.03193889,0.0
263260007,-0.021959156,0.015842637,0.03129001,0.0
263460027,-0.02511043,0.011624009,0.03095674,0.0
263660049,-0.025595434,0.009333861,0.030555384,0.0
263862571,-0.025534213,0.0087883165,0.030138385,0.0
264062596,-0.037738506,-0.0020957703,0.02964684,0.0
264260106,-0.043976348,-0.0069196434,0.028202353,0.0
264460127,-0.04860609,-0.015480044,0.026263114,0.0
264660149,-0.04898104,-0.024924267,0.023918116,0.0
264860164,-0.047365185,-0.037063673,0.022627931,0.0
265060189,-0.041532163,-0.04805791,0.023022132,0.0
265262708,-0.039184973,-0.061560374,0.024268657,0.0
265462726,-0.04315144,-0.07148626,0.025612352,0.0
265660248,-0.053697783,-0.08427536,0.027234038,0.0
265860264,-0.05811688,-0.09314836,0.028930046,0.0
266060285,-0.054807898,-0.0936094,0.0287682,0.0
266260305,-0.050928034,-0.099392794,0.027635425,0.0
266457821,-0.05043304,-0.102303065,0.026859025,0.0
266662841,-0.04434119,-0.10515314,0.027678255,0.0
266860363,-0.03966315,-0.106357396,0.029059505,0.0
267060385,-0.041498274,-0.11034357,0.030044118,0.0
267260405,-0.03884607,-0.11322601,0.030323807,0.0
267460421,-0.039014585,-0.114839345,0.029230531,0.0
267660442,-0.04144581,-0.11932127,0.02798963,0.0
267857959,-0.04286726,-0.11792841,0.02735647,0.0
268062981,-0.04010403,-0.1194264,0.027787184,0.0
268260503,-0.038295984,-0.11711225,0.029309332,0.0
268460524,-0.041676916,-0.121309616,0.030876335,0.0
268660540,-0.036934026,-0.12063689,0.031446688,0.0
268860560,0.0,-7.339284e-05,-1.298179e-05,0.0
269060581,-6.762794e-05,-0.00014681429,0.0,0.0
269258098,0.0,0.0,0.0,0.0
269463120,-5.8387555e-05,0.0,0.0,0.0
269660642,-0.0002612599,-7.2432034e-05,0.0,0.0
269860660,-0.00020757978,-0.00034906124,0.0,0.0
270060678,-0.00029951707,-0.00018771087,-2.8084145e-05,0.0
270260702,-0.00026612935,-5.449297e-05,-5.846701e-05,0.0
270460720,-0.00010304549,-5.1783118e-05,0.0,0.0
270658240,-1.3216723e-05,-8.286599e-05,0.0,0.0
270863262,0.0,0.0,0.0,0.0
271060779,0.0,0.0,-4.2021114e-05,0.0
271260799,0.0,-6.529328e-05,-4.1488143e-05,0.0
271460819,-1.0125404e-05,0.0,-2.5991752e-05,0.0
271660839,0.0,0.0,0.0,0.0
271858357,0.0,-9.134674e-05,0.0,0.0
272058376,0.0,0.0,0.0,0.0
272260899,0.0,-7.871609e-05,-8.1432945e-06,0.0
272460920,0.0,0.0,-1.4267529e-05,0.0
272658436,0.0,-9.106597e-06,-2.5865097e-06,0.0
272860962,-3.659184e-05,-8.2260936e-05,-1.8611585e-06,0.0
273060980,0.0,0.0,-2.0749278e-06,0.0
273258500,-9.76256e-05,-1.1610501e-05,-2.5940349e-06,0.0
273458516,0.0,-3.6877875e-05,0.0,0.0
273661038,-4.180815e-05,0.0,0.0,0.0
273861058,0.0,-4.5728942e-05,0.0,0.0
274061079,-7.899323e-05,0.0,0.0,0.0
274261097,0.0,-6.114915e-07,0.0,0.0
274461118,-5.6076147e-05,-5.8359205e-05,-2.0777177e-06,0.0
274658640,0.0,0.0,-6.489762e-06,0.0
274858658,-2.2796947e-05,-5.234474e-05,0.0,0.0
275058677,-0.00027511403,-1.0904914e-05,0.0,0.0
275261197,0.0,0.0,-2.3285254e-05,0.0
275461219,-0.000101354584,-5.4823224e-05,-4.2440195e-05,0.0
275661237,0.0,0.0,-3.851738e-05,0.0
275861259,0.0,-1.8767023e-05,-4.4818473e-05,0.0
276058777,0.0,-0.00022080628,-6.736055e-06,0.0
276258796,0.0,-6.4905085e-05,0.0,0.0
276461317,0.0,-7.815756e-05,0.0,0.0
276661334,0.0,-3.3551572e-05,-1.48691615e-05,0.0
276861354,0.0,-6.4141466e-05,-2.2935075e-05,0.0
277061376,0.0,-7.386582e-05,-2.8734428e-05,0.0
277258897,0.0,-0.00018378973,-3.926461e-05,0.0
277458913,0.0,-8.0292084e-05,-4.5896777e-05,0.0
277658935,0.0,-0.00016557597,-6.0203245e-05,0.0
277861455,-2.1323962e-05,-1.833944e-05,-6.97396e-05,0.0
278061474,0.0,-0.00012509178,-8.693618e-05,0.0
278261545,0.0,-8.427262e-05,-9.08622e-05,0.0
278461514,0.0,-5.9323138e-05,-0.000106682055,0.0
278659032,0.0,-8.4468345e-05,-0.00011857702,0.0
278859053,-0.000106846346,-0.00015021507,-0.0001050282,0.0
279059071,0.0,-1.887615e-05,-9.309944e-05,0.0
279261591,0.0,-0.0001757112,-4.6613386e-05,0.0
279461612,0.0,-4.2320546e-05,-4.291479e-06,0.0
279661635,0.0,-5.890043e-05,-2.0460884e-05,0.0
279861655,-4.7145877e-05,0.0,-5.957506e-05,0.0
280059172,-6.105919e-05,-3.789921e-05,-4.2858464e-06,0.0
280259190,-5.4774795e-05,-6.740427e-05,0.0,0.0
280459214,-0.00010673621,-6.756497e-05,0.0,0.0
280661734,-0.00016751634,-7.668454e-05,0.0,0.0
280861748,-0.00014445292,-0.00012613232,-8.669446e-06,0.0
281061768,-0.00019163892,-0.00010260552,-2.668824e-05,0.0
281259289,-0.00016422672,0.0,-1.262983e-05,0.0
281459308,-2.1156871e-05,-8.275297e-05,0.0,0.0
281659357,-6.6469496e-05,-1.623049e-06,0.0,0.0
281859346,-2.018308e-05,-7.268102e-05,0.0,0.0
282059367,-1.522948e-05,0.0,0.0,0.0
282261890,-0.00018886616,-2.629998e-05,0.0,0.0
282461908,-5.3787502e-05,-2.7917946e-05,0.0,0.0
282659423,-1.9004958e-05,-7.394076e-05,0.0,0.0
282859446,-6.9512746e-05,0.0,0.0,0.0
283059465,0.0,0.0,0.0,0.0
283259522,-0.00012453862,-7.4806e-05,0.0,0.0
283459501,0.0,0.0,0.0,0.0
283662022,-0.0001538681,0.0,-2.4505973e-05,0.0
283862043,0.0,-6.3620384e-05,-8.323338e-06,0.0
284059561,-0.00013775525,0.0,-7.629351e-06,0.0
284259577,0.0,-1.4229661e-05,0.0,0.0
284459598,-6.0614042e-05,-1.156265e-05,0.0,0.0
284659622,0.0,0.0,-6.019588e-06,0.0
284859642,-9.396601e-05,-3.2224154e-05,-1.7226286e-05,0.0
285062155,0.0,0.0,-1.4588655e-05,0.0
285262183,-0.000104317834,0.0,0.0,0.0
285459696,0.0,-1.8541745e-05,0.0,0.0
285659716,-1.0239682e-05,0.0,-1.7588623e-06,0.0
285859732,0.0,-2.2554887e-05,-1.263481e-05,0.0
286059752,-5.3610696e-05,0.0,0.0,0.0
286262274,-5.3502436e-07,0.0,0.0,0.0
286462293,0.0,-4.1654417e-05,0.0,0.0
286659811,0.0,0.0,0.0,0.0
286859826,-8.436894e-05,0.0,-1.0082232e-05,0.0
287059848,0.0,-4.866419e-05,-1.0696631e-05,0.0
287259869,-0.000114186434,0.0,-7.653591e-06,0.0
287459889,0.0,0.0,0.0,0.0
287662405,-7.515413e-05,-4.5034856e-05,0.0,0.0
287862426,0.0,0.0,0.0,0.0
288059944,-5.684805e-05,-2.0858936e-06,0.0,0.0
288259962,0.0,0.0,0.0,0.0
288459980,0.0,0.0,-6.5661857e-06,0.0
288652505,-6.3237174e-05,-3.067293e-05,-5.3681146e-07,0.0
288860021,0.0,0.0,0.0,0.0
289062538,0.0,0.0,0.0,0.0
289262561,-4.3951855e-05,-7.098276e-05,0.0,0.0
289462582,0.0,0.0,0.0,0.0
289660097,-5.7464786e-05,0.0,0.0,0.0
289860111,0.0,-3.1880452e-05,0.0,0.0
290060131,-3.070026e-05,0.0,0.0,0.0
290260154,-4.611698e-05,-2.4257215e-05,-1.10807305e-05,0.0
290462672,-1.890244e-05,-4.828223e-05,-8.927265e-07,0.0
290662699,-3.4793893e-06,0.0,-5.3432177e-06,0.0
290860206,-3.563843e-05,-4.7002453e-05,0.0,0.0
291060222,-7.85695e-05,-1.0423263e-05,0.0,0.0
291260247,0.0,0.0,-1.2924654e-05,0.0
291460262,-0.0001324621,-8.54709e-05,-1.960095e-05,0.0
291660280,0.0,0.0,-1.2970885e-05,0.0
291862798,-7.8367084e-05,-4.677794e-06,-7.1724885e-06,0.0
292060318,0.0,-7.662929e-05,0.0,0.0
292260335,-9.776685e-05,0.0,0.0,0.0
292460354,0.0,0.0,0.0,0.0
292660371,-9.8226184e-05,-6.495485e-05,0.0,0.0
292860391,0.0,0.0,0.0,0.0
293057912,-9.397361e-05,0.0,0.0,0.0
293262927,0.0,-4.9681057e-05,0.0,0.0
293462952,-2.7338878e-05,0.0,0.0,0.0
293660469,0.0,-1.4901558e-05,-2.8347313e-07,0.0
293860482,0.0,-2.9928446e-05,-6.457775e-06,0.0
294060501,-5.532556e-05,0.0,0.0,0.0
294260519,0.0,-2.2748587e-05,0.0,0.0
294458034,-3.0276118e-05,0.0,0.0,0.0
294663057,0.0,0.0,0.0,0.0
294860574,-8.3173276e-05,-4.7112888e-05,-2.2960019e-06,0.0
295060593,0.0,-1.3633075e-05,-1.1677859e-05,0.0
295260617,-7.574729e-05,0.0,-1.7460963e-05,0.0
295460630,0.0,-2.6577582e-05,-5.615709e-06,0.0
295660647,0.0,0.0,-1.9730862e-06,0.0
295858165,-0.000110125606,0.0,-2.7318415e-06,0.0
296063184,0.0,-7.716526e-05,0.0,0.0
296260702,-6.579992e-05,0.0,0.0,0.0
296460720,0.0,0.0,0.0,0.0
296660737,-2.4424233e-05,-3.9119986e-05,0.0,0.0
296860753,0.0,0.0,0.0,0.0
297060773,0.0,0.0,-5.237125e-06,0.0
297258289,0.0,-4.9096892e-05,0.0,0.0
297463312,-3.817869e-05,0.0,0.0,0.0
297660830,-2.2861892e-05,0.0,-1.3790108e-06,0.0
297860845,0.0,-6.801895e-05,0.0,0.0
298060863,-2.7012558e-05,0.0,0.0,0.0
298260880,0.0,0.0,0.0,0.0
298460899,0.0,-6.395248e-05,0.0,0.0
298658422,0.0,0.0,0.0,0.0
298860934,-0.000106566724,-9.21603e-06,0.0,0.0
299060950,0.0,-2.6181291e-05,0.0,0.0
299260972,0.0,0.0,0.0,0.0
299460985,0.0,-8.685192e-06,0.0,0.0
299661004,-2.751176e-05,-3.9385523e-05,-2.6956752e-06,0.0
299858523,0.0,0.0,-6.394258e-06,0.0
300058538,-1.2347544e-05,-2.3510805e-05,-1.4002166e-05,0.0
300261059,-4.2493586e-05,-3.8090617e-05,-8.0415475e-06,0.0
300461076,-1.1195325e-05,0.0,-5.3315125e-06,0.0
300661094,-2.0301386e-05,-4.6153484e-05,-3.3464046e-06,0.0
300861113,0.0,0.0,0.0,0.0
301061129,0.0,0.0,0.0,0.0
301258677,0.0,-3.9135142e-05,0.0,0.0
301458709,0.0,-5.4930646e-05,0.0,0.0
301661208,-0.00025539208,-3.2753058e-05,0.0,0.0
301861236,-0.00012967808,-0.0001173514,0.0,0.0
302061262,-9.083992e-05,-0.0001432039,-1.3157829e-05,0.0
302261287,-0.00026556058,-0.00014053094,0.0,0.0
302461330,-0.00023468913,-0.00011407792,0.0,0.0
302658883,-7.800392e-05,-1.7663422e-05,0.0,0.0
302858906,0.0,0.0,0.0,0.0
303061402,0.0,0.0,0.0,0.0
303261432,-0.00032009024,-6.710147e-05,0.0,0.0
303461460,-7.354848e-05,0.0,0.0,0.0
303661488,0.0,0.0,0.0,0.0
303858872,0.0,0.0,-2.438368e-06,0.0
304058890,-0.00012294765,-4.7010555e-05,-8.844927e-06,0.0
304258909,0.0,0.0,-2.5073698e-05,0.0
304461423,0.0,0.0,0.0,0.0
304661440,0.0,-3.3633652e-05,0.0,0.0
304861456,-7.456717e-05,0.0,-1.2237443e-06,0.0
305061475,0.0,0.0,0.0,0.0
305259015,0.0,0.0,0.0,0.0
305459008,0.0,0.0,0.0,0.0
305659025,0.0,0.0,0.0,0.0
305859041,-0.00014369136,0.0,0.0,0.0
306061560,-6.037791e-05,-6.471768e-05,0.0,0.0
306261575,-1.0133898e-05,-0.00011411585,-2.8077418e-06,0.0
306461593,-0.00013493285,-4.815506e-05,-8.806716e-06,0.0
306659111,-7.741024e-05,-3.180693e-05,-6.09538e-06,0.0
306859128,-6.5110704e-05,-9.374584e-05,0.0,0.0
307059146,-0.00014217231,-3.2460564e-05,0.0,0.0
307261659,-7.6636325e-06,-4.2459713e-05,0.0,0.0
307461678,-0.00012166733,-3.780026e-05,0.0,0.0
307661696,0.0,-3.4604966e-07,0.0,0.0
307861714,-9.626333e-05,-1.788304e-05,0.0,0.0
308059293,-9.729258e-06,-4.4201166e-05,0.0,0.0
308259244,0.0,-6.269908e-05,0.0,0.0
308459262,-2.680438e-05,-1.0872273e-05,0.0,0.0
308661781,-0.00011036423,-4.655966e-05,0.0,0.0
308861795,-9.652388e-05,-6.60832e-05,-1.0535862e-05,0.0
309061813,-2.7573531e-05,-4.20231e-05,-3.2551845e-05,0.0
309259328,-7.5953234e-05,-1.690599e-05,-2.3997476e-05,0.0
309459347,-0.00023356748,-4.0070172e-05,-7.765054e-06,0.0
309659364,0.0,-1.26995e-05,-6.521936e-06,0.0
309859379,0.0,0.0,0.0,0.0
310061895,0.0,0.0,0.0,0.0
310261912,0.0,-1.0611239e-05,0.0,0.0
310461929,0.0,-4.1244948e-05,0.0,0.0
310659445,0.0,-4.6640907e-05,0.0,0.0
310859462,0.0,0.0,0.0,0.0
311059479,-5.0796483e-05,0.0,0.0,0.0
311259496,0.0,-6.5952413e-06,-4.9989058e-06,0.0
311462050,0.0,-3.9689134e-05,-1.3566523e-05,0.0
311662028,0.0,0.0,0.0,0.0
311862047,0.0,0.0,0.0,0.0
312059564,0.0,0.0,0.0,0.0
312259576,0.0,0.0,0.0,0.0
312459596,0.0,-4.148108e-05,0.0,0.0
312659611,-9.3394774e-05,-1.0591233e-05,0.0,0.0
312862131,0.0,0.0,0.0,0.0
313062143,-3.660744e-05,0.0,0.0,0.0
313262161,0.0,0.0,0.0,0.0
313459677,0.0,-2.1961943e-05,0.0,0.0
313659698,0.0,0.0,-1.9471431e-06,0.0
313859712,0.0,0.0,0.0,0.0
314054724,-8.9078705e-05,0.0,0.0,0.0
314262242,-5.437308e-05,0.0,0.0,0.0
314462260,0.0,-1.0742142e-05,-8.240138e-06,0.0
314662277,-5.026752e-05,0.0,-1.3266598e-05,0.0
314859791,0.0,0.0,-1.508834e-05,0.0
315059807,-1.0073522e-05,0.0,-1.8581644e-05,0.0
315259824,-7.950012e-05,0.0,-1.8470513e-05,0.0
315459838,-6.651422e-05,-8.29041e-06,-9.957898e-06,0.0
315662354,0.0,-1.2520019e-05,-4.972434e-06,0.0
315862373,0.0,0.0,0.0,0.0
316059890,-0.00019208953,0.0,0.0,0.0
316259960,0.0,0.0,0.0,0.0
316459921,0.0,-2.8740875e-05,-9.219637e-06,0.0
316659935,-4.6941335e-05,-7.677575e-06,-2.6019748e-05,0.0
316859953,-3.9068427e-06,-5.243643e-06,-3.5730325e-05,0.0
317062468,-7.4168725e-05,0.0,-2.5720141e-05,0.0
317262483,-7.1900395e-05,0.0,-4.5441025e-06,0.0
317460002,0.0,-8.557615e-06,0.0,0.0
317660020,0.0,-1.5312413e-05,0.0,0.0
317860031,0.0,0.0,0.0,0.0
318060051,0.0,0.0,0.0,0.0
318260064,0.0,-1.8850691e-05,0.0,0.0
318462595,-0.00044168814,-6.992057e-05,-3.7395726e-05,0.0
318662601,-0.00022715265,-4.6632427e-05,-0.0001674102,0.0
318860111,-0.0002482111,0.0,-0.00020775666,0.0
319060128,-0.0002394812,0.0,-0.00016685193,0.0
319260146,-0.00026629685,-5.7158963e-05,-8.5947635e-05,0.0
319460161,-0.00026668172,-9.9585406e-05,0.0,0.0
319660182,-0.00011387625,-7.182012e-05,0.0,0.0
319862694,-0.00013900605,-2.3108935e-06,0.0,0.0
320062713,-5.0399103e-05,0.0,0.0,0.0
320260225,0.0,0.0,0.0,0.0
320460239,0.0,-6.879152e-05,0.0,0.0
320660257,0.0,0.0,0.0,0.0
320860271,0.0,0.0,0.0,0.0
321057790,0.0,0.0,0.0,0.0
321262803,0.0,0.0,0.0,0.0
321460321,0.0,0.0,0.0,0.0
321660336,-7.092502e-05,0.0,0.0,0.0
321860355,0.0,0.0,-2.0728492e-05,0.0
322060369,0.0,0.0,-5.6421366e-05,0.0
322260385,-8.518334e-05,0.0,-6.640534e-05,0.0
322457900,-7.275728e-05,-2.771197e-06,-6.358011e-05,0.0
322662917,-0.00011392144,0.0,-4.471777e-05,0.0
322860432,-0.0002508954,0.0,-4.0385e-05,0.0
323060445,-0.0001825644,0.0,-3.3075903e-05,0.0
323260463,-0.00014640855,-1.0744108e-05,-3.7439015e-05,0.0
323460478,0.0,0.0,-8.510464e-06,0.0
323660553,0.0,-3.297894e-05,0.0,0.0
323858010,-0.00023645652,0.0,0.0,0.0
324063025,-1.3382878e-05,0.0,0.0,0.0
324260541,0.0,-4.1701214e-06,0.0,0.0
324460560,0.0,0.0,-2.6469523e-05,0.0
324660571,0.0,0.0,-3.8269867e-05,0.0
324860587,-0.0001858847,-4.4295422e-05,-3.1727308e-05,0.0
325060607,0.0,-3.4826655e-05,-4.8571655e-07,0.0
325259219,-0.00013886881,0.0,0.0,0.0
325463134,0.0,0.0,0.0,0.0
325660651,-2.2686436e-05,-3.5602498e-05,0.0,0.0
325860669,0.0,0.0,0.0,0.0
326060687,-2.7176451e-05,0.0,-5.223815e-06,0.0
326260701,0.0,-1.2651982e-05,-3.7151294e-06,0.0
326460714,0.0,-1.2493634e-06,0.0,0.0
326658229,-5.6563258e-05,0.0,0.0,0.0
326858247,0.0,0.0,0.0,0.0
327060761,0.0,-1.28310485e-05,0.0,0.0
327260775,0.0,0.0,0.0,0.0
327460791,-3.7587797e-05,0.0,-6.644847e-06,0.0
327660809,0.0,-4.9284394e-05,-1.0557283e-05,0.0
327858326,-8.901519e-05,0.0,-9.910143e-06,0.0
328058338,-0.00014031252,0.0,0.0,0.0
328260854,0.0,-4.0907413e-08,0.0,0.0
328460872,0.0,0.0,-1.4084408e-05,0.0
328660887,0.0,0.0,-2.1866257e-05,0.0
328860904,-7.425518e-05,0.0,-3.544649e-06,0.0
329060918,-5.3105075e-05,-5.1242398e-05,-2.1829585e-06,0.0
329258433,0.0,0.0,0.0,0.0
329458450,0.0,0.0,0.0,0.0
329660963,-4.99152e-05,-3.2270764e-05,-7.3355213e-06,0.0
329860980,0.0,-8.1202425e-06,-8.703604e-06,0.0
330060997,0.0,0.0,-3.181427e-06,0.0
330261009,-7.230117e-06,0.0,-1.125479e-05,0.0
330461027,0.0,-5.0858995e-05,-9.767774e-06,0.0
330658543,0.0,-9.614625e-06,0.0,0.0
330858556,-3.1429834e-05,0.0,-4.109804e-08,0.0
331061073,-6.177431e-05,-6.9247667e-06,0.0,0.0
331261094,-6.8665315e-05,-7.020802e-05,-3.7322313e-06,0.0
331461104,-9.168828e-05,0.0,-7.197895e-06,0.0
331661119,-5.633446e-05,0.0,-1.0150345e-05,0.0
331861137,0.0,-3.3691358e-05,-1.2757471e-05,0.0
332058649,-0.00024100913,0.0,-8.973313e-06,0.0
332258667,0.0,0.0,-8.040544e-06,0.0
332461184,0.0,-3.140791e-05,-1.4771425e-05,0.0
332661196,-0.00014961716,-3.034441e-05,-1.5724412e-06,0.0
332861213,-1.03120165e-05,0.0,0.0,0.0
333061232,0.0,0.0,0.0,0.0
333261247,-0.00010815931,-4.663657e-05,0.0,0.0
333458764,0.0,0.0,0.0,0.0
333658773,-6.857723e-05,0.0,-1.067685e-05,0.0
333861290,0.0,0.0,0.0,0.0
334061308,-2.4985491e-05,-8.09358e-06,-2.313606e-06,0.0
334261379,0.0,0.0,0.0,0.0
334461336,-5.581902e-05,0.0,0.0,0.0
334658851,0.0,-2.1649892e-05,0.0,0.0
334861370,-0.00014780715,0.0,0.0,0.0
335058884,-3.273583e-05,0.0,-3.3405058e-07,0.0
335261397,0.0,-8.13862e-06,-8.210645e-06,0.0
335461413,-5.8636313e-05,0.0,-8.275432e-06,0.0
335661430,-6.576772e-05,0.0,-1.0978078e-05,0.0
335861444,0.0,-6.860616e-05,-2.9262887e-06,0.0
336058961,0.0,0.0,0.0,0.0
336258975,0.0,0.0,0.0,0.0
336458995,-0.00018906195,-4.0311537e-05,0.0,0.0
336661506,-3.778584e-05,-5.1167153e-05,0.0,0.0
336861521,0.0,0.0,-2.1602944e-05,0.0
337061534,-7.468555e-05,-0.0001091405,-1.5156583e-05,0.0
337261553,0.0,0.0,0.0,0.0
337459074,0.0,-2.5580166e-05,0.0,0.0
337659082,0.0,-5.7900324e-05,0.0,0.0
337859099,0.0,0.0,0.0,0.0
338061621,0.0,-6.948536e-05,0.0,0.0
338261632,0.0,-1.2346115e-05,-1.8893441e-05,0.0
338461647,-9.755843e-05,0.0,-2.907701e-05,0.0
338661658,0.0,-0.00010512728,-1.379575e-05,0.0
338859173,-1.3938637e-05,0.0,0.0,0.0
339059193,-3.308837e-05,-7.274667e-05,0.0,0.0
339259208,0.0,0.0,0.0,0.0
339461720,-0.00014537212,-2.8073768e-05,-1.0094788e-06,0.0
339661741,0.0,-5.2334763e-05,-1.346184e-05,0.0
339861749,-6.352312e-05,0.0,-2.1570673e-05,0.0
340061771,-5.1614534e-05,-7.918621e-05,-2.1804335e-05,0.0
340259281,-0.00011951496,0.0,0.0,0.0
340459296,-0.00010956998,-6.952958e-06,0.0,0.0
340659315,0.0,-0.00014048727,-4.4143435e-05,0.0
340859327,0.0,0.0,-5.0181305e-05,0.0
341061841,0.0,-4.188312e-06,-3.0583833e-05,0.0
341261860,-3.684904e-05,-8.5167034e-05,-1.4085158e-05,0.0
341459376,0.0,0.0,0.0,0.0
341659388,0.0,-6.455871e-05,0.0,0.0
341859403,0.0,-2.8210238e-07,0.0,0.0
342059417,-1.171905e-05,0.0,-2.8814368e-06,0.0
342259437,-1.2630237e-05,-9.4233044e-05,-2.4065816e-05,0.0
342461947,0.0,0.0,-3.356274e-05,0.0
342661965,-0.00013553344,-6.858587e-06,-3.174963e-05,0.0
342861983,0.0,-2.3177452e-05,-3.793099e-05,0.0
343059498,-9.217917e-05,0.0,-2.7248807e-05,0.0
343259507,-6.284545e-05,-7.9367645e-05,-6.3730527e-06,0.0
343459526,0.0,0.0,-8.296786e-06,0.0
343659537,-4.0823918e-05,-4.2410265e-05,-1.049523e-05,0.0
343862055,0.0,0.0,-1.0776441e-06,0.0
344062070,-2.7443832e-05,0.0,-4.205221e-06,0.0
344259585,0.0,-7.096213e-05,0.0,0.0
344459599,-2.1538578e-06,0.0,-9.355112e-06,0.0
344659620,-2.658002e-05,-5.6781005e-06,-3.6148645e-06,0.0
344859633,0.0,-4.8358157e-05,-1.2979298e-05,0.0
345059647,-0.0001133962,0.0,-1.0221463e-05,0.0
345262162,0.0,-1.9737074e-05,-6.7712617e-06,0.0
345462174,-4.4287946e-05,-1.3195274e-06,-1.4073816e-05,0.0
345659751,-1.3789993e-05,0.0,-2.440959e-07,0.0
345859708,0.0,-7.061801e-05,0.0,0.0
346059722,-6.743146e-05,-4.6053747e-06,-6.0752604e-06,0.0
346259738,0.0,0.0,-1.9600906e-05,0.0
346462253,0.0,-0.00011924428,0.0,0.0
346662264,-4.289459e-05,0.0,0.0,0.0
346862282,0.0,-2.1861844e-05,0.0,0.0
347059795,-1.0770944e-05,-3.268795e-05,-2.1156102e-05,0.0
347259813,-0.00013240044,0.0,-2.2915327e-05,0.0
347459841,-3.5653764e-05,-5.6905206e-05,-9.970995e-06,0.0
347659861,0.0,0.0,-5.04022e-06,0.0
347862356,-7.792273e-05,-4.091591e-06,-1.9725985e-06,0.0
348062385,0.0,-6.410119e-05,-1.418561e-05,0.0
348259945,-7.239973e-05,0.0,-1.3300856e-05,0.0
348459982,0.0,-5.485361e-05,-1.5115317e-06,0.0
348660011,0.0,0.0,-1.8715858e-07,0.0
348860013,-1.3944847e-06,-1.1608218e-05,0.0,0.0
349060040,0.0,-7.162193e-05,-2.7336562e-06,0.0
349262534,0.0,0.0,-3.413565e-06,0.0
349462562,-1.583847e-05,-1.4067496e-05,-4.7136873e-06,0.0
349660117,-9.056694e-06,-1.0421354e-06,-1.8453684e-05,0.0
349860142,0.0,0.0,-5.6729905e-06,0.0
350060162,-1.4590088e-05,-4.7024558e-05,-4.723119e-06,0.0
350260189,0.0,-7.42853e-05,-2.3322487e-05,0.0
350460290,-2.2605196e-05,0.0,-1.8251134e-05,0.0
350662710,-6.473533e-05,-4.6347028e-05,-8.217055e-06,0.0
350862735,0.0,0.0,-2.4959476e-05,0.0
351060094,-5.583333e-05,0.0,-3.1224538e-06,0.0
351260174,0.0,-6.141564e-05,-1.2630582e-05,0.0
351460123,0.0,-6.8914715e-06,-1.94917e-05,0.0
351660136,-0.0001043901,0.0,-1.4159214e-05,0.0
351860158,0.0,-7.268686e-05,-1.1676599e-05,0.0
352062669,-5.111452e-05,0.0,-1.48331455e-05,0.0
352262685,0.0,-4.7994774e-07,-1.3453022e-06,0.0
352460200,0.0,-6.195701e-05,-7.4875056e-06,0.0
352660212,-3.4461835e-05,0.0,-8.38973e-06,0.0
352860226,0.0,0.0,0.0,0.0
353060242,0.0,-7.282711e-05,-4.6691857e-06,0.0
353260259,-5.661196e-05,0.0,-1.1921353e-05,0.0
353462774,0.0,0.0,-9.888644e-06,0.0
353662787,0.0,-7.567802e-05,-1.2377523e-05,0.0
353860302,-6.7419016e-05,0.0,-5.6295703e-06,0.0
354060315,-2.687455e-05,-4.45656e-06,-6.402377e-07,0.0
354260328,0.0,-4.3684322e-05,-6.898891e-06,0.0
354460344,0.0,0.0,-4.2838496e-06,0.0
354657859,-3.9554492e-05,-6.305873e-05,-4.292693e-06,0.0
354862877,0.0,0.0,-1.3562635e-05,0.0
355060390,-7.315063e-05,0.0,-1.3487674e-05,0.0
355260402,0.0,-4.9407412e-05,-1.3650491e-05,0.0
355460418,-0.00025413348,0.0,-5.672399e-06,0.0
355660432,0.0,0.0,-1.4378506e-05,0.0
355860447,-0.0001017442,-8.351527e-05,-1.851663e-05,0.0
356057960,0.0,0.0,-1.8613426e-05,0.0
356262978,-0.00014518504,-4.0991995e-06,-7.164164e-06,0.0
356460494,0.0,-4.3813503e-05,-1.6114258e-05,0.0
356660506,-0.00010460326,0.0,-2.7144082e-05,0.0
356860518,0.0,-4.4624838e-05,-2.1686214e-05,0.0
357060533,0.0,0.0,-2.2013024e-05,0.0
357260548,0.0,0.0,-5.553502e-06,0.0
357458064,0.0,-6.633048e-05,-6.647831e-08,0.0
357663080,-5.043052e-05,-2.6921862e-05,0.0,0.0
357860592,0.0,0.0,0.0,0.0
358060608,-4.843591e-05,-3.7157435e-05,0.0,0.0
358260624,0.0,-3.344528e-05,-7.191752e-06,0.0
358460642,-0.00010561408,0.0,-5.1430984e-06,0.0
358660654,0.0,-2.7195236e-05,0.0,0.0
358858166,0.0,0.0,-6.3401667e-06,0.0
359063185,0.0,0.0,0.0,0.0
359260696,-1.827298e-05,-5.7236113e-05,0.0,0.0
359460710,0.0,-4.5250135e-06,0.0,0.0
359660724,0.0,0.0,-1.3051031e-05,0.0
359860737,0.0,-8.5387044e-05,-4.800222e-05,0.0
360060757,0.0,0.0,-2.8405431e-05,0.0
360258268,-7.8581485e-05,0.0,0.0,0.0
360463282,0.0,-8.625303e-05,0.0,0.0
360660795,-0.00015869418,0.0,-1.1631851e-05,0.0
360860809,0.0,0.0,-8.737799e-06,0.0
361060826,-8.7549306e-05,-3.574537e-05,-3.129647e-05,0.0
361260839,-0.00022330211,-4.812438e-05,-2.2825794e-05,0.0
361458352,0.0,0.0,0.0,0.0
361658367,-6.0770512e-06,-2.6191137e-05,0.0,0.0
361860882,0.0,-6.6328575e-05,0.0,0.0
362060898,-9.344522e-05,0.0,0.0,0.0
362260909,-3.853668e-05,-2.5688872e-05,-1.6256936e-05,0.0
362460924,-0.00018511275,-4.349015e-05,-3.958957e-05,0.0
362660938,0.0,0.0,-5.93621e-05,0.0
362858455,-0.00023333411,0.0,-2.3119837e-05,0.0
363058470,0.0,-4.5275403e-05,0.0,0.0
363260981,-5.190905e-05,0.0,0.0,0.0
363460996,0.0,-1.1883107e-05,0.0,0.0
363661009,-4.661893e-05,-0.00011406937,0.0,0.0
363861026,0.0,-1.6464393e-05,-4.198641e-06,0.0
364061038,-0.00012662823,0.0,-5.993512e-06,0.0
364258553,0.0,-3.1725907e-05,0.0,0.0
364458567,0.0,-3.942882e-05,-1.7567334e-06,0.0
364661082,-6.251477e-05,0.0,-8.350748e-06,0.0
364861095,-9.061348e-05,0.0,-3.0985263e-06,0.0
365061108,0.0,-3.497576e-05,-2.1797898e-05,0.0
365261125,-5.3670676e-05,0.0,-1.9753814e-05,0.0
365461142,-3.2602402e-05,-2.150746e-05,-1.0486272e-05,0.0
365658655,-1.3418545e-05,-1.5355638e-05,-1.6432272e-05,0.0
365858665,-0.00013987687,0.0,0.0,0.0
366061182,0.0,-1.18631015e-05,0.0,0.0
366261194,0.0,-5.758025e-05,0.0,0.0
366461213,0.0,0.0,0.0,0.0
366661288,0.0,-1.0524467e-05,0.0,0.0
366861237,0.0,-2.3397388e-05,0.0,0.0
367058754,-0.00016362252,0.0,0.0,0.0
367258765,-7.991487e-06,-9.823921e-06,0.0,0.0
367461278,-5.494792e-06,0.0,-4.2324336e-06,0.0
367661296,-5.253169e-05,0.0,0.0,0.0
367861308,0.0,-4.0498388e-05,0.0,0.0
368061323,-6.383958e-05,0.0,-1.2290523e-05,0.0
368258838,0.0,0.0,-1.379574e-05,0.0
368458849,0.0,-8.314422e-05,-1.705367e-05,0.0
368658864,-6.412899e-05,0.0,0.0,0.0
368861380,-2.2828815e-05,0.0,0.0,0.0
369062493,0.0,-0.00021177532,0.0,0.0
369261408,0.0,0.0,0.0,0.0
369461418,-7.996961e-05,-7.842106e-06,0.0,0.0
369658934,0.0,-4.1855114e-05,0.0,0.0
369858950,-0.00012896044,0.0,-2.1534817e-05,0.0
370058964,-5.0746994e-06,0.0,-2.631137e-05,0.0
370261478,-4.285945e-05,-2.4374769e-05,-2.2942033e-05,0.0
370461491,-0.00018027233,0.0,0.0,0.0
370661503,0.0,0.0,0.0,0.0
370861520,-4.99442e-05,-8.2228005e-05,0.0,0.0
371059033,-2.0017169e-05,0.0,0.0,0.0
371259090,-2.2733088e-06,0.0,-7.0751815e-07,0.0
371459060,0.0,-5.0790895e-05,0.0,0.0
371661574,0.0,0.0,0.0,0.0
371861589,-6.162918e-05,0.0,0.0,0.0
372061605,0.0,-6.114003e-05,0.0,0.0
372261617,-1.1330474e-05,0.0,-1.181742e-05,0.0
372459129,-3.1594096e-05,0.0,-1.031419e-05,0.0
372659146,-1.2101307e-05,-7.1528186e-05,-1.491671e-05,0.0
372859161,0.0,0.0,-1.9148245e-05,0.0
373061672,-6.932901e-05,0.0,0.0,0.0
373261686,-4.057127e-05,-5.093164e-05,0.0,0.0
373461701,-7.2301606e-05,0.0,0.0,0.0
373661715,-2.0215803e-05,0.0,0.0,0.0
373859229,-8.564911e-05,-9.7288495e-05,0.0,0.0
374059240,0.0,0.0,-1.06748785e-05,0.0
374259253,-8.5711996e-05,0.0,-1.9070297e-06,0.0
374461771,0.0,-6.269813e-05,-7.090012e-06,0.0
374661783,-7.009017e-05,0.0,-9.476758e-06,0.0
374861798,0.0,0.0,0.0,0.0
375059308,0.0,-4.691359e-05,-3.1248753e-06,0.0
375259325,0.0,-1.1445137e-05,-4.0543277e-06,0.0
375459339,-6.859437e-05,0.0,0.0,0.0
375659352,0.0,-3.6888134e-05,0.0,0.0
375861866,0.0,0.0,-2.3749276e-06,0.0
376061877,-9.926729e-05,0.0,0.0,0.0
376261896,0.0,-4.4818677e-05,0.0,0.0
376459406,0.0,-1.5275415e-05,-6.5143167e-06,0.0
376659421,-2.9382461e-05,0.0,-2.564976e-06,0.0
376859435,0.0,-3.0709456e-05,-3.5095659e-06,0.0
377059450,0.0,-4.404937e-05,-7.9549945e-06,0.0
377261962,-0.00012869098,0.0,-5.7850143e-06,0.0
377461975,0.0,-2.7412565e-05,-3.989711e-07,0.0
377662013,-3.3249598e-06,-3.6412464e-05,-9.34494e-06,0.0
377859504,-1.5808548e-05,0.0,0.0,0.0
378059515,0.0,-1.8142815e-05,0.0,0.0
378259530,0.0,-2.3532968e-05,0.0,0.0
378459543,-4.5205925e-05,0.0,-1.0030712e-06,0.0
378662056,0.0,-1.9904133e-05,-2.8703657e-06,0.0
378862073,0.0,-1.3418913e-05,-1.2841906e-05,0.0
379062086,-1.6829728e-05,0.0,-6.3477246e-06,0.0
379259597,0.0,-2.1042886e-06,-2.1669107e-06,0.0
379459613,-2.0545534e-07,-5.5396118e-05,-9.692705e-06,0.0
379659626,0.0,0.0,-2.4209126e-06,0.0
379859642,-9.4944146e-05,0.0,-1.9105466e-06,0.0
380062156,-6.622622e-05,-3.7481776e-05,-4.332419e-06,0.0
380262166,-1.1724266e-05,0.0,-5.6961503e-06,0.0
380462184,0.0,-5.6893135e-05,0.0,0.0
380659695,-6.203648e-05,0.0,0.0,0.0
380859709,0.0,0.0,0.0,0.0
381059722,0.0,-7.267351e-05,-2.3148224e-05,0.0
381259735,0.0,0.0,-3.299129e-05,0.0
381462248,-7.3741285e-05,0.0,-2.5248024e-05,0.0
381662262,0.0,-2.5267887e-05,-8.873386e-06,0.0
381862275,0.0,-1.2026875e-05,-1.20503e-05,0.0
382059787,0.0,0.0,0.0,0.0
382259801,-5.2417985e-05,-6.363951e-05,0.0,0.0
382459817,0.0,-2.4326231e-05,0.0,0.0
382659840,-5.7323556e-05,0.0,-1.1190027e-07,0.0
382862341,0.0,-5.57549e-05,-7.0573205e-06,0.0
383062357,0.0,0.0,-7.129644e-06,0.0
383259870,-7.224892e-05,0.0,-1.1240173e-05,0.0
383459882,-0.00040234486,-0.0016964037,-0.00017939313,0.0
383659895,0.03636163,-0.006567394,0.0023274259,0.0
383859911,0.042936664,-0.0064814272,0.008600697,0.0
384059925,0.047261383,-0.008134482,0.014523771,0.0
384262437,0.051294558,-0.01851062,0.01903087,0.0
384462448,0.0660011,-0.027442858,0.020304685,0.0
384659966,0.069040224,-0.032090336,0.017569458,0.0
384859977,0.056009434,-0.040583935,0.017208911,0.0
385059992,0.039310005,-0.050906666,0.018843602,0.0
385260003,0.029728035,-0.06533321,0.019061554,0.0
385460016,0.029404027,-0.07241262,0.016118791,0.0
385662540,0.02958379,-0.07606847,0.013081025,0.0
385862547,0.021241825,-0.07839326,0.012141136,0.0
386060057,0.020908326,-0.08116574,0.012128557,0.0
386260075,0.019052189,-0.08987361,0.014520095,0.0
386460082,-0.0069641746,-0.101826034,0.015400953,0.0
386660099,-0.021795912,-0.1062545,0.010569629,0.0
386860113,-0.017431812,-0.103219256,0.0035429643,0.0
387062632,-0.02511801,-0.10664721,-0.00024205208,0.0
387262642,-0.0206749,-0.10882885,-0.0009329637,0.0
387460153,-0.016661245,-0.096720524,-0.0032363639,0.0
387660165,-0.022103447,-0.014698561,-0.007885758,0.0
387860181,-0.025455724,-0.019045752,-0.008097304,0.0
388060192,-0.04483666,-0.019045752,-0.008097304,0.0
388260210,-0.088665895,-0.019045752,-0.008097304,0.0
388462720,-0.052507706,-0.0005245876,0.008383648,0.0
388662732,0.008552878,0.06770389,0.011835506,0.0
388860244,0.010417754,0.080978595,0.0071582184,0.0
389060262,-0.03141473,0.12288083,0.0015030939,0.0
389260271,-0.061071347,0.090669535,0.0013743748,0.0
389460285,-0.061071347,0.090669535,0.0013057843,0.0
389660298,-0.054364566,0.08915163,0.00015474072,0.0
389862813,-0.010505479,0.09774187,-0.01198739,0.0
390060323,-0.01671472,0.10611186,-0.012722327,0.0
390260338,-0.01671472,0.10611186,-0.012722327,0.0
390460351,-0.072636336,0.07068883,-0.018600825,0.0
390660368,-0.04166411,-0.013817497,-0.0291505,0.0
390860378,0.008554753,-0.052153375,-0.039804425,0.0
391057888,0.0036728855,-0.049176496,-0.04829544,0.0
391262912,-0.016955761,-0.03371421,-0.04911339,0.0
391460422,-0.016955761,-0.03371421,-0.04911339,0.0
391660431,-0.07085605,-0.043381624,-0.050923977,0.0
391860444,-0.010444518,-0.046993468,-0.05506095,0.0
392060456,0.023512278,-0.03060319,-0.05985989,0.0
392260476,-0.059780966,-0.022305226,-0.061090685,0.0
392457988,-0.14539313,-0.010167104,-0.05912428,0.0
392662999,-0.14983904,-0.019043216,-0.055625252,0.0
392863015,-0.112962425,-0.03845519,-0.050595906,0.0
393060525,-0.10300501,-0.034715526,-0.042115677,0.0
393260536,-0.0777575,-0.012373663,-0.030300755,0.0
393460550,-0.07726613,-0.0027341237,-0.01875153,0.0
393660563,-0.09525307,-0.022320231,-0.0082778195,0.0
393858076,-0.07136166,-0.037291057,0.0011336034,0.0
394063091,-0.0388038,-0.03726384,0.010663761,0.0
394260605,-0.035769545,-0.037863255,0.019237561,0.0
394460620,-0.045797613,-0.043898538,0.027667461,0.0
394660636,-0.035852667,-0.05286963,0.034839578,0.0
394860646,-0.017761618,-0.06312249,0.039763927,0.0
395060657,-0.015899047,-0.061576385,0.043432515,0.0
395258173,-0.019380318,-0.05900128,0.04645452,0.0
395463186,-0.010755259,-0.06313934,0.048148904,0.0
395660703,-0.0031544184,-0.06444062,0.04887265,0.0
395860710,-0.007909147,-0.060520634,0.049229935,0.0
396060723,-0.008980418,-0.05952417,0.049485188,0.0
396260739,-0.0020496203,-0.058743645,0.049458936,0.0
396460752,-0.00045951095,-0.05434638,0.048989844,0.0
396658366,0.00088242406,-0.053765852,0.048056427,0.0
396863277,0.009644742,-0.055013552,0.046982292,0.0
397060821,0.017580569,-0.059772458,0.046374425,0.0
397260844,0.020050935,-0.06693569,0.046333168,0.0
397460883,0.022825718,-0.071683206,0.046375316,0.0
397660879,0.019203803,-0.066012725,0.046046875,0.0
397858437,0.016694687,-0.060373478,0.045660038,0.0
398058458,0.0150916865,-0.06059436,0.045289923,0.0
398260955,0.009289753,-0.058113836,0.04505721,0.0
398460972,0.0015576067,-0.058541443,0.045758013,0.0
398660998,-0.0047239154,-0.06080485,0.046636675,0.0
398861018,-0.016315188,-0.06191843,0.04748668,0.0
399061046,-0.025545025,-0.063367926,0.04851706,0.0
399258601,-0.030144576,-0.06681803,0.04971988,0.0
399458623,-0.034641966,-0.0714775,0.051099587,0.0
399661113,-0.03667822,-0.07141991,0.052800775,0.0
399861135,-0.035112616,-0.06934015,0.05463241,0.0
400061160,-0.034096196,-0.06974539,0.055583466,0.0
400261008,-0.042425208,-0.073521204,0.056407753,0.0
400461019,-0.052512497,-0.08052774,0.05771561,0.0
400658529,-0.070776366,-0.08771751,0.059416432,0.0
400858547,-0.08066588,-0.09160537,0.06129351,0.0
401061058,-0.07087252,-0.08219948,0.062485248,0.0
401258573,-0.057856593,-0.07525551,0.063037924,0.0
401461089,-0.0582182,-0.08232745,0.06306355,0.0
401661107,-0.060401987,-0.0899984,0.06406075,0.0
401861115,-0.061043963,-0.084467135,0.06539304,0.0
402058627,-0.05484424,-0.078063525,0.06670269,0.0
402258640,-0.04851273,-0.08308403,0.06726512,0.0
402461157,-0.060083076,-0.09177511,0.06758252,0.0
402661169,-0.07035101,-0.09579017,0.06849844,0.0
402861181,-0.06472712,-0.09324178,0.06908947,0.0
403061192,-0.05566599,-0.08587282,0.06889244,0.0
403261213,-0.053807866,-0.08247548,0.06873088,0.0
403458719,-0.060837444,-0.084979996,0.06887018,0.0
403658733,-0.06717037,-0.087926276,0.069467805,0.0
403861252,-0.05666704,-0.08603006,0.070351385,0.0
404061261,-0.048175436,-0.07940706,0.07066051,0.0
404261275,-0.04870189,-0.07593072,0.07096508,0.0
404461291,-0.05289605,-0.08087161,0.07088582,0.0
404658802,-0.05224845,-0.084791765,0.070244074,0.0
404858815,-0.049464434,-0.08273933,0.069446795,0.0
405058828,-0.054373007,-0.08185548,0.068665825,0.0
405261344,-0.059332475,-0.08306549,0.06852712,0.0
405461358,-0.051163837,-0.082255594,0.068091385,0.0
405661373,-0.041233063,-0.07642174,0.06763844,0.0
405861382,-0.040804543,-0.07720976,0.06723514,0.0
406058895,-0.05073061,-0.08159857,0.06754171,0.0
406258910,-0.055638168,-0.07310464,0.06897609,0.0
406458923,-0.051218204,-0.08145026,0.06969274,0.0
406661440,-0.05258041,-0.102086015,0.06956064,0.0
406861453,-0.057209745,-0.09562131,0.07040992,0.0
407061464,-0.052807726,-0.082542114,0.070754915,0.0
407261480,-0.048160415,-0.091561764,0.069415234,0.0
407458995,-0.053452,-0.10086673,0.067634955,0.0
407659008,-0.05145849,-0.090608746,0.065578945,0.0
407859019,-0.042975694,-0.07670525,0.06315289,0.0
408061534,-0.037764523,-0.0754572,0.060087297,0.0
408261551,-0.039368737,-0.072317936,0.056847844,0.0
408461568,-0.035295207,-0.06199254,0.05389441,0.0
408661576,-0.033439793,-0.06581508,0.050818574,0.0
408859090,-0.037427556,-0.050588313,0.047863305,0.0
409059102,-0.031535383,-0.026226489,0.0453316,0.0
409259117,-0.018639522,-0.03899301,0.042807624,0.0
409461633,-0.033174727,-0.04866578,0.03971581,0.0
409659144,-0.03852824,-0.04346265,0.037113737,0.0
409861661,-0.030561442,-0.021188833,0.035460833,0.0
410061682,-0.033924777,-0.014996563,0.03345841,0.0
410259187,-0.037732236,-0.021873796,0.031939484,0.0
410459198,-0.03141848,-0.01515169,0.032693308,0.0
410659214,-0.021278588,-0.008980277,0.033325963,0.0
410861730,-0.026454749,-0.016086392,0.033169083,0.0
411061745,-0.028407332,-0.0002935555,0.034500852,0.0
411261759,-0.024917569,0.010520042,0.03677214,0.0
411461776,-0.03797164,-3.4383465e-05,0.038811408,0.0
411659283,-0.048131127,-0.0017492789,0.04071998,0.0
411859298,-0.054048285,0.010809023,0.042304277,0.0
412059312,-0.060024127,0.0067053945,0.04335344,0.0
412261830,-0.06344384,-0.004235677,0.04400547,0.0
412461840,-0.063863,0.0009633453,0.0439719,0.0
412661854,-0.057660196,-0.00046315702,0.04354509,0.0
412859368,-0.055232346,-0.011297057,0.042736445,0.0
413059385,-0.0585689,-0.0092571825,0.04189641,0.0
413259395,-0.05449663,-0.00785933,0.040972117,0.0
413459409,-0.046902705,-0.013102648,0.039811447,0.0
413659426,-0.04763683,-0.014687713,0.038293228,0.0
413861940,-0.046593156,-0.0142349275,0.03648827,0.0
414061956,-0.04261102,-0.016391113,0.03463759,0.0
414259467,-0.040298596,-0.016522257,0.032785773,0.0
414459481,-0.037761427,-0.0153540475,0.030989176,0.0
414659495,-0.039378725,-0.0063098595,0.028885717,0.0
414859511,-0.040745974,-0.011410269,0.026538108,0.0
415059573,-0.03654959,-0.023096113,0.022907648,0.0
415262039,-0.034423135,-0.013271629,0.019644318,0.0
415462059,-0.03204067,-0.011464472,0.020251593,0.0
415659567,-0.024144411,-0.018226177,0.021298364,0.0
415860708,-0.01844657,-0.011849507,0.021909522,0.0
416059595,-0.026492309,-0.012316001,0.022851367,0.0
416259610,-0.028591562,-0.0098204445,0.024403041,0.0
416459627,-0.024208952,0.0023947977,0.026534189,0.0
416662146,-0.029221328,0.0011609151,0.028520692,0.0
416862154,-0.038506836,-0.0031649717,0.03029837,0.0
417059667,-0.044476934,0.0028050656,0.031310797,0.0
417259683,-0.057444792,0.004674608,0.03165752,0.0
417459702,-0.05793982,-0.0059770057,0.032949273,0.0
417659737,-0.049672592,-0.0073610824,0.03317523,0.0
417859727,-0.045937542,-0.0022422282,0.03211385,0.0
418062242,-0.041878395,-0.0058196513,0.030635957,0.0
418262261,-0.034407087,-0.004380315,0.028932791,0.0
418459771,-0.030149603,-0.0056471797,0.027286181,0.0
418659784,-0.029623054,-0.013930494,0.02553172,0.0
418859798,-0.02733635,-0.0114971865,0.023620788,0.0
419059816,-0.023816261,-0.008597466,0.02189404,0.0
419262330,-0.021127352,-0.013906259,0.020314587,0.0
419462380,-0.02036777,-0.016499909,0.018754281,0.0
419659860,-0.019930251,-0.012198755,0.017238969,0.0
419859873,-0.017383656,-0.013137623,0.01605963,0.0
420059888,-0.016154513,-0.017380824,0.014985469,0.0
420259900,-0.0155383,-0.015422857,0.014035952,0.0
420459920,-0.01522675,-0.014555698,0.0133312605,0.0
420662429,-0.016676622,-0.016725862,0.012696038,0.0
420862448,-0.018025553,-0.01649267,0.012010136,0.0
421059962,-0.020161167,-0.017141659,0.011274608,0.0
421259974,-0.02532685,-0.019845769,0.010649708,0.0
421459991,-0.025156572,-0.025993481,0.009829923,0.0
421660004,-0.025595352,-0.026259348,0.0091038775,0.0
421860020,-0.028392252,-0.02552958,0.008710363,0.0
422062544,-0.029820276,-0.029572448,0.008257451,0.0
422262554,-0.028316054,-0.031791486,0.0077273524,0.0
422460063,-0.030924913,-0.03069446,0.007534744,0.0
422660081,-0.03585913,-0.033197545,0.0074730143,0.0
422860094,-0.03645497,-0.036124114,0.0074829105,0.0
423060126,-0.037593134,-0.036498114,0.0076796846,0.0
423260123,-0.037842784,-0.038002364,0.008219649,0.0
423462644,-0.039243147,-0.03962291,0.009057401,0.0
423662658,-0.040001743,-0.03914097,0.00985643,0.0
423860172,-0.03876026,-0.038322262,0.010711512,0.0
424060183,-0.040020023,-0.038829997,0.01139669,0.0
424260198,-0.04051927,-0.03872372,0.011869318,0.0
424460215,-0.037601855,-0.037411187,0.012033236,0.0
424660231,-0.036153387,-0.036424693,0.011985016,0.0
424862747,-0.03786168,-0.035626218,0.011747923,0.0
425062767,-0.037167456,-0.03501196,0.011389781,0.0
425260274,-0.03464898,-0.03626729,0.011034155,0.0
425460292,-0.036679376,-0.03570389,0.010731461,0.0
425660305,-0.038350534,-0.03365395,0.0106845,0.0
425860319,-0.0336689,-0.035025258,0.010701608,0.0
426057835,-0.029465951,-0.03476927,0.010647258,0.0
426262851,-0.030440675,-0.033006713,0.010655301,0.0
426460367,-0.032699972,-0.032781947,0.010779058,0.0
426660382,-0.030845683,-0.032683585,0.010841365,0.0
426860395,-0.02990814,-0.030469669,0.010825241,0.0
427060412,-0.030746762,-0.028869217,0.010911011,0.0
427260427,-0.028723603,-0.029686356,0.011046116,0.0
427457943,-0.028294044,-0.028464764,0.011156855,0.0
427662961,-0.029383924,-0.026479255,0.011332598,0.0
427860474,-0.028081868,-0.027086297,0.011458848,0.0
428060489,-0.027452884,-0.025452808,0.011625915,0.0
428260506,-0.029185906,-0.024737814,0.011861274,0.0
428460520,-0.02831099,-0.0252362,0.012170498,0.0
428660552,-0.026970627,-0.024849456,0.012350354,0.0
428858051,-0.029156419,-0.023112664,0.012457354,0.0
429063068,-0.03058212,-0.022764891,0.012499966,0.0
429260583,-0.027724387,-0.022716735,0.012387752,0.0
429460618,-0.028067783,-0.02094682,0.012354594,0.0
429660611,-0.03029464,-0.019195547,0.012497929,0.0
429860630,-0.028974745,-0.01877181,0.012619125,0.0
430060646,-0.026139354,-0.01845571,0.012733473,0.0
430258161,-0.027766034,-0.016333861,0.012804195,0.0
430463175,-0.04087183,-0.02121854,0.012626718,0.0
430660694,-0.038510155,-0.02239863,0.0125578465,0.0
430860706,-0.029045412,-0.020406352,0.013233577,0.0
431060725,-0.036277328,-0.022092054,0.014268902,0.0
431260738,-0.04156908,-0.026125561,0.014939993,0.0
431460756,-0.038037445,-0.026132768,0.01532984,0.0
431658268,-0.036003496,-0.025508236,0.01583069,0.0
431860787,-0.042855136,-0.028470295,0.015900075,0.0
432060801,-0.041648977,-0.031401172,0.015738556,0.0
432260817,-0.038583025,-0.032240752,0.015822086,0.0
432460836,-0.047404453,-0.032137416,0.015718253,0.0
432660850,-0.04955925,-0.036180485,0.015350322,0.0
432858368,-0.04663219,-0.03900769,0.014920721,0.0
433058380,-0.051174596,-0.03518081,0.014830349,0.0
433260896,-0.054782603,-0.03488519,0.015102864,0.0
433460915,-0.05240269,-0.039648242,0.015549298,0.0
433660928,-0.051594242,-0.039855056,0.0161121,0.0
433860945,-0.05144611,-0.037353,0.016820265,0.0
434060957,-0.050052688,-0.037559528,0.017347256,0.0
434258476,-0.04920987,-0.03760874,0.0176217,0.0
434458495,-0.048146673,-0.03742424,0.017763736,0.0
434661009,-0.047911942,-0.038607832,0.017725552,0.0
434861026,-0.047957502,-0.038932007,0.017637473,0.0
435061040,-0.04955914,-0.03785457,0.017543664,0.0
435261059,-0.04784966,-0.038878378,0.017439112,0.0
435461073,-0.046507787,-0.04130713,0.017118538,0.0
435658590,-0.05019125,-0.04017175,0.016829599,0.0
435858606,-0.04782407,-0.040888038,0.016820196,0.0
436061120,-0.042154033,-0.043948457,0.017005907,0.0
436261142,-0.039810114,-0.04224836,0.017132573,0.0
436461153,-0.04163069,-0.041221466,0.016923321,0.0
436661173,-0.03903054,-0.044681318,0.016430793,0.0
436861191,-0.031903226,-0.046313766,0.015514304,0.0
437058705,-0.029841628,-0.04305762,0.014665122,0.0
437258723,-0.029216658,-0.04176827,0.014207216,0.0
437461239,-0.027237382,-0.045602184,0.0136858225,0.0
437661252,-0.026168011,-0.04452338,0.012958905,0.0
437861272,-0.024371294,-0.042305503,0.012490162,0.0
438061286,-0.024985142,-0.043101683,0.012653277,0.0
438261306,-0.021546138,-0.04355355,0.01303238,0.0
438458821,-0.01571445,-0.042548317,0.013349567,0.0
438658835,-0.018603744,-0.041020982,0.013469877,0.0
438861352,-0.025506118,-0.039225753,0.013331242,0.0
439061372,-0.025860807,-0.039366398,0.013288938,0.0
439261387,-0.023114312,-0.03699101,0.013363162,0.0
439461401,-0.024666369,-0.0342445,0.013460384,0.0
439658920,-0.018405857,-0.033326123,0.013871643,0.0
439858934,-0.012011027,-0.033133447,0.014371241,0.0
440058955,-0.014586332,-0.031732466,0.014536834,0.0
440261467,-0.015685782,-0.030297361,0.014315177,0.0
440461486,-0.014037962,-0.029190084,0.014046749,0.0
440661505,-0.015868861,-0.028043265,0.013937436,0.0
440861518,-0.018328052,-0.028564706,0.013882775,0.0
441059037,-0.01623965,-0.02983256,0.01368946,0.0
441259052,-0.016215483,-0.027585497,0.013229422,0.0
441459068,-0.01609767,-0.025269223,0.012844038,0.0
441661585,-0.013462094,-0.026393024,0.012549221,0.0
441861603,-0.015561525,-0.02705208,0.012094006,0.0
442061621,-0.023216637,-0.025883792,0.011679015,0.0
442261643,-0.022305004,-0.024369951,0.011449851,0.0
442459155,-0.021079853,-0.025414491,0.0111461915,0.0
442659170,-0.02718888,-0.024637682,0.010835622,0.0
442859187,-0.028385842,-0.02221366,0.0106462985,0.0
443061710,-0.023986664,-0.022499947,0.0105690835,0.0
443261719,-0.025410492,-0.023091223,0.010468567,0.0
443461740,-0.031057883,-0.022407893,0.010369929,0.0
443661759,-0.031838723,-0.02388955,0.0102221025,0.0
443859272,-0.028262483,-0.02464878,0.010140972,0.0
444059294,-0.030670017,-0.022508789,0.0102719935,0.0
444259307,-0.034007728,-0.021219786,0.010587516,0.0
444461826,-0.034703758,-0.023127416,0.01062474,0.0
444661845,-0.03820053,-0.024731223,0.010515292,0.0
444861857,-0.04217612,-0.02462345,0.010497364,0.0
445059410,-0.04393329,-0.028039483,0.010637963,0.0
445259393,-0.04401814,-0.033700395,0.011181051,0.0
445459410,-0.045233835,-0.034709856,0.011905955,0.0
445659428,-0.04788402,-0.032705896,0.012635738,0.0
445861945,-0.047766335,-0.03533086,0.013420822,0.0
446061960,-0.049908817,-0.038568985,0.014161979,0.0
446262001,-0.058644347,-0.040352557,0.01485196,0.0
446459539,-0.059182294,-0.04348245,0.015509997,0.0
446659633,-0.053216167,-0.043316375,0.016692879,0.0
446859587,-0.058970794,-0.039324906,0.017701114,0.0
447059614,-0.06430524,-0.04245245,0.018244255,0.0
447259647,-0.056629423,-0.047618683,0.018515667,0.0
447462145,-0.056323297,-0.045894656,0.01879431,0.0
447662165,-0.05852008,-0.045183256,0.018968813,0.0
447859728,-0.054668546,-0.049669214,0.019595439,0.0
448059758,-0.05129604,-0.050296627,0.020665178,0.0
448259783,-0.049295526,-0.0506847,0.021601908,0.0
448459816,-0.046003584,-0.054420304,0.022278972,0.0
448662308,-0.045799337,-0.057426248,0.022638258,0.0
448862333,-0.042330503,-0.058357008,0.02272683,0.0
449059897,-0.038073726,-0.057675492,0.022566555,0.0
449259745,-0.036852594,-0.0587913,0.022026535,0.0
449459819,-0.034767006,-0.058982395,0.02116405,0.0
449659780,-0.03014273,-0.051748913,0.020506103,0.0
449859796,-0.028892431,-0.048539266,0.01999324,0.0
450062314,-0.027701905,-0.053633038,0.01909141,0.0
450262332,-0.025987994,-0.054544788,0.018383233,0.0
450459852,-0.028256776,-0.051299173,0.017756037,0.0
450659868,-0.029873997,-0.045725692,0.016996419,0.0
450859885,-0.026834328,-0.043334793,0.016180873,0.0
451059902,-0.024834493,-0.043703176,0.015175017,0.0
451259922,-0.02438812,-0.040421765,0.01415068,0.0
451462436,-0.023734974,-0.035073664,0.0132603515,0.0
451662457,-0.023161866,-0.033582605,0.0123796705,0.0
451859978,-0.0225108,-0.03475141,0.011428444,0.0
452059995,-0.019956538,-0.032527205,0.010477277,0.0
452260013,-0.021135267,-0.02817192,0.009765529,0.0
452460031,-0.020981472,-0.028242493,0.00938786,0.0
452660053,-0.01848963,-0.02813445,0.008973462,0.0
452862570,-0.019985063,-0.026098454,0.008616315,0.0
453062643,-0.022846362,-0.024799885,0.008338479,0.0
453260102,-0.019345915,-0.026589224,0.0080867475,0.0
453460120,-0.0179182,-0.02640257,0.007837615,0.0
453660137,-0.02344741,-0.025288003,0.0077175777,0.0
453860158,-0.02540074,-0.027937524,0.0077381106,0.0
454060176,-0.019993251,-0.029336752,0.0077811345,0.0
454262695,-0.021306502,-0.026051532,0.007807118,0.0
454462713,-0.030424027,-0.023831267,0.007974451,0.0
454660232,-0.029725555,-0.027877433,0.008011438,0.0
454860251,-0.024356358,-0.030283669,0.007813252,0.0
455060266,-0.030171769,-0.026947323,0.007547107,0.0
455260286,-0.033856373,-0.029016081,0.0074456264,0.0
455457804,-0.029892813,-0.034530785,0.007365191,0.0
455662821,-0.029105393,-0.03398156,0.0075565684,0.0
455860340,-0.03600844,-0.03210141,0.007954408,0.0
456060358,-0.03964603,-0.03241498,0.008238173,0.0
456260379,-0.032514393,-0.037220135,0.008597448,0.0
456460398,-0.03034834,-0.039157826,0.009252161,0.0
456660414,-0.032261364,-0.03441597,0.009913066,0.0
456857932,-0.033762988,-0.036552805,0.0101539735,0.0
457062953,-0.034114912,-0.040449392,0.009899529,0.0
457260472,-0.039512213,-0.0386467,0.009419084,0.0
457460501,-0.038750324,-0.037424996,0.009309035,0.0
457660512,-0.037447907,-0.03968772,0.009270562,0.0
457860526,-0.039757494,-0.039527804,0.009019483,0.0
458060547,-0.03866,-0.035508417,0.008914692,0.0
458258064,-0.034768827,-0.03407118,0.00908484,0.0
458463082,-0.032982998,-0.036476124,0.009374629,0.0
458660604,-0.035008214,-0.037037347,0.009547817,0.0
458860626,-0.036017425,-0.035797812,0.009688346,0.0
459060646,-0.0324518,-0.037034478,0.009913321,0.0
459260659,-0.02974585,-0.03909588,0.010019476,0.0
459460684,-0.03223209,-0.03904485,0.009841658,0.0
459658197,-0.03202843,-0.041855328,0.009675681,0.0
459863217,-0.029422848,-0.04445364,0.009577505,0.0
460060734,-0.030591063,-0.044198845,0.009409601,0.0
460260752,-0.026740264,-0.04341791,0.009454237,0.0
460460772,-0.02492062,-0.044181768,0.009811261,0.0
460660792,-0.024583444,-0.045030635,0.01004329,0.0
460858312,-0.022052804,-0.045443494,0.009935478,0.0
461058327,-0.021949202,-0.046427697,0.009360266,0.0
461260851,-0.02337646,-0.04661303,0.0088339,0.0
461460869,-0.028129939,-0.0474735,0.008613206,0.0
461660890,-0.026614347,-0.048552226,0.00857087,0.0
461860908,-0.020494621,-0.043738797,0.008750012,0.0
462060925,-0.023460945,-0.039592713,0.0089439815,0.0
462258442,-0.028200317,-0.03908924,0.00890736,0.0
462458463,-0.02667138,-0.03957438,0.008681148,0.0
462660985,-0.02609394,-0.037481304,0.008368349,0.0
462861040,-0.029079273,-0.033029083,0.008095276,0.0
463061020,-0.03277678,-0.033418175,0.007950662,0.0
463261039,-0.031132355,-0.033755854,0.0077784127,0.0
463461062,-0.033428233,-0.028717468,0.0077603273,0.0
463658578,-0.039930508,-0.02846789,0.0077567105,0.0
463858598,-0.03865094,-0.03181736,0.0076927515,0.0
464061119,-0.04020892,-0.027792864,0.0077854553,0.0
464261139,-0.045427114,-0.02583773,0.008216302,0.0
464461161,-0.044987414,-0.031248782,0.008664661,0.0
464661175,-0.04471107,-0.029452723,0.009210798,0.0
464861199,-0.05173481,-0.024574108,0.009826319,0.0
465058717,-0.051695723,-0.027774977,0.010267242,0.0
465258736,-0.046874695,-0.02961083,0.0107575385,0.0
465461254,-0.051736448,-0.023213206,0.011293139,0.0
465661276,-0.05673726,-0.026440673,0.011647516,0.0
465861297,-0.054519992,-0.03618141,0.01180535,0.0
466061318,-0.053014867,-0.03462368,0.01238886,0.0
466258836,-0.058139615,-0.031246746,0.013525518,0.0
466458852,-0.06245812,-0.04047538,0.014543199,0.0
466658872,-0.05839948,-0.04461326,0.015447351,0.0
