timestamp,timestamp_sample,states[0],states[1],states[2],states[3],states[4],states[5],states[6],states[7],states[8],states[9],states[10],states[11],states[12],states[13],states[14],states[15],states[16],states[17],states[18],states[19],states[20],states[21],states[22],states[23],covariances[0],covariances[1],covariances[2],covariances[3],covariances[4],covariances[5],covariances[6],covariances[7],covariances[8],covariances[9],covariances[10],covariances[11],covariances[12],covariances[13],covariances[14],covariances[15],covariances[16],covariances[17],covariances[18],covariances[19],covariances[20],covariances[21],covariances[22],covariances[23],n_states
218271347,218172067,-0.8684294,-0.012946801,-0.0033882263,-0.49563226,0.03685624,-0.002260218,0.06406348,13.331956,0.66349083,4.3970714,-3.332822e-06,-5.983978e-06,1.1919916e-05,0.0013443473,0.0005382379,-0.0004437363,0.25746047,-0.037612792,0.4037317,0.0,0.0,0.0,0.0,0.0,2.0924024e-05,5.1082447e-06,5.246286e-06,6.594634e-05,0.009372344,0.009374338,0.011059643,0.061816312,0.061830472,0.15378743,2.0733448e-11,2.0981526e-11,4.1592847e-11,5.0000185e-08,5.8342252e-08,5.0000086e-08,0.0,0.0,0.0,0.0,0.0,0.0,0.0,0.0,24
219279217,219179608,-0.8666455,-0.013011081,-0.0034776889,-0.4987425,0.03601164,0.0015490205,0.06564006,13.353369,0.66615945,4.4312844,-3.4266473e-06,-6.2206736e-06,1.0322256e-05,0.001343795,0.00054019183,-0.00044741947,0.25746047,-0.037612792,0.4037317,0.0,0.0,0.0,0.0,0.0,2.0959376e-05,5.135508e-06,5.275404e-06,6.5898166e-05,0.009384128,0.009382391,0.011105248,0.061188128,0.061196715,0.1543831,2.0491138e-11,2.0742984e-11,4.1581315e-11,5.0000086e-08,5.8339975e-08,5.0000086e-08,0.0,0.0,0.0,0.0,0.0,0.0,0.0,0.0,24
220276505,220177273,-0.8660933,-0.010853225,-0.0025828662,-0.49975786,0.035393734,-0.008462062,0.06252412,13.377308,0.64594436,4.444704,-3.451031e-06,-6.5278373e-06,1.025572e-05,0.0013428014,0.0005393619,-0.00044456348,0.25746047,-0.037612792,0.4037317,0.0,0.0,0.0,0.0,0.0,2.1129652e-05,5.130104e-06,5.269277e-06,6.599601e-05,0.009334778,0.009332189,0.011057591,0.060302924,0.060307134,0.1527229,2.025878e-11,2.0506154e-11,4.16269e-11,5.0000086e-08,5.8326567e-08,5.0000086e-08,0.0,0.0,0.0,0.0,0.0,0.0,0.0,0.0,24
221274181,221174938,-0.8668662,-0.0024884713,-0.0035322378,-0.49852225,0.034046385,0.006900627,0.052807495,13.409688,0.6608627,4.440133,-3.5839646e-06,-6.3795205e-06,1.2019652e-05,0.001342627,0.00053742225,-0.00043490375,0.25746047,-0.037612792,0.4037317,0.0,0.0,0.0,0.0,0.0,2.1395006e-05,5.1139714e-06,5.243253e-06,6.5993576e-05,0.009297423,0.00929546,0.011072289,0.059442535,0.0594437,0.15316108,2.0053296e-11,2.0289277e-11,4.1669026e-11,5.0000086e-08,5.8301307e-08,5.0000086e-08,0.0,0.0,0.0,0.0,0.0,0.0,0.0,0.0,24
222271801,222172603,-0.8627077,0.0076849684,-0.021151429,-0.50520194,0.01133476,0.008377721,0.036955014,13.413684,0.6543724,4.4052258,-3.7244615e-06,-6.446044e-06,1.5948373e-05,0.0013412647,0.0005312578,-0.000421473,0.25746047,-0.037612792,0.4037317,0.0,0.0,0.0,0.0,0.0,2.2596718e-05,5.118235e-06,5.2137575e-06,6.4652144e-05,0.00922574,0.0092247175,0.011020824,0.05853715,0.058536567,0.15176958,1.9863243e-11,2.0081993e-11,4.1636687e-11,5.0000082e-08,5.8268636e-08,5e-08,0.0,0.0,0.0,0.0,0.0,0.0,0.0,0.0,24
223279572,223180147,-0.85412574,0.015798897,0.0056915297,-0.51979536,0.071226634,-0.12794235,0.0021210106,13.430079,0.63272315,4.352014,-3.8847033e-06,-6.27831e-06,2.1834452e-05,0.001340983,0.0005231939,-0.00041538186,0.25746047,-0.037612792,0.4037317,0.0,0.0,0.0,0.0,0.0,2.49386e-05,5.0694684e-06,5.1822535e-06,6.261841e-05,0.009261589,0.009257857,0.011065704,0.057944417,0.057942867,0.15281455,1.9714692e-11,1.991599e-11,4.1681242e-11,5.0000086e-08,5.822293e-08,5.0000086e-08,0.0,0.0,0.0,0.0,0.0,0.0,0.0,0.0,24
224276934,224177814,-0.8662326,-0.017809208,0.005645187,-0.49929172,-0.089143276,-0.081111915,-0.34572878,13.505115,0.4795316,4.087353,-3.641978e-06,-6.132428e-06,2.7779995e-05,0.0013431924,0.0005135459,-0.0004314648,0.25746047,-0.037612792,0.4037317,0.0,0.0,0.0,0.0,0.0,2.4105715e-05,5.005673e-06,5.1696443e-06,6.359772e-05,0.009338087,0.009348234,0.011025104,0.05715652,0.057154465,0.15155323,1.9555376e-11,1.9736452e-11,4.170573e-11,5.0000168e-08,5.81523e-08,5e-08,0.0,0.0,0.0,0.0,0.0,0.0,0.0,0.0,24
225274605,225175482,-0.87255126,-0.016018108,0.0028988023,-0.48825142,-0.08282134,0.11876492,-0.59409046,13.39059,0.49606094,3.5710125,-3.5336948e-06,-6.4586507e-06,3.3297943e-05,0.0013408954,0.0005025854,-0.00043780767,0.25746047,-0.037612792,0.4037317,0.0,0.0,0.0,0.0,0.0,2.401833e-05,4.9332134e-06,5.088712e-06,6.38153e-05,0.009301273,0.009295582,0.01103529,0.05637237,0.056370765,0.1522327,1.9414647e-11,1.9565242e-11,4.1718674e-11,5.000009e-08,5.809204e-08,5.000009e-08,0.0,0.0,0.0,0.0,0.0,0.0,0.0,0.0,24
226272440,226173149,-0.8820954,-0.004041436,0.012839399,-0.4708785,-0.13645548,0.1886562,-0.7640772,13.232487,0.66418904,2.8914053,-3.792849e-06,-6.6375987e-06,3.872634e-05,0.0013386527,0.00049554225,-0.0004470525,0.25746047,-0.037612792,0.4037317,0.0,0.0,0.0,0.0,0.0,2.3348057e-05,4.897371e-06,5.011396e-06,6.462766e-05,0.009236451,0.009234395,0.011002803,0.055684764,0.055683352,0.15109177,1.9311726e-11,1.9436484e-11,4.1734897e-11,5e-08,5.8055623e-08,5e-08,0.0,0.0,0.0,0.0,0.0,0.0,0.0,0.0,24
227270276,227170818,-0.88838416,0.0029923555,0.009968182,-0.45898303,0.03903223,0.07622735,-0.8777575,13.150099,0.8376028,2.0221603,-4.376858e-06,-6.5377417e-06,4.435107e-05,0.0013380989,0.0004903479,-0.00043891554,0.25746047,-0.037612792,0.4037317,0.0,0.0,0.0,0.0,0.0,2.3097175e-05,4.856303e-06,4.9815912e-06,6.473344e-05,0.009148142,0.009154769,0.01102353,0.05502424,0.055022918,0.15186073,1.9233812e-11,1.9343083e-11,4.1691744e-11,5e-08,5.8040186e-08,5e-08,0.0,0.0,0.0,0.0,0.0,0.0,0.0,0.0,24
228277467,228178365,-0.88204086,0.0019939295,0.0034645267,-0.47115606,0.121334545,0.035998262,-0.9572431,13.26964,0.92200756,1.0919327,-4.3690547e-06,-5.884768e-06,4.9305618e-05,0.0013405815,0.00048481175,-0.0004517869,0.25746047,-0.037612792,0.4037317,0.0,0.0,0.0,0.0,0.0,2.489916e-05,4.851789e-06,4.973913e-06,6.315903e-05,0.009159127,0.009162661,0.01108835,0.054668132,0.054667402,0.15316209,1.9186788e-11,1.9287301e-11,4.1726775e-11,5.000017e-08,5.8037283e-08,5.000017e-08,0.0,0.0,0.0,0.0,0.0,0.0,0.0,0.0,24
229275161,229176035,-0.87062025,-0.0009150335,-0.0023074592,-0.4919495,0.1158426,-0.029318029,-0.99170995,13.408622,0.9033154,0.022730436,-4.158404e-06,-5.723867e-06,5.4501354e-05,0.0013414472,0.00047801997,-0.00042696673,0.25746047,-0.037612792,0.4037317,0.0,0.0,0.0,0.0,0.0,2.7555952e-05,4.8566553e-06,4.96017e-06,6.067598e-05,0.009074078,0.0090723615,0.011132177,0.053974934,0.05397473,0.1555215,1.9134794e-11,1.9227949e-11,4.1752195e-11,5.0000086e-08,5.803672e-08,5.0000086e-08,0.0,0.0,0.0,0.0,0.0,0.0,0.0,0.0,24
230272837,230173705,-0.87215596,-0.015489536,-0.010826093,-0.48886305,0.07764642,-0.12094961,-0.994112,13.561859,0.7612387,-0.9785106,-3.632692e-06,-5.841464e-06,5.956158e-05,0.0013428435,0.0004707632,-0.00044016435,0.25746047,-0.037612792,0.4037317,0.0,0.0,0.0,0.0,0.0,2.8008206e-05,4.8759007e-06,4.99808e-06,6.0336104e-05,0.00904563,0.009045391,0.01105291,0.05333951,0.053339265,0.1535195,1.9095106e-11,1.9180917e-11,4.1772297e-11,5.0000086e-08,5.803003e-08,5e-08,0.0,0.0,0.0,0.0,0.0,0.0,0.0,0.0,24
231270655,231171376,-0.8750381,-0.015668806,-0.014694106,-0.4835773,-0.121484146,-0.029693851,-1.0096484,13.566574,0.6762977,-2.0105555,-3.5977307e-06,-5.829883e-06,6.418806e-05,0.0013432846,0.00046486873,-0.00043147805,0.25746047,-0.037612792,0.4037317,0.0,0.0,0.0,0.0,0.0,2.815161e-05,4.878205e-06,4.9952228e-06,6.0302573e-05,0.009009953,0.009029096,0.011041322,0.05271868,0.05271841,0.15356188,1.9054147e-11,1.912731e-11,4.178253e-11,5e-08,5.801775e-08,5e-08,0.0,0.0,0.0,0.0,0.0,0.0,0.0,0.0,24
232278027,232178925,-0.8796174,-0.016118264,0.0024008376,-0.47540262,-0.14237352,-0.049344525,-1.0248593,13.415631,0.5580283,-3.0443985,-3.2870178e-06,-6.4181922e-06,6.8632704e-05,0.0013439894,0.00045668206,-0.00042726728,0.25746047,-0.037612792,0.4037317,0.0,0.0,0.0,0.0,0.0,2.7984672e-05,4.869816e-06,5.0018807e-06,6.0632112e-05,0.009047317,0.009054079,0.011074095,0.052422322,0.052423194,0.15406425,1.9027621e-11,1.908878e-11,4.180195e-11,5.0000086e-08,5.800529e-08,5.0000086e-08,0.0,0.0,0.0,0.0,0.0,0.0,0.0,0.0,24
233275703,233176597,-0.89551103,-0.010767602,0.009735438,-0.44480276,-0.097491816,0.022308894,-1.0194445,13.271167,0.46026078,-4.1126204,-3.1795669e-06,-7.2527196e-06,7.2636256e-05,0.0013430762,0.00044932682,-0.00040347638,0.25746047,-0.037612792,0.4037317,0.0,0.0,0.0,0.0,0.0,2.570644e-05,4.871159e-06,4.9885575e-06,6.306195e-05,0.008994574,0.008987627,0.011065403,0.05182648,0.05182753,0.1540903,1.8990979e-11,1.9044322e-11,4.1822983e-11,5.0000086e-08,5.799962e-08,5.0000086e-08,0.0,0.0,0.0,0.0,0.0,0.0,0.0,0.0,24
234273389,234174269,-0.9085662,-0.00859432,0.011902978,-0.4174829,0.01848189,0.12554197,-0.9858177,13.18671,0.5259737,-4.950023,-3.4913382e-06,-7.599972e-06,7.639152e-05,0.0013422511,0.00044533744,-0.00043907063,0.25746047,-0.037612792,0.4037317,0.0,0.0,0.0,0.0,0.0,2.3657716e-05,4.86708e-06,4.9873524e-06,6.489391e-05,0.008980197,0.008972975,0.011071605,0.051378787,0.05137885,0.1542904,1.8963235e-11,1.9010541e-11,4.176675e-11,5.0004193e-08,5.8004748e-08,5.0000086e-08,0.0,0.0,0.0,0.0,0.0,0.0,0.0,0.0,24
235271049,235171942,-0.9155905,-0.004742376,0.0012251409,-0.40208235,0.069939084,0.10492273,-1.1806115,13.244281,0.6680118,-5.7807,-3.7808263e-06,-7.4974528e-06,7.9757796e-05,0.0013433269,0.00044222915,-0.00049095444,0.25746047,-0.037612792,0.4037317,0.0,0.0,0.0,0.0,0.0,2.2686478e-05,4.8435927e-06,4.9800133e-06,6.601543e-05,0.009065432,0.009070038,0.011027283,0.050997313,0.050996225,0.15262794,1.89361e-11,1.897771e-11,4.17853e-11,5.0002626e-08,5.8003735e-08,5.0000086e-08,0.0,0.0,0.0,0.0,0.0,0.0,0.0,0.0,24
236278612,236179494,-0.91989523,-0.009497235,-0.0065760156,-0.39199406,0.11757664,-0.045636736,-2.9366171,13.354687,0.74088305,-7.930642,-3.993326e-06,-7.062338e-06,8.364834e-05,0.0013466597,0.0004375863,-0.0005445174,0.25746047,-0.037612792,0.4037317,0.0,0.0,0.0,0.0,0.0,2.2260083e-05,4.707469e-06,4.8313404e-06,6.6634995e-05,0.009615616,0.009615117,0.01107863,0.050908383,0.050908007,0.15347932,1.881528e-11,1.8850628e-11,4.1814472e-11,5.0000086e-08,5.794834e-08,5.0000086e-08,0.0,0.0,0.0,0.0,0.0,0.0,0.0,0.0,24
237276310,237177168,-0.91469425,-0.012055671,-0.007327655,-0.4039003,-0.02558946,-0.051385287,-2.8145852,13.452647,0.7242604,-10.744635,-3.868733e-06,-6.7064666e-06,8.6841705e-05,0.0013483671,0.00043257882,-0.00051668397,0.25746047,-0.037612792,0.4037317,0.0,0.0,0.0,0.0,0.0,2.3528992e-05,4.6574733e-06,4.759631e-06,6.5512955e-05,0.009195301,0.009199888,0.011040498,0.050644718,0.050645255,0.15196587,1.878434e-11,1.8815283e-11,4.183235e-11,5.0000256e-08,5.7903126e-08,5e-08,0.0,0.0,0.0,0.0,0.0,0.0,0.0,0.0,24
238273973,238174842,-0.9137206,-0.006667706,-0.0038312138,-0.40627024,-0.047090035,-0.024035411,-2.7899678,13.430705,0.65445346,-13.655421,-3.5608264e-06,-6.7849805e-06,9.070612e-05,0.0013472799,0.00042993383,-0.0004749635,0.25746047,-0.037612792,0.4037317,0.0,0.0,0.0,0.0,0.0,2.402112e-05,4.663509e-06,4.7437547e-06,6.483528e-05,0.00894182,0.008948089,0.011048829,0.050247435,0.050248343,0.15242627,1.8798945e-11,1.8825476e-11,4.177847e-11,5.0000086e-08,5.788424e-08,5.0000086e-08,0.0,0.0,0.0,0.0,0.0,0.0,0.0,0.0,24
239271754,239172517,-0.9144445,-0.015227355,-0.0011914916,-0.40442303,-0.056838397,0.002471502,-2.8539934,13.407572,0.6310827,-16.53279,-3.3794993e-06,-6.779108e-06,9.445778e-05,0.0013473247,0.000427453,-0.00042072317,0.25746047,-0.037612792,0.4037317,0.0,0.0,0.0,0.0,0.0,2.4225397e-05,4.7015137e-06,4.782116e-06,6.478528e-05,0.0088502,0.008854443,0.0110540185,0.04984554,0.04984671,0.15292755,1.8824265e-11,1.8847802e-11,4.180218e-11,5.000165e-08,5.7881717e-08,5e-08,0.0,0.0,0.0,0.0,0.0,0.0,0.0,0.0,24
240279228,240180071,-0.9120933,-0.012588647,0.0022140527,-0.4097837,-0.038909055,0.046904773,-2.9502995,13.329934,0.60789794,-19.467249,-3.41482e-06,-7.236223e-06,9.809425e-05,0.0013474493,0.000425656,-0.00038804545,0.25746047,-0.037612792,0.4037317,0.0,0.0,0.0,0.0,0.0,2.5021627e-05,4.7547387e-06,4.8112074e-06,6.42137e-05,0.008912037,0.008911618,0.011052685,0.049789246,0.049790557,0.15209065,1.8849247e-11,1.8870773e-11,4.1836437e-11,5.000866e-08,5.7886584e-08,5.0000086e-08,0.0,0.0,0.0,0.0,0.0,0.0,0.0,0.0,24
241276851,241177747,-0.9118487,-0.008579967,0.0013282665,-0.41043472,0.04394565,0.08321067,-2.9610415,13.296707,0.681124,-22.416073,-3.7183056e-06,-7.3967894e-06,0.000101745994,0.0013475483,0.00042268485,-0.00037263363,0.25746047,-0.037612792,0.4037317,0.0,0.0,0.0,0.0,0.0,2.5396985e-05,4.782595e-06,4.8254074e-06,6.401451e-05,0.008866439,0.008866501,0.011052948,0.049407963,0.049408775,0.15266709,1.8845652e-11,1.8866488e-11,4.1858916e-11,5.0016187e-08,5.7891864e-08,5.0000086e-08,0.0,0.0,0.0,0.0,0.0,0.0,0.0,0.0,24
242274676,242175424,-0.91466135,-0.0042192484,-0.0115558375,-0.40403396,0.03756078,0.04180629,-2.9760988,13.397233,0.7977073,-25.365505,-3.6499e-06,-6.9458733e-06,0.00010559442,0.0013476567,0.00042062474,-0.00035896496,0.25746047,-0.037612792,0.4037317,0.0,0.0,0.0,0.0,0.0,2.5086667e-05,4.813635e-06,4.8527086e-06,6.414241e-05,0.0088676,0.00886609,0.011062367,0.04912356,0.049123794,0.15323544,1.8840655e-11,1.886122e-11,4.1807648e-11,5.0021082e-08,5.7893548e-08,5e-08,0.0,0.0,0.0,0.0,0.0,0.0,0.0,0.0,24
243272360,243173101,-0.9196697,-0.0073564607,-0.00943571,-0.39251053,-0.069657624,-0.033993877,-3.0050936,13.485003,0.78830945,-28.309225,-3.0393828e-06,-6.5169756e-06,0.00010896551,0.0013491827,0.0004193235,-0.00034910662,0.25746047,-0.037612792,0.4037317,0.0,0.0,0.0,0.0,0.0,2.4357452e-05,4.823936e-06,4.871524e-06,6.502691e-05,0.008869494,0.008868687,0.011020057,0.04883276,0.04883278,0.15194678,1.882954e-11,1.884905e-11,4.1824516e-11,5.0024138e-08,5.78932e-08,5e-08,0.0,0.0,0.0,0.0,0.0,0.0,0.0,0.0,24
244279835,244180658,-0.9263971,-0.013476089,0.0056162067,-0.37626505,-0.13149951,-0.05037197,-2.979236,13.368991,0.6358457,-31.242222,-2.4684005e-06,-7.180875e-06,0.00011191881,0.0013503376,0.00041603902,-0.00034569376,0.25746047,-0.037612792,0.4037317,0.0,0.0,0.0,0.0,0.0,2.3179315e-05,4.8458955e-06,4.9035325e-06,6.638311e-05,0.008905473,0.008907036,0.011027521,0.048828002,0.048827954,0.15129997,1.88299e-11,1.884667e-11,4.1850124e-11,5.002938e-08,5.7896692e-08,5e-08,0.0,0.0,0.0,0.0,0.0,0.0,0.0,0.0,24
245277434,245178334,-0.9278748,-0.010347527,0.009605176,-0.37262443,-0.05121146,0.10245303,-2.9961913,13.229284,0.5923911,-34.14788,-2.4582505e-06,-7.995309e-06,0.00011451337,0.0013500149,0.00041353362,-0.0003313784,0.25746047,-0.037612792,0.4037317,0.0,0.0,0.0,0.0,0.0,2.2976468e-05,4.865288e-06,4.9014748e-06,6.6738154e-05,0.008917468,0.008909896,0.011050943,0.048608974,0.04860908,0.15206882,1.8820868e-11,1.883638e-11,4.1867943e-11,5.0037155e-08,5.7904014e-08,5.0000086e-08,0.0,0.0,0.0,0.0,0.0,0.0,0.0,0.0,24
246275149,246176012,-0.9288636,0.002635341,0.008717524,-0.37030995,0.063141406,0.14098752,-2.9902902,13.118445,0.73310363,-37.00867,-3.3108597e-06,-8.61442e-06,0.000117319134,0.0013498703,0.00041137866,-0.00033067388,0.25746047,-0.037612792,0.4037317,0.0,0.0,0.0,0.0,0.0,2.280937e-05,4.875863e-06,4.901947e-06,6.667402e-05,0.008933688,0.008940211,0.011030505,0.04851713,0.04851678,0.15105058,1.8816322e-11,1.8831764e-11,4.180246e-11,5.0045468e-08,5.791215e-08,5e-08,0.0,0.0,0.0,0.0,0.0,0.0,0.0,0.0,24
247272793,247173690,-0.933353,0.0068677953,-0.0012176863,-0.35889202,0.16520251,0.06376254,-2.7849936,13.1957,0.9423256,-39.869484,-4.297646e-06,-8.126709e-06,0.000119756995,0.0013505684,0.00040930838,-0.00032691378,0.25746047,-0.037612792,0.4037317,0.0,0.0,0.0,0.0,0.0,2.1924769e-05,4.8699e-06,4.9224086e-06,6.76422e-05,0.008816622,0.008832052,0.011043904,0.048317485,0.048317432,0.15187371,1.8811378e-11,1.8827457e-11,4.180393e-11,5.005364e-08,5.7920047e-08,5.0000086e-08,0.0,0.0,0.0,0.0,0.0,0.0,0.0,0.0,24
248270668,248171369,-0.93656313,-0.0031130868,-0.013531633,-0.350224,0.115114175,-0.114868134,-1.924257,13.455166,1.0040687,-42.260303,-4.226257e-06,-6.94834e-06,0.0001206272,0.0013492889,0.00040793075,-0.000301616,0.25746047,-0.037612792,0.4037317,0.0,0.0,0.0,0.0,0.0,2.1326176e-05,4.949339e-06,4.980257e-06,6.961699e-05,0.008558197,0.008542685,0.011062545,0.048175476,0.04817692,0.15269917,1.8847281e-11,1.8866445e-11,4.2079264e-11,5.0058897e-08,5.7921625e-08,5e-08,0.0,0.0,0.0,0.0,0.0,0.0,0.0,0.0,24
249278048,249178926,-0.9348028,-0.015040956,-0.01084472,-0.35468292,-0.086158246,-0.19705123,-1.1191657,13.627647,0.7843175,-43.69251,-2.9312682e-06,-6.41488e-06,0.000120368626,0.0013452749,0.00041262008,-0.00028730635,0.25746047,-0.037612792,0.4037317,0.0,0.0,0.0,0.0,0.0,2.1959995e-05,5.056363e-06,5.109247e-06,7.192979e-05,0.008519017,0.008528438,0.0110589545,0.048195962,0.048195753,0.15206456,1.8915683e-11,1.893507e-11,4.2662544e-11,5.005786e-08,5.791013e-08,5.0000086e-08,0.0,0.0,0.0,0.0,0.0,0.0,0.0,0.0,24
250275748,250176606,-0.92887026,-0.016582996,0.0063302,-0.36997995,-0.22892413,-0.10252818,-0.67212015,13.478624,0.5047597,-44.570557,-1.8441629e-06,-7.2157686e-06,0.000120101264,0.0013454416,0.00041672747,-0.00023842555,0.25746047,-0.037612792,0.4037317,0.0,0.0,0.0,0.0,0.0,2.3487335e-05,5.1342986e-06,5.1803213e-06,7.3153446e-05,0.008611716,0.008637051,0.011064454,0.048027344,0.04802688,0.15262572,1.8948553e-11,1.8960281e-11,4.317736e-11,5.006029e-08,5.790442e-08,5.000017e-08,0.0,0.0,0.0,0.0,0.0,0.0,0.0,0.0,24
251273406,251174285,-0.9226984,-0.0037489687,-0.016154842,-0.38516593,-0.1704253,0.06796779,-0.48633268,13.219333,0.33966327,-44.975594,-1.3519946e-06,-8.731681e-06,0.00011983773,0.0013467794,0.00041725842,-0.00024106454,0.25746047,-0.037612792,0.4037317,0.0,0.0,0.0,0.0,0.0,2.5112127e-05,5.1670836e-06,5.1666384e-06,7.446645e-05,0.00880096,0.008773353,0.011067781,0.047912467,0.04791424,0.15321022,1.8932654e-11,1.8939624e-11,4.3701813e-11,5.0067342e-08,5.790895e-08,5.0000086e-08,0.0,0.0,0.0,0.0,0.0,0.0,0.0,0.0,24
252271135,252171965,-0.90507644,-0.028048698,0.023249218,-0.42368537,-1.0973955,-0.52755207,-0.29789275,12.592956,-0.22165047,-45.169765,1.7068556e-06,-9.585622e-06,0.00011840411,0.0013548385,0.00041306982,-0.00026996984,0.25746047,-0.037612792,0.4037317,0.0,0.0,0.0,0.0,0.0,2.8684892e-05,5.283511e-06,5.2059013e-06,7.281213e-05,0.008886985,0.009042981,0.011005203,0.047899086,0.047905758,0.15181167,1.8910236e-11,1.8902407e-11,4.4041975e-11,5.006667e-08,5.7910736e-08,5e-08,0.0,0.0,0.0,0.0,0.0,0.0,0.0,0.0,24
253278628,253179523,-0.89232713,0.015215445,0.12405569,-0.4337408,-0.32948217,0.065867215,-0.19509748,11.710474,-0.7081348,-45.310047,1.7854371e-06,-1.20913755e-05,0.000117693446,0.0013487891,0.00039859026,-0.0002853896,0.25746047,-0.037612792,0.4037317,0.0,0.0,0.0,0.0,0.0,2.9824858e-05,7.058135e-06,4.959515e-06,7.276566e-05,0.009079855,0.008992054,0.011026182,0.048160307,0.04817293,0.15285638,1.8863616e-11,1.8861471e-11,4.4479306e-11,5.0036377e-08,5.787384e-08,5.0000086e-08,0.0,0.0,0.0,0.0,0.0,0.0,0.0,0.0,24
254276301,254177204,-0.91954523,0.12946124,0.10142618,-0.35691625,2.4458365,0.5722284,-0.23738155,12.102804,0.17523645,-45.41544,-5.290963e-06,-1.3074338e-05,0.00010937732,0.0012977367,0.00042075658,-0.00032858158,0.25746047,-0.037612792,0.4037317,0.0,0.0,0.0,0.0,0.0,2.0166352e-05,6.174499e-06,6.7103715e-06,7.815811e-05,0.010201836,0.013194967,0.011003183,0.05025459,0.050309595,0.15316394,1.9008852e-11,1.9002732e-11,4.368848e-11,5.000264e-08,5.782004e-08,5.0000086e-08,0.0,0.0,0.0,0.0,0.0,0.0,0.0,0.0,24
255274030,255174885,-0.9486522,0.111839145,-0.027843831,-0.29457745,2.9711113,-1.2740082,-0.014872247,14.792133,0.2789129,-45.533783,-6.7792644e-06,-1.2271301e-05,0.000107549786,0.0012946756,0.00042868772,-0.0003407702,0.25746047,-0.037612792,0.4037317,0.0,0.0,0.0,0.0,0.0,1.4963006e-05,5.977505e-06,7.3731458e-06,8.617332e-05,0.016003469,0.019441048,0.010984336,0.0639292,0.06715136,0.15502918,1.9773395e-11,1.9768603e-11,4.3992695e-11,5.0007486e-08,5.7820984e-08,5.0000086e-08,0.0,0.0,0.0,0.0,0.0,0.0,0.0,0.0,24
256271669,256172568,-0.95995283,-0.01096215,-0.14082095,-0.24195054,1.4372691,-0.926915,-0.087048404,17.79399,0.9311072,-45.75766,-9.016123e-06,-2.4425462e-06,9.7585194e-05,0.0013399067,0.00040300906,-0.00035339428,0.25746047,-0.037612792,0.4037317,0.0,0.0,0.0,0.0,0.0,9.414221e-06,8.234269e-06,5.65078e-06,8.685836e-05,0.014724245,0.014110813,0.010883243,0.06631553,0.069236904,0.15302818,1.9405193e-11,1.9479222e-11,4.3378575e-11,5.0000086e-08,5.774327e-08,5.0000086e-08,0.0,0.0,0.0,0.0,0.0,0.0,0.0,0.0,24
257279365,257180125,-0.9807229,0.037792094,-0.048963927,-0.1853561,-0.5389722,-0.8980811,0.13523327,18.904621,0.24821903,-45.703434,-1.1226598e-06,-1.0278158e-06,8.660253e-05,0.0012592444,0.000375535,-0.00034954606,0.25746047,-0.037612792,0.4037317,0.0,0.0,0.0,0.0,0.0,5.3393733e-06,5.1747165e-06,5.0397507e-06,8.863301e-05,0.010363955,0.011675851,0.010998743,0.057867005,0.05936935,0.15365402,1.8965357e-11,1.9022579e-11,4.2210447e-11,5.0000075e-08,5.743358e-08,5.000008e-08,0.0,0.0,0.0,0.0,0.0,0.0,0.0,0.0,24
258276928,258177807,-0.9676923,-0.027754253,0.20053922,-0.15028407,1.1426412,-0.5016428,-0.006976621,18.849195,-0.97738224,-45.649185,2.7114888e-06,-4.6647865e-06,8.031107e-05,0.0011573014,0.00045060198,-0.00036596658,0.25746047,-0.037612792,0.4037317,0.0,0.0,0.0,0.0,0.0,3.65336e-06,8.178096e-06,4.8631014e-06,8.6193344e-05,0.009562112,0.009414961,0.01085337,0.05385898,0.054334637,0.1520562,1.8988e-11,1.8995795e-11,4.1961642e-11,5.000011e-08,5.6899207e-08,5e-08,0.0,0.0,0.0,0.0,0.0,0.0,0.0,0.0,24
259274720,259175489,-0.9837951,0.013020825,0.00017700491,-0.17882289,2.4000874,0.5558538,0.15810534,20.262121,-0.37717694,-45.521824,-2.3407656e-06,-7.976832e-06,7.422932e-05,0.0012524815,0.0005472924,-0.00042057372,0.25746047,-0.037612792,0.4037317,0.0,0.0,0.0,0.0,0.0,3.9188535e-06,4.725444e-06,4.727639e-06,8.704279e-05,0.009507973,0.0094618155,0.0108839935,0.051623266,0.05191926,0.15241568,1.9061279e-11,1.9083405e-11,4.151037e-11,5.000017e-08,5.6266334e-08,5.000017e-08,0.0,0.0,0.0,0.0,0.0,0.0,0.0,0.0,24
260272692,260173172,-0.9785618,0.031327933,0.024232185,-0.2021092,2.0364006,0.6632594,-0.013612034,21.885693,0.6182882,-45.411095,-4.9655587e-06,-1.0391846e-05,7.150545e-05,0.0013037975,0.0006073911,-0.00046529045,0.25746047,-0.037612792,0.4037317,0.0,0.0,0.0,0.0,0.0,4.5035545e-06,4.699566e-06,4.739764e-06,8.695723e-05,0.009201946,0.009105283,0.010952888,0.05052035,0.050721858,0.15296872,1.9204121e-11,1.9178385e-11,4.165597e-11,5.0000086e-08,5.5739473e-08,5.0000086e-08,0.0,0.0,0.0,0.0,0.0,0.0,0.0,0.0,24
261279939,261180732,-0.9711501,-0.0054944,-0.07514557,-0.22625297,0.2579839,0.8174119,0.13300577,23.143497,1.201525,-45.44939,-3.2944263e-06,-1.1828232e-05,6.9562935e-05,0.0012786065,0.00063989713,-0.0004892756,0.25746047,-0.037612792,0.4037317,0.0,0.0,0.0,0.0,0.0,5.1258535e-06,5.602767e-06,4.6853347e-06,8.665513e-05,0.009113447,0.009650458,0.010959864,0.050169416,0.050261095,0.15223598,1.9299836e-11,1.927323e-11,4.1874126e-11,5.0000086e-08,5.5419303e-08,5.0000086e-08,0.0,0.0,0.0,0.0,0.0,0.0,0.0,0.0,24
262278286,262178416,-0.96038234,-0.006635312,-0.015286425,-0.27818725,-0.1526286,0.25965682,0.040993433,23.022411,1.2015892,-45.501358,1.1198982e-06,-1.4083115e-05,6.489147e-05,0.0012410788,0.00067096524,-0.00047949818,0.25746047,-0.037612792,0.4037317,0.0,0.0,0.0,0.0,0.0,6.831064e-06,4.836241e-06,4.660206e-06,8.474551e-05,0.008987593,0.009387486,0.0110054,0.049892582,0.049878735,0.1528819,1.9337688e-11,1.9355153e-11,4.166812e-11,5.000009e-08,5.5309563e-08,5.0000086e-08,0.0,0.0,0.0,0.0,0.0,0.0,0.0,0.0,24
263275328,263176099,-0.9523646,-0.003878343,0.028933879,-0.3035615,-0.12001128,0.15166293,-0.045771062,22.828135,1.0739115,-45.479004,3.6760905e-06,-1.5445741e-05,6.336873e-05,0.0012424394,0.0006755056,-0.00048145454,0.25746047,-0.037612792,0.4037317,0.0,0.0,0.0,0.0,0.0,8.023424e-06,4.9557416e-06,4.665286e-06,8.516877e-05,0.00900069,0.009085865,0.010987499,0.049744792,0.049734637,0.15167615,1.9358563e-11,1.939141e-11,4.2037717e-11,5.0000175e-08,5.529861e-08,5.000017e-08,0.0,0.0,0.0,0.0,0.0,0.0,0.0,0.0,24
264273082,264173783,-0.9465145,0.0022100508,-0.03715854,-0.32050687,1.1504798,1.3215106,0.10797146,22.630781,1.2502668,-45.669785,3.7837633e-06,-1.8421058e-05,6.185345e-05,0.0012531155,0.0006484892,-0.00042971244,0.25746047,-0.037612792,0.4037317,0.0,0.0,0.0,0.0,0.0,8.799102e-06,4.9446367e-06,4.7506755e-06,8.6020125e-05,0.009384001,0.009421349,0.011068499,0.04969003,0.049696073,0.15233152,1.9328868e-11,1.9389528e-11,4.232832e-11,5.0000086e-08,5.524361e-08,5.0000086e-08,0.0,0.0,0.0,0.0,0.0,0.0,0.0,0.0,24
265280613,265181345,-0.94031787,0.07473201,-0.041940942,-0.32933044,4.7425427,4.0931563,-0.35599384,25.126177,4.314816,-46.017685,1.975419e-06,-2.010188e-05,5.8339527e-05,0.0012517362,0.0006238586,-0.00042570205,0.25746047,-0.037612792,0.4037317,0.0,0.0,0.0,0.0,0.0,8.882375e-06,5.663571e-06,6.1912924e-06,8.483958e-05,0.017583007,0.022243641,0.011542626,0.06069433,0.061118077,0.15159649,1.9989657e-11,2.0041347e-11,4.2221927e-11,5.0000082e-08,5.5219665e-08,5e-08,0.0,0.0,0.0,0.0,0.0,0.0,0.0,0.0,24
266278503,266179030,-0.95433915,0.05800962,-0.025870072,-0.29189485,8.041129,6.2745013,0.34407592,30.242512,10.394584,-46.437862,-2.033713e-06,-2.1351096e-05,4.9190476e-05,0.0012231482,0.00059187086,-0.00039893354,0.25746047,-0.037612792,0.4037317,0.0,0.0,0.0,0.0,0.0,5.978854e-06,6.283013e-06,6.5995605e-06,8.3527004e-05,0.024071872,0.040536705,0.012114864,0.08192673,0.090337105,0.15244877,2.0621239e-11,2.0581363e-11,4.130882e-11,5.000017e-08,5.518701e-08,5.000017e-08,0.0,0.0,0.0,0.0,0.0,0.0,0.0,0.0,24
267275906,267176714,-0.94986266,0.0038203555,-0.032903686,-0.31090778,10.31526,9.357564,-0.13985635,37.061504,20.567469,-46.331573,-9.624208e-06,-2.2876293e-05,2.9376493e-05,0.0011779593,0.00052066863,-0.00047858807,0.25746047,-0.037612792,0.4037317,0.0,0.0,0.0,0.0,0.0,4.4125973e-06,6.9858847e-06,6.367847e-06,6.9011854e-05,0.026660062,0.04682162,0.012296493,0.09944909,0.120313056,0.15144785,2.1130618e-11,2.0760293e-11,3.813275e-11,5e-08,5.5085373e-08,5e-08,0.0,0.0,0.0,0.0,0.0,0.0,0.0,0.0,24
268273537,268174400,-0.92879224,-0.022868555,-0.029479519,-0.36871803,10.842656,12.999731,-0.72593343,44.91959,34.652637,-46.924667,-1.693517e-05,-2.4650237e-05,1.0790107e-05,0.0011460597,0.00044504344,-0.0005819595,0.25746047,-0.037612792,0.4037317,0.0,0.0,0.0,0.0,0.0,4.3178534e-06,7.6502465e-06,6.338256e-06,5.3752563e-05,0.027162775,0.037496384,0.012017541,0.10873575,0.12991722,0.15244696,2.1717383e-11,2.0738472e-11,3.535188e-11,5.0000086e-08,5.4942635e-08,5.0000086e-08,0.0,0.0,0.0,0.0,0.0,0.0,0.0,0.0,24
269271288,269172085,-0.9050457,-0.13027614,-0.0870989,-0.39539135,9.252302,14.942865,-1.3166714,52.922085,51.73275,-48.059692,-2.5123236e-05,-2.5000572e-05,6.887011e-05,0.0010984429,0.0004147316,-0.00067433505,0.33751845,-0.11662038,0.46352068,0.044116877,-0.0096238265,0.026211796,0.9325123,1.9298602,2.9506822e-05,9.109194e-06,5.5734263e-06,0.0001826045,0.019687157,0.020881722,0.011216572,0.09583878,0.104898915,0.1514069,2.1914043e-11,1.9997747e-11,9.75513e-07,5e-08,5.470493e-08,5e-08,0.0013429341,0.00019784579,0.0014986919,0.0009730284,0.0013902512,0.0014984586,0.7111186,0.56848556,24
270278797,270179649,-0.68875295,-0.27542087,-0.20015442,-0.64007896,1.2337865,19.920609,-1.1516389,58.938404,69.68949,-49.229057,-2.2601696e-05,-2.5030386e-05,-0.0010109873,0.0011240281,0.00036952284,-0.00066832226,0.33707622,-0.11640778,0.46365866,0.04702419,-0.007748579,0.02626877,0.7876812,2.9059818,0.0004997596,1.1756417e-05,0.00015506272,0.0009819642,0.016477711,0.034872476,0.01223769,0.06894357,0.072685145,0.15258765,2.1338722e-11,1.9607874e-11,4.5020008e-07,5.000017e-08,5.4423666e-08,5.000017e-08,0.0013428571,0.00019723087,0.0014986491,0.00097094267,0.001389739,0.0014984199,0.59436876,0.24444546,24
271276614,271177335,-0.6440148,-0.0072140126,0.15070073,-0.74998826,-1.305096,19.283247,1.6979516,57.332043,88.60936,-49.44142,-1.5192518e-05,-2.777079e-05,-0.0016517205,0.001249053,0.00019462987,-0.00063880946,0.20993216,-0.071605526,0.5468449,0.17624296,-0.14487487,0.12431957,-0.12895499,3.8605635,0.0013081774,0.00012377786,0.0005664955,0.0008172985,0.010132589,0.020984313,0.011387381,0.059804898,0.061197884,0.1511721,2.0823359e-11,1.9899063e-11,2.5515345e-07,5e-08,5.3748753e-08,5e-08,0.0006051191,0.00010884479,0.0008809116,0.00028792248,0.00057300297,0.0008916186,0.43769246,0.11009349,24
272274167,272175021,-0.8036271,0.07924635,0.08975539,-0.5829644,1.0746666,19.054775,1.6994967,56.57693,107.51552,-47.440464,-1.1410391e-05,-3.0340552e-05,-4.6689784e-05,0.0013177973,9.749578e-05,-0.0007188766,0.19385596,-0.06513096,0.55875677,0.19491497,-0.17108521,0.13257945,-0.9687216,4.4045835,0.00026152536,1.2164803e-05,6.201456e-05,0.0002897618,0.011755682,0.03841703,0.011109177,0.055344354,0.055964705,0.15181375,1.9997247e-11,2.0278758e-11,2.601899e-08,5.000009e-08,5.314866e-08,5.000009e-08,0.0005559842,0.00010145525,0.0007949813,0.00025934278,0.00052768446,0.0007972085,0.3753684,0.07307047,24
273271868,273172707,-0.7943602,0.027020533,0.042594396,-0.60534906,3.4104342,19.404577,1.3061655,59.19456,126.90008,-46.05425,-8.456884e-06,-2.934629e-05,-0.00033830115,0.0013874322,0.00010694315,-0.00077652757,0.19077437,-0.0641109,0.55728024,0.19699201,-0.16951694,0.13360055,-0.8015623,4.5340996,0.00010727201,4.861e-06,1.0569579e-05,0.00015957482,0.01191384,0.019791199,0.010807392,0.05293956,0.053785164,0.15051512,1.9864499e-11,2.1086828e-11,6.6146115e-09,5e-08,5.3048257e-08,5e-08,0.00055506214,9.967236e-05,0.0007944935,0.00025774117,0.0005273896,0.00079697144,0.33921,0.058654957,24
274279379,274180271,-0.77801156,-0.0015694979,0.005260263,-0.628226,4.4232173,19.580198,0.6341708,63.65546,146.59128,-44.99152,-3.2839228e-06,-2.8475088e-05,-0.00044235148,0.0014790521,0.000119695665,-0.00083655276,0.18788636,-0.063119635,0.5567523,0.19950512,-0.16832504,0.13415425,-0.40961307,4.6171346,0.00010159443,6.1704686e-06,5.4279176e-06,0.00015563074,0.01179974,0.012392679,0.0108992765,0.05204726,0.052976236,0.15172626,1.9642067e-11,2.1973976e-11,4.2225152e-09,5.000017e-08,5.3019104e-08,5.000017e-08,0.0005546927,9.803745e-05,0.000794437,0.0002563005,0.00052729226,0.00079686276,0.30611965,0.05101055,24
275277239,275177958,-0.74701923,0.018425182,0.0014201702,-0.66454554,4.6962657,19.527819,0.050538577,68.64591,166.17618,-44.68698,4.8326854e-07,-2.8013876e-05,-0.0005075184,0.0015314224,0.000118376935,-0.0008276088,0.1860844,-0.062491816,0.5564566,0.2013542,-0.1677133,0.13439363,-0.04238606,4.58549,0.00013401132,6.2919917e-06,5.0056824e-06,0.00017948382,0.011529075,0.009720901,0.010917757,0.051418193,0.05207365,0.15068707,1.9491091e-11,2.264098e-11,3.7045136e-09,5.0000164e-08,5.2993066e-08,5e-08,0.00055447104,9.64e-05,0.0007944223,0.00025488395,0.0005272386,0.00079676794,0.27772734,0.045772947,24
276274747,276175644,-0.77839553,0.40340307,0.16816244,-0.45065272,11.210779,17.141113,0.5864343,75.10616,185.04724,-44.26974,-2.2296702e-07,-2.6702215e-05,-0.0004543371,0.0015199491,0.00016473558,-0.00083626586,0.18677883,-0.06274826,0.5565372,0.20021886,-0.16762339,0.134528,0.23225749,4.6217403,6.2798965e-05,4.66385e-06,3.052497e-05,0.00014417009,0.015689133,0.031150421,0.011383506,0.05095395,0.05117058,0.15147698,1.9511918e-11,2.3114063e-11,2.2594315e-09,5.0000246e-08,5.2176585e-08,5.000017e-08,0.0005542593,9.498667e-05,0.0007944194,0.00025342425,0.0005272034,0.0007966887,0.2500537,0.04294981,24
277272446,277173330,-0.8864797,0.46154553,-0.026941007,-0.020098388,19.721508,1.5009248,-1.5316439,91.18844,195.10448,-45.11399,-3.5154012e-06,-2.3302611e-05,-0.000370916,0.001516777,0.00020471908,-0.0009028015,0.18874048,-0.06346838,0.5567649,0.19728118,-0.16759297,0.13501275,2.014468,4.3327065,4.14426e-06,5.830622e-06,5.7130733e-06,3.3818353e-05,0.027383521,0.017967451,0.015429489,0.05106107,0.051834323,0.15255162,1.9504637e-11,2.246534e-11,5.346083e-10,5.000017e-08,5.133384e-08,5.000017e-08,0.00055404875,9.371131e-05,0.00079441915,0.0002519286,0.00052716106,0.0007966024,0.1412895,0.03932379,24
278270122,278171016,-0.8098859,0.41157994,-0.2048959,0.36428624,13.702752,-13.726552,-1.2422614,108.69605,188.98587,-47.077366,-5.687375e-06,-1.845118e-05,-0.0003454386,0.0015548831,0.00012723946,-0.00094018306,0.1893466,-0.06371332,0.557006,0.19579336,-0.1671303,0.13581036,1.9724836,4.3498263,2.322725e-06,7.5373428e-06,3.2886055e-06,1.7064378e-05,0.021321785,0.010268897,0.018553086,0.052325737,0.052227896,0.15215132,2.0145968e-11,2.2163108e-11,3.4862194e-10,5.000017e-08,5.098572e-08,5.000017e-08,0.0005540206,9.25718e-05,0.00079441594,0.00025097132,0.0005271275,0.0007965078,0.14007011,0.03923655,24
279277722,279178579,-0.61648935,0.32541424,-0.3132219,0.6449329,-0.4607756,-20.163082,-0.07226336,115.37271,171.44244,-48.587433,-5.415897e-06,-1.1770123e-05,-0.00030438206,0.0015761025,-8.4136667e-07,-0.0009396901,0.1887175,-0.06351471,0.5573116,0.19580951,-0.16620736,0.1365626,1.9907655,4.3536696,3.2664266e-06,7.137309e-06,3.1793081e-06,1.0509391e-05,0.013776751,0.013407917,0.020560186,0.054537375,0.053118963,0.15245274,2.1062119e-11,2.196172e-11,2.7204056e-10,5.0000086e-08,5.034031e-08,5.0000086e-08,0.0005540069,9.144006e-05,0.0007944068,0.00025011855,0.0005270857,0.0007964124,0.13931684,0.039282102,24
280275390,280176265,-0.61006063,0.032122448,0.060298536,0.78940374,-7.62312,-19.064407,3.4154086,109.5653,152.54726,-47.84012,-3.92793e-06,-6.6017565e-06,-0.00025662672,0.0016322436,-3.947659e-05,-0.000832418,0.2354748,-0.08108711,0.56873626,0.22112183,-0.12025501,0.13359362,2.0199854,4.361195,6.3559055e-06,3.7434622e-06,6.3974994e-06,6.349842e-06,0.00936236,0.01108925,0.016882583,0.05636449,0.054789048,0.15551159,2.1910298e-11,2.2312367e-11,2.3014754e-10,5.000017e-08,5.000017e-08,5.000017e-08,0.0002271749,4.916413e-05,0.00078513945,0.00017713169,0.00022227429,0.00077521027,0.13792072,0.03922857,24
281273076,281173949,-0.7202064,-0.2154806,0.19914313,0.6286596,-2.56477,-20.172798,1.6537657,102.82276,133.20938,-44.892696,-3.962463e-06,-7.579802e-06,-0.00025789152,0.0016283958,0.00011215319,-0.00079124514,0.21760295,-0.08267002,0.5322922,0.2521524,-0.13399756,0.19904271,1.9741383,4.3797793,5.3222498e-06,3.4785967e-06,9.643162e-06,7.100683e-06,0.009524702,0.009677475,0.011213856,0.056210488,0.05513859,0.15382165,2.281505e-11,2.302152e-11,2.2129633e-10,5.0000086e-08,5.0000086e-08,5.0000086e-08,0.00010258895,3.0343432e-05,0.00063826045,0.00011561608,0.0001130267,0.0006167777,0.13642819,0.03919061,24
282270753,282171634,-0.80673176,-0.2199292,0.14123277,0.52997017,3.5613015,-19.26723,0.6467838,103.4323,112.60277,-43.811268,6.2301353e-07,-4.3380187e-06,-0.00022477993,0.0011527793,3.9665116e-05,-0.000795793,0.23479807,-0.09877698,0.47391996,0.31042752,-0.1274919,0.28765747,1.9138933,4.4150815,3.926608e-06,3.6088059e-06,7.1747145e-06,1.050188e-05,0.0117330635,0.012023962,0.010491688,0.055811595,0.0551162,0.15251718,2.346586e-11,2.3657194e-11,1.874524e-10,5.000017e-08,5.000017e-08,5.000017e-08,7.182167e-05,2.4007455e-05,0.0005113698,7.172301e-05,9.329887e-05,0.0004911952,0.13436162,0.039189097,24
283268458,283169318,-0.88220364,-0.16595468,0.09031431,0.4312994,8.683743,-17.437756,0.39040715,110.194885,93.35187,-43.64438,5.021043e-06,1.5901577e-06,-0.00017043688,0.0006714066,3.47485e-05,-0.00091051334,0.24528675,-0.10470293,0.45373258,0.33737758,-0.12162589,0.33291674,1.8755995,4.4400783,2.4523572e-06,3.799037e-06,4.62464e-06,1.2849608e-05,0.01220344,0.011546549,0.010882641,0.05569963,0.055346757,0.14967307,2.3948765e-11,2.4250586e-11,1.5212782e-10,5e-08,5.000002e-08,5e-08,5.9299593e-05,2.171481e-05,0.0004669962,5.608064e-05,8.535572e-05,0.00044333274,0.13253094,0.039257888,24
284276007,284176880,-0.9264125,-0.08829916,0.052014988,0.36229494,11.490166,-15.765311,0.43676385,121.046486,76.08638,-43.167255,5.0005224e-06,5.496836e-06,-0.0001370441,0.00040830774,6.192609e-05,-0.0009583775,0.252027,-0.10358736,0.4395904,0.34659493,-0.108597234,0.35811698,1.8080617,4.4533453,1.7931349e-06,4.0970135e-06,3.9041297e-06,1.51921095e-05,0.0113142,0.010333544,0.011152936,0.056293327,0.056109596,0.15008096,2.4395895e-11,2.4848595e-11,1.3594273e-10,5.000009e-08,5.000009e-08,5.000009e-08,5.1593393e-05,2.0418396e-05,0.0004470609,4.8984883e-05,7.441631e-05,0.000424367,0.13085395,0.039363988,24
285273771,285174563,-0.94268423,-0.012744201,0.011303898,0.33325124,12.330602,-14.941497,0.30987236,133.5587,60.685593,-42.947186,2.3246182e-06,7.5537237e-06,-0.00012021012,0.00024850387,6.797833e-05,-0.0009255828,0.25667554,-0.100438885,0.40407088,0.35127893,-0.09147904,0.39551124,1.6895201,4.464229,1.6482985e-06,4.381029e-06,4.1531657e-06,1.8183891e-05,0.010074645,0.009570049,0.011072891,0.056532174,0.056384332,0.14877723,2.47485e-11,2.5283031e-11,1.3072349e-10,5e-08,5.0000075e-08,5e-08,4.667918e-05,1.9524025e-05,0.00039407966,4.5342225e-05,6.046143e-05,0.00037827878,0.12904324,0.039484974,24
286271353,286172248,-0.9443014,0.010781797,0.0015852517,0.3289012,12.433181,-14.773383,0.2527191,146.21678,45.976307,-42.77237,-7.8147895e-07,7.4854856e-06,-0.00011314682,0.00016442797,2.5288464e-05,-0.00085959147,0.2599338,-0.09853379,0.3766353,0.3542093,-0.080382735,0.42396772,1.5732569,4.4721885,1.849638e-06,4.5385e-06,4.5273673e-06,2.2240607e-05,0.009475761,0.009501075,0.011051642,0.056644987,0.056499504,0.14957978,2.4970274e-11,2.551196e-11,1.2938177e-10,5.0000086e-08,5.0000086e-08,5.0000086e-08,4.348282e-05,1.886157e-05,0.00033978128,4.302645e-05,4.9778602e-05,0.00033007725,0.12757319,0.039611813,24
287269351,287169928,-0.9389917,0.012270448,-0.00959898,0.3435868,12.237134,-14.971266,0.14690994,158.65845,31.436514,-42.69399,-3.706017e-06,5.595272e-06,-0.000107702275,0.00012679772,-4.7153007e-05,-0.00078289025,0.26278475,-0.09788436,0.3625886,0.3560949,-0.075443305,0.44099003,1.4761136,4.478016,2.3550408e-06,4.6915347e-06,4.7276303e-06,2.6591722e-05,0.009454204,0.009617401,0.011071376,0.05656373,0.05645878,0.1505429,2.4960504e-11,2.5520717e-11,1.2762785e-10,5e-08,5e-08,5e-08,4.127349e-05,1.8363842e-05,0.00030132357,4.136606e-05,4.288702e-05,0.00029534835,0.12625416,0.03973996,24
288276588,288177488,-0.9358559,-0.0027638988,-0.0041062427,0.3523483,12.277571,-15.033984,0.3729901,170.96324,16.599182,-42.532482,-5.5517985e-06,2.8968504e-06,-0.00010237791,0.00012896443,-0.000100541205,-0.0007002409,0.2651192,-0.09765105,0.35520732,0.35763454,-0.0728168,0.45139748,1.3628794,4.4851823,2.893004e-06,4.81444e-06,4.80418e-06,3.1276497e-05,0.009516927,0.009515996,0.011113049,0.05660137,0.05656174,0.15023778,2.4752618e-11,2.5397974e-11,1.2522036e-10,5.000017e-08,5.000017e-08,5.000017e-08,3.992375e-05,1.8005867e-05,0.00028289636,4.0223567e-05,3.9199636e-05,0.00027865713,0.12477084,0.039867826,24
289274264,289175169,-0.93788534,-0.007976074,0.0028302765,0.3468421,12.314234,-15.136543,0.2689042,183.09674,1.7641102,-42.543118,-6.603963e-06,2.2666534e-07,-9.8560624e-05,0.00014288462,-0.00013386265,-0.0006150692,0.26535714,-0.0976287,0.35473788,0.35766968,-0.07260593,0.45231262,1.2718911,4.491012,3.201128e-06,4.922387e-06,4.913234e-06,3.5864083e-05,0.0095811635,0.0094413655,0.011150394,0.05638121,0.05638408,0.15137506,2.4346976e-11,2.5167637e-11,1.219636e-10,5.000017e-08,5.000017e-08,5.000017e-08,0.0,0.0,0.0,0.0,0.0,0.0,0.123611115,0.03999609,24
290271999,290172849,-0.9388102,-0.044007327,0.010064154,0.34146383,12.31247,-15.016409,-0.056075335,195.21313,-13.099777,-42.495033,-7.241681e-06,-2.561549e-06,-9.540507e-05,0.00015763637,-0.00015371294,-0.00056391157,0.26535714,-0.0976287,0.35473788,0.35766968,-0.07260593,0.45231262,1.1834223,4.4965324,3.5452333e-06,5.0075073e-06,5.092578e-06,4.0621195e-05,0.009633326,0.009508715,0.01111148,0.056167472,0.05618192,0.15060103,2.3860587e-11,2.4837665e-11,1.1925506e-10,5.0000086e-08,5.0000086e-08,5.0000086e-08,0.0,0.0,0.0,0.0,0.0,0.0,0.12253553,0.040123723,24
291269720,291170529,-0.95320135,-0.0688988,0.005090446,0.29433703,12.836171,-13.847841,-0.34153745,207.55968,-27.439455,-42.79911,-7.411921e-06,-4.551232e-06,-9.3770934e-05,0.00016615946,-0.00015909263,-0.0005005014,0.26535714,-0.0976287,0.35473788,0.35766968,-0.07260593,0.45231262,1.0602862,4.502602,2.9740784e-06,5.056691e-06,5.2731693e-06,4.6762914e-05,0.009537015,0.009533229,0.011113858,0.05603213,0.056043908,0.15161723,2.3370911e-11,2.432865e-11,1.1732776e-10,5e-08,5e-08,5.000006e-08,0.0,0.0,0.0,0.0,0.0,0.0,0.121299624,0.040249415,24
292277180,292178086,-0.9697849,-0.030083546,-0.012813355,0.24176021,13.285377,-12.872994,-0.114292845,220.62184,-40.863136,-43.09859,-7.832954e-06,-5.228707e-06,-9.271454e-05,0.00016708783,-0.00015653804,-0.00042590004,0.26535714,-0.0976287,0.35473788,0.35766968,-0.07260593,0.45231262,0.93434346,4.5043035,2.2391207e-06,5.1573934e-06,5.1456805e-06,5.351148e-05,0.009496353,0.009457039,0.011120008,0.05613585,0.056148022,0.15128261,2.2962096e-11,2.3730734e-11,1.1519376e-10,5.000017e-08,5.000017e-08,5.000017e-08,0.0,0.0,0.0,0.0,0.0,0.0,0.12025658,0.040374637,24
293274871,293175764,-0.96757567,-0.015394678,-0.004154387,0.25207776,13.662335,-12.546765,0.1718219,233.95662,-53.426155,-43.077087,-7.926051e-06,-5.8527844e-06,-9.1309616e-05,0.00016964272,-0.000154781,-0.0003882826,0.26535714,-0.0976287,0.35473788,0.35766968,-0.07260593,0.45231262,0.8195513,4.502029,2.6671257e-06,5.1773523e-06,5.172727e-06,5.8718284e-05,0.009289489,0.009325749,0.011115028,0.055889536,0.055898525,0.15228769,2.2561626e-11,2.3150615e-11,1.1258871e-10,5.0000086e-08,5.0000086e-08,5.0000086e-08,0.0,0.0,0.0,0.0,0.0,0.0,0.11934559,0.040495925,24
294272603,294173442,-0.96997625,-0.0110057155,-0.0037500744,0.24292149,13.786112,-12.503533,-0.38860953,247.5768,-65.93024,-43.221725,-7.944079e-06,-6.492754e-06,-8.9476045e-05,0.00017003447,-0.00015204794,-0.00039787544,0.26535714,-0.0976287,0.35473788,0.35766968,-0.07260593,0.45231262,0.70258766,4.497426,2.7038125e-06,5.145069e-06,5.142448e-06,6.42754e-05,0.0094879465,0.009502682,0.011055632,0.055724327,0.05573092,0.1513062,2.2100126e-11,2.2615965e-11,1.1001136e-10,5.0000086e-08,5.0000086e-08,5.0000086e-08,0.0,0.0,0.0,0.0,0.0,0.0,0.118423834,0.04061446,24
295270223,295171119,-0.9678536,9.792986e-05,-0.014958728,0.25106907,13.63834,-12.561963,-0.13124672,261.21094,-78.303665,-43.815735,-8.275364e-06,-7.547257e-06,-8.684931e-05,0.00016892023,-0.00014480804,-0.00033552124,0.26535714,-0.0976287,0.35473788,0.35766968,-0.07260593,0.45231262,0.6191947,4.4926386,3.1135396e-06,5.1416923e-06,5.1208353e-06,6.927709e-05,0.0092511,0.009187728,0.011054215,0.055585824,0.055591118,0.15217288,2.1701824e-11,2.2197638e-11,1.0730027e-10,5.000009e-08,5.000009e-08,5.000009e-08,0.0,0.0,0.0,0.0,0.0,0.0,0.11772273,0.040726583,24
296277781,296178674,-0.971705,-0.0054003373,-0.018380877,0.23541988,13.687784,-12.4928665,0.021401254,274.7982,-90.89302,-43.614697,-7.68015e-06,-8.957325e-06,-8.309814e-05,0.00017237596,-0.00013892984,-0.00034663148,0.26535714,-0.0976287,0.35473788,0.35766968,-0.07260593,0.45231262,0.5308028,4.486907,2.8796894e-06,5.195748e-06,5.153401e-06,7.448521e-05,0.009297457,0.009252753,0.011057966,0.055734403,0.055734623,0.15167424,2.1419429e-11,2.1924334e-11,1.04087905e-10,5.0000086e-08,5.0000086e-08,5.0000086e-08,0.0,0.0,0.0,0.0,0.0,0.0,0.11699409,0.04083692,24
297275453,297176350,-0.97028345,-0.009178612,-0.008793307,0.24163723,13.621122,-12.523164,-0.28719327,288.26245,-103.31041,-43.74041,-6.874647e-06,-1.0160136e-05,-7.968085e-05,0.00017367332,-0.00013344616,-0.00033061113,0.26535714,-0.0976287,0.35473788,0.35766968,-0.07260593,0.45231262,0.431353,4.480037,3.1946495e-06,5.1283323e-06,5.133687e-06,7.9047924e-05,0.009401835,0.009353417,0.011071608,0.05560791,0.05560478,0.15253326,2.1092957e-11,2.1595566e-11,1.0106562e-10,5.0000086e-08,5.0000086e-08,5.0000086e-08,0.0,0.0,0.0,0.0,0.0,0.0,0.11620714,0.0409445,24
298273154,298174025,-0.9712507,-0.012788984,-0.009760574,0.23751487,13.591628,-12.3566265,-0.22960266,301.70535,-115.70861,-43.978725,-5.986241e-06,-1.0828006e-05,-7.6094475e-05,0.00017609274,-0.0001264063,-0.00032658648,0.26535714,-0.0976287,0.35473788,0.35766968,-0.07260593,0.45231262,0.3527968,4.4735017,3.2147059e-06,5.088521e-06,5.1150932e-06,8.363825e-05,0.00923874,0.009227834,0.011027362,0.055404834,0.055399027,0.15146774,2.080406e-11,2.1289154e-11,9.804303e-11,5.0000086e-08,5.0000086e-08,5.0000086e-08,0.0,0.0,0.0,0.0,0.0,0.0,0.11556834,0.041048225,24
299270801,299171700,-0.96913236,-0.00021383158,-0.01832789,0.24585856,13.5043745,-12.222552,-0.3232632,315.14108,-127.93606,-44.220978,-5.468357e-06,-1.1298626e-05,-7.4054864e-05,0.00017655005,-0.000121461526,-0.00030596895,0.26535714,-0.0976287,0.35473788,0.35766968,-0.07260593,0.45231262,0.27363715,4.46747,3.6821905e-06,5.098593e-06,5.066005e-06,8.893606e-05,0.009238912,0.009231445,0.011041215,0.055151504,0.055146225,0.1522842,2.0574297e-11,2.1024993e-11,9.619881e-11,5.0000086e-08,5.0000086e-08,5.0000086e-08,0.0,0.0,0.0,0.0,0.0,0.0,0.1149939,0.041149404,24
300278373,300179252,-0.9728644,-0.023597484,-0.010088857,0.22994837,13.38911,-12.29046,-0.1510858,328.6168,-140.26424,-44.38199,-5.1789975e-06,-1.1979485e-05,-7.399219e-05,0.00017215898,-0.000121259676,-0.00028793278,0.26535714,-0.0976287,0.35473788,0.35766968,-0.07260593,0.45231262,0.17479083,4.461673,3.4866448e-06,5.06561e-06,5.192517e-06,9.627832e-05,0.009208805,0.009199841,0.0110484,0.05514519,0.05513982,0.15175873,2.0382003e-11,2.0816852e-11,9.5506554e-11,5.0000086e-08,5.0000086e-08,5.000017e-08,0.0,0.0,0.0,0.0,0.0,0.0,0.11438599,0.041249692,24
301276040,301176925,-0.96353906,-0.15617654,0.026644528,0.21561888,13.592549,-11.735911,-0.12841532,341.94037,-152.33984,-44.466484,-4.468444e-06,-1.2211616e-05,-7.393701e-05,0.000168763,-0.00012409424,-0.00026891063,0.26535714,-0.0976287,0.35473788,0.35766968,-0.07260593,0.45231262,0.08065415,4.455077,3.4551988e-06,4.9372284e-06,7.971104e-06,0.00010085505,0.00926393,0.0092095295,0.011052964,0.05479854,0.054793037,0.15258448,2.0201195e-11,2.058121e-11,9.472527e-11,5.000017e-08,5.000017e-08,5.000017e-08,0.0,0.0,0.0,0.0,0.0,0.0,0.11387456,0.04134725,24
302273806,302174598,-0.9027241,-0.42804807,-0.039541475,-0.01734031,16.510612,-3.3491788,-1.2436785,357.0689,-161.68161,-44.90684,9.1707693e-07,-5.2743035e-06,-4.580294e-05,0.00029297234,-8.446171e-05,-0.0003886301,0.27199936,-0.099585846,0.3521076,0.36396763,-0.071689226,0.4510232,0.18982075,4.4311624,2.2721065e-06,4.746112e-06,1.3670024e-05,6.234548e-05,0.023896,0.010428079,0.011477654,0.054552037,0.054547124,0.15147357,1.9964447e-11,2.0032797e-11,6.754053e-11,5.0000175e-08,5.0000175e-08,5.0000175e-08,3.6527086e-05,1.716661e-05,0.00018885857,3.6948564e-05,3.636672e-05,0.00018664286,0.11292989,0.041422147,24
303272096,303172270,-0.9176654,-0.29655907,-0.083447665,-0.25095692,15.12248,6.7686286,-0.66616297,373.68423,-158.86006,-46.580074,4.4569248e-07,-2.3053435e-06,-1.6549555e-05,0.00038358694,8.2566185e-05,-0.0003630119,0.2753792,-0.098294355,0.3479518,0.3719246,-0.071060106,0.44630826,0.393238,4.3554826,6.7065585e-06,5.3823173e-06,5.515075e-06,3.7348334e-05,0.040713016,0.014229371,0.012851823,0.07230657,0.06404293,0.15209343,2.0390628e-11,2.0580341e-11,4.7214933e-11,5e-08,5e-08,5e-08,3.3511245e-05,1.6496975e-05,0.00014946559,3.377042e-05,3.4328918e-05,0.00014532145,0.112078235,0.04111618,24
304269406,304169942,-0.9137423,-0.17354655,-0.0612102,-0.36222926,13.292955,11.18053,0.4236451,388.9708,-149.6411,-46.409554,4.188299e-07,-6.682154e-08,2.4125764e-06,0.00041406212,0.00021513329,-0.00042503298,0.2703987,-0.09699021,0.33435807,0.3710864,-0.067035936,0.42912146,0.56685454,4.297971,6.073219e-06,4.276957e-06,4.9426144e-06,1.8595969e-05,0.0141851045,0.011053435,0.01238496,0.062170643,0.060057804,0.15113351,2.0669298e-11,2.0920406e-11,3.3852143e-11,5e-08,5e-08,5e-08,3.0474768e-05,1.5702484e-05,0.00012831332,3.0030304e-05,3.184619e-05,0.00012328228,0.1103597,0.040560145,24
305277300,305177491,-0.91559094,-0.055536825,-0.0056035835,-0.39821777,11.859309,12.718212,0.48375314,401.655,-137.25911,-45.66427,-5.9731894e-07,-2.2393151e-07,3.948073e-06,0.0003316174,0.00024875323,-0.0004398099,0.26643607,-0.09731347,0.32445616,0.36733723,-0.06273753,0.42324618,0.66223514,4.2482247,6.6336647e-06,3.9044994e-06,6.6042217e-06,1.660975e-05,0.009903838,0.009803526,0.011767881,0.059560027,0.05808637,0.1524953,2.1283272e-11,2.1420633e-11,3.3451016e-11,5e-08,5e-08,5e-08,2.8395845e-05,1.4975338e-05,0.000121082914,2.764637e-05,2.9538993e-05,0.00011674163,0.1078135,0.039831005,24
306274411,306175161,-0.7577794,-0.3496735,-0.2214961,-0.50441885,7.1510797,15.53425,1.7593373,412.10522,-123.82228,-43.991714,-1.141571e-06,9.204867e-07,-9.936851e-05,0.00031485027,0.00034248587,-0.00050701416,0.37752792,-0.0046876217,0.42641273,0.34633058,-0.1016697,0.40685135,0.6959527,4.2296357,0.00037969524,5.793109e-06,8.5331776e-05,0.0011725896,0.010067403,0.015264311,0.012407217,0.057561196,0.056701377,0.15310594,2.2028924e-11,2.1909061e-11,8.9610495e-07,5.0000086e-08,5.0000086e-08,5.0000086e-08,0.0013526661,5.4208038e-05,0.0013685924,0.00069987756,0.0012886692,0.0012136447,0.1051942,0.039315376,24
307272247,307172830,-0.5453851,-0.2263731,-0.393049,-0.7048566,-6.692591,17.863194,-0.39666572,413.24283,-106.17582,-43.375683,-1.4025957e-06,4.707038e-06,0.0006808547,0.00035640638,0.00057586783,-0.0007545358,0.3209679,-0.00066866627,0.39902997,0.42703378,-0.14184341,0.4849722,0.6608892,4.2337904,0.00040842977,6.1806486e-06,0.00018148037,0.00050390855,0.017235784,0.032326497,0.029373946,0.056281723,0.0561531,0.1519845,2.2935232e-11,2.22907e-11,1.5022285e-07,5e-08,5.000003e-08,5e-08,0.00075192965,5.143321e-05,0.0012412886,0.00019343528,0.0011205745,0.0008723538,0.10430398,0.039344653,24
308269646,308170499,-0.29286352,-0.11703234,-0.42913762,-0.8463896,-15.945804,11.051439,0.6486112,401.4627,-90.89077,-43.54847,-1.4076787e-06,6.062067e-06,0.00044318312,0.00033115203,0.00067099987,-0.00070132955,0.338631,-0.004064019,0.40719447,0.41871148,-0.13126172,0.45364553,0.65714085,4.2295623,0.00019753867,5.854288e-06,8.43305e-05,9.9860605e-05,0.02459441,0.012973485,0.035765503,0.055704825,0.05636227,0.15305029,2.3831739e-11,2.3035898e-11,2.6202795e-08,5.0000086e-08,5.0000086e-08,5.0000086e-08,0.0006151966,4.9521306e-05,0.0012251902,0.00016066972,0.0010797088,0.0007703871,0.104156695,0.039428536,24
309277355,309178046,-0.011981845,-0.04537518,-0.2741363,-0.9605451,-17.976507,2.2216163,1.8082235,383.8284,-84.19379,-42.426167,-9.024551e-07,5.7696066e-06,0.00012928896,0.00026022314,0.00070418173,-0.00067067746,0.3400528,-0.0042550853,0.40801224,0.41582417,-0.1306699,0.45164093,0.6911799,4.2148333,0.000114411916,1.0457757e-05,4.6346446e-05,9.644557e-06,0.016821953,0.013367281,0.030085549,0.05579455,0.056548912,0.15307365,2.4753729e-11,2.3814022e-11,7.357122e-09,5e-08,5.0000008e-08,5e-08,0.0006150634,4.8368678e-05,0.0012249497,0.00015923378,0.0010792803,0.00076990225,0.104083754,0.039373845,24
310274825,310175713,0.011678678,-0.056050867,0.056043208,-0.9967854,-17.145382,-0.10810413,3.2004802,366.22717,-83.67325,-39.809757,-8.598802e-07,5.8056294e-06,0.000115293,0.00025727824,0.00070350274,-0.0005696277,0.34012505,-0.0042596194,0.40798575,0.4157676,-0.13068,0.4515317,0.72205126,4.1905546,8.4952226e-05,2.5548003e-05,2.3541412e-05,9.465411e-07,0.00954392,0.016441425,0.017666053,0.05578851,0.056355014,0.15455294,2.5636073e-11,2.4603052e-11,3.543057e-09,5.000017e-08,5.000017e-08,5.000017e-08,0.0006149308,4.735341e-05,0.0012249122,0.00015825815,0.0010791931,0.0007697602,0.10371119,0.039154414,24
311272538,311173380,-0.11576896,-0.036168206,0.12607582,-0.9845783,-16.427885,2.052288,3.2932212,349.2726,-82.9217,-36.50793,-1.0402078e-06,5.834765e-06,0.00010324141,0.0002142643,0.00066297734,-0.0004372826,0.34021533,-0.0042480137,0.40788224,0.4159872,-0.1307272,0.4515202,0.7641527,4.1496263,6.622853e-05,1.5799687e-05,1.02607955e-05,2.0439147e-06,0.013070918,0.016763132,0.011562945,0.055524766,0.056072764,0.15468246,2.6443745e-11,2.5361869e-11,1.7535159e-09,5.0000086e-08,5.0000086e-08,5.0000086e-08,0.0006148761,4.638036e-05,0.0012248701,0.00015745881,0.001079133,0.00076969265,0.1034804,0.038932003,24
312270168,312171047,-0.17843378,-0.040456075,0.09515722,-0.97850394,-15.708447,4.263399,3.2021763,332.99976,-79.5471,-33.38551,-1.101031e-06,5.619306e-06,6.0159142e-05,0.00013621767,0.00057585933,-0.00038178326,0.34041926,-0.0042337063,0.40769264,0.41630083,-0.13080281,0.4513751,0.8031217,4.0981307,5.190598e-05,6.643746e-06,5.813762e-06,3.4864922e-06,0.012869944,0.014148158,0.010646109,0.055327702,0.055793907,0.15225457,2.7145092e-11,2.6213516e-11,9.326566e-10,5.000009e-08,5.000009e-08,5.000009e-08,0.00061487476,4.5448232e-05,0.0012248426,0.00015668797,0.0010790897,0.00076966477,0.10345499,0.038680434,24
313277797,313178591,-0.24084774,-0.04916724,0.04491073,-0.9682758,-15.064845,5.4224586,3.1351275,317.33417,-74.34817,-30.533436,-8.1345587e-07,5.6504264e-06,3.537188e-05,0.00011237917,0.000532027,-0.00032181697,0.34042174,-0.004226842,0.40764144,0.41647112,-0.13077456,0.45127055,0.8300861,4.043998,4.924761e-05,4.290385e-06,4.685654e-06,5.5952146e-06,0.01097832,0.012231866,0.010693444,0.05539533,0.05576937,0.15086913,2.7593294e-11,2.7060425e-11,6.6763034e-10,5e-08,5.0000097e-08,5e-08,0.00061487895,4.4485896e-05,0.0012248242,0.00015590058,0.0010790476,0.00076965184,0.10358948,0.038509935,24
314275365,314176256,-0.2516533,-0.05612251,-0.0016888495,-0.96618736,-14.705081,5.985645,3.1941512,302.48163,-68.42073,-27.37437,1.1109089e-07,5.3968433e-06,2.4012135e-05,0.000118667536,0.0005323424,-0.0002511306,0.34035113,-0.0042270715,0.4076232,0.41650537,-0.13075504,0.45118272,0.8540959,3.9823503,5.581331e-05,4.12712e-06,4.5380884e-06,6.8830223e-06,0.0099266395,0.010876528,0.010823597,0.05516382,0.055524804,0.15131095,2.7752849e-11,2.7699098e-11,5.7880994e-10,5.000009e-08,5.000009e-08,5.000009e-08,0.00061488344,4.3629e-05,0.0012248108,0.00015520626,0.0010790097,0.0007696438,0.103786655,0.038362168,24
315273020,315173921,-0.22337736,-0.0512985,-0.0026947677,-0.9733776,-14.6454315,5.994552,2.964071,287.85745,-62.292862,-24.402575,1.3607e-06,4.9560585e-06,1.8659597e-05,0.0001258621,0.0005447015,-0.00021967058,0.34027207,-0.0042282916,0.40760484,0.41652057,-0.13075195,0.4511191,0.878518,3.9170656,7.019311e-05,4.478922e-06,4.698038e-06,6.818326e-06,0.00956246,0.010074424,0.010916847,0.054926056,0.055285126,0.15204278,2.7571355e-11,2.7930297e-11,5.492439e-10,5.000017e-08,5.000017e-08,5.000017e-08,0.00061488914,4.280457e-05,0.0012247993,0.0001545447,0.0010789733,0.0007696379,0.104015134,0.038211107,24
316270699,316171585,-0.21704145,-0.05157139,-0.0043676374,-0.97478944,-14.738952,5.734117,3.0345154,273.24542,-56.319965,-21.489925,2.5260624e-06,4.009542e-06,1.411307e-05,0.00014056942,0.0005548778,-0.00018945735,0.34022164,-0.0042305468,0.40758,0.41651088,-0.13077344,0.4510739,0.8963879,3.8737984,8.8131834e-05,4.779152e-06,4.8747875e-06,7.724565e-06,0.009613031,0.009579638,0.0109451255,0.05477981,0.0551205,0.1509795,2.718334e-11,2.7686142e-11,5.36866e-10,5.0000086e-08,5.0000086e-08,5.0000086e-08,0.00061489665,4.2010855e-05,0.0012247886,0.00015391197,0.0010789383,0.0007696332,0.10427682,0.0381854,24
317278226,317179127,-0.17077082,-0.045140937,-0.007290036,-0.9842493,-14.468696,5.679288,2.924289,258.62543,-50.44078,-18.77056,2.3407856e-06,1.4390899e-06,-1.0639303e-05,0.00023915805,0.0004694967,-0.0001350556,0.34021607,-0.0042315074,0.40757376,0.41649723,-0.13078421,0.45106766,0.91422856,3.840614,0.00010578908,5.000093e-06,5.0415774e-06,6.671789e-06,0.009797167,0.009581631,0.011048421,0.054942533,0.05520815,0.15237728,2.6606705e-11,2.7050478e-11,5.069181e-10,5.000017e-08,5.000017e-08,5.000017e-08,0.0,0.0,0.0,0.0,0.0,0.0,0.104570046,0.03819658,24
318275934,318176790,-0.16231483,-0.07370053,-0.23414145,-0.9557196,-14.547785,4.2883177,3.1948102,244.32884,-45.068455,-15.946224,2.3842103e-06,-9.932904e-07,-5.1420415e-05,0.00037021292,0.0003044579,-0.00010143374,0.34021607,-0.0042315074,0.40757376,0.41649723,-0.13078421,0.45106766,0.9435999,3.8130035,0.000108311615,1.0593985e-05,5.012796e-06,8.345312e-06,0.010980226,0.009388426,0.010987183,0.054940466,0.055123232,0.15132162,2.600455e-11,2.6142984e-11,4.5543416e-10,5.0000086e-08,5.000017e-08,5.0000086e-08,0.0006149,4.1713054e-05,0.001224786,0.00015372332,0.001078928,0.00076963205,0.1047909,0.038153246,24
319273553,319174453,0.13948676,-0.076275595,-0.05253149,-0.98588336,-15.313168,-0.065356925,2.6387918,229.3361,-43.01559,-13.138912,3.999927e-06,-7.983779e-07,-5.3943517e-05,0.00036640602,0.00029521852,-0.00011453815,0.34021607,-0.0042315074,0.40757376,0.41649723,-0.13078421,0.45106766,0.9767926,3.7851803,0.00010287961,5.178349e-06,5.173682e-06,1.2808572e-06,0.01562548,0.009813537,0.01108383,0.05496781,0.05496435,0.1520436,2.5264742e-11,2.5176796e-11,3.3907055e-10,5.000017e-08,5.000017e-08,5.000017e-08,0.0006149118,4.095939e-05,0.0012247978,0.00015372332,0.001078928,0.00076963205,0.104703285,0.038151868,24
320271252,320172116,-0.04566865,-0.034507878,0.3634743,-0.92984414,-15.11037,1.441,2.9184513,214.04167,-43.36946,-10.863481,9.7295185e-08,-1.881378e-06,-4.6678415e-05,0.00032124334,0.00034356813,-2.4237643e-05,0.34021607,-0.0042315074,0.40757376,0.41649723,-0.13078421,0.45106766,0.9725371,3.7839465,8.266761e-05,2.616631e-05,4.721971e-06,1.8230581e-06,0.009293321,0.009410298,0.010674196,0.05510781,0.054799918,0.15086745,2.468388e-11,2.4846673e-11,2.9829678e-10,5e-08,5.000008e-08,5e-08,0.00061492354,4.023289e-05,0.0012248096,0.00015372332,0.001078928,0.00076963205,0.10470749,0.038215753,24
321278897,321179656,-0.34332767,0.027147016,0.17693326,-0.9219999,-13.690109,9.070237,2.947745,199.37727,-38.158585,-8.143638,-5.337406e-06,-5.6590106e-06,-4.5486595e-05,0.0002546367,0.00038366747,-1.1749709e-05,0.4267875,-0.0105530545,0.29266068,0.38354486,-0.08967655,0.37881845,0.9581391,3.7643974,5.76231e-05,7.0959372e-06,5.0420135e-06,1.1483115e-05,0.01879243,0.010471377,0.010838347,0.054765314,0.054735444,0.15187378,2.3767606e-11,2.3980614e-11,1.9095239e-10,5e-08,5e-08,5.000004e-08,0.00024326633,3.7571324e-05,0.00053843047,0.00012358293,0.00036786313,0.0003800696,0.105061226,0.03842963,24
322276459,322177318,-0.32378945,-0.03453347,-0.11890041,-0.9379929,-13.777933,10.189156,1.1587784,186.194,-28.050043,-6.7739787,-4.9961163e-06,-8.420421e-06,-5.0410494e-05,0.0002507547,0.000419821,-2.8199738e-05,0.4273504,-0.019307572,0.3499648,0.3584671,-0.023142995,0.32040438,0.9241609,3.7315361,4.4400487e-05,6.377036e-06,4.530808e-06,8.244993e-06,0.012278287,0.010203826,0.010789653,0.0548312,0.054737426,0.1506381,2.2817987e-11,2.3862554e-11,1.3409307e-10,5e-08,5.0000082e-08,5e-08,0.00020329586,3.53315e-05,0.00031829876,0.00011307759,0.00019526004,0.00028204726,0.10532906,0.038641293,24
323274119,323174980,-0.17476767,0.00020160081,-0.11699775,-0.9776338,-16.03517,7.9531407,0.050946623,171.5555,-18.63408,-5.9616027,-1.6726268e-06,-7.861236e-06,-4.014264e-05,0.00019132189,0.0004518391,-9.228565e-05,0.41841406,-0.016032174,0.35647354,0.36187917,-0.0193701,0.33556595,0.9181891,3.7059107,5.2713247e-05,6.4140477e-06,4.452663e-06,3.4345053e-06,0.010183243,0.010639391,0.010700666,0.055061255,0.054894447,0.15130879,2.2087868e-11,2.3390847e-11,1.2774064e-10,5.000013e-08,5.0000175e-08,5.0000086e-08,0.00017400547,3.38924e-05,0.00023167368,0.00011039069,0.00013427931,0.00022136171,0.10569843,0.03886527,24
324271794,324172641,-0.1715826,0.023377508,-0.014943598,-0.98477894,-16.685032,6.6913643,-0.36492583,154.97447,-11.41652,-6.7233267,-1.487455e-06,-6.5608865e-06,-3.6921578e-05,0.00019224451,0.00044863555,-9.243128e-05,0.4155845,-0.015852345,0.3519761,0.36042902,-0.023710633,0.33772665,0.9205772,3.685508,5.772464e-05,4.6206833e-06,4.6649584e-06,3.3193953e-06,0.01024478,0.009930626,0.010846168,0.055027727,0.05496779,0.15196055,2.1587173e-11,2.2621929e-11,1.2206618e-10,5.0000175e-08,5.0000175e-08,5.0000175e-08,0.0001570502,3.319748e-05,0.0002192456,0.00010795995,0.00011297863,0.00021238756,0.106061496,0.038980164,24
