timestamp,timestamp_sample,ref_timestamp,ref_lat,ref_lon,x,y,z,delta_xy[0],delta_xy[1],delta_z,vx,vy,vz,z_deriv,delta_vxy[0],delta_vxy[1],delta_vz,ax,ay,az,heading,delta_heading,ref_alt,dist_bottom,eph,epv,evh,evv,vxy_max,vz_max,hagl_min,hagl_max,xy_valid,z_valid,v_xy_valid,v_z_valid,xy_reset_counter,z_reset_counter,vxy_reset_counter,vz_reset_counter,heading_reset_counter,heading_good_for_control,xy_global,z_global,dist_bottom_valid,dist_bottom_sensor_bitfield
217866642,217865854,19482372,36.660603099999996,126.342033,13.32102,0.66718477,4.3897705,-0.002337625,-0.0015572843,0.0,0.03529336,0.00068905985,0.06264702,0.024423674,0.11107101,-0.07792316,0.1691699,-5.863286e-05,0.007765632,0.0063900133,1.0691717,-0.003119908,13.964363,0.1,0.35211056,0.3912892,0.13672374,0.10497107,inf,inf,inf,inf,1,1,1,1,2,0,2,1,3,0,1,1,1,0
218370095,218369624,19482372,36.660603099999996,126.342033,13.340626,0.6640176,4.4020696,-0.002337625,-0.0015572843,0.0,0.041791268,-0.0005213832,0.06265314,0.024810439,0.11107101,-0.07792316,0.1691699,0.011839873,-0.0017776659,0.0038382427,1.0705261,-0.003119908,13.964363,0.1,0.35936663,0.39375746,0.14135727,0.10659195,inf,inf,inf,inf,1,1,1,1,2,0,2,1,3,0,1,1,1,0
218874199,218873395,19482372,36.660603099999996,126.342033,13.359488,0.6654644,4.4215083,-0.002337625,-0.0015572843,0.0,0.04653751,0.0016684027,0.06467012,0.032256596,0.11107101,-0.07792316,0.1691699,0.020020323,-0.004016973,0.016312417,1.0717947,-0.003119908,13.964363,0.1,0.35038182,0.39195937,0.13684319,0.10519565,inf,inf,inf,inf,1,1,1,1,2,0,2,1,3,0,1,1,1,0
219367722,219367288,19482372,36.660603099999996,126.342033,13.365894,0.66776484,4.436814,-0.002337625,-0.0015572843,0.0,0.042247143,0.0040008617,0.06480208,0.031315405,0.11107101,-0.07792316,0.1691699,-0.08636601,0.120840475,-0.12536423,1.0729386,-0.003119908,13.964363,0.1,0.35683063,0.393891,0.1409809,0.106614895,inf,inf,inf,inf,1,1,1,1,2,0,2,1,3,0,1,1,1,0
219871849,219871060,19482372,36.660603099999996,126.342033,13.379193,0.6608595,4.454221,-0.002337625,-0.0015572843,0.0,0.042229153,-0.0011499512,0.065398894,0.03259171,0.11107101,-0.07792316,0.1691699,-0.04480537,-0.13699657,-0.48759705,1.0745822,-0.003119908,13.964363,0.1,0.34786007,0.39220482,0.1365076,0.10522955,inf,inf,inf,inf,1,1,1,1,2,0,2,1,3,0,1,1,1,0
220365518,220364952,19482372,36.660603099999996,126.342033,13.389954,0.6477841,4.453103,-0.002337625,-0.0015572843,0.0,0.03859424,-0.005954286,0.06309458,0.017849848,0.11107101,-0.07792316,0.1691699,-0.044429563,0.15129915,0.57366204,1.0778795,-0.003119908,13.964363,0.1,0.35429528,0.3917809,0.14062043,0.10638369,inf,inf,inf,inf,1,1,1,1,2,0,2,1,3,0,1,1,1,0
220869359,220868724,19482372,36.660603099999996,126.342033,13.400144,0.64445627,4.459698,-0.002337625,-0.0015572843,0.0,0.036421146,-0.006280637,0.058072194,0.01280398,0.11107101,-0.07792316,0.1691699,-0.290297,-0.24104473,-1.0288644,1.0807762,-0.003119908,13.964363,0.1,0.34534353,0.39018658,0.13623585,0.10501452,inf,inf,inf,inf,1,1,1,1,2,0,2,1,3,0,1,1,1,0
221372959,221372495,19482372,36.660603099999996,126.342033,13.414767,0.6539694,4.4496264,-0.002337625,-0.0015572843,0.0,0.032839864,-0.0019039245,0.04786854,-0.008989293,0.11107101,-0.07792316,0.1691699,-0.82299304,-0.798864,-0.6536102,1.0829926,-0.003119908,13.964363,0.106078625,0.35262367,0.39304447,0.14081463,0.106656894,inf,inf,inf,inf,1,1,1,1,2,0,2,1,3,0,1,1,1,0
221867175,221866392,19482372,36.660603099999996,126.342033,13.423094,0.6635763,4.427024,-0.002337625,-0.0015572843,0.0,0.031218946,0.00018598502,0.038714625,-0.025926104,0.11107101,-0.07792316,0.1691699,1.5155946,-1.0937455,0.20074624,1.0885822,-0.003119908,13.964363,0.12868118,0.34287465,0.39087838,0.1359109,0.10509252,inf,inf,inf,inf,1,1,1,1,2,0,2,1,3,0,1,1,1,0
222370675,222370161,19482372,36.660603099999996,126.342033,13.4216585,0.6601998,4.407243,-0.002337625,-0.0015572843,0.0,0.01649298,0.019523876,0.046212476,-0.022503009,0.11107101,-0.07792316,0.1691699,0.70628333,0.051837865,1.4897938,1.1290008,-0.003119908,13.964363,0.1484623,0.34997413,0.39124596,0.14019856,0.10640361,inf,inf,inf,inf,1,1,1,1,2,0,2,1,3,0,1,1,1,0
222874595,222873933,19482372,36.660603099999996,126.342033,13.433013,0.652756,4.402807,-0.002337625,-0.0015572843,0.0,0.020583114,-0.03784529,0.027272144,-0.028436158,0.11107101,-0.07792316,0.1691699,0.10852037,-2.2787142,-5.2757044,1.1673325,-0.003119908,13.964363,0.15289783,0.34086108,0.38975146,0.1356357,0.10500038,inf,inf,inf,inf,1,1,1,1,2,0,2,1,3,0,1,1,1,0
223368270,223367827,19482372,36.660603099999996,126.342033,13.462839,0.6009507,4.349022,-0.002337625,-0.0015572843,0.0,0.19431752,-0.19616756,-0.11326269,-0.19799523,0.11107101,-0.07792316,0.1691699,-2.3048973,0.47315267,-2.4170535,1.1644763,-0.003119908,13.964363,0.20668316,0.34748456,0.3919442,0.14018196,0.1064231,inf,inf,inf,inf,1,1,1,1,2,0,2,1,3,0,1,1,1,0
223872388,223871600,19482372,36.660603099999996,126.342033,13.507554,0.52535975,4.190596,-0.002337625,-0.0015572843,0.0,-0.06994667,-0.06922912,-0.30330536,-0.38650742,0.11107101,-0.07792316,0.1691699,0.5902368,0.95217067,-0.48427808,1.1537303,-0.003119908,13.964363,0.36510897,0.3385302,0.39050713,0.13648832,0.10504895,inf,inf,inf,inf,1,1,1,1,2,0,2,1,3,0,1,1,1,0
224365912,224365494,19482372,36.660603099999996,126.342033,13.483285,0.47136799,4.003167,-0.002337625,-0.0015572843,0.0,-0.12431785,-0.01761414,-0.41976628,-0.48453262,0.11107101,-0.07792316,0.1691699,0.06256978,0.55625045,-0.6643562,1.1350545,-0.003119908,13.964363,0.5525379,0.34520495,0.39278436,0.14074852,0.10649573,inf,inf,inf,inf,1,1,1,1,2,0,2,1,3,0,1,1,0,0
224869760,224869267,19482372,36.660603099999996,126.342033,13.420702,0.48690978,3.7482827,-0.002337625,-0.0015572843,0.0,-0.13309482,0.10872894,-0.5426494,-0.6001084,0.11107101,-0.07792316,0.1691699,-0.5706276,-0.3535526,0.5422162,1.1328759,-0.003119908,13.964363,0.8074224,0.3531171,0.39332065,0.1455167,0.10782646,inf,inf,inf,inf,1,1,1,1,2,0,2,1,3,0,1,1,0,0
225373512,225373039,19482372,36.660603099999996,126.342033,13.370574,0.51966476,3.440943,-0.002337625,-0.0015572843,0.0,-0.14906752,0.13844684,-0.6135912,-0.65770787,0.11107101,-0.07792316,0.1691699,-0.26553524,0.5922014,1.187597,1.133079,-0.003119908,13.964363,1.1147621,0.34370026,0.39188468,0.14083314,0.106478415,inf,inf,inf,inf,1,1,1,1,2,0,2,1,3,0,1,1,0,0
225867650,225866935,19482372,36.660603099999996,126.342033,13.31156,0.6044892,3.1155233,-0.002337625,-0.0015572843,0.0,-0.13451399,0.17842072,-0.6957221,-0.7200805,0.11107101,-0.07792316,0.1691699,-0.19387399,0.031568255,0.14923619,1.1184442,-0.003119908,13.964363,1.4401817,0.33409804,0.38986316,0.1359164,0.104951285,inf,inf,inf,inf,1,1,1,1,2,0,2,1,3,0,1,1,0,0
226371141,226370708,19482372,36.660603099999996,126.342033,13.217474,0.687817,2.7273128,-0.002337625,-0.0015572843,0.0,-0.10335463,0.16487186,-0.8131996,-0.83730793,0.11107101,-0.07792316,0.1691699,1.327892,-0.82276213,-0.9009743,0.9967973,-0.11518202,13.964363,1.8283923,0.34160548,0.39285532,0.13693857,0.106586,inf,inf,inf,inf,1,1,1,1,2,0,2,1,4,0,1,1,0,0
226874904,226874481,19482372,36.660603099999996,126.342033,13.170675,0.7649586,2.294259,-0.002337625,-0.0015572843,0.0,0.0032063466,0.10057175,-0.8676037,-0.89134914,0.11107101,-0.07792316,0.1691699,0.0722907,-0.59023523,-1.5912904,1.0024046,-0.11518202,13.964363,2.261446,0.33284736,0.38907498,0.12526837,0.1049915,inf,inf,inf,inf,1,1,1,1,2,0,2,1,4,0,1,1,0,0
227368808,227368376,19482372,36.660603099999996,126.342033,13.17037,0.83289534,1.8465359,-0.002337625,-0.0015572843,0.0,0.0622293,0.04852337,-0.8935741,-0.9232644,0.11107101,-0.07792316,0.1691699,0.31912842,1.4135774,0.84549284,1.0022705,-0.11518202,13.964363,2.7091691,0.3383914,0.3913978,0.13020693,0.10643206,inf,inf,inf,inf,1,1,1,1,2,0,2,1,4,1,1,1,0,0
227872655,227872150,19482372,36.660603099999996,126.342033,13.1878805,0.8527452,1.3570591,-0.002337625,-0.0015572843,0.0,0.07731556,0.013309708,-0.9448691,-0.98221916,0.11107101,-0.07792316,0.1691699,-1.1786127,0.45622075,-1.808147,1.027912,-0.11518202,13.964363,3.198646,0.32951328,0.3900705,0.13205622,0.105091795,inf,inf,inf,inf,1,1,1,1,2,0,2,1,4,1,1,1,0,0
228366520,228366045,19482372,36.660603099999996,126.342033,13.27557,0.892198,0.8970925,-0.002337625,-0.0015572843,0.0,0.118733086,0.0008442699,-0.9459072,-0.9576724,0.11107101,-0.07792316,0.1691699,-0.5311783,0.98727095,2.3919249,1.072288,-0.11518202,13.964363,3.6586125,0.33505964,0.3924237,0.14200664,0.10654825,inf,inf,inf,inf,1,1,1,1,2,0,2,1,4,1,1,1,0,0
228870361,228869819,19482372,36.660603099999996,126.342033,13.346812,0.8989536,0.37674636,-0.002337625,-0.0015572843,0.0,0.115476854,-0.039073296,-0.975282,-1.0132346,0.11107101,-0.07792316,0.1691699,0.1408102,-0.4468509,1.1322942,1.1140028,-0.11518202,13.964363,4.178959,0.32654014,0.39092422,0.14163633,0.105126664,inf,inf,inf,inf,1,1,1,1,2,0,2,1,4,1,1,1,0,0
229374013,229373593,19482372,36.660603099999996,126.342033,13.428482,0.88542676,-0.16705799,-0.002337625,-0.0015572843,0.0,0.14027105,-0.055319477,-1.00298,-1.0620898,0.11107101,-0.07792316,0.1691699,-0.20082474,-1.2312132,-3.613088,1.1360966,-0.11518202,13.964363,4.722763,0.33365607,0.39601976,0.14916803,0.10693172,inf,inf,inf,inf,1,1,1,1,2,0,2,1,4,1,1,1,0,0
229868221,229867489,19482372,36.660603099999996,126.342033,13.487247,0.82327974,-0.6919579,-0.002337625,-0.0015572843,0.0,0.11259518,-0.118423626,-0.9927788,-1.0532287,0.11107101,-0.07792316,0.1691699,0.3203299,0.9625384,2.7612278,1.145716,-0.11518202,13.964363,5.247663,0.32479882,0.3934504,0.14426623,0.105279736,inf,inf,inf,inf,1,1,1,1,2,0,2,1,4,1,1,1,0,0
230371699,230371263,19482372,36.660603099999996,126.342033,13.565704,0.7455359,-1.190514,-0.002337625,-0.0015572843,0.0,0.053318024,-0.12170536,-0.99739194,-1.0284944,0.11107101,-0.07792316,0.1691699,-0.06562383,-0.14981893,1.1429276,1.1539277,-0.11518202,13.964363,5.746219,0.3326482,0.39595115,0.14903104,0.10682079,inf,inf,inf,inf,1,1,1,1,2,0,2,1,4,1,1,1,0,0
230865978,230865160,19482372,36.660603099999996,126.342033,13.595074,0.6746933,-1.6818745,-0.002337625,-0.0015572843,0.0,-0.031759538,-0.095309496,-1.018901,-1.036908,0.11107101,-0.07792316,0.1691699,-0.356184,0.35660025,0.24408287,1.1601003,-0.11518202,13.964363,6.2375793,0.3235944,0.3909795,0.14225835,0.104933135,inf,inf,inf,inf,1,1,1,1,2,0,2,1,4,1,1,1,0,0
231369469,231368934,19482372,36.660603099999996,126.342033,13.564488,0.6530396,-2.2040267,-0.002337625,-0.0015572843,0.0,-0.13673465,-0.08023708,-0.99771297,-1.0226244,0.11107101,-0.07792316,0.1691699,-0.14588276,0.44481272,0.54957473,1.1654567,-0.11518202,13.964363,6.759732,0.33174145,0.3934824,0.14580187,0.10649073,inf,inf,inf,inf,1,1,1,1,2,0,2,1,4,1,1,1,0,0
231873254,231872709,19482372,36.660603099999996,126.342033,13.46913,0.6130661,-2.732006,-0.002337625,-0.0015572843,0.0,-0.14744715,-0.06467975,-0.9966715,-1.0215231,0.11107101,-0.07792316,0.1691699,-0.13472134,0.32812896,2.507544,1.1686373,-0.11518202,13.964363,7.287711,0.32339373,0.39413023,0.13932134,0.10534529,inf,inf,inf,inf,1,1,1,1,2,0,2,1,4,1,1,1,0,0
232367087,232366606,19482372,36.660603099999996,126.342033,13.395437,0.547681,-3.2401216,-0.002337625,-0.0015572843,0.0,-0.13667858,-0.044606358,-1.0330986,-1.0527359,0.11107101,-0.07792316,0.1691699,-0.16938542,-0.014766612,-1.0667214,1.1647116,-0.11518202,13.964363,7.795827,0.3307387,0.3934775,0.14226088,0.10645806,inf,inf,inf,inf,1,1,1,1,2,0,2,1,4,1,1,1,0,0
232871124,232870381,19482372,36.660603099999996,126.342033,13.330766,0.5004949,-3.7711518,-0.002337625,-0.0015572843,0.0,-0.11931012,0.0015878482,-1.0272478,-1.0516407,0.11107101,-0.07792316,0.1691699,-1.1661835,-0.112250894,-2.360659,1.1400582,-0.11518202,13.964363,8.326857,0.3220248,0.3916234,0.13621692,0.10502261,inf,inf,inf,inf,1,1,1,1,2,0,2,1,4,1,1,1,0,0
233374576,233374156,19482372,36.660603099999996,126.342033,13.250996,0.46770522,-4.309874,-0.002337625,-0.0015572843,0.0,-0.09837238,0.051959127,-1.0163145,-1.0510832,0.11107101,-0.07792316,0.1691699,0.95251477,-0.2916774,-1.8762506,1.1142038,-0.11518202,13.964363,8.86558,0.33002606,0.39418676,0.13997656,0.106618166,inf,inf,inf,inf,1,1,1,1,2,0,2,1,4,1,1,1,0,0
233868839,233868053,19482372,36.660603099999996,126.342033,13.190194,0.48817557,-4.76007,-0.002337625,-0.0015572843,0.0,-0.0676486,0.12586203,-0.9996967,-0.978786,0.11107101,-0.07792316,0.1691699,0.1462489,-0.6763662,-2.5708365,1.0951186,-0.11518202,13.964363,9.315775,0.32064316,0.39179292,0.1344953,0.10502956,inf,inf,inf,inf,1,1,1,1,2,0,2,1,4,1,1,1,0,0
234372361,234371828,19482372,36.660603099999996,126.342033,13.177729,0.5375073,-5.1668363,-0.002337625,-0.0015572843,0.0,0.0016355856,0.15615873,-1.0055699,-0.91651636,0.11107101,-0.07792316,0.1691699,-0.60956746,-0.737228,-2.2364104,1.0789982,-0.11518202,13.964363,9.722542,0.3287016,0.3944531,0.1388725,0.106651396,inf,inf,inf,inf,1,1,1,1,2,0,2,1,4,1,1,1,0,0
234866518,234865726,19482372,36.660603099999996,126.342033,13.211051,0.5989276,-5.5642858,-0.002337625,-0.0015572843,0.0,0.057256926,0.13424085,-0.9999588,-0.87561,0.11107101,-0.07792316,0.1691699,0.25399593,0.27084488,-0.59111524,1.0711652,-0.11518202,13.964363,10.119991,0.31938577,0.39207634,0.13388026,0.105056174,inf,inf,inf,inf,1,1,1,1,2,0,2,1,4,1,1,1,0,0
235370505,235369501,19482372,36.660603099999996,126.342033,13.252165,0.6718324,-6.0715623,-0.002337625,-0.0015572843,0.0,0.07911489,0.092242114,-1.6283888,-1.4858453,0.11107101,-0.07792316,0.1691699,-0.025911598,-0.025745833,-5.4820323,1.0718689,-0.11518202,13.964363,10.627268,0.3274973,0.39232025,0.14006564,0.10643589,inf,inf,inf,inf,1,1,1,1,2,0,2,1,4,1,1,1,0,0
235873730,235873277,19482372,36.660603099999996,126.342033,13.301692,0.7144327,-7.1027775,-0.002337625,-0.0015572843,0.0,0.12945254,0.002042938,-2.8097968,-2.6435606,0.11107101,-0.07792316,0.1691699,1.5019532,-0.41054434,-1.7693154,1.069595,-0.11518202,13.964363,11.658483,0.318995,0.39070714,0.13932201,0.10506876,inf,inf,inf,inf,1,1,1,1,2,0,2,1,4,1,1,1,0,0
236367761,236367175,19482372,36.660603099999996,126.342033,13.376061,0.7270245,-8.448565,-0.002337625,-0.0015572843,0.0,0.125225,-0.03624829,-2.8157628,-2.6604104,0.11107101,-0.07792316,0.1691699,0.20359954,0.47779116,0.85050637,1.0718391,-0.11518202,13.964363,13.00427,0.3264678,0.39276552,0.14318193,0.10648708,inf,inf,inf,inf,1,1,1,1,2,0,2,1,4,1,1,1,0,0
236871452,236870951,19482372,36.660603099999996,126.342033,13.435811,0.7309339,-9.829926,-0.002337625,-0.0015572843,0.0,0.058870308,-0.03899919,-2.7865515,-2.6869602,0.11107101,-0.07792316,0.1691699,-1.5090147,0.42092898,1.9878905,1.0936456,-0.11518202,13.964363,14.385631,0.31803763,0.39114854,0.1369972,0.10511249,inf,inf,inf,inf,1,1,1,1,2,0,2,1,4,1,1,1,0,0
237375549,237374727,19482372,36.660603099999996,126.342033,13.453683,0.70849353,-11.258729,-0.002337625,-0.0015572843,0.0,0.01820941,-0.09069983,-2.8185065,-2.778352,0.11107101,-0.07792316,0.1691699,0.06627447,0.08213054,-0.2766311,1.1260965,-0.11518202,13.964363,15.814434,0.32638875,0.39396337,0.14117098,0.10676741,inf,inf,inf,inf,1,1,1,1,2,0,2,1,4,1,1,1,0,0
237869356,237868625,19482372,36.660603099999996,126.342033,13.438934,0.67174745,-12.704487,-0.002337625,-0.0015572843,0.0,-0.06594262,-0.0461629,-2.8001368,-2.8164966,0.11107101,-0.07792316,0.1691699,0.21212146,-0.015737664,-0.13983472,1.1396012,-0.11518202,13.964363,17.260193,0.31701398,0.39176977,0.13550432,0.10519839,inf,inf,inf,inf,1,1,1,1,2,0,2,1,4,1,1,1,0,0
238373065,238372402,19482372,36.660603099999996,126.342033,13.429016,0.6416108,-14.181847,-0.002337625,-0.0015572843,0.0,-0.036336344,-0.048769027,-2.7810292,-2.84516,0.11107101,-0.07792316,0.1691699,0.59415114,0.06624603,0.627299,1.1399013,-0.11518202,13.964363,18.737553,0.3250912,0.3920867,0.13956587,0.10653712,inf,inf,inf,inf,1,1,1,1,2,0,2,1,4,1,1,1,0,0
238867110,238866300,19482372,36.660603099999996,126.342033,13.418972,0.63823754,-15.581071,-0.002337625,-0.0015572843,0.0,-0.020581983,-0.021015178,-2.8251917,-2.8680654,0.11107101,-0.07792316,0.1691699,0.6404992,0.42485532,-1.7346473,1.1479268,-0.11518202,13.964363,20.136776,0.31575108,0.38991088,0.13458836,0.10495542,inf,inf,inf,inf,1,1,1,1,2,0,2,1,4,1,1,1,0,0
239371008,239370077,19482372,36.660603099999996,126.342033,13.399216,0.6337177,-17.064177,-0.002337625,-0.0015572843,0.0,-0.05598199,-0.0008344,-2.8667495,-2.9287415,0.11107101,-0.07792316,0.1691699,1.6101935,0.10402544,0.042963218,1.1616309,-0.11518202,13.964363,21.61988,0.3238443,0.39275596,0.13925895,0.106567994,inf,inf,inf,inf,1,1,1,1,2,0,2,1,4,1,1,1,0,0
239874302,239873854,19482372,36.660603099999996,126.342033,13.37174,0.61203146,-18.5781,-0.002337625,-0.0015572843,0.0,-0.044791408,0.027022783,-2.936513,-3.012829,0.11107101,-0.07792316,0.1691699,0.048886314,-0.5009156,0.3568817,1.1788167,-0.11518202,13.964363,23.133804,0.31552875,0.39126274,0.13505353,0.10520481,inf,inf,inf,inf,1,1,1,1,2,0,2,1,4,1,1,1,0,0
240368328,240367755,19482372,36.660603099999996,126.342033,13.330332,0.62009007,-20.036274,-0.002337625,-0.0015572843,0.0,-0.03982355,0.070385225,-2.9515424,-2.9929376,0.11107101,-0.07792316,0.1691699,0.44737282,-0.17175154,-0.71572495,1.1919911,-0.11518202,13.964363,24.59198,0.3229562,0.3934753,0.13934831,0.106627524,inf,inf,inf,inf,1,1,1,1,2,0,2,1,4,1,1,1,0,0
240872342,240871530,19482372,36.660603099999996,126.342033,13.3019705,0.6538872,-21.534142,-0.002337625,-0.0015572843,0.0,-0.016436735,0.10777356,-2.9490159,-2.980497,0.11107101,-0.07792316,0.1691699,0.6997827,0.18781309,-0.32155555,1.2043898,-0.11518202,13.964363,26.089848,0.31436798,0.3895375,0.13458306,0.1049389,inf,inf,inf,inf,1,1,1,1,2,0,2,1,4,1,1,1,0,0
241366146,241365429,19482372,36.660603099999996,126.342033,13.298153,0.7001123,-22.97304,-0.002337625,-0.0015572843,0.0,0.026998403,0.12746438,-2.978196,-2.9783857,0.11107101,-0.07792316,0.1691699,1.598491,0.0093114795,0.5205282,1.2110095,-0.11518202,13.964363,27.528744,0.32178304,0.39176366,0.13896066,0.10636464,inf,inf,inf,inf,1,1,1,1,2,0,2,1,4,1,1,1,0,0
241869649,241869206,19482372,36.660603099999996,126.342033,13.345952,0.76640034,-24.4675,-0.002337625,-0.0015572843,0.0,0.03332931,0.112788886,-3.001789,-2.9970737,0.11107101,-0.07792316,0.1691699,1.1029997,-0.20568456,-2.8196511,1.2131431,-0.11518202,13.964363,29.023205,0.31355712,0.39034486,0.1346749,0.10501622,inf,inf,inf,inf,1,1,1,1,2,0,2,1,4,1,1,1,0,0
242363574,242363105,19482372,36.660603099999996,126.342033,13.394182,0.80337703,-25.935131,-0.002337625,-0.0015572843,0.0,0.029098809,0.024410767,-2.9789145,-2.9704802,0.11107101,-0.07792316,0.1691699,-0.75734764,0.27099016,-1.1625133,1.2222985,-0.11518202,13.964363,30.490837,0.32093233,0.39248043,0.13874145,0.1064072,inf,inf,inf,inf,1,1,1,1,2,0,2,1,4,1,1,1,0,0
242867653,242866883,19482372,36.660603099999996,126.342033,13.441655,0.8080698,-27.397434,-0.002337625,-0.0015572843,0.0,0.00071857724,-0.028002476,-2.9904912,-2.9500017,0.11107101,-0.07792316,0.1691699,-0.82846344,0.15300721,0.32644805,1.2223876,-0.11518202,13.964363,31.95314,0.31261137,0.39099476,0.13438211,0.10502818,inf,inf,inf,inf,1,1,1,1,2,0,2,1,4,1,1,1,0,0
243371394,243370660,19482372,36.660603099999996,126.342033,13.471997,0.78276145,-28.880419,-0.002337625,-0.0015572843,0.0,-0.06086272,-0.08282452,-2.9994822,-2.9583476,0.11107101,-0.07792316,0.1691699,-1.8600502,-1.5000869,-1.2857052,1.2081922,-0.11518202,13.964363,33.436123,0.32087016,0.39150688,0.13902256,0.10640386,inf,inf,inf,inf,1,1,1,1,2,0,2,1,4,1,1,1,0,0
243874980,243874438,19482372,36.660603099999996,126.342033,13.428053,0.70931387,-30.362593,-0.002337625,-0.0015572843,0.0,-0.10760066,-0.09692561,-2.984965,-2.9390056,0.11107101,-0.07792316,0.1691699,0.3757942,-0.11217439,-1.0390657,1.1978885,-0.11518202,13.964363,34.918297,0.31263542,0.39015386,0.13459168,0.10507817,inf,inf,inf,inf,1,1,1,1,2,0,2,1,4,1,1,1,0,0
244368812,244368338,19482372,36.660603099999996,126.342033,13.362471,0.6317908,-31.789667,-0.002337625,-0.0015572843,0.0,-0.12811862,-0.030108951,-3.0026546,-2.9417732,0.11107101,-0.07792316,0.1691699,0.37715626,0.26878712,-3.6452026,1.2008741,-0.11518202,13.964363,36.34537,0.3200805,0.39246172,0.13867424,0.10650686,inf,inf,inf,inf,1,1,1,1,2,0,2,1,4,1,1,1,0,0
244862962,244862238,19482372,36.660603099999996,126.342033,13.292691,0.5932449,-33.239796,-0.002337625,-0.0015572843,0.0,-0.1264381,0.057512153,-2.9932492,-2.9350562,0.11107101,-0.07792316,0.1691699,0.5252623,0.46946976,-0.85331863,1.2064555,-0.11518202,13.964363,37.7955,0.31097052,0.39044255,0.13374549,0.10495808,inf,inf,inf,inf,1,1,1,1,2,0,2,1,4,1,1,1,0,0
245366442,245366016,19482372,36.660603099999996,126.342033,13.225578,0.610548,-34.718388,-0.002337625,-0.0015572843,0.0,-0.09261881,0.14611103,-2.9875805,-2.9273639,0.11107101,-0.07792316,0.1691699,0.16526206,0.0792137,-0.08991552,1.2116759,-0.11518202,13.964363,39.274094,0.31938267,0.3910253,0.13848963,0.10635814,inf,inf,inf,inf,1,1,1,1,2,0,2,1,4,1,1,1,0,0
245870261,245869794,19482372,36.660603099999996,126.342033,13.146953,0.67161614,-36.166676,-0.002337625,-0.0015572843,0.0,-0.06566714,0.19855599,-2.9927013,-2.9115603,0.11107101,-0.07792316,0.1691699,-0.77287316,0.40942386,-2.1260774,1.2216512,-0.11518202,13.964363,40.72238,0.31137145,0.38975728,0.13423666,0.105058685,inf,inf,inf,inf,1,1,1,1,2,0,2,1,4,1,1,1,0,0
246374040,246373572,19482372,36.660603099999996,126.342033,13.118497,0.7682462,-37.600353,-0.002337625,-0.0015572843,0.0,0.04201635,0.21424672,-2.9790492,-2.8729656,0.11107101,-0.07792316,0.1691699,-0.73973787,-0.3419615,1.9501926,1.2244003,-0.11518202,13.964363,42.15606,0.31994128,0.39281797,0.13894893,0.10671905,inf,inf,inf,inf,1,1,1,1,2,0,2,1,4,1,1,1,0,0
246868021,246867472,19482372,36.660603099999996,126.342033,13.129834,0.86220294,-38.997936,-0.002337625,-0.0015572843,0.0,0.11061373,0.18751986,-2.8129756,-2.7091184,0.11107101,-0.07792316,0.1691699,2.2053628,0.14801334,-0.35943735,1.222979,-0.11518202,13.964363,43.553642,0.3108092,0.3884084,0.13359955,0.104886495,inf,inf,inf,inf,1,1,1,1,2,0,2,1,4,1,1,1,0,0
247371767,247371251,19482372,36.660603099999996,126.342033,13.201201,0.9623368,-40.401512,-0.002337625,-0.0015572843,0.0,0.18433775,0.11790308,-2.7784655,-2.7188282,0.11107101,-0.07792316,0.1691699,-1.1565592,-0.9745917,0.6367401,1.2147602,-0.11518202,13.964363,44.95722,0.31923115,0.3914338,0.13798334,0.10651649,inf,inf,inf,inf,1,1,1,1,2,0,2,1,4,1,1,1,0,0
247875470,247875029,19482372,36.660603099999996,126.342033,13.329228,1.0237288,-41.650665,-0.002337625,-0.0015572843,0.0,0.23600802,-0.015231641,-2.2030919,-2.1592362,0.11107101,-0.07792316,0.1691699,0.4645484,-0.50206256,0.37898603,1.2117755,-0.11518202,13.964363,46.20637,0.31118238,0.3901326,0.13236712,0.105185166,inf,inf,inf,inf,1,1,1,1,2,0,2,1,4,1,1,1,0,0
248369356,248368930,19482372,36.660603099999996,126.342033,13.46971,1.0078666,-42.60671,-0.002337625,-0.0015572843,0.0,0.18122727,-0.12872359,-1.7348748,-1.695628,0.11107101,-0.07792316,0.1691699,-0.17702262,0.9030723,3.4855988,1.2153761,-0.11518202,13.964363,47.162415,0.31865525,0.39250976,0.13533254,0.10660989,inf,inf,inf,inf,1,1,1,1,2,0,2,1,4,1,1,1,0,0
248863532,248862830,19482372,36.660603099999996,126.342033,13.572913,0.91498846,-43.35188,-0.002337625,-0.0015572843,0.0,0.07989851,-0.24122734,-1.3140984,-1.2815964,0.11107101,-0.07792316,0.1691699,-2.0343618,0.40957844,2.5104132,1.2252481,-0.11518202,13.964363,47.907585,0.30970484,0.39049536,0.13031054,0.10504188,inf,inf,inf,inf,1,1,1,1,2,0,2,1,4,1,1,1,0,0
249367090,249366608,19482372,36.660603099999996,126.342033,13.630266,0.75542444,-43.896,-0.002337625,-0.0015572843,0.0,-0.051103424,-0.3035515,-1.0243627,-0.9710832,0.11107101,-0.07792316,0.1691699,-1.4997795,0.2271615,0.2102792,1.2412932,-0.11518202,13.964363,48.451706,0.31786373,0.3934658,0.13481943,0.106657,inf,inf,inf,inf,1,1,1,1,2,0,2,1,4,1,1,1,0,0
249870882,249870387,19482372,36.660603099999996,126.342033,13.576749,0.6164233,-44.338264,-0.002337625,-0.0015572843,0.0,-0.1874751,-0.26379195,-0.79851854,-0.75598735,0.11107101,-0.07792316,0.1691699,-0.7988724,0.371962,-0.8363561,1.2625046,-0.11518202,13.964363,48.89397,0.309716,0.39196035,0.1311253,0.10526094,inf,inf,inf,inf,1,1,1,1,2,0,2,1,4,1,1,1,0,0
250364795,250364288,19482372,36.660603099999996,126.342033,13.466377,0.47782543,-44.669003,-0.002337625,-0.0015572843,0.0,-0.24949853,-0.19095807,-0.5919689,-0.5571454,0.11107101,-0.07792316,0.1691699,0.48666826,-0.88420576,-1.6546075,1.2855568,-0.11518202,13.964363,49.22471,0.31732014,0.39170697,0.13560596,0.10641268,inf,inf,inf,inf,1,1,1,1,2,0,2,1,4,1,1,1,0,0
250868921,250868067,19482372,36.660603099999996,126.342033,13.324641,0.36895785,-44.903343,-0.002337625,-0.0015572843,0.0,-0.2922349,-0.04352387,-0.45612442,-0.40820348,0.11107101,-0.07792316,0.1691699,-0.16141008,0.40230837,-0.5499251,1.3078835,-0.11518202,13.964363,49.45905,0.3093127,0.39023522,0.13190714,0.10501823,inf,inf,inf,inf,1,1,1,1,2,0,2,1,4,1,1,1,0,0
251372340,251371846,19482372,36.660603099999996,126.342033,13.166954,0.30644566,-45.06521,-0.002337625,-0.0015572843,0.0,-0.40686938,-0.18337747,-0.32753444,-0.24661008,0.11107101,-0.07792316,0.1691699,-2.0968997,-0.459273,0.8968602,1.3356414,-0.11518202,13.964363,49.620914,0.3178074,0.393124,0.13716063,0.106623664,inf,inf,inf,inf,1,1,1,1,2,0,2,1,4,1,1,1,0,0
251867037,251865747,19482372,36.660603099999996,126.342033,12.814528,0.031184416,-45.13403,-0.002337625,-0.0015572843,0.0,-1.0577852,-0.80672216,-0.23652919,-0.1478034,0.11107101,-0.07792316,0.1691699,-0.45507103,-0.65622824,1.2217848,1.3778334,-0.11518202,13.964363,49.689735,0.3091202,0.3909343,0.13343616,0.104987085,inf,inf,inf,inf,1,1,1,1,2,0,2,1,4,1,1,1,0,0
252369988,252369526,19482372,36.660603099999996,126.342033,12.381794,-0.4104193,-45.231937,-0.002337625,-0.0015572843,0.0,-0.9825146,-0.660023,-0.28667206,-0.19831845,0.11107101,-0.07792316,0.1691699,-0.3089835,1.4039307,4.1630964,1.4221133,-0.11518202,13.964363,49.787643,0.31781188,0.39377162,0.13863505,0.10658443,inf,inf,inf,inf,1,1,1,1,2,0,2,1,4,1,1,1,0,0
252864086,252863427,19482372,36.660603099999996,126.342033,12.01919,-0.6941549,-45.298496,-0.002337625,-0.0015572843,0.0,-0.7413012,-0.16433632,-0.21518038,-0.11763942,0.11107101,-0.07792316,0.1691699,-1.3321689,0.87956107,-1.8794177,1.4567984,-0.11518202,13.964363,49.854202,0.30910337,0.38915318,0.13346371,0.10464835,inf,inf,inf,inf,1,1,1,1,2,0,2,1,4,1,1,1,0,0
253367738,253367206,19482372,36.660603099999996,126.342033,11.65656,-0.70287335,-45.33794,-0.002337625,-0.0015572843,0.0,-0.20873249,0.59713805,-0.25650042,-0.16150706,0.11107101,-0.07792316,0.1691699,2.7737737,2.4772978,2.0763402,1.4533374,-0.11518202,13.964363,49.893646,0.31784096,0.39198706,0.13933225,0.1061933,inf,inf,inf,inf,1,1,1,1,2,0,2,1,4,1,1,1,0,0
253872417,253870985,19482372,36.660603099999996,126.342033,11.727831,-0.23947138,-45.39579,-0.002337625,-0.0015572843,0.0,1.0108447,1.51335,-0.13629751,-0.054859914,0.11107101,-0.07792316,0.1691699,5.0718355,1.4107529,1.1138788,1.3770548,-0.11518202,13.964363,49.951496,0.31017902,0.39033642,0.1382133,0.10468369,inf,inf,inf,inf,1,1,1,1,2,0,2,1,4,1,1,1,0,0
254365327,254364886,19482372,36.660603099999996,126.342033,12.341693,0.68002236,-45.43751,-0.002337625,-0.0015572843,0.0,2.1918793,1.6611464,0.00215695,0.079613425,0.11107101,-0.07792316,0.1691699,-0.38629004,-1.6133701,1.3581053,1.2177029,-0.11518202,13.964363,49.993217,0.31831858,0.3948083,0.14662014,0.106314704,inf,inf,inf,inf,1,1,1,1,2,0,2,1,4,1,1,1,0,0
254869304,254868666,19482372,36.660603099999996,126.342033,13.500354,1.5640594,-45.49755,-0.002337625,-0.0015572843,0.0,3.1788697,1.1464761,-0.12664507,-0.09400882,0.11107101,-0.07792316,0.1691699,-0.43981662,-0.95854473,1.9118128,1.1812638,-0.11518202,13.964363,50.053257,0.32779646,0.39733937,0.15151171,0.10769837,inf,inf,inf,inf,1,1,1,1,2,0,2,1,4,1,1,1,0,0
255363027,255362567,19482372,36.660603099999996,126.342033,15.006234,2.2971714,-45.527504,-0.002337625,-0.0015572843,0.0,3.2751298,0.5341573,-0.1022931,-0.08874043,0.11107101,-0.07792316,0.1691699,1.5592552,-2.8771114,-0.949081,1.1129053,-0.11518202,13.964363,50.08321,0.3186737,0.39464602,0.14252512,0.10594485,inf,inf,inf,inf,1,1,1,1,2,0,2,1,4,1,1,1,0,0
255867644,255866347,19482372,36.660603099999996,126.342033,16.61104,2.667577,-45.614132,-0.002337625,-0.0015572843,0.0,2.6488748,-0.12526174,-0.049468063,-0.078084886,0.11107101,-0.07792316,0.1691699,-3.7807713,-0.7493849,-3.0538738,1.0522751,-0.11518202,13.964363,50.169838,0.3108009,0.39273158,0.13556148,0.1044232,inf,inf,inf,inf,1,1,1,1,2,0,2,1,4,1,1,1,0,0
256370861,256370127,19482372,36.660603099999996,126.342033,17.816355,2.629613,-45.728893,-0.002337625,-0.0015572843,0.0,1.323479,-0.72726417,0.10810617,0.010523455,0.11107101,-0.07792316,0.1691699,-4.7168202,-2.4933078,-0.3472245,0.99973756,-0.11518202,13.964363,50.2846,0.31932974,0.39274037,0.14123428,0.105628945,inf,inf,inf,inf,1,1,1,1,2,0,2,1,4,1,1,1,0,0
256864903,256864028,19482372,36.660603099999996,126.342033,18.345974,2.1639497,-45.69613,-0.002337625,-0.0015572843,0.0,0.073334426,-1.3026978,0.13562319,0.041180417,0.11107101,-0.07792316,0.1691699,-0.63462514,-1.3574474,-0.6538674,0.9054252,-0.11518202,13.964363,50.251835,0.31054533,0.39035732,0.14033267,0.10422018,inf,inf,inf,inf,1,1,1,1,2,0,2,1,4,1,1,1,0,0
257368272,257367808,19482372,36.660603099999996,126.342033,18.475,1.2981232,-45.649136,-0.002337625,-0.0015572843,0.0,-0.28854552,-1.7276347,0.18296233,0.09746094,0.11107101,-0.07792316,0.1691699,-1.8441054,-0.6000035,0.67475474,0.8399867,-0.11518202,13.964363,50.20484,0.31910598,0.39291862,0.14603177,0.10605914,inf,inf,inf,inf,1,1,1,1,2,0,2,1,4,1,1,1,0,0
257872557,257871588,19482372,36.660603099999996,126.342033,18.543139,0.3671109,-45.685772,-0.002337625,-0.0015572843,0.0,0.24867707,-1.211648,0.06664657,-0.028946936,0.11107101,-0.07792316,0.1691699,0.6025403,2.573825,2.6645815,0.7977649,-0.11518202,13.964363,50.241478,0.3112591,0.39129877,0.13721411,0.10454712,inf,inf,inf,inf,1,1,1,1,2,0,2,1,4,1,1,1,0,0
258365910,258365490,19482372,36.660603099999996,126.342033,18.902426,-0.10884552,-45.654045,-0.002337625,-0.0015572843,0.0,1.2385061,0.12641856,-0.010642234,-0.05182173,0.11107101,-0.07792316,0.1691699,2.5512145,1.675388,-0.0921074,0.79935193,-0.11518202,13.964363,50.20975,0.31935158,0.39333576,0.14013956,0.105570704,inf,inf,inf,inf,1,1,1,1,2,0,2,1,4,1,1,1,0,0
258869969,258869270,19482372,36.660603099999996,126.342033,19.613585,-0.04020127,-45.584984,-0.002337625,-0.0015572843,0.0,1.946786,0.78711367,0.035559863,0.019937703,0.11107101,-0.07792316,0.1691699,1.0677915,0.50117105,2.457154,0.8169297,-0.11518202,13.964363,50.14069,0.31154513,0.38929644,0.13673553,0.103972696,inf,inf,inf,inf,1,1,1,1,2,0,2,1,4,1,1,1,0,0
259363737,259363172,19482372,36.660603099999996,126.342033,20.437893,0.32325587,-45.52356,-0.002337625,-0.0015572843,0.0,1.6575658,0.840602,0.090861864,0.097191945,0.11107101,-0.07792316,0.1691699,0.580222,-0.6703168,-1.1484334,0.85260373,-0.11518202,13.964363,50.079266,0.31958526,0.39136282,0.14053552,0.10552231,inf,inf,inf,inf,1,1,1,1,2,0,2,1,4,1,1,1,0,0
259867861,259866952,19482372,36.660603099999996,126.342033,21.186323,0.775195,-45.4715,-0.002337625,-0.0015572843,0.0,1.6016568,0.7647675,0.04984485,0.07403971,0.11107101,-0.07792316,0.1691699,2.5048718,-0.9208033,0.531775,0.8776218,-0.11518202,13.964363,50.027206,0.31220838,0.38991645,0.13541628,0.104345255,inf,inf,inf,inf,1,1,1,1,2,0,2,1,4,1,1,1,0,0
260371179,260370733,19482372,36.660603099999996,126.342033,22.020983,1.1564372,-45.454376,-0.002337625,-0.0015572843,0.0,1.6862395,0.6248715,-0.049400017,-0.008920297,0.11107101,-0.07792316,0.1691699,-4.5903263,-0.98690754,-0.55437225,0.8706466,-0.11518202,13.964363,50.010082,0.32124752,0.3927741,0.13964473,0.10607641,inf,inf,inf,inf,1,1,1,1,2,0,2,1,4,1,1,1,0,0
260865469,260864635,19482372,36.660603099999996,126.342033,22.697718,1.4005393,-45.47663,-0.002337625,-0.0015572843,0.0,0.8418424,0.35635418,-0.11234896,-0.077344395,0.11107101,-0.07792316,0.1691699,-1.3137776,-1.1718298,2.4533541,0.8981768,-0.11518202,13.964363,50.032337,0.3128007,0.39070532,0.134543,0.104568675,inf,inf,inf,inf,1,1,1,1,2,0,2,1,4,1,1,1,0,0
261368895,261368415,19482372,36.660603099999996,126.342033,22.91911,1.4948958,-45.46592,-0.002337625,-0.0015572843,0.0,-0.09206779,-0.014356432,-0.02370643,-0.009178324,0.11107101,-0.07792316,0.1691699,-2.4201055,1.877707,-0.47347498,0.94176334,-0.11518202,13.964363,50.021626,0.32171604,0.39118135,0.14034748,0.105948634,inf,inf,inf,inf,1,1,1,1,2,0,2,1,4,1,1,1,0,0
261873072,261872196,19482372,36.660603099999996,126.342033,22.916853,1.3992115,-45.49543,-0.002337625,-0.0015572843,0.0,-0.04023644,-0.2591822,-0.080003016,-0.088777386,0.11107101,-0.07792316,0.1691699,0.2689259,0.5577792,0.46703836,0.99100274,-0.11518202,13.964363,50.051136,0.31412226,0.38979018,0.13519095,0.10469938,inf,inf,inf,inf,1,1,1,1,2,0,2,1,4,1,1,1,0,0
262366521,262366099,19482372,36.660603099999996,126.342033,22.872252,1.2621126,-45.509052,-0.002337625,-0.0015572843,0.0,-0.1715641,-0.25069386,0.07634643,0.068588495,0.11107101,-0.07792316,0.1691699,0.5115891,1.131159,2.0623963,1.0311532,-0.11518202,13.964363,50.06476,0.322106,0.39203343,0.13814759,0.10617385,inf,inf,inf,inf,1,1,1,1,2,0,2,1,4,1,1,1,0,0
262870699,262869879,19482372,36.660603099999996,126.342033,22.796982,1.1323897,-45.512405,-0.002337625,-0.0015572843,0.0,-0.15808053,-0.1592613,0.033791456,0.044503126,0.11107101,-0.07792316,0.1691699,-0.20674469,-0.7920001,-0.53692544,1.0598174,-0.11518202,13.964363,50.06811,0.31430426,0.39061326,0.1333851,0.10483759,inf,inf,inf,inf,1,1,1,1,2,0,2,1,4,1,1,1,0,0
263364249,263363782,19482372,36.660603099999996,126.342033,22.712328,1.0560048,-45.521233,-0.002337625,-0.0015572843,0.0,-0.14144751,-0.035274975,-0.056626026,-0.048946615,0.11107101,-0.07792316,0.1691699,-2.2076182,0.61084074,-0.11651676,1.0773549,-0.11518202,13.964363,50.07694,0.3222466,0.39293927,0.13755791,0.10633484,inf,inf,inf,inf,1,1,1,1,2,0,2,1,4,1,1,1,0,0
263868455,263867563,19482372,36.660603099999996,126.342033,22.612345,1.042493,-45.516457,-0.002337625,-0.0015572843,0.0,-0.08220845,0.2623048,0.062461987,0.06126311,0.11107101,-0.07792316,0.1691699,3.0887115,2.7924542,-2.7815804,1.0930945,-0.11518202,13.964363,50.072163,0.31455448,0.38908902,0.13292687,0.104766116,inf,inf,inf,inf,1,1,1,1,2,0,2,1,4,1,1,1,0,0
264371913,264371344,19482372,36.660603099999996,126.342033,22.76334,1.6878022,-45.638752,-0.002337625,-0.0015572843,0.0,0.9366095,2.727323,0.026071222,-0.116796196,0.11107101,-0.07792316,0.1691699,1.1912041,5.2468305,0.41238466,1.1266239,-0.11518202,13.964363,50.194458,0.32311946,0.39199442,0.14404094,0.10683662,inf,inf,inf,inf,1,1,1,1,2,0,2,1,4,1,1,1,0,0
264865940,264865247,19482372,36.660603099999996,126.342033,23.349268,3.4064898,-45.891785,-0.002337625,-0.0015572843,0.0,1.9421462,4.769687,-0.15486765,-0.40747175,0.11107101,-0.07792316,0.1691699,1.1536746,6.8117204,2.7580812,1.153386,-0.11518202,13.964363,50.44749,0.31431597,0.38990277,0.14854488,0.10622756,inf,inf,inf,inf,1,1,1,1,2,0,2,1,4,1,1,1,0,0
265369455,265369028,19482372,36.660603099999996,126.342033,24.404469,6.1831098,-46.122204,-0.002337625,-0.0015572843,0.0,3.0957115,6.4061627,-0.4071306,-0.61579,0.11107101,-0.07792316,0.1691699,1.6071411,6.391984,1.3899908,1.0985852,-0.11518202,13.964363,50.67791,0.32305267,0.39286286,0.1595386,0.10893697,inf,inf,inf,inf,1,1,1,1,2,0,2,1,4,1,1,1,0,0
265863563,265862932,19482372,36.660603099999996,126.342033,25.971937,9.823444,-46.35029,-0.002337625,-0.0015572843,0.0,4.210836,8.126187,0.13526475,-0.11068729,0.11107101,-0.07792316,0.1691699,0.7862077,3.0306842,8.97531,1.0410876,-0.11518202,13.964363,50.905994,0.3143771,0.39085725,0.15223303,0.108112596,inf,inf,inf,inf,1,1,1,1,2,0,2,1,4,1,1,1,0,0
266367303,266366713,19482372,36.660603099999996,126.342033,28.265368,14.421507,-46.371815,-0.002337625,-0.0015572843,0.0,5.6352882,9.8019495,0.42081815,0.13236998,0.11107101,-0.07792316,0.1691699,0.68850577,2.155402,-3.2158132,1.0409632,-0.11518202,13.964363,50.92752,0.32327268,0.39149943,0.15779324,0.11060125,inf,inf,inf,inf,1,1,1,1,2,0,2,1,4,1,1,1,0,0
266870973,266870494,19482372,36.660603099999996,126.342033,31.26621,19.829962,-46.239304,-0.002337625,-0.0015572843,0.0,6.902843,11.417928,0.32650602,0.100507155,0.11107101,-0.07792316,0.1691699,2.2788634,4.4098697,-0.58933145,1.017831,-0.11518202,13.964363,50.79501,0.31478485,0.39008933,0.14911194,0.10941994,inf,inf,inf,inf,1,1,1,1,2,0,2,1,4,1,1,1,0,0
267364833,267364398,19482372,36.660603099999996,126.342033,34.853428,25.905727,-46.294506,-0.002337625,-0.0015572843,0.0,7.917491,12.786446,0.07563308,-0.15679471,0.11107101,-0.07792316,0.1691699,6.76008,-1.0460652,6.192192,1.0180116,-0.11518202,13.964363,50.850212,0.32295826,0.3926223,0.15142153,0.11109366,inf,inf,inf,inf,1,1,1,1,2,0,2,1,4,1,1,1,0,0
267869238,267868180,19482372,36.660603099999996,126.342033,38.992752,32.78333,-46.53722,-0.002337625,-0.0015572843,0.0,8.532482,14.213215,-0.12869485,-0.4246659,0.11107101,-0.07792316,0.1691699,2.104772,2.7417738,3.6010795,1.0618827,-0.11518202,13.964363,51.092926,0.31467968,0.38889837,0.14198332,0.108791724,inf,inf,inf,inf,1,1,1,1,2,0,2,1,4,1,1,1,0,0
268372436,268371961,19482372,36.660603099999996,126.342033,43.450096,40.318913,-46.952103,-0.002337625,-0.0015572843,0.0,9.045076,15.435085,-0.671892,-1.0036851,0.11107101,-0.07792316,0.1691699,2.0958457,-0.5568141,-0.8201893,1.0472407,-0.11518202,13.964363,51.50781,0.32346958,0.39208347,0.14453988,0.11000052,inf,inf,inf,inf,1,1,1,1,2,0,2,1,4,1,1,1,0,0
268866666,268865865,19482372,36.660603099999996,126.342033,48.05197,48.194695,-47.556793,-0.002337625,-0.0015572843,0.0,9.342241,16.031477,-0.89276916,-1.276643,0.11107101,-0.07792316,0.1691699,-0.69215107,-0.970952,0.37475163,1.0575709,-0.11518202,13.964363,52.1125,0.3144293,0.39009315,0.13609666,0.10735534,inf,inf,inf,inf,1,1,1,1,2,0,2,1,4,1,1,1,0,0
269370312,269369647,19482372,36.660603099999996,126.342033,52.569054,56.237144,-48.20523,-0.002337625,-0.0015572843,0.0,8.375513,16.059046,-0.8732772,-1.1666836,0.11107101,-0.07792316,0.1691699,-0.19406945,0.9041321,0.22196947,1.0731235,-0.11518202,13.964363,52.760937,0.3229381,0.39077917,0.13965882,0.1071626,inf,inf,inf,inf,1,1,1,1,2,0,2,1,4,1,1,1,0,0
269864044,269863551,19482372,36.660603099999996,126.342033,56.18507,64.748505,-48.659653,-0.002337625,-0.0015572843,0.0,4.594061,18.418764,-0.65841496,-1.041925,0.11107101,-0.07792316,0.1691699,-12.967157,3.8160682,-5.0741286,1.3567449,-0.11518202,13.964363,53.21536,0.3308859,0.3932087,0.14739233,0.10804391,inf,inf,inf,inf,1,1,1,1,2,0,2,1,4,1,1,1,0,0
270367805,270367332,19482372,36.660603099999996,126.342033,57.441414,74.145584,-49.422535,-0.002337625,-0.0015572843,0.0,-0.589852,18.815866,-1.331441,-1.6461259,0.11107101,-0.07792316,0.1691699,-7.2032394,-1.116835,2.543332,1.6648118,-0.11518202,13.964363,53.97824,0.32281065,0.39162877,0.16956852,0.11014448,inf,inf,inf,inf,1,1,1,1,2,0,2,1,4,1,1,1,0,0
270871921,270871115,19482372,36.660603099999996,126.342033,57.074066,83.4888,-49.72037,-0.002337625,-0.0015572843,0.0,-1.5106531,18.318111,0.41167942,0.16145109,0.11107101,-0.07792316,0.1691699,-0.63295007,-0.6245223,5.1317487,1.592203,-0.11518202,13.964363,54.276077,0.31514302,0.39009044,0.1509469,0.10779717,inf,inf,inf,inf,1,1,1,1,2,0,2,1,4,1,1,1,0,0
271365453,271365018,19482372,36.660603099999996,126.342033,56.405018,92.569664,-49.13046,-0.002337625,-0.0015572843,0.0,-0.81774694,18.505554,1.674042,1.5119559,0.11107101,-0.07792316,0.1691699,4.2695775,1.0379453,0.53756595,1.5912203,-0.11518202,13.964363,53.686165,0.3231032,0.39229286,0.14207666,0.107339226,inf,inf,inf,inf,1,1,1,1,2,0,2,1,4,1,1,1,0,0
271869528,271868801,19482372,36.660603099999996,126.342033,56.071842,101.98369,-48.128136,-0.002337625,-0.0015572843,0.0,0.4646946,18.959913,2.0628402,1.9907198,0.11107101,-0.07792316,0.1691699,3.946246,1.1646764,0.43255058,1.4831749,-0.11518202,13.964363,52.68384,0.31582135,0.38853446,0.13149364,0.10385347,inf,inf,inf,inf,1,1,1,1,2,0,2,1,4,1,1,1,0,0
272373034,272372583,19482372,36.660603099999996,126.342033,56.554516,111.56514,-47.159973,-0.002337625,-0.0015572843,0.0,2.39836,19.196672,1.4745561,1.4906322,0.11107101,-0.07792316,0.1691699,4.545777,-0.60894626,-1.0127171,1.3742391,-0.11518202,13.964363,51.71568,0.32432052,0.39133993,0.13805966,0.104245745,inf,inf,inf,inf,1,1,1,1,2,0,2,1,4,1,1,1,0,0
272867265,272866487,19482372,36.660603099999996,126.342033,57.832005,121.05638,-46.387,-0.002337625,-0.0015572843,0.0,3.5313106,19.311642,1.4502624,1.4622021,0.11107101,-0.07792316,0.1691699,4.4406295,-1.0590491,-1.7087694,1.3349134,-0.11518202,13.964363,50.942707,0.31602874,0.3892408,0.13571793,0.102824554,inf,inf,inf,inf,1,1,1,1,2,0,2,1,4,1,1,1,0,0
273370758,273370270,19482372,36.660603099999996,126.342033,59.692673,130.8157,-45.736515,-0.002337625,-0.0015572843,0.0,4.2077575,19.400864,1.3557292,1.3299694,0.11107101,-0.07792316,0.1691699,0.25453728,0.35324562,-2.466675,1.3106339,-0.11518202,13.964363,50.29222,0.32461125,0.39200452,0.14300899,0.10476362,inf,inf,inf,inf,1,1,1,1,2,0,2,1,4,1,1,1,0,0
273864719,273864173,19482372,36.660603099999996,126.342033,61.89085,140.43556,-45.197582,-0.002337625,-0.0015572843,0.0,4.68781,19.468771,1.0617378,1.0277917,0.11107101,-0.07792316,0.1691699,1.7471522,-0.8368141,-0.8015885,1.2888603,-0.11518202,13.964363,49.75329,0.31647867,0.3876283,0.13944498,0.10346165,inf,inf,inf,inf,1,1,1,1,2,0,2,1,4,1,1,1,0,0
274368453,274367955,19482372,36.660603099999996,126.342033,64.38097,150.27408,-44.835033,-0.002337625,-0.0015572843,0.0,4.9618444,19.603193,0.6625994,0.62659067,0.11107101,-0.07792316,0.1691699,-0.64535505,-0.21576877,-0.79754865,1.2763665,-0.11518202,13.964363,49.39074,0.32529,0.39048088,0.14488205,0.10534592,inf,inf,inf,inf,1,1,1,1,2,0,2,1,4,1,1,1,0,0
274872194,274871737,19482372,36.660603099999996,126.342033,66.96461,160.13786,-44.657856,-0.002337625,-0.0015572843,0.0,5.0591364,19.68932,0.52316594,0.41166016,0.11107101,-0.07792316,0.1691699,2.0071747,-0.5006529,-1.1353719,1.2883292,-0.11518202,13.964363,49.213562,0.31742612,0.38921896,0.1385773,0.10426188,inf,inf,inf,inf,1,1,1,1,2,0,2,1,4,1,1,1,0,0
275366075,275365641,19482372,36.660603099999996,126.342033,69.50458,169.8181,-44.649963,-0.002337625,-0.0015572843,0.0,5.2034564,19.527283,0.10230226,-0.025663484,0.11107101,-0.07792316,0.1691699,0.69127524,0.2061153,1.0128292,1.2858205,-0.11518202,13.964363,49.20567,0.32539022,0.3915893,0.14340042,0.105866894,inf,inf,inf,inf,1,1,1,1,2,0,2,1,4,1,1,1,0,0
275870349,275869423,19482372,36.660603099999996,126.342033,72.6108,179.48071,-44.503304,-0.002337625,-0.0015572843,0.0,7.43318,18.73546,1.0679092,0.92057323,0.11107101,-0.07792316,0.1691699,7.593181,-1.9373299,0.80042714,1.1261683,-0.11518202,13.964363,49.05901,0.31734544,0.38794312,0.13748397,0.10414764,inf,inf,inf,inf,1,1,1,1,2,0,2,1,4,1,1,1,0,0
276364186,276363327,19482372,36.660603099999996,126.342033,77.59513,187.89967,-44.23252,-0.002337625,-0.0015572843,0.0,13.718179,14.246122,-0.1037905,-0.23555002,0.11107101,-0.07792316,0.1691699,12.212156,-11.568682,-3.0456522,0.65469307,-0.11518202,13.964363,48.788227,0.32531852,0.39016807,0.16659012,0.10860765,inf,inf,inf,inf,1,1,1,1,2,0,2,1,4,1,1,1,0,0
276867607,276867109,19482372,36.660603099999996,126.342033,85.471954,193.54465,-44.643757,-0.002337625,-0.0015572843,0.0,18.093348,6.363775,-1.4944831,-1.5324374,0.11107101,-0.07792316,0.1691699,4.593482,-21.95133,-2.9723141,0.17449108,-0.11518202,13.964363,49.199463,0.3170536,0.38887975,0.17816703,0.114077576,inf,inf,inf,inf,1,1,1,1,2,0,2,1,4,1,1,1,0,0
277371459,277370891,19482372,36.660603099999996,126.342033,94.9408,195.06693,-45.515915,-0.002337625,-0.0015572843,0.0,18.77211,-2.1135092,-2.0625904,-2.0462298,0.11107101,-0.07792316,0.1691699,-3.5139842,-18.23373,-1.6668453,-0.26801676,-0.11518202,13.964363,50.07162,0.3281138,0.3922849,0.1917946,0.12503652,inf,inf,inf,inf,1,1,1,1,2,0,2,1,4,1,1,1,0,0
277865242,277864795,19482372,36.660603099999996,126.342033,103.8779,192.47331,-46.49941,-0.002337625,-0.0015572843,0.0,16.073572,-9.463866,-2.1035526,-2.0718324,0.11107101,-0.07792316,0.1691699,-6.7520804,-12.840774,-0.27091905,-0.6980203,-0.11518202,13.964363,51.055115,0.32046175,0.39105836,0.17192633,0.12582187,inf,inf,inf,inf,1,1,1,1,2,0,2,1,4,1,1,1,0,0
278369481,278368577,19482372,36.660603099999996,126.342033,111.04102,186.32721,-47.487965,-0.002337625,-0.0015572843,0.0,10.566741,-15.31003,-1.90598,-1.8939517,0.11107101,-0.07792316,0.1691699,-12.961385,-9.554082,-0.91341656,-1.096427,-0.11518202,13.964363,52.04367,0.33099028,0.39174265,0.17147174,0.13154958,inf,inf,inf,inf,1,1,1,1,2,0,2,1,4,1,1,1,0,0
278872798,278872359,19482372,36.660603099999996,126.342033,114.93327,177.64134,-48.357933,-0.002337625,-0.0015572843,0.0,3.7662122,-18.562319,-1.4627353,-1.4930727,0.11107101,-0.07792316,0.1691699,-14.439807,-3.9390297,-0.4243031,-1.4561886,-0.11518202,13.964363,52.91364,0.32401997,0.39006785,0.15607733,0.12875909,inf,inf,inf,inf,1,1,1,1,2,0,2,1,4,1,1,1,0,0
279366824,279366263,19482372,36.660603099999996,126.342033,115.1803,168.08894,-48.86755,-0.002337625,-0.0015572843,0.0,-3.03751,-19.236977,-0.5688912,-0.569885,0.11107101,-0.07792316,0.1691699,-11.660172,-0.68039495,0.115889594,-1.8278561,-0.11518202,13.964363,53.423256,0.33514416,0.39353767,0.15966447,0.13392945,inf,inf,inf,inf,1,1,1,1,2,0,2,1,4,1,1,1,0,0
279870478,279870044,19482372,36.660603099999996,126.342033,112.40245,158.45311,-48.701134,-0.002337625,-0.0015572843,0.0,-6.699438,-18.628803,1.5031779,1.5001719,0.11107101,-0.07792316,0.1691699,-4.6235614,1.64802,6.6245985,-1.923569,-0.11518202,13.964363,53.25684,0.33168852,0.39177397,0.14843829,0.12844664,inf,inf,inf,inf,1,1,1,1,2,0,2,1,4,1,1,1,0,0
280364706,280363948,19482372,36.660603099999996,126.342033,108.522705,149.24966,-47.473663,-0.002337625,-0.0015572843,0.0,-7.132434,-18.960022,2.865201,2.8349288,0.11107101,-0.07792316,0.1691699,2.3023949,-2.1946146,-1.4698168,-1.9152282,-0.11518202,13.964363,52.02937,0.34047547,0.39429727,0.1419591,0.122461885,inf,inf,inf,inf,1,1,1,1,2,0,2,1,4,1,1,1,0,0
280868162,280867729,19482372,36.660603099999996,126.342033,104.85311,139.59508,-46.026943,-0.002337625,-0.0015572843,0.0,-4.8466735,-20.136961,2.4338515,2.464291,0.11107101,-0.07792316,0.1691699,8.348822,-3.0967371,-2.4995222,-1.7364768,-0.11518202,13.964363,50.58265,0.3333275,0.39280617,0.13287157,0.111017756,inf,inf,inf,inf,1,1,1,1,2,0,2,1,4,1,1,1,0,0
281372168,281371511,19482372,36.660603099999996,126.342033,102.88288,129.39331,-45.018566,-0.002337625,-0.0015572843,0.0,-0.61481595,-20.657902,1.2169267,1.3817555,0.11107101,-0.07792316,0.1691699,4.835947,0.6297235,-0.4743211,-1.4534899,-0.11518202,13.964363,49.574272,0.34140217,0.3922436,0.14067952,0.105183326,inf,inf,inf,inf,1,1,1,1,2,0,2,1,4,1,1,1,0,0
281865891,281865414,19482372,36.660603099999996,126.342033,102.78685,119.17028,-44.373997,-0.002337625,-0.0015572843,0.0,2.291875,-20.279596,0.6893993,0.9148537,0.11107101,-0.07792316,0.1691699,4.693857,1.9584184,-1.9128902,-1.3515732,-0.11518202,13.964363,48.929703,0.33280462,0.38926637,0.1404877,0.1015414,inf,inf,inf,inf,1,1,1,1,2,0,2,1,4,1,1,1,0,0
282370451,282369195,19482372,36.660603099999996,126.342033,104.37562,108.91406,-44.00999,-0.002337625,-0.0015572843,0.0,5.045435,-19.577904,0.5307502,0.7086889,0.11107101,-0.07792316,0.1691699,7.1124988,2.3514497,-0.43049785,-1.1717427,-0.11518202,13.964363,48.565697,0.3408202,0.39068142,0.14927238,0.10295764,inf,inf,inf,inf,1,1,1,1,2,0,2,1,4,1,1,1,0,0
282873423,282872976,19482372,36.660603099999996,126.342033,107.57263,99.12899,-43.90766,-0.002337625,-0.0015572843,0.0,7.8346214,-18.322325,-0.0818009,0.027484667,0.11107101,-0.07792316,0.1691699,4.7286825,2.6222358,-0.25869176,-1.0249857,-0.11518202,13.964363,48.463367,0.3330864,0.38857028,0.14768237,0.10283514,inf,inf,inf,inf,1,1,1,1,2,0,2,1,4,1,1,1,0,0
283367510,283366879,19482372,36.660603099999996,126.342033,111.95615,89.964615,-43.81508,-0.002337625,-0.0015572843,0.0,9.495355,-17.409365,0.2529348,0.3136163,0.11107101,-0.07792316,0.1691699,4.2968855,2.1303544,1.0547901,-0.95273894,-0.11518202,13.964363,48.370785,0.34093383,0.38732702,0.15068278,0.10495798,inf,inf,inf,inf,1,1,1,1,2,0,2,1,4,1,1,1,0,0
283871191,283870660,19482372,36.660603099999996,126.342033,117.298096,81.168976,-43.603863,-0.002337625,-0.0015572843,0.0,10.810144,-16.574783,0.49366403,0.51787883,0.11107101,-0.07792316,0.1691699,0.46594387,1.0760804,-3.3484979,-0.8528364,-0.11518202,13.964363,48.15957,0.33400217,0.3858066,0.14303736,0.104332834,inf,inf,inf,inf,1,1,1,1,2,0,2,1,4,1,1,1,0,0
284365212,284364563,19482372,36.660603099999996,126.342033,123.19501,73.05995,-43.36334,-0.002337625,-0.0015572843,0.0,11.794446,-15.734127,0.29206687,0.37432677,0.11107101,-0.07792316,0.1691699,-0.57471853,-0.2850269,-1.8688445,-0.8016957,-0.11518202,13.964363,47.919044,0.34206346,0.38752392,0.1468637,0.10644552,inf,inf,inf,inf,1,1,1,1,2,0,2,1,4,1,1,1,0,0
284868783,284868343,19482372,36.660603099999996,126.342033,129.52592,65.207085,-43.18837,-0.002337625,-0.0015572843,0.0,12.188999,-15.2581215,0.35166875,0.44320133,0.11107101,-0.07792316,0.1691699,1.4648956,0.4881374,0.29673323,-0.77313185,-0.11518202,13.964363,47.744076,0.35127264,0.39020583,0.14919007,0.10817636,inf,inf,inf,inf,1,1,1,1,2,0,2,1,4,1,1,1,0,0
285372700,285372124,19482372,36.660603099999996,126.342033,135.989,57.632286,-43.122795,-0.002337625,-0.0015572843,0.0,12.363849,-14.871783,0.11825871,0.14414828,0.11107101,-0.07792316,0.1691699,1.5565323,1.1237915,0.94984394,-0.7453018,-0.11518202,13.964363,47.6785,0.34352583,0.3890949,0.14320019,0.10674357,inf,inf,inf,inf,1,1,1,1,2,0,2,1,4,1,1,1,0,0
285866928,285866026,19482372,36.660603099999996,126.342033,142.30849,50.345043,-43.04613,-0.002337625,-0.0015572843,0.0,12.325448,-14.801793,0.40927857,0.3953439,0.11107101,-0.07792316,0.1691699,-0.46930942,0.45234635,-1.6847885,-0.73888725,-0.11518202,13.964363,47.601837,0.33547044,0.38507253,0.13645487,0.10484315,inf,inf,inf,inf,1,1,1,1,2,0,2,1,4,1,1,1,0,0
286370602,286369807,19482372,36.660603099999996,126.342033,148.7044,42.987133,-42.93168,-0.002337625,-0.0015572843,0.0,12.39209,-14.657688,0.34678447,0.31965822,0.11107101,-0.07792316,0.1691699,-0.34467334,-0.11624629,0.17393593,-0.7671014,-0.11518202,13.964363,47.487385,0.34386444,0.3880018,0.1410451,0.10652948,inf,inf,inf,inf,1,1,1,1,2,0,2,1,4,1,1,1,0,0
286864502,286863709,19482372,36.660603099999996,126.342033,154.87813,35.813522,-42.9626,-0.002337625,-0.0015572843,0.0,12.155912,-14.7648535,0.22763194,0.0973339,0.11107101,-0.07792316,0.1691699,-2.266166,-1.5340735,1.4749461,-0.7942715,-0.11518202,13.964363,47.518307,0.33557275,0.38636974,0.1364116,0.104943015,inf,inf,inf,inf,1,1,1,1,2,0,2,1,4,1,1,1,0,0
287367949,287367489,19482372,36.660603099999996,126.342033,161.09645,28.466635,-42.92477,-0.002337625,-0.0015572843,0.0,12.134699,-14.763704,0.079143465,-0.019443188,0.11107101,-0.07792316,0.1691699,-0.63328254,-0.7858934,3.271899,-0.7750384,-0.11518202,13.964363,47.480476,0.34376663,0.38943627,0.14155695,0.10665192,inf,inf,inf,inf,1,1,1,1,2,0,2,1,4,1,1,1,0,0
287871931,287871268,19482372,36.660603099999996,126.342033,167.24681,21.116955,-42.821156,-0.002337625,-0.0015572843,0.0,12.175245,-14.7555065,0.20791954,0.13896486,0.11107101,-0.07792316,0.1691699,1.7046974,-0.05786715,0.9899698,-0.7972709,-0.11518202,13.964363,47.37686,0.33589473,0.38840312,0.1362251,0.105354756,inf,inf,inf,inf,1,1,1,1,2,0,2,1,4,1,1,1,0,0
288365650,288365170,19482372,36.660603099999996,126.342033,173.28053,13.850652,-42.71547,-0.002337625,-0.0015572843,0.0,12.179342,-14.805322,0.10394193,0.043479837,0.11107101,-0.07792316,0.1691699,0.9028646,0.13868804,0.07205125,-0.8052494,-0.11518202,13.964363,47.271175,0.34326696,0.38852048,0.14084364,0.10664104,inf,inf,inf,inf,1,1,1,1,2,0,2,1,4,1,1,1,0,0
288869513,288868950,19482372,36.660603099999996,126.342033,179.39682,6.407882,-42.68104,-0.002337625,-0.0015572843,0.0,12.210664,-14.841963,-0.07312013,-0.12566537,0.11107101,-0.07792316,0.1691699,1.1377618,0.9048209,-2.0242784,-0.79703176,-0.11518202,13.964363,47.236748,0.33531073,0.38752824,0.13668357,0.10530225,inf,inf,inf,inf,1,1,1,1,2,0,2,1,4,1,1,1,0,0
289373155,289372729,19482372,36.660603099999996,126.342033,185.53554,-1.1076689,-42.67347,-0.002337625,-0.0015572843,0.0,12.283101,-14.876239,0.04475096,-0.0099520795,0.11107101,-0.07792316,0.1691699,0.9149304,0.8735146,-2.3044357,-0.80044365,-0.11518202,13.964363,47.229176,0.3435417,0.39072916,0.1411249,0.10699636,inf,inf,inf,inf,1,1,1,1,2,0,2,1,4,1,1,1,0,0
289867090,289866630,19482372,36.660603099999996,126.342033,191.54169,-8.444653,-42.67134,-0.002337625,-0.0015572843,0.0,12.240745,-14.844775,0.041414723,-0.04382241,0.11107101,-0.07792316,0.1691699,-0.21331774,1.1337439,-2.5391297,-0.8080388,-0.11518202,13.964363,47.227047,0.33483064,0.38900116,0.1362331,0.10543176,inf,inf,inf,inf,1,1,1,1,2,0,2,1,4,1,1,1,0,0
290370891,290370409,19482372,36.660603099999996,126.342033,197.65593,-15.92218,-42.713085,-0.002337625,-0.0015572843,0.0,12.367973,-14.63212,-0.11712484,-0.16160905,0.11107101,-0.07792316,0.1691699,2.483904,1.5614442,-0.33951014,-0.76654935,-0.11518202,13.964363,47.26879,0.34298977,0.389757,0.14168186,0.10678948,inf,inf,inf,inf,1,1,1,1,2,0,2,1,4,1,1,1,0,0
290864794,290864310,19482372,36.660603099999996,126.342033,203.72488,-23.031174,-42.84052,-0.002337625,-0.0015572843,0.0,12.656562,-14.105611,0.19062658,0.14844154,0.11107101,-0.07792316,0.1691699,2.3868365,1.727536,2.7168896,-0.71931964,-0.11518202,13.964363,47.396225,0.33430687,0.3879364,0.13647991,0.10517651,inf,inf,inf,inf,1,1,1,1,2,0,2,1,4,1,1,1,0,0
291368542,291368089,19482372,36.660603099999996,126.342033,210.09221,-30.02214,-42.99215,-0.002337625,-0.0015572843,0.0,12.948057,-13.523438,-0.10172252,-0.17530574,0.11107101,-0.07792316,0.1691699,2.1603696,1.511426,1.4555126,-0.67686456,-0.11518202,13.964363,47.547855,0.34264103,0.39111388,0.14173551,0.10683292,inf,inf,inf,inf,1,1,1,1,2,0,2,1,4,1,1,1,0,0
291872439,291871868,19482372,36.660603099999996,126.342033,216.59811,-36.764305,-43.105247,-0.002337625,-0.0015572843,0.0,13.178558,-13.034266,0.051284723,-0.04479648,0.11107101,-0.07792316,0.1691699,1.6270255,1.7621095,-1.1563704,-0.6122372,-0.11518202,13.964363,47.660954,0.3346603,0.38996416,0.13651147,0.105466075,inf,inf,inf,inf,1,1,1,1,2,0,2,1,4,1,1,1,0,0
292366351,292365768,19482372,36.660603099999996,126.342033,223.11789,-43.16274,-43.264797,-0.002337625,-0.0015572843,0.0,13.430987,-12.637066,-0.03101507,-0.18534791,0.11107101,-0.07792316,0.1691699,2.2210429,1.0307064,2.8404222,-0.5976708,-0.11518202,13.964363,47.820503,0.34216797,0.39004427,0.14124252,0.10667799,inf,inf,inf,inf,1,1,1,1,2,0,2,1,4,1,1,1,0,0
292870252,292869546,19482372,36.660603099999996,126.342033,229.84102,-49.499424,-43.303154,-0.002337625,-0.0015572843,0.0,13.604035,-12.474808,0.041696403,-0.13019663,0.11107101,-0.07792316,0.1691699,0.9793207,-0.1783666,1.2545137,-0.6192728,-0.11518202,13.964363,47.85886,0.33390647,0.38885626,0.13554446,0.10523305,inf,inf,inf,inf,1,1,1,1,2,0,2,1,4,1,1,1,0,0
293373800,293373324,19482372,36.660603099999996,126.342033,236.63467,-55.80414,-43.23561,-0.002337625,-0.0015572843,0.0,13.692733,-12.454217,-0.20473924,-0.2751872,0.11107101,-0.07792316,0.1691699,-1.5166054,-1.4098121,0.40061897,-0.6240898,-0.11518202,13.964363,47.791317,0.34213313,0.39201126,0.1408345,0.1068356,inf,inf,inf,inf,1,1,1,1,2,0,2,1,4,1,1,1,0,0
293868183,293867224,19482372,36.660603099999996,126.342033,243.3715,-61.99531,-43.283543,-0.002337625,-0.0015572843,0.0,13.703357,-12.485603,-0.4520632,-0.46478766,0.11107101,-0.07792316,0.1691699,-0.97592616,-1.0392478,-0.2915594,-0.6143112,-0.11518202,13.964363,47.83925,0.3333664,0.3900884,0.13652377,0.10520864,inf,inf,inf,inf,1,1,1,1,2,0,2,1,4,1,1,1,0,0
294371606,294371002,19482372,36.660603099999996,126.342033,250.25633,-68.297554,-43.457436,-0.002337625,-0.0015572843,0.0,13.739577,-12.356449,-0.6256839,-0.5978132,0.11107101,-0.07792316,0.1691699,-1.5792195,-0.7711387,-0.438579,-0.6264052,-0.11518202,13.964363,48.01314,0.34163672,0.39072233,0.14178456,0.10654798,inf,inf,inf,inf,1,1,1,1,2,0,2,1,4,1,1,1,0,0
294865346,294864902,19482372,36.660603099999996,126.342033,257.01575,-74.43092,-43.742634,-0.002337625,-0.0015572843,0.0,13.650364,-12.424689,-0.166539,-0.14464803,0.11107101,-0.07792316,0.1691699,0.5995244,-0.5934174,4.1599016,-0.6474562,-0.11518202,13.964363,48.29834,0.33285823,0.3887937,0.13571115,0.10493997,inf,inf,inf,inf,1,1,1,1,2,0,2,1,4,1,1,1,0,0
295369249,295368679,19482372,36.660603099999996,126.342033,263.85956,-80.71324,-43.85776,-0.002337625,-0.0015572843,0.0,13.567779,-12.451517,0.06714334,0.008859767,0.11107101,-0.07792316,0.1691699,-0.07492683,0.14491342,-0.63807243,-0.615948,-0.11518202,13.964363,48.413467,0.3411128,0.39184347,0.13878362,0.106543176,inf,inf,inf,inf,1,1,1,1,2,0,2,1,4,1,1,1,0,0
295872908,295872457,19482372,36.660603099999996,126.342033,270.66003,-87.00841,-43.89982,-0.002337625,-0.0015572843,0.0,13.559609,-12.439244,0.18922159,0.10768732,0.11107101,-0.07792316,0.1691699,1.2808602,1.1721154,2.1461997,-0.605308,-0.11518202,13.964363,48.455524,0.3333658,0.39055502,0.13483103,0.10519667,inf,inf,inf,inf,1,1,1,1,2,0,2,1,4,1,1,1,0,0
296366879,296366356,19482372,36.660603099999996,126.342033,277.33444,-93.15706,-43.754528,-0.002337625,-0.0015572843,0.0,13.631469,-12.366031,-0.07976529,-0.045127142,0.11107101,-0.07792316,0.1691699,0.4924927,-0.41565514,3.090817,-0.6016928,-0.11518202,13.964363,48.310234,0.3408216,0.3905225,0.13986635,0.1063647,inf,inf,inf,inf,1,1,1,1,2,0,2,1,4,1,1,1,0,0
296870695,296870133,19482372,36.660603099999996,126.342033,284.1101,-99.4213,-43.675972,-0.002337625,-0.0015572843,0.0,13.577105,-12.376306,-0.32844344,-0.20312788,0.11107101,-0.07792316,0.1691699,-0.030096794,1.2228522,-2.5286243,-0.62005836,-0.11518202,13.964363,48.231678,0.33284205,0.38923723,0.13590689,0.10499033,inf,inf,inf,inf,1,1,1,1,2,0,2,1,4,1,1,1,0,0
297364455,297364031,19482372,36.660603099999996,126.342033,290.76254,-105.58702,-43.85394,-0.002337625,-0.0015572843,0.0,13.551543,-12.415215,-0.49454623,-0.43182972,0.11107101,-0.07792316,0.1691699,1.4109286,-0.07401565,0.5590091,-0.6138474,-0.11518202,13.964363,48.409645,0.3405069,0.39162612,0.14083315,0.106437095,inf,inf,inf,inf,1,1,1,1,2,0,2,1,4,1,1,1,0,0
297868649,297867808,19482372,36.660603099999996,126.342033,297.54327,-111.84595,-43.92518,-0.002337625,-0.0015572843,0.0,13.582087,-12.3161745,-0.13148335,-0.034827776,0.11107101,-0.07792316,0.1691699,-1.8218797,-0.630134,-1.4621528,-0.60551155,-0.11518202,13.964363,48.480885,0.3324836,0.39030582,0.13498844,0.10505659,inf,inf,inf,inf,1,1,1,1,2,0,2,1,4,1,1,1,0,0
298372070,298371585,19482372,36.660603099999996,126.342033,304.32895,-118.07577,-44.032562,-0.002337625,-0.0015572843,0.0,13.538658,-12.250429,-0.083678745,-0.02850227,0.11107101,-0.07792316,0.1691699,0.091835864,1.0536871,-1.0972923,-0.60828996,-0.11518202,13.964363,48.58827,0.34071535,0.39089975,0.13959609,0.10642197,inf,inf,inf,inf,1,1,1,1,2,0,2,1,4,1,1,1,0,0
298866715,298865483,19482372,36.660603099999996,126.342033,310.96783,-124.144905,-44.095444,-0.002337625,-0.0015572843,0.0,13.483934,-12.208741,0.016226234,0.03923928,0.11107101,-0.07792316,0.1691699,0.41553974,1.1175243,-1.4580232,-0.62073594,-0.11518202,13.964363,48.65115,0.33178142,0.38892427,0.1346936,0.104855075,inf,inf,inf,inf,1,1,1,1,2,0,2,1,4,1,1,1,0,0
299369738,299369259,19482372,36.660603099999996,126.342033,317.7534,-130.29637,-44.28334,-0.002337625,-0.0015572843,0.0,13.442321,-12.178987,-0.14016841,-0.18854322,0.11107101,-0.07792316,0.1691699,0.41713193,1.3160297,-0.5322437,-0.6300855,-0.11518202,13.964363,48.839046,0.3399916,0.39197004,0.13985607,0.10649977,inf,inf,inf,inf,1,1,1,1,2,0,2,1,4,1,1,1,0,0
299873894,299873035,19482372,36.660603099999996,126.342033,324.49802,-136.47324,-44.361515,-0.002337625,-0.0015572843,0.0,13.338398,-12.25702,-0.22609906,-0.2839151,0.11107101,-0.07792316,0.1691699,-1.565104,-0.35445243,-0.0115901455,-0.62522596,-0.11518202,13.964363,48.91722,0.3318133,0.3906524,0.13539147,0.10514098,inf,inf,inf,inf,1,1,1,1,2,0,2,1,4,1,1,1,0,0
