timestamp,rollspeed_integ,pitchspeed_integ,yawspeed_integ,additional_integ1
217458543,0.0,0.0,0.0,0.0
217463522,0.0,0.0,0.0,0.0
217658597,0.0,0.0,0.0,0.0
217858562,0.0,0.0,0.0,0.0
218058589,0.0,0.0,0.0,0.0
218258592,0.0,0.0,0.0,0.0
218458628,0.0,0.0,0.0,0.0
218658625,0.0,0.0,0.0,0.0
218858636,0.0,0.0,0.0,0.0
219058656,0.0,0.0,0.0,0.0
219258670,0.0,0.0,0.0,0.0
219458692,0.0,0.0,0.0,0.0
219658710,0.0,0.0,0.0,0.0
219858703,0.0,0.0,0.0,0.0
220058722,0.0,0.0,0.0,0.0
220258782,0.0,0.0,0.0,0.0
220458751,0.0,0.0,0.0,0.0
220658765,0.0,0.0,0.0,0.0
220858787,0.0,0.0,0.0,0.0
221058811,0.0,0.0,0.0,0.0
221258818,0.0,0.0,0.0,0.0
221458833,0.0,0.0,0.0,0.0
221658851,0.0,0.0,0.0,0.0
221858867,0.0,0.0,0.0,0.0
222058883,0.0,0.0,0.0,0.0
222258901,0.0,0.0,0.0,0.0
222458874,0.0,0.0,0.0,0.0
222658939,0.0,0.0,0.0,0.0
222858990,0.0,0.0,0.0,0.0
223059053,0.0,0.0,0.0,0.0
223258983,0.0,0.0,0.0,0.0
223459003,0.0,0.0,0.0,0.0
223659021,0.0,0.0,0.0,0.0
223859036,0.0,0.0,0.0,0.0
224059071,0.0,0.0,0.0,0.0
224259067,0.0,0.0,0.0,0.0
224459094,0.0,0.0,0.0,0.0
224659150,0.0,0.0,0.0,0.0
224859124,0.0,0.0,0.0,0.0
225059139,0.0,0.0,0.0,0.0
225259157,0.0,0.0,0.0,0.0
225459170,0.0,0.0,0.0,0.0
225659191,0.0,0.0,0.0,0.0
225859225,0.0,0.0,0.0,0.0
226059225,0.0,0.0,0.0,0.0
226259241,0.0,0.0,0.0,0.0
226459256,0.0,0.0,0.0,0.0
226659318,0.0,0.0,0.0,0.0
226859294,0.0,0.0,0.0,0.0
227059306,0.0,0.0,0.0,0.0
227259323,0.0,0.0,0.0,0.0
227459343,0.0,0.0,0.0,0.0
227659362,0.0,0.0,0.0,0.0
227859381,0.0,0.0,0.0,0.0
228059450,0.0,0.0,0.0,0.0
228259455,0.0,0.0,0.0,0.0
228459428,0.0,0.0,0.0,0.0
228659483,0.0,0.0,0.0,0.0
228859461,0.0,0.0,0.0,0.0
229059484,0.0,0.0,0.0,0.0
229259497,0.0,0.0,0.0,0.0
229459513,0.0,0.0,0.0,0.0
229659559,0.0,0.0,0.0,0.0
229859620,0.0,0.0,0.0,0.0
230059566,0.0,0.0,0.0,0.0
230259583,0.0,0.0,0.0,0.0
230459610,0.0,0.0,0.0,0.0
230659665,0.0,0.0,0.0,0.0
230859643,0.0,0.0,0.0,0.0
231059658,0.0,0.0,0.0,0.0
231259691,0.0,0.0,0.0,0.0
231459702,0.0,0.0,0.0,0.0
231659718,0.0,0.0,0.0,0.0
231859733,0.0,0.0,0.0,0.0
232059749,0.0,0.0,0.0,0.0
232259769,0.0,0.0,0.0,0.0
232459786,0.0,0.0,0.0,0.0
232659798,0.0,0.0,0.0,0.0
232859815,0.0,0.0,0.0,0.0
233059841,0.0,0.0,0.0,0.0
233259853,0.0,0.0,0.0,0.0
233459868,0.0,0.0,0.0,0.0
233659891,0.0,0.0,0.0,0.0
233859907,0.0,0.0,0.0,0.0
234059923,0.0,0.0,0.0,0.0
234259940,0.0,0.0,0.0,0.0
234459960,0.0,0.0,0.0,0.0
234659988,0.0,0.0,0.0,0.0
234860036,0.0,0.0,0.0,0.0
235060013,0.0,0.0,0.0,0.0
235260027,0.0,0.0,0.0,0.0
235460049,0.0,0.0,0.0,0.0
235660069,0.0,0.0,0.0,0.0
235860082,0.0,0.0,0.0,0.0
236060118,0.0,0.0,0.0,0.0
236260142,0.0,0.0,0.0,0.0
236460136,0.0,0.0,0.0,0.0
236660157,0.0,0.0,0.0,0.0
236860172,0.0,0.0,0.0,0.0
237060202,0.0,0.0,0.0,0.0
237260212,0.0,0.0,0.0,0.0
237460231,0.0,0.0,0.0,0.0
237660245,0.0,0.0,0.0,0.0
237860277,0.0,0.0,0.0,0.0
238060303,0.0,0.0,0.0,0.0
238260371,0.0,0.0,0.0,0.0
238460319,0.0,0.0,0.0,0.0
238660340,0.0,0.0,0.0,0.0
238860360,0.0,0.0,0.0,0.0
239060370,0.0,0.0,0.0,0.0
239260391,0.0,0.0,0.0,0.0
239460413,0.0,0.0,0.0,0.0
239660429,0.0,0.0,0.0,0.0
239855490,0.0,0.0,0.0,0.0
240060465,0.0,0.0,0.0,0.0
240260489,0.0,0.0,0.0,0.0
240460505,0.0,0.0,0.0,0.0
240660523,0.0,0.0,0.0,0.0
240860536,0.0,0.0,0.0,0.0
241060559,0.0,0.0,0.0,0.0
241255574,0.0,0.0,0.0,0.0
241460621,0.0,0.0,0.0,0.0
241660611,0.0,0.0,0.0,0.0
241860654,0.0,0.0,0.0,0.0
242060657,0.0,0.0,0.0,0.0
242260701,0.0,0.0,0.0,0.0
242460695,0.0,0.0,0.0,0.0
242655719,0.0,0.0,0.0,0.0
242860731,0.0,0.0,0.0,0.0
243060750,0.0,0.0,0.0,0.0
243260764,0.0,0.0,0.0,0.0
243460790,0.0,0.0,0.0,0.0
243660802,0.0,0.0,0.0,0.0
243860820,0.0,0.0,0.0,0.0
244055862,0.0,0.0,0.0,0.0
244260861,0.0,0.0,0.0,0.0
244460875,0.0,0.0,0.0,0.0
244660892,0.0,0.0,0.0,0.0
244860927,0.0,0.0,0.0,0.0
245060935,0.0,0.0,0.0,0.0
245255942,0.0,0.0,0.0,0.0
245455973,0.0,0.0,0.0,0.0
245661015,0.0,0.0,0.0,0.0
245861006,0.0,0.0,0.0,0.0
246061022,0.0,0.0,0.0,0.0
246261039,0.0,0.0,0.0,0.0
246461061,0.0,0.0,0.0,0.0
246661098,0.0,0.0,0.0,0.0
246856093,0.0,0.0,0.0,0.0
247061117,0.0,0.0,0.0,0.0
247261143,0.0,0.0,0.0,0.0
247461191,0.0,0.0,0.0,0.0
247661175,0.0,0.0,0.0,0.0
247861213,0.0,0.0,0.0,0.0
248056212,0.0,0.0,0.0,0.0
248256260,0.0,0.0,0.0,0.0
248461246,0.0,0.0,0.0,0.0
248661300,0.0,0.0,0.0,0.0
248861289,0.0,0.0,0.0,0.0
249061377,0.0,0.0,0.0,0.0
249261325,0.0,0.0,0.0,0.0
249456342,0.0,0.0,0.0,0.0
249656360,0.0,0.0,0.0,0.0
249861383,0.0,0.0,0.0,0.0
250061415,0.0,0.0,0.0,0.0
250261422,0.0,0.0,0.0,0.0
250461437,0.0,0.0,0.0,0.0
250661463,0.0,0.0,0.0,0.0
250856492,0.0,0.0,0.0,0.0
251056493,0.0,0.0,0.0,0.0
251261516,0.0,0.0,0.0,0.0
251461539,0.0,0.0,0.0,0.0
251661551,0.0,0.0,0.0,0.0
251861566,0.0,0.0,0.0,0.0
252056589,0.0,0.0,0.0,0.0
252256607,0.0,0.0,0.0,0.0
252456655,0.0,0.0,0.0,0.0
252661656,0.0,0.0,0.0,0.0
252861665,0.0,0.0,0.0,0.0
253061692,0.0,0.0,0.0,0.0
253261747,0.0,0.0,0.0,0.0
253456766,0.0,0.0,0.0,0.0
253656759,0.0,0.0,0.0,0.0
253856761,0.0,0.0,0.0,0.0
254062145,0.0,0.0,0.0,0.0
254262123,0.0,0.0,0.0,0.0
254461978,0.0,0.0,0.0,0.0
254662021,0.0,0.0,0.0,0.0
254856878,0.0,0.0,0.0,0.0
255056896,0.0,0.0,0.0,0.0
255256922,0.0,0.0,0.0,0.0
255462151,0.0,0.0,0.0,0.0
255662229,0.0,0.0,0.0,0.0
255862258,0.0,0.0,0.0,0.0
256056988,0.0,0.0,0.0,0.0
256257005,0.0,0.0,0.0,0.0
256457023,0.0,0.0,0.0,0.0
256657054,0.0,0.0,0.0,0.0
256862368,0.0,0.0,0.0,0.0
257062359,0.0,0.0,0.0,0.0
257262243,0.0,0.0,0.0,0.0
257457150,0.0,0.0,0.0,0.0
257657173,0.0,0.0,0.0,0.0
257857294,0.0,0.0,0.0,0.0
258057243,0.0,0.0,0.0,0.0
258262553,0.0,0.0,0.0,0.0
258462373,0.0,0.0,0.0,0.0
258662574,0.0,0.0,0.0,0.0
258857377,0.0,0.0,0.0,0.0
259057387,0.0,0.0,0.0,0.0
259257445,0.0,0.0,0.0,0.0
259457516,0.0,0.0,0.0,0.0
259657493,0.0,0.0,0.0,0.0
259862773,0.0,0.0,0.0,0.0
260062785,0.0,0.0,0.0,0.0
260257409,0.0,0.0,0.0,0.0
260457420,0.0,0.0,0.0,0.0
260657440,0.0,0.0,0.0,0.0
260857503,0.0,0.0,0.0,0.0
261062774,0.0,0.0,0.0,0.0
261262738,0.0,0.0,0.0,0.0
261457568,0.0,0.0,0.0,0.0
261657541,0.0,0.0,0.0,0.0
261857613,0.0,0.0,0.0,0.0
262057573,0.0,0.0,0.0,0.0
262257657,0.0,0.0,0.0,0.0
262462782,0.0,0.0,0.0,0.0
262663006,0.0,0.0,0.0,0.0
262857663,0.0,0.0,0.0,0.0
263057686,0.0,0.0,0.0,0.0
263257666,0.0017352097,0.007527438,-0.0005427742,0.0
263457741,-0.003946742,-8.455642e-05,-0.0010481724,0.0
263657744,-0.004834351,-0.00429381,-0.0016552288,0.0
263863086,-0.0047592833,-0.0054270695,-0.0022996806,0.0
264063112,-0.02640206,-0.024865763,-0.0030404173,0.0
264257821,-0.037173685,-0.03326304,-0.00519744,0.0
264457820,-0.045647293,-0.048513897,-0.008133604,0.0
264657846,-0.045943815,-0.065375686,-0.0117001515,0.0
264857860,-0.04291489,-0.08706041,-0.013688227,0.0
265057893,-0.032516025,-0.106699355,-0.013124338,0.0
265263166,-0.028342083,-0.1310772,-0.011201447,0.0
265463241,-0.035326447,-0.14885214,-0.0091549875,0.0
265657954,-0.05400095,-0.17142677,-0.006716284,0.0
265857965,-0.061395116,-0.18744004,-0.004128455,0.0
266057963,-0.055498496,-0.18810125,-0.0043631,0.0
266257989,-0.048403006,-0.1983915,-0.00604591,0.0
266458009,-0.047810633,-0.20377684,-0.0072563,0.0
266663302,-0.036380447,-0.20917489,-0.005946008,0.0
266858046,-0.028016457,-0.2112147,-0.0038555572,0.0
267058074,-0.03146802,-0.2182844,-0.0023507385,0.0
267258110,-0.026533466,-0.2233567,-0.001907123,0.0
267458111,-0.026908424,-0.22616714,-0.0035463045,0.0
267658132,-0.031289645,-0.23433803,-0.005419985,0.0
267858136,-0.033739142,-0.23179762,-0.0063990457,0.0
268063407,-0.029026814,-0.23440036,-0.005733555,0.0
268258226,-0.025833856,-0.23025303,-0.0034605183,0.0
268458209,-0.03171568,-0.2377466,-0.0010671797,0.0
268658233,-0.023149617,-0.2374729,-0.00017436528,0.0
268858207,-0.019984739,-0.24703994,-0.0011392606,0.0
269058222,0.01672824,-0.26186872,-0.0017587977,0.0
269258237,0.02046019,-0.2697566,0.004630266,0.0
269463573,0.024164727,-0.25758275,0.010813383,0.0
269658306,0.012455842,-0.25775042,0.014987714,0.0
269858297,-0.017424066,-0.27813312,0.01972291,0.0
270058359,-0.04716116,-0.30478573,0.01971035,0.0
270258333,-0.07231998,-0.31600976,0.015177821,0.0
270458358,-0.09747405,-0.32071993,0.013109553,0.0
270658382,-0.097164586,-0.32986456,0.019070754,0.0
270863515,-0.09088337,-0.3344217,0.025813056,0.0
271058410,-0.06827569,-0.32777384,0.02336764,0.0
271258445,-0.066550136,-0.3309591,0.01850714,0.0
271458468,-0.05823789,-0.3368151,0.014122274,0.0
271658512,-0.050473507,-0.33111504,0.013243547,0.0
271858492,-0.04078729,-0.33650458,0.015130393,0.0
272058510,-0.02543197,-0.33953673,0.017105833,0.0
272258532,-0.023407752,-0.3418287,0.017400326,0.0
272458552,-0.009658467,-0.34594268,0.016019601,0.0
272658577,-0.008878936,-0.34130704,0.0152602,0.0
272858594,-0.0038096434,-0.34905532,0.014913478,0.0
273058624,-0.005949272,-0.35054246,0.014469943,0.0
273258685,-0.004742756,-0.34545743,0.014085185,0.0
273458662,-0.004205632,-0.35234943,0.014264237,0.0
273658677,-0.0042918595,-0.3498914,0.014613805,0.0
273858698,-0.0018903303,-0.3487453,0.015097012,0.0
274058763,-0.007449049,-0.3522285,0.0154723395,0.0
274258771,-0.0038338145,-0.34649497,0.01615925,0.0
274458761,-0.007182712,-0.35165334,0.016562223,0.0
274658784,-0.0029824297,-0.35079435,0.016347907,0.0
274858792,-0.006345288,-0.34897658,0.015916307,0.0
275058818,-0.011443971,-0.35424057,0.016177429,0.0
275258859,-0.034313455,-0.35137793,0.015663639,0.0
275458868,-0.04044045,-0.35230693,0.012141375,0.0
275658917,-0.04173321,-0.35781533,0.008409378,0.0
275858925,-0.029549222,-0.35483232,0.00483027,0.0
276058955,-0.014997181,-0.36818758,0.0021719679,0.0
276258935,-0.008980731,-0.3824076,0.0016894933,0.0
276458955,-0.0017297545,-0.39367676,0.002090987,0.0
276658968,0.0093028825,-0.39966583,0.0014884827,0.0
276859008,0.031584043,-0.4,0.000283459,0.0
277059010,0.0439731,-0.4,-0.0019005995,0.0
277259032,0.055859264,-0.4,-0.006562548,0.0
277459048,0.06778473,-0.4,-0.012486379,0.0
277659082,0.07211957,-0.4,-0.018861441,0.0
277859089,0.08318814,-0.4,-0.027045127,0.0
278059109,0.09327036,-0.4,-0.035996556,0.0
278259162,0.09521878,-0.4,-0.046595134,0.0
278459147,0.10764832,-0.4,-0.059004404,0.0
278659175,0.10359533,-0.4,-0.07217271,0.0
278859188,0.09724171,-0.4,-0.08636578,0.0
279059207,0.115881324,-0.39982682,-0.09924044,0.0
279259229,0.11403504,-0.4,-0.10802481,0.0
279459250,0.15246466,-0.4,-0.111129545,0.0
279659305,0.1561647,-0.4,-0.11131367,0.0
279859333,0.1558767,-0.39894357,-0.115337335,0.0
280059331,0.15384409,-0.39437643,-0.121146664,0.0
280259330,0.1505156,-0.4,-0.11723455,0.0
280459355,0.14492187,-0.4,-0.10815917,0.0
280659363,0.12352448,-0.4,-0.10062211,0.0
280859386,0.10739684,-0.4,-0.098447785,0.0
281059407,0.087745085,-0.4,-0.10040487,0.0
281259423,0.067756586,-0.3988684,-0.10297107,0.0
281459545,0.06837104,-0.4,-0.101512074,0.0
281659504,0.055719458,-0.39982128,-0.095878124,0.0
281859485,0.056777995,-0.4,-0.089411825,0.0
282059499,0.04493028,-0.39987913,-0.08521296,0.0
282259521,0.041684438,-0.4,-0.08420297,0.0
282459541,0.030354345,-0.4,-0.084077924,0.0
282659561,0.029142665,-0.4,-0.08249381,0.0
282859580,0.020434815,-0.39985022,-0.07990151,0.0
283059621,0.02033551,-0.39468417,-0.078134894,0.0
283259669,0.015715795,-0.39801928,-0.07614327,0.0
283459639,0.01049711,-0.39846495,-0.07440519,0.0
283659668,0.011421077,-0.39221334,-0.07531262,0.0
283859685,0.0069571324,-0.395646,-0.07656453,0.0
284059702,0.0018650232,-0.39491925,-0.07720086,0.0
284259716,-0.00012506651,-0.39034882,-0.07722582,0.0
284459731,-0.004870359,-0.3938754,-0.0767281,0.0
284659778,-0.004658351,-0.38949418,-0.076441705,0.0
284859821,-0.0046309833,-0.38714287,-0.0774395,0.0
285059802,-0.004035269,-0.39126962,-0.07869617,0.0
285259817,-0.010285442,-0.38658467,-0.07948158,0.0
285459835,-0.0028927343,-0.3874182,-0.079076774,0.0
285659852,-0.003958584,-0.38529482,-0.07889956,0.0
285859875,0.0041128425,-0.38183922,-0.07982097,0.0
286059891,-0.0022494611,-0.3833396,-0.08021175,0.0
286259916,0.00029705238,-0.37727985,-0.07849659,0.0
286459931,-0.00038773826,-0.3753715,-0.07605348,0.0
286659981,0.006657092,-0.37833548,-0.07447089,0.0
286859960,0.0074517494,-0.37312612,-0.074682236,0.0
287059994,0.0062363506,-0.37348628,-0.0754933,0.0
287260004,0.009411719,-0.37381396,-0.07635452,0.0
287460025,0.011765557,-0.3666769,-0.07635443,0.0
287660080,0.011183876,-0.36903217,-0.07550288,0.0
287860053,0.011116968,-0.36693865,-0.07419187,0.0
288060084,0.009556254,-0.36221215,-0.07340616,0.0
288260097,0.008261624,-0.36540976,-0.07301119,0.0
288460127,0.01248454,-0.35971683,-0.07308333,0.0
288660128,0.008534627,-0.35866174,-0.07334358,0.0
288860161,0.008558122,-0.36119574,-0.07313975,0.0
289060186,0.014379292,-0.354353,-0.0728706,0.0
289260195,0.006727384,-0.35436353,-0.07244558,0.0
289460219,0.010141811,-0.35532773,-0.07170523,0.0
289660249,0.007489839,-0.350042,-0.070972085,0.0
289860274,0.018529706,-0.35437068,-0.07014014,0.0
290060337,0.015692756,-0.35182562,-0.07002812,0.0
290260299,0.020144822,-0.3483388,-0.070671275,0.0
290460310,0.011948196,-0.35344997,-0.07108812,0.0
290660322,0.012140674,-0.34971684,-0.07138667,0.0
290860338,0.0123328315,-0.34667602,-0.07157895,0.0
291060352,0.006474403,-0.3532079,-0.071029,0.0
291260379,0.0035351594,-0.34827694,-0.07114004,0.0
291460399,0.00014247198,-0.3497106,-0.07242492,0.0
291660421,-0.0021417593,-0.3521536,-0.07391168,0.0
291860426,-0.00481953,-0.34703523,-0.07485178,0.0
292060456,-0.008732515,-0.3504419,-0.07515596,0.0
292260482,-0.0056024278,-0.35109022,-0.074714236,0.0
292460484,-0.009246465,-0.34398046,-0.0735442,0.0
292660507,-0.014176522,-0.34613797,-0.072091654,0.0
292860532,-0.011870125,-0.34588644,-0.071009085,0.0
293055656,-0.014227642,-0.33933228,-0.07043102,0.0
293260565,-0.018334858,-0.34191498,-0.06993461,0.0
293460632,-0.014343098,-0.3408622,-0.069867454,0.0
293660612,-0.015779957,-0.33628333,-0.06997558,0.0
293860620,-0.010116545,-0.34053683,-0.07023348,0.0
294060645,-0.016486388,-0.33672082,-0.07061868,0.0
294260665,-0.01852201,-0.33454266,-0.06964808,0.0
294455814,-0.02390237,-0.33784825,-0.0679569,0.0
294660704,-0.01105709,-0.33313206,-0.06673734,0.0
294860710,-0.009077106,-0.33198354,-0.06654398,0.0
295060765,-0.00793925,-0.3376345,-0.067058735,0.0
295260758,-0.004129654,-0.33318418,-0.0685804,0.0
295460773,-0.007812822,-0.33220294,-0.069332436,0.0
295660786,-0.0021480166,-0.33587536,-0.06934744,0.0
295856079,-0.0039947564,-0.33026615,-0.06938935,0.0
296060817,-0.0071735056,-0.33136413,-0.06959006,0.0
296260847,-0.004063196,-0.3336264,-0.06922915,0.0
296460857,-0.0076949825,-0.32806274,-0.0686593,0.0
296660918,-0.0021377301,-0.32959947,-0.067546375,0.0
296860896,-0.0032637655,-0.3322817,-0.066687204,0.0
297060965,0.005077697,-0.32717016,-0.06681769,0.0
297256045,0.0057187043,-0.3277818,-0.06684618,0.0
297460985,0.0051655844,-0.32938778,-0.06640579,0.0
297661000,-0.0008334418,-0.32427767,-0.06636309,0.0
297861009,-0.0022076988,-0.32705972,-0.06633817,0.0
298061004,0.004199998,-0.32948878,-0.066055,0.0
298261028,0.0015724197,-0.32497066,-0.06556146,0.0
298461035,0.002987585,-0.32789928,-0.0648982,0.0
298656172,0.004894,-0.32674003,-0.06412813,0.0
298861078,0.007977238,-0.3229831,-0.06330932,0.0
299061090,0.0005356441,-0.32853317,-0.062648304,0.0
299261112,0.012988107,-0.32498074,-0.062052567,0.0
299461124,0.01701171,-0.32293108,-0.0613781,0.0
299661136,0.021701077,-0.3282695,-0.061067674,0.0
299856298,0.019189209,-0.32726535,-0.061414488,0.0
300056439,0.018676966,-0.32344505,-0.062381998,0.0
300261232,0.012590621,-0.327888,-0.06356836,0.0
300461209,0.010471853,-0.32549474,-0.06422667,0.0
300661237,0.013820902,-0.32430086,-0.0646446,0.0
300861247,0.021073688,-0.3278233,-0.06456489,0.0
301061289,0.0389001,-0.32254145,-0.062479995,0.0
301256656,0.050904457,-0.32163206,-0.05787597,0.0
301456675,0.061682012,-0.32712618,-0.052198615,0.0
301661351,0.057828344,-0.33183762,-0.0475061,0.0
301861434,0.03961873,-0.3387528,-0.045520518,0.0
302061404,0.030565089,-0.3506969,-0.04622771,0.0
302261419,0.011928458,-0.36340162,-0.045809627,0.0
302461463,-0.017707692,-0.3763422,-0.042962205,0.0
302656848,-0.024397476,-0.3816008,-0.040561162,0.0
302856696,-0.03211269,-0.3832989,-0.038267553,0.0
303061535,-0.030404055,-0.37894082,-0.03699557,0.0
303261562,-0.03789461,-0.3789026,-0.03471953,0.0
303461596,-0.05933518,-0.38278,-0.031561088,0.0
303661650,-0.05711131,-0.37827516,-0.030276882,0.0
303856662,-0.03668628,-0.37169835,-0.029759131,0.0
304056851,-0.042053483,-0.37198424,-0.030309534,0.0
304256701,-0.04400111,-0.37327233,-0.031754285,0.0
304461568,-0.040520184,-0.3663609,-0.033048235,0.0
304661587,-0.042547125,-0.36432385,-0.03246304,0.0
304861596,-0.045792826,-0.36542392,-0.031387623,0.0
305061695,-0.034298718,-0.3584558,-0.030954836,0.0
305256855,-0.007711859,-0.3559226,-0.029139053,0.0
305456804,0.008685908,-0.35576764,-0.0244956,0.0
305656832,0.019306198,-0.35081133,-0.020988608,0.0
305856998,0.027066972,-0.34875426,-0.01928787,0.0
306061711,0.013088471,-0.35080186,-0.01820839,0.0
306261734,0.010883691,-0.3595856,-0.018144883,0.0
306461746,0.0018164179,-0.3681181,-0.018792788,0.0
306657057,-0.008854304,-0.3702167,-0.019416254,0.0
306856941,-0.013980602,-0.37752095,-0.019188749,0.0
307057207,-0.022904463,-0.38343382,-0.017302476,0.0
307261810,-0.03292906,-0.3865205,-0.013974264,0.0
307461845,-0.03761045,-0.39064053,-0.010095456,0.0
307661849,-0.045345575,-0.39144176,-0.006674676,0.0
307861890,-0.0443275,-0.3924676,-0.0030321728,0.0
308057258,-0.051882643,-0.39492735,0.002106384,0.0
308257035,-0.048863217,-0.39930016,0.008839324,0.0
308457033,-0.05433278,-0.4,0.015073723,0.0
308661914,-0.062538825,-0.4,0.018949503,0.0
308861934,-0.07538097,-0.4,0.019214625,0.0
309061947,-0.08268364,-0.4,0.017315539,0.0
309257301,-0.08194017,-0.4,0.014818659,0.0
309457284,-0.10101187,-0.4,0.01335143,0.0
309657438,-0.11369088,-0.4,0.012964203,0.0
309857291,-0.11161476,-0.39909333,0.012464784,0.0
310062030,-0.10550423,-0.39521733,0.012827174,0.0
310262051,-0.10026354,-0.39320993,0.014207898,0.0
310462078,-0.09143369,-0.39485216,0.016676178,0.0
310657365,-0.0833428,-0.3989899,0.019128678,0.0
310857416,-0.06650127,-0.39985815,0.021421125,0.0
311057428,-0.057268664,-0.39620972,0.02314599,0.0
311257475,-0.06033184,-0.39504611,0.023451632,0.0
311462195,-0.0480151,-0.3982737,0.022653818,0.0
311662168,-0.0373753,-0.39908928,0.02209624,0.0
311862185,-0.029907318,-0.3955686,0.022951672,0.0
312057566,-0.030094214,-0.39099887,0.025183504,0.0
312257515,-0.02186365,-0.38888302,0.027801229,0.0
312457353,-0.013770322,-0.3902725,0.02935411,0.0
312657510,-0.020460887,-0.3931099,0.030526213,0.0
312862280,-0.012848655,-0.3915429,0.032574613,0.0
313062278,-0.0059725232,-0.38622916,0.03485561,0.0
313262301,-0.0099335415,-0.3829591,0.036945682,0.0
313457578,-0.0015115493,-0.3836763,0.038153768,0.0
313657732,0.009485131,-0.38476136,0.03806657,0.0
313857667,0.018620651,-0.38270178,0.037932575,0.0
314057662,0.022119792,-0.3780684,0.038428135,0.0
314262402,0.013280612,-0.37483162,0.039096415,0.0
314462392,0.016289659,-0.37569395,0.03915524,0.0
314662414,0.015395696,-0.37644628,0.038210146,0.0
314857545,0.017814118,-0.3754632,0.037326787,0.0
315057747,0.020548996,-0.37217036,0.035883207,0.0
315257585,0.014075373,-0.36877805,0.034189582,0.0
315457788,0.0076121516,-0.36811095,0.03302934,0.0
315662489,0.0059049437,-0.36925298,0.03229882,0.0
315862513,0.012019872,-0.3684599,0.03268835,0.0
316057823,0.002501265,-0.36352915,0.033881705,0.0
316257713,-0.003712917,-0.35948545,0.035794217,0.0
316457671,0.004731331,-0.36030814,0.03647163,0.0
316657833,0.0030697421,-0.36126086,0.0352314,0.0
316857944,0.0017623339,-0.3613793,0.03275755,0.0
317062610,-0.0040302323,-0.35951582,0.030006297,0.0
317262623,-0.010220274,-0.35560027,0.028803622,0.0
317457897,-0.007901964,-0.35451993,0.029300082,0.0
317657939,0.020627143,-0.35597995,0.031519704,0.0
317857789,0.04453728,-0.3536759,0.036492024,0.0
318057962,0.05918195,-0.348937,0.042834535,0.0
318257963,0.07199164,-0.34954765,0.048363872,0.0
318462763,-0.016387414,-0.35401338,0.04933962,0.0
318662745,-0.045296367,-0.3647531,0.04116105,0.0
318857910,-0.07026138,-0.35822785,0.02460968,0.0
319058030,-0.090252906,-0.34535667,0.010086068,0.0
319258046,-0.11598295,-0.34358063,-0.0004298446,0.0
319458067,-0.1420109,-0.3512207,-0.0036898758,0.0
319658120,-0.16261594,-0.3599299,-0.00067151344,0.0
319862825,-0.17763662,-0.36504054,0.0061946623,0.0
320062854,-0.18185666,-0.36157095,0.013852483,0.0
320258147,-0.16581829,-0.35831434,0.020190746,0.0
320458136,-0.1412825,-0.36090472,0.026828831,0.0
320658007,-0.10097381,-0.36240518,0.035120685,0.0
320858180,-0.08019944,-0.35792163,0.044125546,0.0
321058193,-0.052723736,-0.3516799,0.05393102,0.0
321262948,-0.030317307,-0.3471208,0.062186826,0.0
321458098,-0.012088084,-0.3448896,0.06687894,0.0
321658372,-0.007436572,-0.33877182,0.068498656,0.0
321858259,-0.0057336623,-0.33382267,0.068470046,0.0
322058345,0.0038336385,-0.3297478,0.06537153,0.0
322258297,-0.0013762346,-0.3241989,0.060343947,0.0
322458310,-0.007771383,-0.32003185,0.055030562,0.0
322663051,-0.016426222,-0.32080045,0.050656557,0.0
322858266,-0.03160933,-0.31573758,0.047406588,0.0
323058347,-0.05227772,-0.3101061,0.04431824,0.0
323258395,-0.06499233,-0.31179103,0.04153804,0.0
323458410,-0.07125317,-0.30639243,0.039502624,0.0
323658277,-0.05524882,-0.3025275,0.040008094,0.0
323858441,-0.070762806,-0.30638328,0.0410792,0.0
324063172,-0.071092434,-0.30013585,0.04373317,0.0
324258440,-0.07330504,-0.29889652,0.04583957,0.0
324458348,-0.060961153,-0.30104607,0.045727026,0.0
324658481,-0.05081429,-0.2965141,0.042955436,0.0
324858483,-0.056225624,-0.2933334,0.040303525,0.0
325058494,-0.06380407,-0.2971485,0.038905386,0.0
325258524,-0.06173643,-0.29460487,0.03878625,0.0
325463269,-0.06255109,-0.28995758,0.040738054,0.0
325658557,-0.052555103,-0.29286936,0.04270961,0.0
325858624,-0.047441762,-0.29313245,0.043625455,0.0
326058654,-0.040285945,-0.2873868,0.04341093,0.0
326258760,-0.04401441,-0.28564307,0.043031864,0.0
326458500,-0.033661656,-0.28813428,0.043151602,0.0
326658650,-0.028903909,-0.28382853,0.043631747,0.0
326858665,-0.034406815,-0.27833107,0.045100857,0.0
327058735,-0.029168028,-0.27859282,0.046437178,0.0
327258704,-0.016826713,-0.2753387,0.04738237,0.0
327458716,-0.01490814,-0.26850286,0.047628846,0.0
327658717,-0.012013428,-0.2681514,0.04689138,0.0
327858728,-0.010783429,-0.2711096,0.045931682,0.0
328058741,-0.029977875,-0.2654873,0.04563842,0.0
328258646,-0.037981387,-0.26017648,0.04674328,0.0
328458677,-0.030154042,-0.26227528,0.04620237,0.0
328658791,-0.016939677,-0.25946715,0.04496178,0.0
328858875,-0.021084975,-0.25342593,0.043614518,0.0
329058885,-0.028532753,-0.25636607,0.043534197,0.0
329258831,-0.028718088,-0.25726384,0.04352769,0.0
329458842,-0.025019087,-0.25380588,0.044786606,0.0
329658891,-0.024368715,-0.25151724,0.045213953,0.0
329858776,-0.023430089,-0.2553663,0.044626113,0.0
330058916,-0.014815297,-0.2555261,0.044117697,0.0
330258904,-0.0006641043,-0.25193396,0.04380511,0.0
330458774,-0.005056619,-0.25309578,0.04281313,0.0
330658982,-0.0012169126,-0.25834078,0.042105995,0.0
330858973,0.007390596,-0.25573948,0.042378865,0.0
331059042,-0.007373963,-0.25310862,0.04222002,0.0
331259008,-0.009432572,-0.25684512,0.042189244,0.0
331459032,-0.016130313,-0.25859314,0.041774195,0.0
331659084,-0.023416998,-0.25544178,0.041175578,0.0
331859087,-0.02017161,-0.25696042,0.040388502,0.0
332059035,-0.037842672,-0.26027894,0.039401963,0.0
332259059,-0.03852071,-0.2577616,0.03883104,0.0
332458963,-0.028489724,-0.25572586,0.037669547,0.0
332659087,-0.034908075,-0.25978178,0.036920503,0.0
332858961,-0.043303,-0.25879622,0.03749966,0.0
333058988,-0.039644875,-0.25378197,0.038406633,0.0
333259159,-0.045448005,-0.2547708,0.03945985,0.0
333459088,-0.039815135,-0.25784633,0.040207513,0.0
333659184,-0.03518366,-0.25378808,0.039751723,0.0
333859180,-0.039544716,-0.25055102,0.039514706,0.0
334059217,-0.035100747,-0.2521483,0.03943105,0.0
334259278,-0.039180316,-0.2508469,0.039538685,0.0
334459093,-0.041393798,-0.24436255,0.039927922,0.0
334659298,-0.038919404,-0.24371448,0.040175933,0.0
334859301,-0.04238821,-0.2461041,0.040363103,0.0
335059323,-0.050401464,-0.24045421,0.040652104,0.0
335259365,-0.04811804,-0.23669209,0.04014568,0.0
335459339,-0.048178833,-0.2387516,0.039485097,0.0
335659330,-0.060515422,-0.23405023,0.038534258,0.0
335859342,-0.051451474,-0.23522352,0.03825744,0.0
336059308,-0.054945458,-0.23752724,0.038449105,0.0
336259364,-0.0405314,-0.231305,0.03935125,0.0
336459302,-0.043935396,-0.22761191,0.040797275,0.0
336659395,-0.065714255,-0.23495425,0.042101685,0.0
336859469,-0.058067586,-0.23338294,0.0411886,0.0
337059430,-0.055293303,-0.23732948,0.039616313,0.0
337259451,-0.056795925,-0.24120863,0.039441,0.0
337459541,-0.047600318,-0.23886077,0.040585052,0.0
337659540,-0.03118344,-0.24576828,0.041886464,0.0
337859504,-0.01866328,-0.24488595,0.04286027,0.0
338059620,2.3156934e-05,-0.24539603,0.04395538,0.0
338259546,0.0019253202,-0.25145286,0.04334307,0.0
338459605,0.008748947,-0.24755567,0.041298963,0.0
338659461,0.0067654243,-0.25187024,0.03965578,0.0
338859431,0.022941025,-0.25103965,0.039023455,0.0
339059592,0.015085854,-0.25283998,0.040866032,0.0
339259635,0.020949544,-0.25677735,0.04195684,0.0
339459628,0.019520054,-0.25608125,0.042386737,0.0
339659725,0.013153958,-0.2632616,0.04171279,0.0
339859656,0.021078013,-0.26239252,0.04013441,0.0
340059708,0.0180162,-0.26495272,0.038317032,0.0
340259736,0.019130874,-0.27062014,0.038347982,0.0
340459550,0.0066509787,-0.2663439,0.03953555,0.0
340659612,0.010734088,-0.2721387,0.03803727,0.0
340859806,0.013107147,-0.2760875,0.03349645,0.0
341059594,0.013691033,-0.27341098,0.0303603,0.0
341259775,0.011400263,-0.27844974,0.028659472,0.0
341459871,0.018516975,-0.28064185,0.028303323,0.0
341659798,0.015753562,-0.28184783,0.029182976,0.0
341859807,0.025169972,-0.2883469,0.029887075,0.0
342059679,0.02952454,-0.28602132,0.030238746,0.0
342259872,0.0251853,-0.2884956,0.029146757,0.0
342459709,0.0290515,-0.29117823,0.026533775,0.0
342659893,0.023920886,-0.28708163,0.023945747,0.0
342859732,0.018883012,-0.29257765,0.021159582,0.0
343059774,0.018377021,-0.28897306,0.01835558,0.0
343259919,0.007237911,-0.28999597,0.017134093,0.0
343459785,0.01025746,-0.29355484,0.016551003,0.0
343659997,0.012252124,-0.2914354,0.015818497,0.0
343859838,0.01201021,-0.29744422,0.015429182,0.0
344060018,0.015414748,-0.2937694,0.015213307,0.0
344260060,0.013893855,-0.29646605,0.01498768,0.0
344459868,0.021490103,-0.29942557,0.014760051,0.0
344660047,0.015863702,-0.29622322,0.014274108,0.0
344859977,0.01992759,-0.30220282,0.013589606,0.0
345060113,0.016423102,-0.29998428,0.01268927,0.0
345260115,0.014982472,-0.29848504,0.012247313,0.0
345459926,0.017080467,-0.30341896,0.011474185,0.0
345660150,0.011058651,-0.29865402,0.010814449,0.0
345859995,0.0152425775,-0.2982886,0.011089331,0.0
346060123,0.011233566,-0.303653,0.01079027,0.0
346260136,0.011136655,-0.29923412,0.009720631,0.0
346460047,0.023813585,-0.30136037,0.009198442,0.0
346660168,0.031142024,-0.30216518,0.009856308,0.0
346860181,0.022717398,-0.2977209,0.0107797375,0.0
347060239,0.030744977,-0.30326703,0.010366404,0.0
347260258,0.024252078,-0.29944485,0.0082566645,0.0
347460266,0.017182417,-0.2983416,0.007169227,0.0
347660159,0.02418823,-0.3019397,0.006288413,0.0
347860150,0.02079181,-0.29786327,0.0061691427,0.0
348060311,0.021570966,-0.30311453,0.005560608,0.0
348260462,0.022659043,-0.30146593,0.0042453385,0.0
348460232,0.016415657,-0.2998959,0.003877999,0.0
348660443,0.023540294,-0.3024708,0.0037117044,0.0
348860277,0.018105546,-0.29906842,0.0041080327,0.0
349060408,0.023315055,-0.30332232,0.0042319377,0.0
349260323,0.025275666,-0.30355412,0.003947143,0.0
349460384,0.018395076,-0.29960433,0.0035325652,0.0
349660562,0.024334809,-0.30474442,0.002643813,0.0
349860566,0.01943554,-0.29945078,0.0015239102,0.0
350060422,0.019384908,-0.29542482,0.0011206621,0.0
350260509,0.019840453,-0.3006769,-9.8854034e-05,0.0
350460551,0.024896413,-0.30036503,-0.0020104747,0.0
350660511,0.015214388,-0.2982138,-0.0030261541,0.0
350860549,0.017957645,-0.30281267,-0.004331663,0.0
351060573,0.010492533,-0.29822052,-0.005609006,0.0
351260688,0.014547625,-0.30068928,-0.005953491,0.0
351460564,0.016674126,-0.30608097,-0.007499622,0.0
351660495,0.013886194,-0.30220753,-0.008963186,0.0
351860668,0.011449214,-0.30450854,-0.009830746,0.0
352060484,0.014327116,-0.3057296,-0.010969226,0.0
352260528,0.01034515,-0.301486,-0.011494491,0.0
352460537,0.013244062,-0.30491802,-0.011865333,0.0
352660681,0.012870396,-0.30695817,-0.012499706,0.0
352860739,0.009752039,-0.30281293,-0.012714736,0.0
353060726,0.017521542,-0.3062983,-0.012854399,0.0
353260713,0.017322376,-0.3079046,-0.013748352,0.0
353460668,0.01680176,-0.3037521,-0.01453692,0.0
353660585,0.0212567,-0.3073716,-0.015354201,0.0
353860627,0.023806516,-0.30880994,-0.016249232,0.0
354060689,0.018628782,-0.3055391,-0.01636266,0.0
354260645,0.018699503,-0.3099105,-0.016671507,0.0
354460645,0.022170285,-0.30790266,-0.017180689,0.0
354655491,0.01809593,-0.30724046,-0.017530948,0.0
354860712,0.021460697,-0.31091893,-0.01838563,0.0
355060745,0.01846827,-0.3070595,-0.019610891,0.0
355260728,0.022369452,-0.310401,-0.02048286,0.0
355460784,0.012607751,-0.31098595,-0.021337695,0.0
355660781,0.015258319,-0.30639216,-0.021979798,0.0
355860763,0.0077842507,-0.3069403,-0.023238655,0.0
356055593,0.0034255064,-0.31085807,-0.025115041,0.0
356260864,0.0049746707,-0.30598298,-0.026226955,0.0
356460968,0.0056412015,-0.31112826,-0.026800547,0.0
356660832,0.013022887,-0.30980518,-0.028528644,0.0
356860844,0.0062385662,-0.31030992,-0.03037104,0.0
357060814,0.016403195,-0.31286457,-0.03227641,0.0
357260859,0.012517799,-0.30901104,-0.033461824,0.0
357455705,0.018662577,-0.31085655,-0.033643052,0.0
357660908,0.018987972,-0.31608453,-0.03353979,0.0
357860864,0.019778622,-0.3130702,-0.032692827,0.0
358060918,0.023248903,-0.31310835,-0.031996217,0.0
358260883,0.02170606,-0.31939006,-0.03224624,0.0
358461085,0.026608713,-0.3170598,-0.0327523,0.0
358660995,0.021273553,-0.3173484,-0.03260155,0.0
358855809,0.02569888,-0.31978083,-0.032799974,0.0
359061092,0.017409738,-0.31623688,-0.03299416,0.0
359260962,0.02720337,-0.31740156,-0.03193693,0.0
359460970,0.03526867,-0.32155535,-0.029697243,0.0
359660981,0.04814598,-0.3189731,-0.0285842,0.0
359860984,0.045754068,-0.32414532,-0.031180535,0.0
360061045,0.040025316,-0.32623717,-0.034592614,0.0
360255910,0.04260378,-0.31963262,-0.03465067,0.0
360461037,0.045652676,-0.32248336,-0.032378968,0.0
360661281,0.044118505,-0.32588163,-0.032146014,0.0
360861225,0.038750652,-0.32384536,-0.032870345,0.0
361061108,0.040991627,-0.3209185,-0.034546148,0.0
361261169,0.027279237,-0.32849723,-0.037000842,0.0
361455988,0.02042759,-0.32579884,-0.037188802,0.0
361655998,0.02993068,-0.32124174,-0.035897464,0.0
361861148,0.037997004,-0.32878998,-0.03457237,0.0
362061289,0.048755098,-0.3283378,-0.033472966,0.0
362261175,0.04407932,-0.32526967,-0.033427656,0.0
362461359,0.029358493,-0.33281684,-0.03635144,0.0
362661351,0.022316232,-0.33130276,-0.040621497,0.0
362856091,0.010989538,-0.32424095,-0.044232793,0.0
363056109,0.011430393,-0.3255618,-0.04438736,0.0
363261381,0.018687045,-0.32467702,-0.04321996,0.0
363461393,0.025826769,-0.32369822,-0.04043725,0.0
363661406,0.025302777,-0.33031732,-0.03774736,0.0
363861451,0.043765716,-0.3365687,-0.037712328,0.0
364061452,0.04256033,-0.3328838,-0.03841571,0.0
364256197,0.04285833,-0.3315306,-0.03854981,0.0
364456209,0.049371548,-0.33598223,-0.03875655,0.0
364661343,0.048559733,-0.33399543,-0.039170906,0.0
364861512,0.04330959,-0.33055997,-0.03947946,0.0
365061397,0.03970117,-0.3346305,-0.04043927,0.0
365261526,0.042910114,-0.3330117,-0.042206172,0.0
365461545,0.030240977,-0.32852516,-0.04346742,0.0
365656303,0.03527187,-0.33257404,-0.0446028,0.0
365856298,0.031887364,-0.33004057,-0.045219734,0.0
366061579,0.026800737,-0.32758,-0.044453915,0.0
366261482,0.036066525,-0.33380368,-0.04389791,0.0
366461474,0.042457152,-0.33255243,-0.04343664,0.0
366661558,0.043481734,-0.3295265,-0.042449877,0.0
366861634,0.052696854,-0.3331269,-0.04180632,0.0
367056384,0.057219718,-0.33062717,-0.04158427,0.0
367256400,0.044916797,-0.32737258,-0.041502405,0.0
367461537,0.046441697,-0.33037305,-0.04166807,0.0
367661754,0.04408694,-0.32593346,-0.041833244,0.0
367861705,0.03865795,-0.32619083,-0.04158138,0.0
368061727,0.043354183,-0.32743457,-0.042260937,0.0
368256478,0.037169516,-0.3222815,-0.043304265,0.0
368456486,0.041412033,-0.3248677,-0.044695687,0.0
368656508,0.03478317,-0.3259813,-0.045034356,0.0
368861914,0.035624985,-0.31992626,-0.042683166,0.0
369061642,0.036005575,-0.32446566,-0.039912567,0.0
369261673,0.05733353,-0.3259576,-0.037481062,0.0
369461821,0.05953091,-0.32250097,-0.035342816,0.0
369656564,0.057818603,-0.32675624,-0.03412853,0.0
369856597,0.05730128,-0.32500148,-0.034876186,0.0
370056604,0.048695717,-0.31976566,-0.03681387,0.0
370261773,0.056846946,-0.32259572,-0.038737815,0.0
370461931,0.043483153,-0.3196566,-0.039412316,0.0
370661918,0.037679315,-0.31472656,-0.03841464,0.0
370861787,0.0390003,-0.3183983,-0.037185043,0.0
371056688,0.03541197,-0.32324487,-0.036693357,0.0
371256717,0.038452525,-0.31911445,-0.036896955,0.0
371456712,0.03211479,-0.32002154,-0.036840025,0.0
371661890,0.044397455,-0.32219645,-0.0364347,0.0
371861847,0.037306115,-0.31625092,-0.036334034,0.0
372061900,0.03937406,-0.3186364,-0.035675246,0.0
372262015,0.042203337,-0.32017052,-0.03602146,0.0
372456768,0.03797384,-0.31401768,-0.036854297,0.0
372656798,0.036946397,-0.3150588,-0.037841827,0.0
372856793,0.0418439,-0.31763914,-0.039192244,0.0
373061940,0.036369383,-0.31240758,-0.039979592,0.0
373261956,0.036812566,-0.3148899,-0.03971346,0.0
373462113,0.02934048,-0.3152036,-0.03941161,0.0
373661988,0.029870363,-0.3097124,-0.03891864,0.0
373856899,0.019989088,-0.31315815,-0.038686,0.0
374056875,0.022957245,-0.31552774,-0.039098296,0.0
374256920,0.017785955,-0.31095436,-0.039605338,0.0
374462044,0.01857768,-0.3138584,-0.039838336,0.0
374662041,0.016892191,-0.31552684,-0.04064477,0.0
374862259,0.014140123,-0.31061026,-0.04093054,0.0
375056946,0.018351614,-0.31177187,-0.040960945,0.0
375256959,0.021103757,-0.31631383,-0.041327596,0.0
375456968,0.020215737,-0.31242657,-0.041584,0.0
375656996,0.016378792,-0.3121572,-0.04139743,0.0
375862176,0.02127672,-0.3160758,-0.041645426,0.0
376062134,0.016674737,-0.31144574,-0.04154068,0.0
376262158,0.016983148,-0.31163988,-0.041028798,0.0
376457076,0.022786815,-0.31641006,-0.04128281,0.0
376657060,0.020596486,-0.31319487,-0.041513916,0.0
376857104,0.021994874,-0.31037986,-0.041615307,0.0
377057090,0.027231999,-0.31537426,-0.042172085,0.0
377262351,0.023087583,-0.3126709,-0.042838816,0.0
377462530,0.01953421,-0.31064776,-0.042807695,0.0
377662303,0.023979066,-0.3153448,-0.04328117,0.0
377857151,0.021204293,-0.31280676,-0.04374166,0.0
378057174,0.021155415,-0.3093389,-0.043229073,0.0
378257166,0.02458643,-0.3139615,-0.042757485,0.0
378457188,0.027185677,-0.3116734,-0.042763624,0.0
378662334,0.023745948,-0.30901772,-0.042730696,0.0
378862326,0.03096802,-0.31352773,-0.04345136,0.0
379062390,0.0276626,-0.31168464,-0.04419829,0.0
379257210,0.028997513,-0.30730417,-0.044410188,0.0
379457248,0.029669339,-0.31152555,-0.04510212,0.0
379657267,0.03156359,-0.31080967,-0.045651082,0.0
379857273,0.029056247,-0.30688706,-0.045824863,0.0
380062419,0.019896196,-0.31233957,-0.045929927,0.0
380262582,0.025096145,-0.30896696,-0.046138167,0.0
380462440,0.016874097,-0.30965438,-0.04634167,0.0
380657329,0.022128789,-0.30983093,-0.046142258,0.0
380857338,0.010798645,-0.30665278,-0.044844825,0.0
381057352,0.014625717,-0.3111144,-0.04474534,0.0
381257379,0.02424039,-0.3134141,-0.047402505,0.0
381462529,0.019207157,-0.30856454,-0.049954247,0.0
381662607,0.01827704,-0.30586964,-0.051320132,0.0
381862536,0.024739929,-0.31009546,-0.05220696,0.0
382057426,0.030765336,-0.30802736,-0.05253103,0.0
382257434,0.024214001,-0.30645692,-0.05208859,0.0
382457484,0.030873263,-0.31081516,-0.051558107,0.0
382657495,0.029201606,-0.30777517,-0.05125664,0.0
382862591,0.03135779,-0.3101815,-0.05164797,0.0
383062766,0.04631475,-0.31484303,-0.052214593,0.0
383257504,0.04285954,-0.3119116,-0.05291139,0.0
383457572,-0.011641588,-0.31593055,-0.054221068,0.0
383657588,0.03382323,-0.32175574,-0.051661268,0.0
383857597,0.041429248,-0.3216496,-0.045397587,0.0
384057620,0.046554543,-0.32354853,-0.03941389,0.0
384262804,0.051292866,-0.33598983,-0.03477859,0.0
384462769,0.068352066,-0.34623343,-0.033469003,0.0
384657650,0.07187915,-0.35139775,-0.036129337,0.0
384857685,0.055781204,-0.36116156,-0.03647346,0.0
385057675,0.03593981,-0.37319717,-0.034823854,0.0
385257701,0.024802918,-0.39027604,-0.034573484,0.0
385457701,0.024665015,-0.39862415,-0.037546158,0.0
385662907,0.025145227,-0.4,-0.040641006,0.0
385862918,0.015294531,-0.39999342,-0.04158701,0.0
386057796,0.015173465,-0.4,-0.041577056,0.0
386257759,0.013084489,-0.4,-0.039177433,0.0
386457775,-0.018185845,-0.4,-0.038308676,0.0
386657785,-0.03553082,-0.3997891,-0.04316243,0.0
386857800,-0.030289294,-0.3961513,-0.050277203,0.0
387063033,-0.039291218,-0.4,-0.054121077,0.0
387263007,-0.033402305,-0.39986408,-0.054818463,0.0
387457818,0.0,0.0,0.0,0.0
387657840,0.0,0.0,0.0,0.0
387857854,0.0,0.0,0.0,0.0
388057869,0.0,0.0,0.0,0.0
388260420,0.0,0.0,0.0,0.0
388463023,0.0,0.0,0.0,0.0
388663124,0.0,0.0,0.0,0.0
388857920,0.0,0.0,0.0,0.0
389057963,0.0,0.0,0.0,0.0
389257952,0.0,0.0,0.0,0.0
389457959,0.0,0.0,0.0,0.0
389657973,0.0,0.0,0.0,0.0
389863244,0.0,0.0,0.0,0.0
390058004,0.0,0.0,0.0,0.0
390258010,0.0,0.0,0.0,0.0
390458031,0.0,0.0,0.0,0.0
390658035,0.0,0.0,0.0,0.0
390858051,0.0,0.0,0.0,0.0
391058064,0.0,0.0,0.0,0.0
391263221,0.0,0.0,0.0,0.0
391458099,0.0,0.0,0.0,0.0
391658146,0.0,0.0,0.0,0.0
391858116,0.0,0.0,0.0,0.0
392058169,0.0,0.0,0.0,0.0
392258161,0.0,0.0,0.0,0.0
392458163,0.0,0.0,0.0,0.0
392663367,0.0,0.0,0.0,0.0
392863454,0.0,0.0,0.0,0.0
393058217,0.0,0.0,0.0,0.0
393258228,0.0,0.0,0.0,0.0
393458222,0.0,0.0,0.0,0.0
393658248,0.0,0.0,0.0,0.0
393858273,0.0,0.0,0.0,0.0
394063463,0.0,0.0,0.0,0.0
394258281,0.0,0.0,0.0,0.0
394458286,0.0,0.0,0.0,0.0
394658300,0.0,0.0,0.0,0.0
394858316,0.0,0.0,0.0,0.0
395058329,0.0,0.0,0.0,0.0
395258356,0.0,0.0,0.0,0.0
395463553,0.0,0.0,0.0,0.0
395658395,0.0,0.0,0.0,0.0
395858382,0.0,0.0,0.0,0.0
396058404,0.0,0.0,0.0,0.0
396258442,0.0,0.0,0.0,0.0
396458447,0.0,0.0,0.0,0.0
396658540,0.0,0.0,0.0,0.0
396863648,0.0,0.0,0.0,0.0
397058541,0.0,0.0,0.0,0.0
397258555,0.0,0.0,0.0,0.0
397458566,0.0,0.0,0.0,0.0
397658582,0.0,0.0,0.0,0.0
397858610,0.0,0.0,0.0,0.0
398058633,0.0,0.0,0.0,0.0
398258656,0.0,0.0,0.0,0.0
398458691,0.0,0.0,0.0,0.0
398658707,0.0,0.0,0.0,0.0
398858735,0.0,0.0,0.0,0.0
399058768,0.0,0.0,0.0,0.0
399258810,0.0,0.0,0.0,0.0
399458792,0.0,0.0,0.0,0.0
399658647,0.0,0.0,0.0,0.0
399858658,0.0,0.0,0.0,0.0
400058731,0.0,0.0,0.0,0.0
400258686,0.0,0.0,0.0,0.0
400458765,0.0,0.0,0.0,0.0
400658712,0.0,0.0,0.0,0.0
400858789,0.0,0.0,0.0,0.0
401058742,0.0,0.0,0.0,0.0
401258754,0.0,0.0,0.0,0.0
401458820,0.0,0.0,0.0,0.0
401658786,0.0,0.0,0.0,0.0
401858794,0.0,0.0,0.0,0.0
402058809,0.0,0.0,0.0,0.0
402258825,0.0,0.0,0.0,0.0
402458834,0.0,0.0,0.0,0.0
402658848,0.0,0.0,0.0,0.0
402858870,0.0,0.0,0.0,0.0
403058881,0.0,0.0,0.0,0.0
403258899,0.0,0.0,0.0,0.0
403458903,0.0,0.0,0.0,0.0
403658919,0.0,0.0,0.0,0.0
403858990,0.0,0.0,0.0,0.0
404058946,0.0,0.0,0.0,0.0
404258958,0.0,0.0,0.0,0.0
404458970,0.0,0.0,0.0,0.0
404658989,0.0,0.0,0.0,0.0
404859006,0.0,0.0,0.0,0.0
405059023,0.0,0.0,0.0,0.0
405259009,0.0,0.0,0.0,0.0
405459028,0.0,0.0,0.0,0.0
405659041,0.0,0.0,0.0,0.0
405859053,0.0,0.0,0.0,0.0
406059067,0.0,0.0,0.0,0.0
406259082,0.0,0.0,0.0,0.0
406459098,0.0,0.0,0.0,0.0
406659130,0.0,0.0,0.0,0.0
406859124,0.0,0.0,0.0,0.0
407059158,0.0,0.0,0.0,0.0
407259152,0.0,0.0,0.0,0.0
407459184,0.0,0.0,0.0,0.0
407659181,0.0,0.0,0.0,0.0
407859196,0.0,0.0,0.0,0.0
408059206,0.0,0.0,0.0,0.0
408259229,0.0,0.0,0.0,0.0
408459267,0.0,0.0,0.0,0.0
408659245,0.0,0.0,0.0,0.0
408859265,0.0,0.0,0.0,0.0
409059294,0.0,0.0,0.0,0.0
409259300,0.0,0.0,0.0,0.0
409459311,0.0,0.0,0.0,0.0
409659318,0.0,0.0,0.0,0.0
409859357,0.0,0.0,0.0,0.0
410059357,0.0,0.0,0.0,0.0
410259359,0.0,0.0,0.0,0.0
410459369,0.0,0.0,0.0,0.0
410659412,0.0,0.0,0.0,0.0
410859456,0.0,0.0,0.0,0.0
411059419,0.0,0.0,0.0,0.0
411259429,0.0,0.0,0.0,0.0
411459522,0.0,0.0,0.0,0.0
411659456,0.0,0.0,0.0,0.0
411859476,0.0,0.0,0.0,0.0
412059484,0.0,0.0,0.0,0.0
412259528,0.0,0.0,0.0,0.0
412459542,0.0,0.0,0.0,0.0
412659534,0.0,0.0,0.0,0.0
412859541,0.0,0.0,0.0,0.0
413059563,0.0,0.0,0.0,0.0
413259574,0.0,0.0,0.0,0.0
413459579,0.0,0.0,0.0,0.0
413659599,0.0,0.0,0.0,0.0
413859612,0.0,0.0,0.0,0.0
414059636,0.0,0.0,0.0,0.0
414259641,0.0,0.0,0.0,0.0
414459660,0.0,0.0,0.0,0.0
414659672,0.0,0.0,0.0,0.0
414859683,0.0,0.0,0.0,0.0
415059767,0.0,0.0,0.0,0.0
415259718,0.0,0.0,0.0,0.0
415459731,0.0,0.0,0.0,0.0
415659745,0.0,0.0,0.0,0.0
415859705,0.0,0.0,0.0,0.0
416059773,0.0,0.0,0.0,0.0
416259779,0.0,0.0,0.0,0.0
416459810,0.0,0.0,0.0,0.0
416659819,0.0,0.0,0.0,0.0
416859823,0.0,0.0,0.0,0.0
417059837,0.0,0.0,0.0,0.0
417259852,0.0,0.0,0.0,0.0
417459877,0.0,0.0,0.0,0.0
417659913,0.0,0.0,0.0,0.0
417859925,0.0,0.0,0.0,0.0
418059910,0.0,0.0,0.0,0.0
418259927,0.0,0.0,0.0,0.0
418459965,0.0,0.0,0.0,0.0
418659955,0.0,0.0,0.0,0.0
418859969,0.0,0.0,0.0,0.0
419059987,0.0,0.0,0.0,0.0
419260003,0.0,0.0,0.0,0.0
419460046,0.0,0.0,0.0,0.0
419660064,0.0,0.0,0.0,0.0
419860045,0.0,0.0,0.0,0.0
420060062,0.0,0.0,0.0,0.0
420260072,0.0,0.0,0.0,0.0
420460097,0.0,0.0,0.0,0.0
420660101,0.0,0.0,0.0,0.0
420860122,0.0,0.0,0.0,0.0
421060148,0.0,0.0,0.0,0.0
421260154,0.0,0.0,0.0,0.0
421460164,0.0,0.0,0.0,0.0
421660180,0.0,0.0,0.0,0.0
421860195,0.0,0.0,0.0,0.0
422060247,0.0,0.0,0.0,0.0
422260227,0.0,0.0,0.0,0.0
422460242,0.0,0.0,0.0,0.0
422660267,0.0,0.0,0.0,0.0
422860262,0.0,0.0,0.0,0.0
423060327,0.0,0.0,0.0,0.0
423260303,0.0,0.0,0.0,0.0
423460314,0.0,0.0,0.0,0.0
423660325,0.0,0.0,0.0,0.0
423860350,0.0,0.0,0.0,0.0
424060362,0.0,0.0,0.0,0.0
424260374,0.0,0.0,0.0,0.0
424460397,0.0,0.0,0.0,0.0
424660409,0.0,0.0,0.0,0.0
424860441,0.0,0.0,0.0,0.0
425060427,0.0,0.0,0.0,0.0
425260442,0.0,0.0,0.0,0.0
425460463,0.0,0.0,0.0,0.0
425660480,0.0,0.0,0.0,0.0
425860487,0.0,0.0,0.0,0.0
426055765,0.0,0.0,0.0,0.0
426260524,0.0,0.0,0.0,0.0
426460543,0.0,0.0,0.0,0.0
426660547,0.0,0.0,0.0,0.0
426860567,0.0,0.0,0.0,0.0
427060544,0.0,0.0,0.0,0.0
427260632,0.0,0.0,0.0,0.0
427455975,0.0,0.0,0.0,0.0
427660670,0.0,0.0,0.0,0.0
427860647,0.0,0.0,0.0,0.0
428060680,0.0,0.0,0.0,0.0
428260681,0.0,0.0,0.0,0.0
428460697,0.0,0.0,0.0,0.0
428660730,0.0,0.0,0.0,0.0
428855908,0.0,0.0,0.0,0.0
429060739,0.0,0.0,0.0,0.0
429260756,0.0,0.0,0.0,0.0
429460794,0.0,0.0,0.0,0.0
429660784,0.0,0.0,0.0,0.0
429860798,0.0,0.0,0.0,0.0
430060817,0.0,0.0,0.0,0.0
430256009,0.0,0.0,0.0,0.0
430460850,0.0,0.0,0.0,0.0
430660863,0.0,0.0,0.0,0.0
430860877,0.0,0.0,0.0,0.0
431060898,0.0,0.0,0.0,0.0
431260912,0.0,0.0,0.0,0.0
431460928,0.0,0.0,0.0,0.0
431656129,0.0,0.0,0.0,0.0
431860973,0.0,0.0,0.0,0.0
432060980,0.0,0.0,0.0,0.0
432261006,0.0,0.0,0.0,0.0
432461005,0.0,0.0,0.0,0.0
432661021,0.0,0.0,0.0,0.0
432856383,0.0,0.0,0.0,0.0
433056461,0.0,0.0,0.0,0.0
433261108,0.0,0.0,0.0,0.0
433461089,0.0,0.0,0.0,0.0
433661098,0.0,0.0,0.0,0.0
433861116,0.0,0.0,0.0,0.0
434061138,0.0,0.0,0.0,0.0
434256468,0.0,0.0,0.0,0.0
434456495,0.0,0.0,0.0,0.0
434661180,0.0,0.0,0.0,0.0
434861196,0.0,0.0,0.0,0.0
435061230,0.0,0.0,0.0,0.0
435261229,0.0,0.0,0.0,0.0
435461244,0.0,0.0,0.0,0.0
435656443,0.0,0.0,0.0,0.0
435856472,0.0,0.0,0.0,0.0
436061296,0.0,0.0,0.0,0.0
436261314,0.0,0.0,0.0,0.0
436461330,0.0,0.0,0.0,0.0
436661346,0.0,0.0,0.0,0.0
436861397,0.0,0.0,0.0,0.0
437056687,0.0,0.0,0.0,0.0
437256723,0.0,0.0,0.0,0.0
437461453,0.0,0.0,0.0,0.0
437661422,0.0,0.0,0.0,0.0
437861493,0.0,0.0,0.0,0.0
438061455,0.0,0.0,0.0,0.0
438261505,0.0,0.0,0.0,0.0
438456739,0.0,0.0,0.0,0.0
438656760,0.0,0.0,0.0,0.0
438861566,0.0,0.0,0.0,0.0
439061542,0.0,0.0,0.0,0.0
439261566,0.0,0.0,0.0,0.0
439461572,0.0,0.0,0.0,0.0
439656847,0.0,0.0,0.0,0.0
439856826,0.0,0.0,0.0,0.0
440056836,0.0,0.0,0.0,0.0
440261656,0.0,0.0,0.0,0.0
440461659,0.0,0.0,0.0,0.0
440661680,0.0,0.0,0.0,0.0
440861700,0.0,0.0,0.0,0.0
441057046,0.0,0.0,0.0,0.0
441257053,0.0,0.0,0.0,0.0
441457149,0.0,0.0,0.0,0.0
441661761,0.0,0.0,0.0,0.0
441861780,0.0,0.0,0.0,0.0
442061818,0.0,0.0,0.0,0.0
442261817,0.0,0.0,0.0,0.0
442457200,0.0,0.0,0.0,0.0
442657071,0.0,0.0,0.0,0.0
442857049,0.0,0.0,0.0,0.0
443061897,0.0,0.0,0.0,0.0
443261895,0.0,0.0,0.0,0.0
443461911,0.0,0.0,0.0,0.0
443661929,0.0,0.0,0.0,0.0
443857118,0.0,0.0,0.0,0.0
444057324,0.0,0.0,0.0,0.0
444257288,0.0,0.0,0.0,0.0
444462012,0.0,0.0,0.0,0.0
444662014,0.0,0.0,0.0,0.0
444862025,0.0,0.0,0.0,0.0
445057319,0.0,0.0,0.0,0.0
445257268,0.0,0.0,0.0,0.0
445457284,0.0,0.0,0.0,0.0
445657341,0.0,0.0,0.0,0.0
445862152,0.0,0.0,0.0,0.0
446062133,0.0,0.0,0.0,0.0
446262194,0.0,0.0,0.0,0.0
446457577,0.0,0.0,0.0,0.0
446657522,0.0,0.0,0.0,0.0
446857494,0.0,0.0,0.0,0.0
447057534,0.0,0.0,0.0,0.0
447257528,0.0,0.0,0.0,0.0
447462452,0.0,0.0,0.0,0.0
447662339,0.0,0.0,0.0,0.0
447857640,0.0,0.0,0.0,0.0
448057650,0.0,0.0,0.0,0.0
448257682,0.0,0.0,0.0,0.0
448457899,0.0,0.0,0.0,0.0
448662487,0.0,0.0,0.0,0.0
448862508,0.0,0.0,0.0,0.0
449057651,0.0,0.0,0.0,0.0
449257651,0.0,0.0,0.0,0.0
449457705,0.0,0.0,0.0,0.0
449657692,0.0,0.0,0.0,0.0
449857709,0.0,0.0,0.0,0.0
450062493,0.0,0.0,0.0,0.0
450262579,0.0,0.0,0.0,0.0
450457849,0.0,0.0,0.0,0.0
450657765,0.0,0.0,0.0,0.0
450857783,0.0,0.0,0.0,0.0
451057819,0.0,0.0,0.0,0.0
451258052,0.0,0.0,0.0,0.0
451462672,0.0,0.0,0.0,0.0
451662646,0.0,0.0,0.0,0.0
451857893,0.0,0.0,0.0,0.0
452058074,0.0,0.0,0.0,0.0
452258057,0.0,0.0,0.0,0.0
452457920,0.0,0.0,0.0,0.0
452658111,0.0,0.0,0.0,0.0
452862755,0.0,0.0,0.0,0.0
453062834,0.0,0.0,0.0,0.0
453258030,0.0,0.0,0.0,0.0
453458026,0.0,0.0,0.0,0.0
453658040,0.0,0.0,0.0,0.0
453858137,0.0,0.0,0.0,0.0
454058261,0.0,0.0,0.0,0.0
454262889,0.0,0.0,0.0,0.0
454462914,0.0,0.0,0.0,0.0
454658176,0.0,0.0,0.0,0.0
454858217,0.0,0.0,0.0,0.0
455058133,0.0,0.0,0.0,0.0
455258189,0.0,0.0,0.0,0.0
455458178,0.0,0.0,0.0,0.0
455662993,0.0,0.0,0.0,0.0
455858234,0.0,0.0,0.0,0.0
456058247,0.0,0.0,0.0,0.0
456258242,0.0,0.0,0.0,0.0
456458334,0.0,0.0,0.0,0.0
456658282,0.0,0.0,0.0,0.0
456858314,0.0,0.0,0.0,0.0
457063129,0.0,0.0,0.0,0.0
457258387,0.0,0.0,0.0,0.0
457458390,0.0,0.0,0.0,0.0
457658388,0.0,0.0,0.0,0.0
457858410,0.0,0.0,0.0,0.0
458058411,0.0,0.0,0.0,0.0
458258453,0.0,0.0,0.0,0.0
458463256,0.0,0.0,0.0,0.0
458658456,0.0,0.0,0.0,0.0
458858621,0.0,0.0,0.0,0.0
459058556,0.0,0.0,0.0,0.0
459258512,0.0,0.0,0.0,0.0
459458533,0.0,0.0,0.0,0.0
459658569,0.0,0.0,0.0,0.0
459863389,0.0,0.0,0.0,0.0
460058585,0.0,0.0,0.0,0.0
460258606,0.0,0.0,0.0,0.0
460458795,0.0,0.0,0.0,0.0
460658661,0.0,0.0,0.0,0.0
460858706,0.0,0.0,0.0,0.0
461058697,0.0,0.0,0.0,0.0
461258718,0.0,0.0,0.0,0.0
461458860,0.0,0.0,0.0,0.0
461658809,0.0,0.0,0.0,0.0
461858816,0.0,0.0,0.0,0.0
462058776,0.0,0.0,0.0,0.0
462258835,0.0,0.0,0.0,0.0
462458809,0.0,0.0,0.0,0.0
462658904,0.0,0.0,0.0,0.0
462858906,0.0,0.0,0.0,0.0
463058881,0.0,0.0,0.0,0.0
463258899,0.0,0.0,0.0,0.0
463458935,0.0,0.0,0.0,0.0
463658934,0.0,0.0,0.0,0.0
463858955,0.0,0.0,0.0,0.0
464059109,0.0,0.0,0.0,0.0
464259031,0.0,0.0,0.0,0.0
464459055,0.0,0.0,0.0,0.0
464659165,0.0,0.0,0.0,0.0
464859216,0.0,0.0,0.0,0.0
465059075,0.0,0.0,0.0,0.0
465259096,0.0,0.0,0.0,0.0
465459318,0.0,0.0,0.0,0.0
465659125,0.0,0.0,0.0,0.0
465859178,0.0,0.0,0.0,0.0
466059180,0.0,0.0,0.0,0.0
466259269,0.0,0.0,0.0,0.0
466459336,0.0,0.0,0.0,0.0
466659241,0.0,0.0,0.0,0.0
466859276,0.0,0.0,0.0,0.0
467059326,0.0,0.0,0.0,0.0
467259305,0.0,0.0,0.0,0.0
467459330,0.0,0.0,0.0,0.0
467659321,0.0,0.0,0.0,0.0
467859391,0.0,0.0,0.0,0.0
468059366,0.0,0.0,0.0,0.0
468259411,0.0,0.0,0.0,0.0
468459402,0.0,0.0,0.0,0.0
468659415,0.0,0.0,0.0,0.0
468859522,0.0,0.0,0.0,0.0
469059465,0.0,0.0,0.0,0.0
469259484,0.0,0.0,0.0,0.0
469459725,0.0,0.0,0.0,0.0
469659727,0.0,0.0,0.0,0.0
469859550,0.0,0.0,0.0,0.0
470059565,0.0,0.0,0.0,0.0
470259584,0.0,0.0,0.0,0.0
470459648,0.0,0.0,0.0,0.0
470659626,0.0,0.0,0.0,0.0
470859648,0.0,0.0,0.0,0.0
471059667,0.0,0.0,0.0,0.0
471259733,0.0,0.0,0.0,0.0
471459771,0.0,0.0,0.0,0.0
471659877,0.0,0.0,0.0,0.0
471859750,0.0,0.0,0.0,0.0
472059769,0.0,0.0,0.0,0.0
472259879,0.0,0.0,0.0,0.0
472459839,0.0,0.0,0.0,0.0
472659955,0.0,0.0,0.0,0.0
472859910,0.0,0.0,0.0,0.0
473059892,0.0,0.0,0.0,0.0
473259892,0.0,0.0,0.0,0.0
473459960,0.0,0.0,0.0,0.0
473659942,0.0,0.0,0.0,0.0
473860013,0.0,0.0,0.0,0.0
474059996,0.0,0.0,0.0,0.0
474259985,0.0,0.0,0.0,0.0
474460170,0.0,0.0,0.0,0.0
474660106,0.0,0.0,0.0,0.0
474860042,0.0,0.0,0.0,0.0
475060070,0.0,0.0,0.0,0.0
475260115,0.0,0.0,0.0,0.0
475460116,0.0,0.0,0.0,0.0
475660136,0.0,0.0,0.0,0.0
475860188,0.0,0.0,0.0,0.0
476060233,0.0,0.0,0.0,0.0
476260229,0.0,0.0,0.0,0.0
476460243,0.0,0.0,0.0,0.0
476660305,0.0,0.0,0.0,0.0
476860284,0.0,0.0,0.0,0.0
477060278,0.0,0.0,0.0,0.0
477260331,0.0,0.0,0.0,0.0
477460326,0.0,0.0,0.0,0.0
477660361,0.0,0.0,0.0,0.0
477860397,0.0,0.0,0.0,0.0
478060424,0.0,0.0,0.0,0.0
478260479,0.0,0.0,0.0,0.0
478460451,0.0,0.0,0.0,0.0
478660499,0.0,0.0,0.0,0.0
478860497,0.0,0.0,0.0,0.0
479060492,0.0,0.0,0.0,0.0
479260560,0.0,0.0,0.0,0.0
479460557,0.0,0.0,0.0,0.0
479660583,0.0,0.0,0.0,0.0
479860637,0.0,0.0,0.0,0.0
480060601,0.0,0.0,0.0,0.0
480260625,0.0,0.0,0.0,0.0
480460868,0.0,0.0,0.0,0.0
480655494,0.0,0.0,0.0,0.0
480860689,0.0,0.0,0.0,0.0
481060709,0.0,0.0,0.0,0.0
481260733,0.0,0.0,0.0,0.0
481460804,0.0,0.0,0.0,0.0
481660771,0.0,0.0,0.0,0.0
481860823,0.0,0.0,0.0,0.0
482055637,0.0,0.0,0.0,0.0
482260849,0.0,0.0,0.0,0.0
482460864,0.0,0.0,0.0,0.0
482660885,0.0,0.0,0.0,0.0
482860910,0.0,0.0,0.0,0.0
483060932,0.0,0.0,0.0,0.0
483260983,0.0,0.0,0.0,0.0
483455793,0.0,0.0,0.0,0.0
483661151,0.0,0.0,0.0,0.0
483861103,0.0,0.0,0.0,0.0
484061199,0.0,0.0,0.0,0.0
484261051,0.0,0.0,0.0,0.0
484461119,0.0,0.0,0.0,0.0
484661136,0.0,0.0,0.0,0.0
484855957,0.0,0.0,0.0,0.0
485061097,0.0,0.0,0.0,0.0
485261284,0.0,0.0,0.0,0.0
485461190,0.0,0.0,0.0,0.0
485661244,0.0,0.0,0.0,0.0
485861235,0.0,0.0,0.0,0.0
486061262,0.0,0.0,0.0,0.0
486256132,0.0,0.0,0.0,0.0
486461293,0.0,0.0,0.0,0.0
486661368,0.0,0.0,0.0,0.0
486861349,0.0,0.0,0.0,0.0
487061434,0.0,0.0,0.0,0.0
487261402,0.0,0.0,0.0,0.0
487456238,0.0,0.0,0.0,0.0
487656257,0.0,0.0,0.0,0.0
487861517,0.0,0.0,0.0,0.0
488061483,0.0,0.0,0.0,0.0
488261494,0.0,0.0,0.0,0.0
488461566,0.0,0.0,0.0,0.0
488661594,0.0,0.0,0.0,0.0
488856388,0.0,0.0,0.0,0.0
489056413,0.0,0.0,0.0,0.0
489261681,0.0,0.0,0.0,0.0
489461665,0.0,0.0,0.0,0.0
489661682,0.0,0.0,0.0,0.0
489861716,0.0,0.0,0.0,0.0
490061716,0.0,0.0,0.0,0.0
490256622,0.0,0.0,0.0,0.0
490456692,0.0,0.0,0.0,0.0
490661791,0.0,0.0,0.0,0.0
490861796,0.0,0.0,0.0,0.0
491061859,0.0,0.0,0.0,0.0
491261901,0.0,0.0,0.0,0.0
491456772,0.0,0.0,0.0,0.0
491656812,0.0,0.0,0.0,0.0
491856845,0.0,0.0,0.0,0.0
492061993,0.0,0.0,0.0,0.0
492262107,0.0,0.0,0.0,0.0
492462224,0.0,0.0,0.0,0.0
492662097,0.0,0.0,0.0,0.0
492856850,0.0,0.0,0.0,0.0
493056880,0.0,0.0,0.0,0.0
493256897,0.0,0.0,0.0,0.0
493462266,0.0,0.0,0.0,0.0
493662316,0.0,0.0,0.0,0.0
493862323,0.0,0.0,0.0,0.0
494056985,0.0,0.0,0.0,0.0
494257008,0.0,0.0,0.0,0.0
494457030,0.0,0.0,0.0,0.0
494657056,0.0,0.0,0.0,0.0
494862447,0.0,0.0,0.0,0.0
495062363,0.0,0.0,0.0,0.0
495262414,0.0,0.0,0.0,0.0
495457178,0.0,0.0,0.0,0.0
495657190,0.0,0.0,0.0,0.0
495857200,0.0,0.0,0.0,0.0
496057240,0.0,0.0,0.0,0.0
496262426,0.0,0.0,0.0,0.0
496462494,0.0,0.0,0.0,0.0
496662493,0.0,0.0,0.0,0.0
496857313,0.0,0.0,0.0,0.0
497057341,0.0,0.0,0.0,0.0
497257369,0.0,0.0,0.0,0.0
497457402,0.0,0.0,0.0,0.0
497662644,0.0,0.0,0.0,0.0
497862692,0.0,0.0,0.0,0.0
498062693,0.0,0.0,0.0,0.0
498257465,0.0,0.0,0.0,0.0
498457491,0.0,0.0,0.0,0.0
498657518,0.0,0.0,0.0,0.0
498857537,0.0,0.0,0.0,0.0
499062789,0.0,0.0,0.0,0.0
499262867,0.0,0.0,0.0,0.0
499457642,0.0,0.0,0.0,0.0
499657638,0.0,0.0,0.0,0.0
499857657,0.0,0.0,0.0,0.0
500057681,0.0,0.0,0.0,0.0
500257754,0.0,0.0,0.0,0.0
500462964,0.0,0.0,0.0,0.0
500662958,0.0,0.0,0.0,0.0
500857776,0.0,0.0,0.0,0.0
501057804,0.0,0.0,0.0,0.0
501257821,0.0,0.0,0.0,0.0
501457852,0.0,0.0,0.0,0.0
501657873,0.0,0.0,0.0,0.0
501863157,0.0,0.0,0.0,0.0
502063092,0.0,0.0,0.0,0.0
502257936,0.0,0.0,0.0,0.0
502457961,0.0,0.0,0.0,0.0
502658025,0.0,0.0,0.0,0.0
502858042,0.0,0.0,0.0,0.0
503058032,0.0,0.0,0.0,0.0
503263254,0.0,0.0,0.0,0.0
503458089,0.0,0.0,0.0,0.0
503658111,0.0,0.0,0.0,0.0
503858128,0.0,0.0,0.0,0.0
504058178,0.0,0.0,0.0,0.0
504258181,0.0,0.0,0.0,0.0
504458215,0.0,0.0,0.0,0.0
504663422,0.0,0.0,0.0,0.0
504858253,0.0,0.0,0.0,0.0
505058298,0.0,0.0,0.0,0.0
505258313,0.0,0.0,0.0,0.0
505458342,0.0,0.0,0.0,0.0
505658349,0.0,0.0,0.0,0.0
505858376,0.0,0.0,0.0,0.0
506063572,0.0,0.0,0.0,0.0
506258426,0.0,0.0,0.0,0.0
506458447,0.0,0.0,0.0,0.0
506658476,0.0,0.0,0.0,0.0
506858495,0.0,0.0,0.0,0.0
507058524,0.0,0.0,0.0,0.0
507258549,0.0,0.0,0.0,0.0
507458623,0.0,0.0,0.0,0.0
507658593,0.0,0.0,0.0,0.0
507858618,0.0,0.0,0.0,0.0
508058651,0.0,0.0,0.0,0.0
508258724,0.0,0.0,0.0,0.0
508458694,0.0,0.0,0.0,0.0
508658715,0.0,0.0,0.0,0.0
508858745,0.0,0.0,0.0,0.0
509058819,0.0,0.0,0.0,0.0
509258795,0.0,0.0,0.0,0.0
509458762,0.0,0.0,0.0,0.0
509658858,0.0,0.0,0.0,0.0
509854198,0.0,0.0,0.0,0.0
510059072,0.0,0.0,0.0,0.0
510259170,0.0,0.0,0.0,0.0
510459326,0.0,0.0,0.0,0.0
510659199,0.0,0.0,0.0,0.0
510859221,0.0,0.0,0.0,0.0
