timestamp,timestamp_sample,gps_hvel[0],gps_hvel[1],gps_vvel,gps_hpos[0],gps_hpos[1],gps_vpos,ev_hvel[0],ev_hvel[1],ev_vvel,ev_hpos[0],ev_hpos[1],ev_vpos,rng_vpos,baro_vpos,aux_hvel[0],aux_hvel[1],aux_vvel,flow[0],flow[1],heading,mag_field[0],mag_field[1],mag_field[2],drag[0],drag[1],airspeed,beta,hagl,hagl_rate
217848687,217748282,0.00038694014,0.0,0.00020530907,8.288353e-05,0.0,0.0,0.0,0.0,0.0,0.0,0.0,0.0,0.0,1.260155e-05,0.0,0.0,nan,0.0,0.0,0.034973733,0.0,0.0,0.0,0.0,0.0,0.0,0.0,0.0,0.0
218348803,218248322,0.00039262517,0.0,0.00020293021,9.079759e-05,0.0,0.0,0.0,0.0,0.0,0.0,0.0,0.0,0.0,0.00013364658,0.0,0.0,nan,0.0,0.0,0.03735334,0.0,0.0,0.0,0.0,0.0,0.0,0.0,0.0,0.0
218848798,218748364,0.00018035962,0.0,0.00040062852,8.508196e-05,0.0,0.0,0.0,0.0,0.0,0.0,0.0,0.0,0.0,0.00028766246,0.0,0.0,nan,0.0,0.0,0.023728395,0.0,0.0,0.0,0.0,0.0,0.0,0.0,0.0,0.0
219348812,219248405,0.00013661981,0.0,0.0001286593,6.9693684e-05,0.0,0.0,0.0,0.0,0.0,0.0,0.0,0.0,0.0,5.9850285e-05,0.0,0.0,nan,0.0,0.0,0.023669714,0.0,0.0,0.0,0.0,0.0,0.0,0.0,0.0,0.0
219848833,219748446,0.0019112884,0.0,0.0005838913,4.921173e-05,0.0,0.0,0.0,0.0,0.0,0.0,0.0,0.0,0.0,0.00017964687,0.0,0.0,nan,0.0,0.0,6.4967826e-05,0.0,0.0,0.0,0.0,0.0,0.0,0.0,0.0,0.0
220338914,220238487,0.00018105358,0.0,1.227597e-05,4.8296126e-05,0.0,0.0,0.0,0.0,0.0,0.0,0.0,0.0,0.0,0.0006503603,0.0,0.0,nan,0.0,0.0,7.383017e-07,0.0,0.0,0.0,0.0,0.0,0.0,0.0,0.0,0.0
220838990,220738528,0.0001419773,0.0,8.99131e-05,6.170727e-05,0.0,0.0,0.0,0.0,0.0,0.0,0.0,0.0,0.0,0.0005267983,0.0,0.0,nan,0.0,0.0,0.04560295,0.0,0.0,0.0,0.0,0.0,0.0,0.0,0.0,0.0
221348955,221248571,0.00042854348,0.0,0.00048504406,7.486678e-05,0.0,0.0,0.0,0.0,0.0,0.0,0.0,0.0,0.0,0.0007716697,0.0,0.0,nan,0.0,0.0,0.06501456,0.0,0.0,0.0,0.0,0.0,0.0,0.0,0.0,0.0
221849089,221748613,0.00023865786,0.0,2.2715192e-05,8.186753e-05,0.0,0.0,0.0,0.0,0.0,0.0,0.0,0.0,0.0,0.0009625737,0.0,0.0,nan,0.0,0.0,0.16204287,0.0,0.0,0.0,0.0,0.0,0.0,0.0,0.0,0.0
222349109,222248654,0.0005668838,0.0,2.894176e-05,5.292529e-05,0.0,0.0,0.0,0.0,0.0,0.0,0.0,0.0,0.0,0.0013464101,0.0,0.0,nan,0.0,0.0,0.28234875,0.0,0.0,0.0,0.0,0.0,0.0,0.0,0.0,0.0
222849060,222748697,0.0007297544,0.0,0.00012771667,0.00010927719,0.0,0.0,0.0,0.0,0.0,0.0,0.0,0.0,0.0,0.0009255093,0.0,0.0,nan,0.0,0.0,0.40078783,0.0,0.0,0.0,0.0,0.0,0.0,0.0,0.0,0.0
223349104,223248739,0.0004752547,0.0,2.5884923e-05,0.000119713535,0.0,0.0,0.0,0.0,0.0,0.0,0.0,0.0,0.0,0.0041044145,0.0,0.0,nan,0.0,0.0,0.5689444,0.0,0.0,0.0,0.0,0.0,0.0,0.0,0.0,0.0
223839143,223738780,0.0048440183,0.0,0.002282188,0.00013619858,0.0,0.0,0.0,0.0,0.0,0.0,0.0,0.0,0.0,0.0004121509,0.0,0.0,nan,0.0,0.0,0.3591405,0.0,0.0,0.0,0.0,0.0,0.0,0.0,0.0,0.0
224339252,224238823,0.00042505588,0.0,0.00017154131,0.00012244849,0.0,0.0,0.0,0.0,0.0,0.0,0.0,0.0,0.0,2.1087071e-05,0.0,0.0,nan,0.0,0.0,0.38380775,0.0,0.0,0.0,0.0,0.0,0.0,0.0,0.0,0.0
224839302,224738867,0.0049849334,0.0,0.0010729718,0.000106322455,0.0,0.0,0.0,0.0,0.0,0.0,0.0,0.0,0.0,0.00040427607,0.0,0.0,nan,0.0,0.0,0.39084005,0.0,0.0,0.0,0.0,0.0,0.0,0.0,0.0,0.0
225349330,225248909,0.0005209198,0.0,0.00018066718,0.000112256144,0.0,0.0,0.0,0.0,0.0,0.0,0.0,0.0,0.0,0.0,0.0,0.0,nan,0.0,0.0,0.3777356,0.0,0.0,0.0,0.0,0.0,0.0,0.0,0.0,0.0
225849366,225748951,0.0005108015,0.0,5.748466e-05,0.00011120539,0.0,0.0,0.0,0.0,0.0,0.0,0.0,0.0,0.0,0.0,0.0,0.0,nan,0.0,0.0,0.37160522,0.0,0.0,0.0,0.0,0.0,0.0,0.0,0.0,0.0
226349405,226248994,0.0036738513,0.0,5.1058255e-06,0.00015839816,0.0,0.0,0.0,0.0,0.0,0.0,0.0,0.0,0.0,0.00021111348,0.0,0.0,nan,0.0,0.0,0.34922183,0.0,0.0,0.0,0.0,0.0,0.0,0.0,0.0,0.0
226849424,226749037,0.0020588464,0.0,6.200323e-05,8.817567e-05,0.0,0.0,0.0,0.0,0.0,0.0,0.0,0.0,0.0,0.0,0.0,0.0,nan,0.0,0.0,0.33318007,0.0,0.0,0.0,0.0,0.0,0.0,0.0,0.0,0.0
227339472,227239081,0.0039096093,0.0,7.786852e-05,8.283955e-05,0.0,0.0,0.0,0.0,0.0,0.0,0.0,0.0,0.0,0.00032534768,0.0,0.0,nan,0.0,0.0,0.31223923,0.0,0.0,0.0,0.0,0.0,0.0,0.0,0.0,0.0
227839530,227739122,0.0027497397,0.0,0.00029633602,0.00010144268,0.0,0.0,0.0,0.0,0.0,0.0,0.0,0.0,0.0,7.5211494e-05,0.0,0.0,nan,0.0,0.0,0.2984203,0.0,0.0,0.0,0.0,0.0,0.0,0.0,0.0,0.0
228339624,228239166,0.017438434,0.0,2.1565394e-05,0.00024006172,0.0,0.0,0.0,0.0,0.0,0.0,0.0,0.0,0.0,0.00018571224,0.0,0.0,nan,0.0,0.0,0.3019557,0.0,0.0,0.0,0.0,0.0,0.0,0.0,0.0,0.0
228839579,228739209,0.0017751503,0.0,0.0005388662,0.00012724135,0.0,0.0,0.0,0.0,0.0,0.0,0.0,0.0,0.0,0.00013338124,0.0,0.0,nan,0.0,0.0,0.33359623,0.0,0.0,0.0,0.0,0.0,0.0,0.0,0.0,0.0
229349643,229249254,0.0012408472,0.0,0.0022029325,0.00024304538,0.0,0.0,0.0,0.0,0.0,0.0,0.0,0.0,0.0,8.546248e-05,0.0,0.0,nan,0.0,0.0,0.3247329,0.0,0.0,0.0,0.0,0.0,0.0,0.0,0.0,0.0
229849752,229749297,0.0044824597,0.0,5.673276e-05,0.00024921744,0.0,0.0,0.0,0.0,0.0,0.0,0.0,0.0,0.0,0.00010987195,0.0,0.0,nan,0.0,0.0,0.31520012,0.0,0.0,0.0,0.0,0.0,0.0,0.0,0.0,0.0
230349710,230249341,0.0087256,0.0,2.8270013e-05,0.00040091015,0.0,0.0,0.0,0.0,0.0,0.0,0.0,0.0,0.0,0.00014542358,0.0,0.0,nan,0.0,0.0,0.27307275,0.0,0.0,0.0,0.0,0.0,0.0,0.0,0.0,0.0
230839843,230739384,0.0048046242,0.0,0.00085695845,0.00039260328,0.0,0.0,0.0,0.0,0.0,0.0,0.0,0.0,0.0,0.0,0.0,0.0,nan,0.0,0.0,0.26383194,0.0,0.0,0.0,0.0,0.0,0.0,0.0,0.0,0.0
231339853,231239428,0.007157445,0.0,0.0011270853,0.00027512532,0.0,0.0,0.0,0.0,0.0,0.0,0.0,0.0,0.0,0.0,0.0,0.0,nan,0.0,0.0,0.25465396,0.0,0.0,0.0,0.0,0.0,0.0,0.0,0.0,0.0
231839855,231739472,0.00397597,0.0,0.00023735838,0.00035895887,0.0,0.0,0.0,0.0,0.0,0.0,0.0,0.0,0.0,0.0,0.0,0.0,nan,0.0,0.0,0.21487461,0.0,0.0,0.0,0.0,0.0,0.0,0.0,0.0,0.0
232339995,232239516,0.0032740487,0.0,0.0001896929,0.00037950682,0.0,0.0,0.0,0.0,0.0,0.0,0.0,0.0,0.0,0.0,0.0,0.0,nan,0.0,0.0,0.21257307,0.0,0.0,0.0,0.0,0.0,0.0,0.0,0.0,0.0
232849962,232749562,0.004001897,0.0,3.2155247e-05,0.00029428749,0.0,0.0,0.0,0.0,0.0,0.0,0.0,0.0,0.0,0.0,0.0,0.0,nan,0.0,0.0,0.19032586,0.0,0.0,0.0,0.0,0.0,0.0,0.0,0.0,0.0
233350034,233249606,0.0061242618,0.0,0.00020212273,0.00020773005,0.0,0.0,0.0,0.0,0.0,0.0,0.0,0.0,0.0,0.0004018618,0.0,0.0,nan,0.0,0.0,0.16899022,0.0,0.0,0.0,0.0,0.0,0.0,0.0,0.0,0.0
233850023,233749650,0.0094456,0.0,0.0008155825,0.00017689573,0.0,0.0,0.0,0.0,0.0,0.0,0.0,0.0,0.0,0.0015470475,0.0,0.0,nan,0.0,0.0,0.14163199,0.0,0.0,0.0,0.0,0.0,0.0,0.0,0.0,0.0
234340227,234239694,0.002062332,0.0,0.0013289386,0.000121388926,0.0,0.0,0.0,0.0,0.0,0.0,0.0,0.0,0.0,0.0005241497,0.0,0.0,nan,0.0,0.0,0.12756677,0.0,0.0,0.0,0.0,0.0,0.0,0.0,0.0,0.0
234840131,234739739,0.00012841045,0.0,0.0012271029,0.0001633251,0.0,0.0,0.0,0.0,0.0,0.0,0.0,0.0,0.0,0.00064632954,0.0,0.0,nan,0.0,0.0,0.12170598,0.0,0.0,0.0,0.0,0.0,0.0,0.0,0.0,0.0
235340210,235239784,0.0031599249,0.0,0.0074034897,0.00015841078,0.0,0.0,0.0,0.0,0.0,0.0,0.0,0.0,0.0,0.00091183675,0.0,0.0,nan,0.0,0.0,0.19532874,0.0,0.0,0.0,0.0,0.0,0.0,0.0,0.0,0.0
235840291,235739829,0.0057066386,0.0,0.024060126,0.00014161822,0.0,0.0,0.0,0.0,0.0,0.0,0.0,0.0,0.0,0.0028248872,0.0,0.0,nan,0.0,0.0,0.22799581,0.0,0.0,0.0,0.0,0.0,0.0,0.0,0.0,0.0
236340354,236239874,9.138485e-05,0.0,0.00012460838,6.881008e-05,0.0,0.0,0.0,0.0,0.0,0.0,0.0,0.0,0.0,1.9099412e-05,0.0,0.0,nan,0.0,0.0,0.10222312,0.0,0.0,0.0,0.0,0.0,0.0,0.0,0.0,0.0
236850371,236749920,0.0035845407,0.0,0.00019864185,0.00015207025,0.0,0.0,0.0,0.0,0.0,0.0,0.0,0.0,0.0,5.6961744e-05,0.0,0.0,nan,0.0,0.0,0.13134266,0.0,0.0,0.0,0.0,0.0,0.0,0.0,0.0,0.0
237350429,237249966,0.0010304896,0.0,0.0018628098,0.00015049397,0.0,0.0,0.0,0.0,0.0,0.0,0.0,0.0,0.0,9.929169e-09,0.0,0.0,nan,0.0,0.0,0.14854886,0.0,0.0,0.0,0.0,0.0,0.0,0.0,0.0,0.0
237840414,237740010,0.0033276475,0.0,0.001908574,0.00010177843,0.0,0.0,0.0,0.0,0.0,0.0,0.0,0.0,0.0,0.00059668045,0.0,0.0,nan,0.0,0.0,0.15464647,0.0,0.0,0.0,0.0,0.0,0.0,0.0,0.0,0.0
238340606,238240056,0.00013565246,0.0,0.0013323214,0.00011876192,0.0,0.0,0.0,0.0,0.0,0.0,0.0,0.0,0.0,0.00020798529,0.0,0.0,nan,0.0,0.0,0.18708117,0.0,0.0,0.0,0.0,0.0,0.0,0.0,0.0,0.0
238840523,238740101,0.00030791014,0.0,0.0063047684,0.00012149988,0.0,0.0,0.0,0.0,0.0,0.0,0.0,0.0,0.0,0.00054285646,0.0,0.0,nan,0.0,0.0,0.1734479,0.0,0.0,0.0,0.0,0.0,0.0,0.0,0.0,0.0
239340584,239240147,0.004434751,0.0,0.0090355715,0.00016195366,0.0,0.0,0.0,0.0,0.0,0.0,0.0,0.0,0.0,0.0031659985,0.0,0.0,nan,0.0,0.0,0.16248676,0.0,0.0,0.0,0.0,0.0,0.0,0.0,0.0,0.0
239840594,239740193,0.0003384112,0.0,0.0024638297,0.00010069361,0.0,0.0,0.0,0.0,0.0,0.0,0.0,0.0,0.0,0.0032230439,0.0,0.0,nan,0.0,0.0,0.15682498,0.0,0.0,0.0,0.0,0.0,0.0,0.0,0.0,0.0
240340648,240240239,0.0011606516,0.0,0.00046595017,0.00011683277,0.0,0.0,0.0,0.0,0.0,0.0,0.0,0.0,0.0,0.0015519914,0.0,0.0,nan,0.0,0.0,0.15858,0.0,0.0,0.0,0.0,0.0,0.0,0.0,0.0,0.0
240850696,240750286,0.0001276823,0.0,3.5476018e-09,0.00012106191,0.0,0.0,0.0,0.0,0.0,0.0,0.0,0.0,0.0,0.0020856801,0.0,0.0,nan,0.0,0.0,0.1606261,0.0,0.0,0.0,0.0,0.0,0.0,0.0,0.0,0.0
241340726,241240331,5.849673e-05,0.0,0.0033883161,9.536729e-05,0.0,0.0,0.0,0.0,0.0,0.0,0.0,0.0,0.0,0.0020383268,0.0,0.0,nan,0.0,0.0,0.16494529,0.0,0.0,0.0,0.0,0.0,0.0,0.0,0.0,0.0
241840729,241740377,0.004472664,0.0,0.0011396401,0.00020430978,0.0,0.0,0.0,0.0,0.0,0.0,0.0,0.0,0.0,0.0007120068,0.0,0.0,nan,0.0,0.0,0.1469895,0.0,0.0,0.0,0.0,0.0,0.0,0.0,0.0,0.0
242340866,242240423,0.00035636761,0.0,0.0005332053,0.0002663236,0.0,0.0,0.0,0.0,0.0,0.0,0.0,0.0,0.0,0.00026883368,0.0,0.0,nan,0.0,0.0,0.1615703,0.0,0.0,0.0,0.0,0.0,0.0,0.0,0.0,0.0
242840868,242740470,0.0064019714,0.0,0.00025692358,0.00045259215,0.0,0.0,0.0,0.0,0.0,0.0,0.0,0.0,0.0,0.008948612,0.0,0.0,nan,0.0,0.0,0.14208414,0.0,0.0,0.0,0.0,0.0,0.0,0.0,0.0,0.0
243340922,243240516,0.0038740982,0.0,0.0015979081,0.00047579527,0.0,0.0,0.0,0.0,0.0,0.0,0.0,0.0,0.0,0.012960088,0.0,0.0,nan,0.0,0.0,0.12248474,0.0,0.0,0.0,0.0,0.0,0.0,0.0,0.0,0.0
243840976,243740563,0.005423377,0.0,2.0302841e-06,0.00041958972,0.0,0.0,0.0,0.0,0.0,0.0,0.0,0.0,0.0,3.0278308e-05,0.0,0.0,nan,0.0,0.0,0.10688947,0.0,0.0,0.0,0.0,0.0,0.0,0.0,0.0,0.0
244350979,244250610,0.0025054107,0.0,0.0010588346,0.00030770947,0.0,0.0,0.0,0.0,0.0,0.0,0.0,0.0,0.0,0.00052020623,0.0,0.0,nan,0.0,0.0,0.086115696,0.0,0.0,0.0,0.0,0.0,0.0,0.0,0.0,0.0
244841115,244740656,0.0018173816,0.0,0.0016511255,0.00021910145,0.0,0.0,0.0,0.0,0.0,0.0,0.0,0.0,0.0,0.0070087533,0.0,0.0,nan,0.0,0.0,0.0,0.0,0.0,0.0,0.0,0.0,0.0,0.0,0.0,0.0
245341106,245240702,0.008394207,0.0,0.004328167,9.669057e-05,0.0,0.0,0.0,0.0,0.0,0.0,0.0,0.0,0.0,3.1402072e-07,0.0,0.0,nan,0.0,0.0,0.0,0.0,0.0,0.0,0.0,0.0,0.0,0.0,0.0,0.0
245841246,245740749,0.0089499615,0.0,0.0025693902,5.6212426e-05,0.0,0.0,0.0,0.0,0.0,0.0,0.0,0.0,0.0,0.001836567,0.0,0.0,nan,0.0,0.0,0.0,0.0,0.0,0.0,0.0,0.0,0.0,0.0,0.0,0.0
246341239,246240796,0.004357027,0.0,0.0004449062,2.1222964e-05,0.0,0.0,0.0,0.0,0.0,0.0,0.0,0.0,0.0,0.025817556,0.0,0.0,nan,0.0,0.0,0.0,0.0,0.0,0.0,0.0,0.0,0.0,0.0,0.0,0.0
246841223,246740846,0.0053442526,0.0,2.1500255e-05,2.3202736e-05,0.0,0.0,0.0,0.0,0.0,0.0,0.0,0.0,0.0,0.00033646665,0.0,0.0,nan,0.0,0.0,0.0,0.0,0.0,0.0,0.0,0.0,0.0,0.0,0.0,0.0
247341251,247240890,0.017053511,0.0,9.327323e-06,9.650565e-05,0.0,0.0,0.0,0.0,0.0,0.0,0.0,0.0,0.0,0.0050963885,0.0,0.0,nan,0.0,0.0,0.0,0.0,0.0,0.0,0.0,0.0,0.0,0.0,0.0,0.0
247841331,247740937,0.005709748,0.0,0.0068133078,0.000106706284,0.0,0.0,0.0,0.0,0.0,0.0,0.0,0.0,0.0,0.0007149706,0.0,0.0,nan,0.0,0.0,0.0,0.0,0.0,0.0,0.0,0.0,0.0,0.0,0.0,0.0
248341350,248240984,0.012331548,0.0,0.002986039,0.00018438447,0.0,0.0,0.0,0.0,0.0,0.0,0.0,0.0,0.0,0.0016490391,0.0,0.0,nan,0.0,0.0,0.0,0.0,0.0,0.0,0.0,0.0,0.0,0.0,0.0,0.0
248841471,248741030,0.013390009,0.0,0.001622599,0.0002792481,0.0,0.0,0.0,0.0,0.0,0.0,0.0,0.0,0.0,0.0011029355,0.0,0.0,nan,0.0,0.0,0.0,0.0,0.0,0.0,0.0,0.0,0.0,0.0,0.0,0.0
249341439,249241077,0.010169025,0.0,0.0013184135,0.00034295575,0.0,0.0,0.0,0.0,0.0,0.0,0.0,0.0,0.0,0.0002489895,0.0,0.0,nan,0.0,0.0,0.0,0.0,0.0,0.0,0.0,0.0,0.0,0.0,0.0,0.0
249841535,249741125,0.008457419,0.0,0.011939774,0.00020088223,0.0,0.0,0.0,0.0,0.0,0.0,0.0,0.0,0.0,0.0007028827,0.0,0.0,nan,0.0,0.0,0.0,0.0,0.0,0.0,0.0,0.0,0.0,0.0,0.0,0.0
250341670,250241172,0.035258453,0.0,0.008003986,0.00018361148,0.0,0.0,0.0,0.0,0.0,0.0,0.0,0.0,0.0,0.008648283,0.0,0.0,nan,0.0,0.0,0.0,0.0,0.0,0.0,0.0,0.0,0.0,0.0,0.0,0.0
250841632,250741219,0.023763409,0.0,3.274884e-05,0.00021153997,0.0,0.0,0.0,0.0,0.0,0.0,0.0,0.0,0.0,0.001798178,0.0,0.0,nan,0.0,0.0,0.0,0.0,0.0,0.0,0.0,0.0,0.0,0.0,0.0,0.0
251341679,251241266,0.007940048,0.0,5.3192966e-06,6.899361e-05,0.0,0.0,0.0,0.0,0.0,0.0,0.0,0.0,0.0,0.0002979848,0.0,0.0,nan,0.0,0.0,0.0,0.0,0.0,0.0,0.0,0.0,0.0,0.0,0.0,0.0
251841776,251741314,0.015628653,0.0,0.0013999064,0.00013129314,0.0,0.0,0.0,0.0,0.0,0.0,0.0,0.0,0.0,0.0041193157,0.0,0.0,nan,0.0,0.0,0.0,0.0,0.0,0.0,0.0,0.0,0.0,0.0,0.0,0.0
252341735,252241361,0.09066696,0.0,0.0020875696,0.00043290894,0.0,0.0,0.0,0.0,0.0,0.0,0.0,0.0,0.0,0.00047171867,0.0,0.0,nan,0.0,0.0,0.0,0.0,0.0,0.0,0.0,0.0,0.0,0.0,0.0,0.0
252841852,252741408,0.035248358,0.0,0.00036772247,0.00030943612,0.0,0.0,0.0,0.0,0.0,0.0,0.0,0.0,0.0,8.048521e-06,0.0,0.0,nan,0.0,0.0,0.0,0.0,0.0,0.0,0.0,0.0,0.0,0.0,0.0,0.0
253341854,253241455,0.06807332,0.0,5.2866784e-05,0.0001046468,0.0,0.0,0.0,0.0,0.0,0.0,0.0,0.0,0.0,2.7444308e-05,0.0,0.0,nan,0.0,0.0,0.0,0.0,0.0,0.0,0.0,0.0,0.0,0.0,0.0,0.0
253841881,253741503,0.36677828,0.0,0.0011881943,0.00041890575,0.0,0.0,0.0,0.0,0.0,0.0,0.0,0.0,0.0,0.00085224275,0.0,0.0,nan,0.0,0.0,0.0,0.0,0.0,0.0,0.0,0.0,0.0,0.0,0.0,0.0
254341928,254241550,0.7425174,0.0,0.006228298,0.0030624755,0.0,0.0,0.0,0.0,0.0,0.0,0.0,0.0,0.0,1.8198451e-06,0.0,0.0,nan,0.0,0.0,0.0,0.0,0.0,0.0,0.0,0.0,0.0,0.0,0.0,0.0
254842011,254741598,1.111531,0.0,0.0043773265,0.006481214,0.0,0.0,0.0,0.0,0.0,0.0,0.0,0.0,0.0,0.00045679213,0.0,0.0,nan,0.0,0.0,0.0,0.0,0.0,0.0,0.0,0.0,0.0,0.0,0.0,0.0
255341989,255241646,1.5126783,0.0,0.0061227786,0.09380199,0.0,0.0,0.0,0.0,0.0,0.0,0.0,0.0,0.0,0.0018210707,0.0,0.0,nan,0.0,0.0,0.0,0.0,0.0,0.0,0.0,0.0,0.0,0.0,0.0,0.0
255842157,255741693,1.1505915,0.0,0.0005456395,0.17340529,0.0,0.0,0.0,0.0,0.0,0.0,0.0,0.0,0.0,0.008766213,0.0,0.0,nan,0.0,0.0,0.0,0.0,0.0,0.0,0.0,0.0,0.0,0.0,0.0,0.0
256342085,256241741,0.4136461,0.0,0.0011548161,0.09981829,0.0,0.0,0.0,0.0,0.0,0.0,0.0,0.0,0.0,2.5588174e-06,0.0,0.0,nan,0.0,0.0,0.0,0.0,0.0,0.0,0.0,0.0,0.0,0.0,0.0,0.0
256842152,256741789,0.42250842,0.0,0.004494554,0.059423402,0.0,0.0,0.0,0.0,0.0,0.0,0.0,0.0,0.0,0.0029953606,0.0,0.0,nan,0.0,0.0,0.0,0.0,0.0,0.0,0.0,0.0,0.0,0.0,0.0,0.0
257342195,257241837,0.3915815,0.0,0.0005982594,0.031778723,0.0,0.0,0.0,0.0,0.0,0.0,0.0,0.0,0.0,0.003991591,0.0,0.0,nan,0.0,0.0,0.0,0.0,0.0,0.0,0.0,0.0,0.0,0.0,0.0,0.0
257842301,257741885,0.36219576,0.0,0.004888159,0.021362897,0.0,0.0,0.0,0.0,0.0,0.0,0.0,0.0,0.0,0.0012197568,0.0,0.0,nan,0.0,0.0,0.0,0.0,0.0,0.0,0.0,0.0,0.0,0.0,0.0,0.0
258342322,258241933,0.08908653,0.0,0.005132964,0.014469425,0.0,0.0,0.0,0.0,0.0,0.0,0.0,0.0,0.0,0.00013305372,0.0,0.0,nan,0.0,0.0,0.0,0.0,0.0,0.0,0.0,0.0,0.0,0.0,0.0,0.0
258842369,258741981,0.17708535,0.0,8.323259e-05,0.012231944,0.0,0.0,0.0,0.0,0.0,0.0,0.0,0.0,0.0,3.568808e-05,0.0,0.0,nan,0.0,0.0,0.0,0.0,0.0,0.0,0.0,0.0,0.0,0.0,0.0,0.0
259342350,259242029,0.12810276,0.0,0.0015448825,0.010046034,0.0,0.0,0.0,0.0,0.0,0.0,0.0,0.0,0.0,0.014097862,0.0,0.0,nan,0.0,0.0,0.0,0.0,0.0,0.0,0.0,0.0,0.0,0.0,0.0,0.0
259842488,259742077,0.08794046,0.0,0.000119394426,0.0068965186,0.0,0.0,0.0,0.0,0.0,0.0,0.0,0.0,0.0,0.006169419,0.0,0.0,nan,0.0,0.0,0.0,0.0,0.0,0.0,0.0,0.0,0.0,0.0,0.0,0.0
260342448,260242126,0.034499288,0.0,0.003484524,0.0048970534,0.0,0.0,0.0,0.0,0.0,0.0,0.0,0.0,0.0,6.34712e-05,0.0,0.0,nan,0.0,0.0,0.0,0.0,0.0,0.0,0.0,0.0,0.0,0.0,0.0,0.0
260842625,260742174,0.008347916,0.0,0.0066930465,0.0035780703,0.0,0.0,0.0,0.0,0.0,0.0,0.0,0.0,0.0,0.0013918228,0.0,0.0,nan,0.0,0.0,0.0,0.0,0.0,0.0,0.0,0.0,0.0,0.0,0.0,0.0
261342540,261242222,0.1417982,0.0,8.980951e-07,0.0009655585,0.0,0.0,0.0,0.0,0.0,0.0,0.0,0.0,0.0,0.00018960533,0.0,0.0,nan,0.0,0.0,0.0,0.0,0.0,0.0,0.0,0.0,0.0,0.0,0.0,0.0
261842612,261742271,0.16232851,0.0,0.00073428504,0.00022083617,0.0,0.0,0.0,0.0,0.0,0.0,0.0,0.0,0.0,0.0015861148,0.0,0.0,nan,0.0,0.0,0.0,0.0,0.0,0.0,0.0,0.0,0.0,0.0,0.0,0.0
262342745,262242320,0.11595602,0.0,0.003897384,9.147151e-05,0.0,0.0,0.0,0.0,0.0,0.0,0.0,0.0,0.0,8.9684436e-05,0.0,0.0,nan,0.0,0.0,0.0,0.0,0.0,0.0,0.0,0.0,0.0,0.0,0.0,0.0
262842696,262742368,0.0569184,0.0,0.00033621292,7.2755334e-05,0.0,0.0,0.0,0.0,0.0,0.0,0.0,0.0,0.0,0.0002563094,0.0,0.0,nan,0.0,0.0,0.0,0.0,0.0,0.0,0.0,0.0,0.0,0.0,0.0,0.0
263342813,263242417,0.015238863,0.0,8.064837e-05,0.00013654814,0.0,0.0,0.0,0.0,0.0,0.0,0.0,0.0,0.0,0.00010729049,0.0,0.0,nan,0.0,0.0,0.0,0.0,0.0,0.0,0.0,0.0,0.0,0.0,0.0,0.0
263842806,263742466,0.013342758,0.0,0.0016498996,0.00021541881,0.0,0.0,0.0,0.0,0.0,0.0,0.0,0.0,0.0,2.6201054e-05,0.0,0.0,nan,0.0,0.0,0.0,0.0,0.0,0.0,0.0,0.0,0.0,0.0,0.0,0.0
264342851,264242516,0.25583524,0.0,4.0686493e-05,0.0008213523,0.0,0.0,0.0,0.0,0.0,0.0,0.0,0.0,0.0,0.0022809063,0.0,0.0,nan,0.0,0.0,0.0,0.0,0.0,0.0,0.0,0.0,0.0,0.0,0.0,0.0
264842986,264742564,0.7527072,0.0,0.00018889437,0.002643051,0.0,0.0,0.0,0.0,0.0,0.0,0.0,0.0,0.0,0.0024634008,0.0,0.0,nan,0.0,0.0,0.0,0.0,0.0,0.0,0.0,0.0,0.0,0.0,0.0,0.0
265342937,265242613,1.2870576,0.0,0.0001985607,0.02163671,0.0,0.0,0.0,0.0,0.0,0.0,0.0,0.0,0.0,0.021700835,0.0,0.0,nan,0.0,0.0,0.40257674,0.0,0.0,0.0,0.0,0.0,0.0,0.0,0.0,0.0
265843060,265742662,1.8955083,0.0,0.015385189,0.090628915,0.0,0.0,0.0,0.0,0.0,0.0,0.0,0.0,0.0,0.003243993,0.0,0.0,nan,0.0,0.0,0.19083111,0.0,0.0,0.0,0.0,0.0,0.0,0.0,0.0,0.0
266343036,266242711,2.5737915,0.0,8.8854555e-05,0.2775034,0.0,0.0,0.0,0.0,0.0,0.0,0.0,0.0,0.0,0.00039540316,0.0,0.0,nan,0.0,0.0,0.18321119,0.0,0.0,0.0,0.0,0.0,0.0,0.0,0.0,0.0
266843092,266742761,2.7416213,0.0,0.00013079244,0.41947165,0.0,0.0,0.0,0.0,0.0,0.0,0.0,0.0,0.0,0.034620333,0.0,0.0,nan,0.0,0.0,0.16214159,0.0,0.0,0.0,0.0,0.0,0.0,0.0,0.0,0.0
267343205,267242810,2.589856,0.0,0.0030467904,0.51904905,0.0,0.0,0.0,0.0,0.0,0.0,0.0,0.0,0.0,0.030274188,0.0,0.0,nan,0.0,0.0,0.10441512,0.0,0.0,0.0,0.0,0.0,0.0,0.0,0.0,0.0
267843206,267742859,2.1808379,0.0,0.017273014,0.55558383,0.0,0.0,0.0,0.0,0.0,0.0,0.0,0.0,0.0,0.008526923,0.0,0.0,nan,0.0,0.0,0.11776403,0.0,0.0,0.0,0.0,0.0,0.0,0.0,0.0,0.0
268343317,268242909,1.5223745,0.0,0.015937125,0.45291314,0.0,0.0,0.0,0.0,0.0,0.0,0.0,0.0,0.0,0.022780903,0.0,0.0,nan,0.0,0.0,0.14634973,0.0,0.0,0.0,0.0,0.0,0.0,0.0,0.0,0.0
268843278,268742958,1.0932406,0.0,0.0034154893,0.36938804,0.0,0.0,0.0,0.0,0.0,0.0,0.0,0.0,0.0,0.031709157,0.0,0.0,nan,0.0,0.0,0.15509796,0.0,0.0,0.0,0.0,0.0,0.0,1.4053333e-07,0.0,0.0
269343296,269243008,0.18358164,0.0,0.009664634,0.105599746,0.0,0.0,0.0,0.0,0.0,0.0,0.0,0.0,0.0,0.05039878,0.0,0.0,nan,0.0,0.0,0.0,18.097836,0.0,0.0,0.0,0.0,3.728954e-05,5.3724478e-05,0.0,0.0
269843423,269743062,0.0048461882,0.0,0.0016097517,0.0550505,0.0,0.0,0.0,0.0,0.0,0.0,0.0,0.0,0.0,0.0229655,0.0,0.0,nan,0.0,0.0,0.0,6.0611753,0.0,0.0,0.0,0.0,0.013672257,0.00028587802,0.0,0.0
270343398,270243108,0.3190045,0.0,0.001983106,0.03969692,0.0,0.0,0.0,0.0,0.0,0.0,0.0,0.0,0.0,0.0042491443,0.0,0.0,nan,0.0,0.0,0.0,2.083608,0.0,0.0,0.0,0.0,0.0025619739,0.0013591065,0.0,0.0
270843482,270743157,0.15666305,0.0,0.030662522,0.037409153,0.0,0.0,0.0,0.0,0.0,0.0,0.0,0.0,0.0,9.892212e-05,0.0,0.0,nan,0.0,0.0,0.0,0.19077855,0.0,0.0,0.0,0.0,0.056495763,0.009329063,0.0,0.0
271343531,271243207,0.40865174,0.0,3.321416e-05,0.024269283,0.0,0.0,0.0,0.0,0.0,0.0,0.0,0.0,0.0,0.0077874376,0.0,0.0,nan,0.0,0.0,0.0,0.90936637,0.0,0.0,0.0,0.0,0.08655309,0.0042415666,0.0,0.0
271843604,271743256,0.20848806,0.0,3.3444e-05,0.014614729,0.0,0.0,0.0,0.0,0.0,0.0,0.0,0.0,0.0,0.0024909247,0.0,0.0,nan,0.0,0.0,0.0,1.5199692,0.0,0.0,0.0,0.0,0.0012003462,0.004237169,0.0,0.0
272343595,272243306,0.01652417,0.0,0.014787425,0.0080617685,0.0,0.0,0.0,0.0,0.0,0.0,0.0,0.0,0.0,0.00029120562,0.0,0.0,nan,0.0,0.0,0.0,2.259986,0.0,0.0,0.0,0.0,0.05748906,0.010523394,0.0,0.0
272843709,272743356,0.0800007,0.0,0.00825177,0.004367036,0.0,0.0,0.0,0.0,0.0,0.0,0.0,0.0,0.0,0.00088425813,0.0,0.0,nan,0.0,0.0,0.0,2.0826514,0.0,0.0,0.0,0.0,0.019438041,0.00085740816,0.0,0.0
273343730,273243406,0.14197554,0.0,0.012543807,0.0017049004,0.0,0.0,0.0,0.0,0.0,0.0,0.0,0.0,0.0,0.007239833,0.0,0.0,nan,0.0,0.0,0.0,2.957483,0.0,0.0,0.0,0.0,0.004891816,0.00018693566,0.0,0.0
273843788,273743456,0.16666456,0.0,0.030691454,0.003174321,0.0,0.0,0.0,0.0,0.0,0.0,0.0,0.0,0.0,0.009948678,0.0,0.0,nan,0.0,0.0,0.0,3.2961287,0.0,0.0,0.0,0.0,0.0012439559,0.0011147291,0.0,0.0
274343834,274243506,0.18927592,0.0,0.019479144,0.0023505038,0.0,0.0,0.0,0.0,0.0,0.0,0.0,0.0,0.0,0.022472035,0.0,0.0,nan,0.0,0.0,0.0,3.374795,0.0,0.0,0.0,0.0,0.00027427697,0.0032133723,0.0,0.0
274843933,274743555,0.11802727,0.0,0.013079008,0.0020967603,0.0,0.0,0.0,0.0,0.0,0.0,0.0,0.0,0.0,0.004804053,0.0,0.0,nan,0.0,0.0,0.0,3.6082418,0.0,0.0,0.0,0.0,0.0032112338,0.006107096,0.0,0.0
275343893,275243605,0.111350864,0.0,0.014257835,0.0034668504,0.0,0.0,0.0,0.0,0.0,0.0,0.0,0.0,0.0,0.04363818,0.0,0.0,nan,0.0,0.0,0.0,3.0801077,0.0,0.0,0.0,0.0,0.0072316425,0.009322166,0.0,0.0
275843990,275743655,0.0018246621,0.0,0.0011494545,0.0030346606,0.0,0.0,0.0,0.0,0.0,0.0,0.0,0.0,0.0,4.01801e-05,0.0,0.0,nan,0.0,0.0,0.0,7.913556,0.0,0.0,0.0,0.0,0.08088967,0.0169897,0.0,0.0
276344018,276243704,0.22823949,0.0,0.08011198,0.0009141212,0.0,0.0,0.0,0.0,0.0,0.0,0.0,0.0,0.0,0.00027328276,0.0,0.0,nan,0.0,0.0,0.0,12.042028,0.0,0.0,0.0,0.0,0.13279799,0.011442559,0.0,0.0
276844029,276743753,0.11266601,0.0,0.09494908,0.0006062053,0.0,0.0,0.0,0.0,0.0,0.0,0.0,0.0,0.0,0.0005583778,0.0,0.0,nan,0.0,0.0,0.0,11.207231,0.0,0.0,0.0,0.0,0.8186082,0.0032997958,0.0,0.0
277344206,277243803,0.04769997,0.0,0.0024730253,0.00046970163,0.0,0.0,0.0,0.0,0.0,0.0,0.0,0.0,0.0,0.003988734,0.0,0.0,nan,0.0,0.0,0.0,10.230712,0.0,0.0,0.0,0.0,1.1880776,0.001487504,0.0,0.0
277844175,277743852,0.08866874,0.0,0.00917668,0.0017019839,0.0,0.0,0.0,0.0,0.0,0.0,0.0,0.0,0.0,0.033883274,0.0,0.0,nan,0.0,0.0,0.0,11.203976,0.0,0.0,0.0,0.0,1.9571515,0.0006245053,0.0,0.0
278344392,278243902,0.2097528,0.0,0.07415537,0.0019158234,0.0,0.0,0.0,0.0,0.0,0.0,0.0,0.0,0.0,0.002943961,0.0,0.0,nan,0.0,0.0,0.0,11.264059,0.0,0.0,0.0,0.0,3.6930492,0.0005769648,0.0,0.0
278844472,278743951,0.16349295,0.0,0.07566014,9.821857e-05,0.0,0.0,0.0,0.0,0.0,0.0,0.0,0.0,0.0,0.0037537601,0.0,0.0,nan,0.0,0.0,0.0,10.136537,0.0,0.0,0.0,0.0,6.52049,0.00036923806,0.0,0.0
279344329,279244000,0.102758475,0.0,0.092864215,0.0040032165,0.0,0.0,0.0,0.0,0.0,0.0,0.0,0.0,0.0,0.0022057504,0.0,0.0,nan,0.0,0.0,0.0,8.495774,0.0,0.0,0.0,0.0,6.803614,6.5085245e-05,0.0,0.0
279844365,279744050,0.06687988,0.0,0.15124269,0.0053285663,0.0,0.0,0.0,0.0,0.0,0.0,0.0,0.0,0.0,0.0008263588,0.0,0.0,nan,0.0,0.0,0.0,2.4034674,0.0,0.0,0.0,0.0,8.482295,0.00034059203,0.0,0.0
280344463,280244099,0.22345553,0.0,0.05737097,0.0092576565,0.0,0.0,0.0,0.0,0.0,0.0,0.0,0.0,0.0,5.9347662e-06,0.0,0.0,nan,0.0,0.0,0.0,0.5148092,0.0,0.0,0.0,0.0,7.4252524,0.0043879747,0.0,0.0
280844501,280744148,0.15205625,0.0,0.0027754775,0.009497392,0.0,0.0,0.0,0.0,0.0,0.0,0.0,0.0,0.0,5.3517164e-05,0.0,0.0,nan,0.0,0.0,0.0,0.80219704,0.0,0.0,0.0,0.0,5.9018497,0.0010600659,0.0,0.0
281344528,281244197,0.34610984,0.0,0.026081093,0.0072623426,0.0,0.0,0.0,0.0,0.0,0.0,0.0,0.0,0.0,0.0014128276,0.0,0.0,nan,0.0,0.0,0.0,1.0551493,0.0,0.0,0.0,0.0,4.68357,0.01729941,0.0,0.0
281844566,281744245,0.6758934,0.0,0.02800315,0.0039386284,0.0,0.0,0.0,0.0,0.0,0.0,0.0,0.0,0.0,0.021334928,0.0,0.0,nan,0.0,0.0,0.0,1.3758253,0.0,0.0,0.0,0.0,3.4822402,0.023543555,0.0,0.0
282344716,282244294,0.6911817,0.0,0.010749125,0.0032251435,0.0,0.0,0.0,0.0,0.0,0.0,0.0,0.0,0.0,0.006782646,0.0,0.0,nan,0.0,0.0,0.0,1.8847808,0.0,0.0,0.0,0.0,2.4687862,0.029509304,0.0,0.0
282844634,282744343,0.70461226,0.0,0.034773465,0.0030382185,0.0,0.0,0.0,0.0,0.0,0.0,0.0,0.0,0.0,0.00084775453,0.0,0.0,nan,0.0,0.0,0.0,1.67393,0.0,0.0,0.0,0.0,2.7316036,0.043375492,0.0,0.0
283344758,283244391,0.4418543,0.0,0.007723425,0.0020240007,0.0,0.0,0.0,0.0,0.0,0.0,0.0,0.0,0.0,0.05258816,0.0,0.0,nan,0.0,0.0,0.0,0.9360271,0.0,0.0,0.0,0.0,2.3530557,0.042440914,0.0,0.0
283844755,283744440,0.23518054,0.0,0.00057758094,0.0023342792,0.0,0.0,0.0,0.0,0.0,0.0,0.0,0.0,0.0,0.0022296093,0.0,0.0,nan,0.0,0.0,0.0,0.44977808,0.0,0.0,0.0,0.0,2.3530557,0.04954651,0.0,0.0
284344773,284244488,0.22026893,0.0,0.00016298538,0.0020362737,0.0,0.0,0.0,0.0,0.0,0.0,0.0,0.0,0.0,0.0021239817,0.0,0.0,nan,0.0,0.0,0.0,0.16294828,0.0,0.0,0.0,0.0,2.3530557,0.05854481,0.0,0.0
284844892,284744536,0.18849508,0.0,0.02881801,0.0021548118,0.0,0.0,0.0,0.0,0.0,0.0,0.0,0.0,0.0,0.0029602214,0.0,0.0,nan,0.0,0.0,0.0,0.17123088,0.0,0.0,0.0,0.0,2.3530557,0.055694796,0.0,0.0
285344888,285244584,0.13207111,0.0,0.0021227207,0.0033980804,0.0,0.0,0.0,0.0,0.0,0.0,0.0,0.0,0.0,0.006620861,0.0,0.0,nan,0.0,0.0,0.0,0.1539036,0.0,0.0,0.0,0.0,2.3530557,0.064426444,0.0,0.0
285844957,285744632,0.11062095,0.0,0.003812531,0.0028309047,0.0,0.0,0.0,0.0,0.0,0.0,0.0,0.0,0.0,0.00034063333,0.0,0.0,nan,0.0,0.0,0.0,0.09209143,0.0,0.0,0.0,0.0,2.3530557,0.06244092,0.0,0.0
286345005,286244680,0.04203326,0.0,0.004551159,0.0014847238,0.0,0.0,0.0,0.0,0.0,0.0,0.0,0.0,0.0,0.0010696233,0.0,0.0,nan,0.0,0.0,0.0,0.12937784,0.0,0.0,0.0,0.0,2.3530557,0.06023824,0.0,0.0
286845068,286744728,0.07280482,0.0,0.0017636841,0.0040000463,0.0,0.0,0.0,0.0,0.0,0.0,0.0,0.0,0.0,9.295891e-05,0.0,0.0,nan,0.0,0.0,0.0,0.08628441,0.0,0.0,0.0,0.0,2.3530557,0.04718563,0.0,0.0
287345200,287244775,0.08317617,0.0,0.004456031,0.001538112,0.0,0.0,0.0,0.0,0.0,0.0,0.0,0.0,0.0,8.620993e-05,0.0,0.0,nan,0.0,0.0,0.0,0.039965995,0.0,0.0,0.0,0.0,2.3530557,0.054818876,0.0,0.0
287845153,287744822,0.08932103,0.0,2.0352094e-05,0.00231346,0.0,0.0,0.0,0.0,0.0,0.0,0.0,0.0,0.0,0.00048988767,0.0,0.0,nan,0.0,0.0,0.0,0.16857818,0.0,0.0,0.0,0.0,2.3530557,0.051869456,0.0,0.0
288345160,288244870,0.06618977,0.0,0.00043373526,0.0050901854,0.0,0.0,0.0,0.0,0.0,0.0,0.0,0.0,0.0,0.0016981417,0.0,0.0,nan,0.0,0.0,0.0,0.18246393,0.0,0.0,0.0,0.0,2.3530557,0.046674848,0.0,0.0
288845290,288744917,0.051521648,0.0,0.00042828306,0.0022454043,0.0,0.0,0.0,0.0,0.0,0.0,0.0,0.0,0.0,0.004577143,0.0,0.0,nan,0.0,0.0,3.082243e-05,0.0,0.0,0.0,0.0,0.0,2.3530557,0.049325567,0.0,0.0
289345285,289244964,0.06015542,0.0,0.025158014,0.0061794575,0.0,0.0,0.0,0.0,0.0,0.0,0.0,0.0,0.0,0.005290313,0.0,0.0,nan,0.0,0.0,0.00031220654,0.0,0.0,0.0,0.0,0.0,2.3530557,0.048796624,0.0,0.0
289845299,289745011,0.043619365,0.0,0.012490651,0.0039280164,0.0,0.0,0.0,0.0,0.0,0.0,0.0,0.0,0.0,0.01446261,0.0,0.0,nan,0.0,0.0,0.0001790402,0.0,0.0,0.0,0.0,0.0,2.3530557,0.045826595,0.0,0.0
290345339,290245062,0.04400301,0.0,0.0053872094,0.0049958252,0.0,0.0,0.0,0.0,0.0,0.0,0.0,0.0,0.0,0.0039635412,0.0,0.0,nan,0.0,0.0,0.000102331105,0.0,0.0,0.0,0.0,0.0,2.3530557,0.049231127,0.0,0.0
290845422,290745104,0.01505154,0.0,1.5735919e-05,0.0051768483,0.0,0.0,0.0,0.0,0.0,0.0,0.0,0.0,0.0,0.023552671,0.0,0.0,nan,0.0,0.0,0.0007199649,0.0,0.0,0.0,0.0,0.0,2.3530557,0.06265567,0.0,0.0
291345512,291245151,0.004983864,0.0,0.0053363135,0.0030002221,0.0,0.0,0.0,0.0,0.0,0.0,0.0,0.0,0.0,0.0005887595,0.0,0.0,nan,0.0,0.0,0.00078352075,0.0,0.0,0.0,0.0,0.0,2.3530557,0.06675833,0.0,0.0
291845516,291745197,0.0050256173,0.0,2.3048602e-05,0.0036705509,0.0,0.0,0.0,0.0,0.0,0.0,0.0,0.0,0.0,0.0021157507,0.0,0.0,nan,0.0,0.0,0.00042912012,0.0,0.0,0.0,0.0,0.0,2.3530557,0.08562256,0.0,0.0
292345562,292245244,0.012924859,0.0,7.817458e-05,0.0034783,0.0,0.0,0.0,0.0,0.0,0.0,0.0,0.0,0.0,0.00487392,0.0,0.0,nan,0.0,0.0,0.0017238756,0.0,0.0,0.0,0.0,0.0,2.3530557,0.09403654,0.0,0.0
292845574,292745289,0.005277116,0.0,0.0005548251,0.0064702705,0.0,0.0,0.0,0.0,0.0,0.0,0.0,0.0,0.0,0.005065459,0.0,0.0,nan,0.0,0.0,0.0049300413,0.0,0.0,0.0,0.0,0.0,2.3530557,0.07935571,0.0,0.0
293345648,293245335,0.00065325794,0.0,8.763455e-05,0.0015583817,0.0,0.0,0.0,0.0,0.0,0.0,0.0,0.0,0.0,0.00040269902,0.0,0.0,nan,0.0,0.0,0.004423229,0.0,0.0,0.0,0.0,0.0,2.3530557,0.07332453,0.0,0.0
293845757,293745381,0.011424466,0.0,0.007373313,0.0013243876,0.0,0.0,0.0,0.0,0.0,0.0,0.0,0.0,0.0,2.3903056e-05,0.0,0.0,nan,0.0,0.0,0.007411669,0.0,0.0,0.0,0.0,0.0,2.3530557,0.074848525,0.0,0.0
294345710,294245427,0.00058464205,0.0,0.0024216387,0.0005112443,0.0,0.0,0.0,0.0,0.0,0.0,0.0,0.0,0.0,0.0019351135,0.0,0.0,nan,0.0,0.0,0.007883203,0.0,0.0,0.0,0.0,0.0,2.3530557,0.07627065,0.0,0.0
294845760,294745473,0.0037949174,0.0,0.0014086535,0.00040754903,0.0,0.0,0.0,0.0,0.0,0.0,0.0,0.0,0.0,0.034011178,0.0,0.0,nan,0.0,0.0,0.014164954,0.0,0.0,0.0,0.0,0.0,2.3530557,0.06281867,0.0,0.0
295345897,295245518,0.01684376,0.0,0.0021244811,0.00059898174,0.0,0.0,0.0,0.0,0.0,0.0,0.0,0.0,0.0,0.03710888,0.0,0.0,nan,0.0,0.0,0.015991176,0.0,0.0,0.0,0.0,0.0,2.3530557,0.0743211,0.0,0.0
295845847,295745563,0.009856229,0.0,7.9113444e-05,0.00043171682,0.0,0.0,0.0,0.0,0.0,0.0,0.0,0.0,0.0,0.004308298,0.0,0.0,nan,0.0,0.0,0.013882011,0.0,0.0,0.0,0.0,0.0,2.3530557,0.08029428,0.0,0.0
296345904,296245609,0.022209644,0.0,0.0060931896,0.0005060542,0.0,0.0,0.0,0.0,0.0,0.0,0.0,0.0,0.0,0.0050164987,0.0,0.0,nan,0.0,0.0,0.0145446425,0.0,0.0,0.0,0.0,0.0,2.3530557,0.08190352,0.0,0.0
296846060,296745654,0.027670166,0.0,0.00064960815,0.0003130764,0.0,0.0,0.0,0.0,0.0,0.0,0.0,0.0,0.0,0.00082816853,0.0,0.0,nan,0.0,0.0,0.009594411,0.0,0.0,0.0,0.0,0.0,2.3530557,0.07366135,0.0,0.0
297346025,297245699,0.0055105593,0.0,0.003413903,0.00032833996,0.0,0.0,0.0,0.0,0.0,0.0,0.0,0.0,0.0,3.462916e-05,0.0,0.0,nan,0.0,0.0,0.012958927,0.0,0.0,0.0,0.0,0.0,2.3530557,0.076629035,0.0,0.0
297846097,297745743,0.008002683,0.0,0.008436409,0.00058556267,0.0,0.0,0.0,0.0,0.0,0.0,0.0,0.0,0.0,0.029362187,0.0,0.0,nan,0.0,0.0,0.007597625,0.0,0.0,0.0,0.0,0.0,2.3530557,0.07696549,0.0,0.0
298346105,298245790,0.001968867,0.0,0.0057005347,0.0004205058,0.0,0.0,0.0,0.0,0.0,0.0,0.0,0.0,0.0,7.5153876e-05,0.0,0.0,nan,0.0,0.0,0.01727902,0.0,0.0,0.0,0.0,0.0,2.3530557,0.07685669,0.0,0.0
298846217,298745833,0.0018310897,0.0,8.567843e-05,0.0009275744,0.0,0.0,0.0,0.0,0.0,0.0,0.0,0.0,0.0,0.06254873,0.0,0.0,nan,0.0,0.0,0.017583014,0.0,0.0,0.0,0.0,0.0,2.3530557,0.07234365,0.0,0.0
299346157,299245877,0.0045864405,0.0,0.003092033,0.001206384,0.0,0.0,0.0,0.0,0.0,0.0,0.0,0.0,0.0,8.757783e-05,0.0,0.0,nan,0.0,0.0,0.010680879,0.0,0.0,0.0,0.0,0.0,2.3530557,0.068059005,0.0,0.0
299846349,299745921,0.009443822,0.0,0.005158076,0.003041679,0.0,0.0,0.0,0.0,0.0,0.0,0.0,0.0,0.0,4.7188863e-05,0.0,0.0,nan,0.0,0.0,0.0,0.0,0.0,0.0,0.0,0.0,2.3530557,0.068637624,0.0,0.0
300346341,300245965,0.00087646354,0.0,1.1439819e-06,0.0013368774,0.0,0.0,0.0,0.0,0.0,0.0,0.0,0.0,0.0,1.0397217e-05,0.0,0.0,nan,0.0,0.0,0.0,0.0,0.0,0.0,0.0,0.0,2.3530557,0.08296505,0.0,0.0
300846441,300746010,0.0060149534,0.0,0.005174989,0.0047192727,0.0,0.0,0.0,0.0,0.0,0.0,0.0,0.0,0.0,0.0043309336,0.0,0.0,nan,0.0,0.0,0.0,0.0,0.0,0.0,0.0,0.0,2.3530557,0.09265665,0.0,0.0
301346392,301246053,0.0039144126,0.0,0.0013917667,0.0023186374,0.0,0.0,0.0,0.0,0.0,0.0,0.0,0.0,0.0,0.000113439426,0.0,0.0,nan,0.0,0.0,0.0,0.0,0.0,0.0,0.0,0.0,2.3530557,0.06415368,0.0,0.0
301846424,301746097,0.1679122,0.0,0.00033485575,0.0017111816,0.0,0.0,0.0,0.0,0.0,0.0,0.0,0.0,0.0,0.0074460763,0.0,0.0,nan,0.0,0.0,0.0,0.75624293,0.0,0.0,0.0,0.0,2.3530557,0.030792778,0.0,0.0
302346429,302246141,0.6280477,0.0,0.00034900443,0.011276166,0.0,0.0,0.0,0.0,0.0,0.0,0.0,0.0,0.0,0.002826141,0.0,0.0,nan,0.0,0.0,0.0,2.4111059,0.0,0.0,0.0,0.0,2.3530557,0.051068846,0.0,0.0
302846722,302746184,0.9628766,0.0,0.0006514561,0.02043406,0.0,0.0,0.0,0.0,0.0,0.0,0.0,0.0,0.0,0.00085335143,0.0,0.0,nan,0.0,0.0,0.0,0.4760301,0.0,0.0,0.0,0.0,2.3530557,0.054961648,0.0,0.0
303346515,303246228,0.10664385,0.0,0.01678025,0.0012427871,0.0,0.0,0.0,0.0,0.0,0.0,0.0,0.0,0.0,0.012619847,0.0,0.0,nan,0.0,0.0,0.0,0.090508215,0.0,0.0,0.0,0.0,2.3530557,0.04343154,0.0,0.0
303846572,303746271,0.10582601,0.0,0.004548341,0.0012287607,0.0,0.0,0.0,0.0,0.0,0.0,0.0,0.0,0.0,0.06262703,0.0,0.0,nan,0.0,0.0,0.0,0.20344299,0.0,0.0,0.0,0.0,2.3530557,0.026647756,0.0,0.0
304346654,304246314,0.049450446,0.0,0.030886995,0.0009967372,0.0,0.0,0.0,0.0,0.0,0.0,0.0,0.0,0.0,0.005970804,0.0,0.0,nan,0.0,0.0,0.0,1.3273903,0.0,0.0,0.0,0.0,2.3530557,0.024440503,0.0,0.0
304846664,304746357,0.026920049,0.0,0.0027207406,2.3207604e-05,0.0,0.0,0.0,0.0,0.0,0.0,0.0,0.0,0.0,1.219297e-05,0.0,0.0,nan,0.0,0.0,0.0,0.15249117,0.0,0.0,0.0,0.0,2.3530557,0.017974794,0.0,0.0
305346733,305246400,0.053915016,0.0,0.0020583482,2.0482736e-05,0.0,0.0,0.0,0.0,0.0,0.0,0.0,0.0,0.0,0.057548445,0.0,0.0,nan,0.0,0.0,0.0,2.2016127,0.0,0.0,0.0,0.0,2.3530557,0.011585511,0.0,0.0
305846784,305746443,0.033496823,0.0,0.0064024446,0.00085517834,0.0,0.0,0.0,0.0,0.0,0.0,0.0,0.0,0.0,0.01608925,0.0,0.0,nan,0.0,0.0,0.0,2.3727317,0.0,0.0,0.0,0.0,2.3530557,0.0008365447,0.0,0.0
306346772,306246485,0.23602904,0.0,0.022003619,0.00095873716,0.0,0.0,0.0,0.0,0.0,0.0,0.0,0.0,0.0,0.000896425,0.0,0.0,nan,0.0,0.0,0.0,0.2747079,0.0,0.0,0.0,0.0,2.3530557,5.7959256e-05,0.0,0.0
306847058,306746528,0.1865283,0.0,0.051165584,0.002879112,0.0,0.0,0.0,0.0,0.0,0.0,0.0,0.0,0.0,0.00045088536,0.0,0.0,nan,0.0,0.0,0.0,0.2677417,0.0,0.0,0.0,0.0,2.3530557,0.0012086378,0.0,0.0
307346896,307246570,0.060116436,0.0,0.012378002,0.0026757328,0.0,0.0,0.0,0.0,0.0,0.0,0.0,0.0,0.0,9.3153656e-05,0.0,0.0,nan,0.0,0.0,0.0,0.05579688,0.0,0.0,0.0,0.0,2.3530557,0.014800696,0.0,0.0
307846898,307746612,0.06583657,0.0,0.005660254,0.002122742,0.0,0.0,0.0,0.0,0.0,0.0,0.0,0.0,0.0,0.005782815,0.0,0.0,nan,0.0,0.0,0.0,3.2649863,0.0,0.0,0.0,0.0,2.3530557,0.022132259,0.0,0.0
308346936,308246654,0.12067232,0.0,0.053941768,0.001189334,0.0,0.0,0.0,0.0,0.0,0.0,0.0,0.0,0.0,0.0006760409,0.0,0.0,nan,0.0,0.0,0.0,6.325694,0.0,0.0,0.0,0.0,2.3530557,0.024895355,0.0,0.0
308847092,308746696,0.024174806,0.0,0.06716722,0.0011141179,0.0,0.0,0.0,0.0,0.0,0.0,0.0,0.0,0.0,0.003786063,0.0,0.0,nan,0.0,0.0,0.0,7.7987986,0.0,0.0,0.0,0.0,2.3530557,0.017428027,0.0,0.0
309347062,309246739,0.049305923,0.0,0.0068812156,0.0010061162,0.0,0.0,0.0,0.0,0.0,0.0,0.0,0.0,0.0,0.012679675,0.0,0.0,nan,0.0,0.0,0.0,8.99085,0.0,0.0,0.0,0.0,2.3530557,0.009057634,0.0,0.0
309847068,309746780,0.00081657944,0.0,0.0049544247,0.0009252632,0.0,0.0,0.0,0.0,0.0,0.0,0.0,0.0,0.0,0.002364102,0.0,0.0,nan,0.0,0.0,0.0,8.857799,0.0,0.0,0.0,0.0,2.3530557,0.012809184,0.0,0.0
310347143,310246822,0.015992697,0.0,0.023580039,0.0009433603,0.0,0.0,0.0,0.0,0.0,0.0,0.0,0.0,0.0,0.008053894,0.0,0.0,nan,0.0,0.0,0.0,7.859473,0.0,0.0,0.0,0.0,2.3530557,0.021128153,0.0,0.0
310847200,310746863,0.024552615,0.0,0.02438494,0.0017808911,0.0,0.0,0.0,0.0,0.0,0.0,0.0,0.0,0.0,0.0060060835,0.0,0.0,nan,0.0,0.0,0.0,7.3499293,0.0,0.0,0.0,0.0,2.3530557,0.0387057,0.0,0.0
311347211,311246905,0.020306937,0.0,0.01552071,0.0020869172,0.0,0.0,0.0,0.0,0.0,0.0,0.0,0.0,0.0,0.006738098,0.0,0.0,nan,0.0,0.0,0.0,7.5919914,0.0,0.0,0.0,0.0,2.3530557,0.0533641,0.0,0.0
311847305,311746946,0.012799303,0.0,0.0031214277,0.0019296514,0.0,0.0,0.0,0.0,0.0,0.0,0.0,0.0,0.0,0.0039580152,0.0,0.0,nan,0.0,0.0,0.0,7.03879,0.0,0.0,0.0,0.0,2.3530557,0.047312476,0.0,0.0
312347286,312246987,0.014802477,0.0,0.0008766204,0.0026616708,0.0,0.0,0.0,0.0,0.0,0.0,0.0,0.0,0.0,0.0019509314,0.0,0.0,nan,0.0,0.0,0.0,7.4705467,0.0,0.0,0.0,0.0,2.3530557,0.058732126,0.0,0.0
312847342,312747028,0.023493204,0.0,0.0006983097,0.0018928963,0.0,0.0,0.0,0.0,0.0,0.0,0.0,0.0,0.0,0.0015005177,0.0,0.0,nan,0.0,0.0,0.0,7.7926335,0.0,0.0,0.0,0.0,2.3530557,0.06921409,0.0,0.0
313347393,313247069,0.031830203,0.0,0.027454745,0.001911857,0.0,0.0,0.0,0.0,0.0,0.0,0.0,0.0,0.0,0.0016570578,0.0,0.0,nan,0.0,0.0,0.0,7.600396,0.0,0.0,0.0,0.0,2.3530557,0.0905778,0.0,0.0
313847399,313747110,0.008599004,0.0,0.0034343444,0.0017934352,0.0,0.0,0.0,0.0,0.0,0.0,0.0,0.0,0.0,5.595819e-05,0.0,0.0,nan,0.0,0.0,0.0,8.727502,0.0,0.0,0.0,0.0,2.3530557,0.08696102,0.0,0.0
314347488,314247151,0.022378048,0.0,0.011389739,0.0020198661,0.0,0.0,0.0,0.0,0.0,0.0,0.0,0.0,0.0,0.00025355926,0.0,0.0,nan,0.0,0.0,0.0,8.081298,0.0,0.0,0.0,0.0,2.3530557,0.08700186,0.0,0.0
314847542,314747191,0.01395682,0.0,9.097411e-07,0.0021979753,0.0,0.0,0.0,0.0,0.0,0.0,0.0,0.0,0.0,5.5094333e-05,0.0,0.0,nan,0.0,0.0,0.0,8.067983,0.0,0.0,0.0,0.0,2.3530557,0.07702778,0.0,0.0
315347522,315247232,0.013199838,0.0,6.705292e-07,0.0033379963,0.0,0.0,0.0,0.0,0.0,0.0,0.0,0.0,0.0,8.5559215e-05,0.0,0.0,nan,0.0,0.0,0.0,8.380965,0.0,0.0,0.0,0.0,2.3530557,0.060184706,0.0,0.0
315847602,315747272,0.009952088,0.0,0.00086986285,0.0018965782,0.0,0.0,0.0,0.0,0.0,0.0,0.0,0.0,0.0,0.00013903552,0.0,0.0,nan,0.0,0.0,0.0,8.338034,0.0,0.0,0.0,0.0,2.3530557,0.052144065,0.0,0.0
316347682,316247313,0.026643295,0.0,0.0029853156,0.0012521866,0.0,0.0,0.0,0.0,0.0,0.0,0.0,0.0,0.0,0.0003740103,0.0,0.0,nan,0.0,0.0,0.0,8.39198,0.0,0.0,0.0,0.0,2.3530557,0.0648978,0.0,0.0
316847643,316747353,0.020792821,0.0,0.00072101527,0.0018878386,0.0,0.0,0.0,0.0,0.0,0.0,0.0,0.0,0.0,0.00031176087,0.0,0.0,nan,0.0,0.0,0.4758893,0.0,0.0,0.0,0.0,0.0,2.3530557,0.054333515,0.0,0.0
317347710,317247393,0.0077566877,0.0,0.00035808925,0.0014021775,0.0,0.0,0.0,0.0,0.0,0.0,0.0,0.0,0.0,0.00060919335,0.0,0.0,nan,0.0,0.0,0.41527545,0.0,0.0,0.0,0.0,0.0,2.3530557,0.034540772,0.0,0.0
317847948,317747433,0.026230872,0.0,0.000102789854,0.0019454453,0.0,0.0,0.0,0.0,0.0,0.0,0.0,0.0,0.0,0.0011946225,0.0,0.0,nan,0.0,0.0,0.49440444,0.0,0.0,0.0,0.0,0.0,2.3530557,0.04298995,0.0,0.0
318347807,318247474,0.04526086,0.0,0.0031216573,0.0011780036,0.0,0.0,0.0,0.0,0.0,0.0,0.0,0.0,0.0,0.0014838708,0.0,0.0,nan,0.0,0.0,0.0,6.122086,0.0,0.0,0.0,0.0,2.3530557,0.07523018,0.0,0.0
318848011,318747514,0.029983988,0.0,0.0040542465,0.0017806757,0.0,0.0,0.0,0.0,0.0,0.0,0.0,0.0,0.0,0.0019004327,0.0,0.0,nan,0.0,0.0,0.0,6.4294715,0.0,0.0,0.0,0.0,2.3530557,0.04221261,0.0,0.0
319347877,319247554,0.004435133,0.0,0.0019093887,0.0015093369,0.0,0.0,0.0,0.0,0.0,0.0,0.0,0.0,0.0,0.0031990882,0.0,0.0,nan,0.0,0.0,0.0,5.915627,0.0,0.0,0.0,0.0,2.3530557,0.00046731826,0.0,0.0
319847948,319747594,0.11454417,0.0,0.0011396699,0.0010611713,0.0,0.0,0.0,0.0,0.0,0.0,0.0,0.0,0.0,0.0009202358,0.0,0.0,nan,0.0,0.0,0.0,5.5637546,0.0,0.0,0.0,0.0,2.3530557,4.839854e-06,0.0,0.0
320347920,320247633,0.17763235,0.0,0.00031730416,0.0012002764,0.0,0.0,0.0,0.0,0.0,0.0,0.0,0.0,0.0,0.0015835952,0.0,0.0,nan,0.0,0.0,0.0,2.731369,0.0,0.0,0.0,0.0,2.3530557,0.0064108255,0.0,0.0
320847992,320747675,0.37899315,0.0,0.0034975244,0.00026084328,0.0,0.0,0.0,0.0,0.0,0.0,0.0,0.0,0.0,0.012853516,0.0,0.0,nan,0.0,0.0,0.0,0.18156612,0.0,0.0,0.0,0.0,2.3530557,0.017125588,0.0,0.0
321348112,321247713,0.03724686,0.0,0.0005584961,0.00063795847,0.0,0.0,0.0,0.0,0.0,0.0,0.0,0.0,0.0,0.0011759395,0.0,0.0,nan,0.0,0.0,0.0,0.60349154,0.0,0.0,0.0,0.0,2.3530557,0.048554227,0.0,0.0
321838099,321737752,0.008239169,0.0,0.034537062,0.0006503931,0.0,0.0,0.0,0.0,0.0,0.0,0.0,0.0,0.0,0.0011961466,0.0,0.0,nan,0.0,0.0,0.0,0.3364493,0.0,0.0,0.0,0.0,2.3530557,0.067866795,0.0,0.0
322348203,322247792,0.01719966,0.0,0.013005008,0.0005482778,0.0,0.0,0.0,0.0,0.0,0.0,0.0,0.0,0.0,5.376486e-05,0.0,0.0,nan,0.0,0.0,0.0,0.009533026,0.0,0.0,0.0,0.0,2.3530557,0.033048168,0.0,0.0
322848156,322747832,0.05049252,0.0,0.019125272,0.00082958234,0.0,0.0,0.0,0.0,0.0,0.0,0.0,0.0,0.0,0.012874308,0.0,0.0,nan,0.0,0.0,0.0,0.3691172,0.0,0.0,0.0,0.0,2.3530557,0.013455276,0.0,0.0
323348315,323247871,0.031807035,0.0,0.018809859,0.0008059322,0.0,0.0,0.0,0.0,0.0,0.0,0.0,0.0,0.0,0.009786832,0.0,0.0,nan,0.0,0.0,0.0,0.074759945,0.0,0.0,0.0,0.0,2.3530557,0.0083172405,0.0,0.0
323848369,323747911,0.049656443,0.0,0.002336857,0.00015951364,0.0,0.0,0.0,0.0,0.0,0.0,0.0,0.0,0.0,0.065452605,0.0,0.0,nan,0.0,0.0,0.0,0.02637734,0.0,0.0,0.0,0.0,2.3530557,0.008794949,0.0,0.0
324348274,324247950,0.008652925,0.0,0.007712062,0.000607929,0.0,0.0,0.0,0.0,0.0,0.0,0.0,0.0,0.0,0.016523559,0.0,0.0,nan,0.0,0.0,0.0,0.08067598,0.0,0.0,0.0,0.0,2.3530557,0.018885609,0.0,0.0
324848290,324747990,0.014066024,0.0,0.0007644366,0.00045695077,0.0,0.0,0.0,0.0,0.0,0.0,0.0,0.0,0.0,0.0064229458,0.0,0.0,nan,0.0,0.0,0.0,0.09321959,0.0,0.0,0.0,0.0,2.3530557,0.014141299,0.0,0.0
325338339,325238028,0.0009619696,0.0,0.012409399,0.00061286334,0.0,0.0,0.0,0.0,0.0,0.0,0.0,0.0,0.0,0.04362735,0.0,0.0,nan,0.0,0.0,0.0,0.2915653,0.0,0.0,0.0,0.0,2.3530557,0.0091820145,0.0,0.0
325848367,325748068,0.0036441754,0.0,4.1818066e-06,0.002662746,0.0,0.0,0.0,0.0,0.0,0.0,0.0,0.0,0.0,0.0030303663,0.0,0.0,nan,0.0,0.0,0.0,0.14153297,0.0,0.0,0.0,0.0,2.3530557,0.016361276,0.0,0.0
326348515,326248108,0.0069275247,0.0,0.0029220637,0.0007498993,0.0,0.0,0.0,0.0,0.0,0.0,0.0,0.0,0.0,0.024532689,0.0,0.0,nan,0.0,0.0,0.0,0.09259325,0.0,0.0,0.0,0.0,2.3530557,0.015932746,0.0,0.0
326848470,326748147,0.02110298,0.0,0.000118542324,0.0004996038,0.0,0.0,0.0,0.0,0.0,0.0,0.0,0.0,0.0,0.11363431,0.0,0.0,nan,0.0,0.0,0.0,0.06666129,0.0,0.0,0.0,0.0,2.3530557,0.016676145,0.0,0.0
327348488,327248186,0.005915311,0.0,1.7713402e-05,0.00043855587,0.0,0.0,0.0,0.0,0.0,0.0,0.0,0.0,0.0,0.00026682726,0.0,0.0,nan,0.0,0.0,0.0,0.08155394,0.0,0.0,0.0,0.0,2.3530557,0.020532943,0.0,0.0
327848561,327748225,0.010984278,0.0,0.00012823718,0.00062912994,0.0,0.0,0.0,0.0,0.0,0.0,0.0,0.0,0.0,0.04571543,0.0,0.0,nan,0.0,0.0,0.005954821,0.0,0.0,0.0,0.0,0.0,2.3530557,0.018165583,0.0,0.0
328348613,328248264,0.0022802467,0.0,0.0020653396,0.0025279603,0.0,0.0,0.0,0.0,0.0,0.0,0.0,0.0,0.0,0.0062646847,0.0,0.0,nan,0.0,0.0,0.008304988,0.0,0.0,0.0,0.0,0.0,2.3530557,0.019015985,0.0,0.0
328838591,328738302,0.0014243438,0.0,0.018581105,0.0007407357,0.0,0.0,0.0,0.0,0.0,0.0,0.0,0.0,0.0,0.0022261038,0.0,0.0,nan,0.0,0.0,0.011184481,0.0,0.0,0.0,0.0,0.0,2.3530557,0.012781153,0.0,0.0
329338684,329238341,0.00010568735,0.0,0.003023507,0.0006486187,0.0,0.0,0.0,0.0,0.0,0.0,0.0,0.0,0.0,0.01535774,0.0,0.0,nan,0.0,0.0,0.0059494814,0.0,0.0,0.0,0.0,0.0,2.3530557,0.011671982,0.0,0.0
329848711,329748381,0.0023666464,0.0,0.00033152706,0.00090891734,0.0,0.0,0.0,0.0,0.0,0.0,0.0,0.0,0.0,0.00026614516,0.0,0.0,nan,0.0,0.0,0.0023312848,0.0,0.0,0.0,0.0,0.0,2.3530557,0.013802976,0.0,0.0
330348751,330248420,0.00044481363,0.0,0.0010108117,0.0010333445,0.0,0.0,0.0,0.0,0.0,0.0,0.0,0.0,0.0,0.040012855,0.0,0.0,nan,0.0,0.0,0.00096905004,0.0,0.0,0.0,0.0,0.0,2.3530557,0.011275357,0.0,0.0
330848743,330748459,0.0012339293,0.0,0.0025401649,0.0016681122,0.0,0.0,0.0,0.0,0.0,0.0,0.0,0.0,0.0,0.034696538,0.0,0.0,nan,0.0,0.0,8.667189e-05,0.0,0.0,0.0,0.0,0.0,2.3530557,0.008588151,0.0,0.0
331348847,331248498,0.00096070685,0.0,0.00013796463,0.0008922012,0.0,0.0,0.0,0.0,0.0,0.0,0.0,0.0,0.0,0.028212845,0.0,0.0,nan,0.0,0.0,0.0025244064,0.0,0.0,0.0,0.0,0.0,2.3530557,0.009260176,0.0,0.0
331848837,331748536,0.004430019,0.0,0.0042351405,0.0012596778,0.0,0.0,0.0,0.0,0.0,0.0,0.0,0.0,0.0,0.00024293043,0.0,0.0,nan,0.0,0.0,0.0068922853,0.0,0.0,0.0,0.0,0.0,2.3530557,0.008350516,0.0,0.0
332338856,332238574,0.00078432634,0.0,0.0009787742,0.00083909463,0.0,0.0,0.0,0.0,0.0,0.0,0.0,0.0,0.0,0.005431774,0.0,0.0,nan,0.0,0.0,0.0040826607,0.0,0.0,0.0,0.0,0.0,2.3530557,0.006437578,0.0,0.0
332838951,332738613,0.0032867834,0.0,0.0015182726,0.0011090839,0.0,0.0,0.0,0.0,0.0,0.0,0.0,0.0,0.0,0.026375687,0.0,0.0,nan,0.0,0.0,0.003774,0.0,0.0,0.0,0.0,0.0,2.3530557,0.0041006226,0.0,0.0
333338931,333238652,0.0059990557,0.0,1.1411172e-05,0.0011006668,0.0,0.0,0.0,0.0,0.0,0.0,0.0,0.0,0.0,0.03295856,0.0,0.0,nan,0.0,0.0,0.001199586,0.0,0.0,0.0,0.0,0.0,2.3530557,0.0062768674,0.0,0.0
333848973,333748691,0.00043067962,0.0,0.0013212082,0.0007394496,0.0,0.0,0.0,0.0,0.0,0.0,0.0,0.0,0.0,0.060667984,0.0,0.0,nan,0.0,0.0,0.000202283,0.0,0.0,0.0,0.0,0.0,2.3530557,0.005815526,0.0,0.0
334349047,334248730,0.0022330051,0.0,0.00019341311,0.0010756471,0.0,0.0,0.0,0.0,0.0,0.0,0.0,0.0,0.0,0.005432129,0.0,0.0,nan,0.0,0.0,0.004130254,0.0,0.0,0.0,0.0,0.0,2.3530557,0.0051534106,0.0,0.0
334849113,334748769,0.0032239538,0.0,0.0017999904,0.00084556063,0.0,0.0,0.0,0.0,0.0,0.0,0.0,0.0,0.0,0.0155100515,0.0,0.0,nan,0.0,0.0,0.0,0.0,0.0,0.0,0.0,0.0,2.3530557,0.0054102098,0.0,0.0
335349116,335248807,0.0074034296,0.0,0.004840065,0.001116285,0.0,0.0,0.0,0.0,0.0,0.0,0.0,0.0,0.0,0.011373339,0.0,0.0,nan,0.0,0.0,0.0,0.0,0.0,0.0,0.0,0.0,2.3530557,0.005677861,0.0,0.0
335839167,335738845,0.011484566,0.0,0.008854062,0.00073426176,0.0,0.0,0.0,0.0,0.0,0.0,0.0,0.0,0.0,0.0012286048,0.0,0.0,nan,0.0,0.0,0.0,0.0,0.0,0.0,0.0,0.0,2.3530557,0.0036139973,0.0,0.0
336339160,336238883,0.0008746692,0.0,0.00094191637,0.00067668303,0.0,0.0,0.0,0.0,0.0,0.0,0.0,0.0,0.0,2.6559064e-06,0.0,0.0,nan,0.0,0.0,0.0,0.0,0.0,0.0,0.0,0.0,2.3530557,0.003227578,0.0,0.0
336839228,336738921,0.0134436805,0.0,0.00034003993,0.0018245843,0.0,0.0,0.0,0.0,0.0,0.0,0.0,0.0,0.0,0.005390467,0.0,0.0,nan,0.0,0.0,0.0,0.0,0.0,0.0,0.0,0.0,2.3530557,0.005510861,0.0,0.0
337349332,337248960,0.023747103,0.0,7.336554e-05,0.0011997933,0.0,0.0,0.0,0.0,0.0,0.0,0.0,0.0,0.0,0.021428442,0.0,0.0,nan,0.0,0.0,0.0,5.362542,0.0,0.0,0.0,0.0,2.3530557,0.002729757,0.0,0.0
337849284,337748999,0.057891816,0.0,0.005375949,0.0019327678,0.0,0.0,0.0,0.0,0.0,0.0,0.0,0.0,0.0,0.0002927887,0.0,0.0,nan,0.0,0.0,0.0,8.253343,0.0,0.0,0.0,0.0,2.3530557,0.004398471,0.0,0.0
338349321,338249037,0.04606073,0.0,0.00013909995,0.0016558012,0.0,0.0,0.0,0.0,0.0,0.0,0.0,0.0,0.0,0.059482835,0.0,0.0,nan,0.0,0.0,0.0,7.760317,0.0,0.0,0.0,0.0,2.3530557,0.005387311,0.0,0.0
338849612,338749075,0.018920118,0.0,0.015414495,0.004130116,0.0,0.0,0.0,0.0,0.0,0.0,0.0,0.0,0.0,0.0036061765,0.0,0.0,nan,0.0,0.0,0.0,8.635076,0.0,0.0,0.0,0.0,2.3530557,0.0033474253,0.0,0.0
339339403,339239113,0.019433994,0.0,0.00491886,0.0010981027,0.0,0.0,0.0,0.0,0.0,0.0,0.0,0.0,0.0,0.013092022,0.0,0.0,nan,0.0,0.0,0.0,8.955625,0.0,0.0,0.0,0.0,2.3530557,0.008330675,0.0,0.0
339839510,339739151,0.018450199,0.0,0.0020262294,0.0011720691,0.0,0.0,0.0,0.0,0.0,0.0,0.0,0.0,0.0,0.015685353,0.0,0.0,nan,0.0,0.0,0.0,8.036975,0.0,0.0,0.0,0.0,2.3530557,0.010860229,0.0,0.0
340339479,340239189,0.016938783,0.0,0.007154385,0.0011811128,0.0,0.0,0.0,0.0,0.0,0.0,0.0,0.0,0.0,0.00016666293,0.0,0.0,nan,0.0,0.0,0.0,9.091237,0.0,0.0,0.0,0.0,2.3530557,0.0087353,0.0,0.0
340839518,340739227,0.0025188758,0.0,0.037450902,0.004451619,0.0,0.0,0.0,0.0,0.0,0.0,0.0,0.0,0.0,9.247304e-06,0.0,0.0,nan,0.0,0.0,0.0,8.7323675,0.0,0.0,0.0,0.0,2.3530557,0.009563437,0.0,0.0
341349571,341249266,0.01052911,0.0,0.0006197651,0.0005915111,0.0,0.0,0.0,0.0,0.0,0.0,0.0,0.0,0.0,1.2942853e-06,0.0,0.0,nan,0.0,0.0,0.0,9.214711,0.0,0.0,0.0,0.0,2.3530557,0.004108857,0.0,0.0
341849659,341749304,0.004508644,0.0,0.00013761414,0.0020015058,0.0,0.0,0.0,0.0,0.0,0.0,0.0,0.0,0.0,0.0025146129,0.0,0.0,nan,0.0,0.0,0.0,9.173832,0.0,0.0,0.0,0.0,2.3530557,0.006876651,0.0,0.0
342349694,342249342,0.01471982,0.0,0.00043388337,0.0018048412,0.0,0.0,0.0,0.0,0.0,0.0,0.0,0.0,0.0,0.016204832,0.0,0.0,nan,0.0,0.0,0.0,7.9097013,0.0,0.0,0.0,0.0,2.3530557,0.0052635903,0.0,0.0
342839702,342739379,0.008684121,0.0,0.0020733355,0.0022225177,0.0,0.0,0.0,0.0,0.0,0.0,0.0,0.0,0.0,3.5181973e-05,0.0,0.0,nan,0.0,0.0,0.0,8.084282,0.0,0.0,0.0,0.0,2.3530557,0.00088913314,0.0,0.0
343339706,343239417,0.006886762,0.0,0.0059924247,0.0022341525,0.0,0.0,0.0,0.0,0.0,0.0,0.0,0.0,0.0,0.025199277,0.0,0.0,nan,0.0,0.0,0.0,8.601578,0.0,0.0,0.0,0.0,2.3530557,6.803687e-05,0.0,0.0
343839818,343739455,0.016412575,0.0,0.0018527135,0.0037479738,0.0,0.0,0.0,0.0,0.0,0.0,0.0,0.0,0.0,0.010729812,0.0,0.0,nan,0.0,0.0,0.0,8.935191,0.0,0.0,0.0,0.0,2.3530557,0.0004014742,0.0,0.0
344339844,344239493,0.0037755414,0.0,0.0057033626,0.0061274744,0.0,0.0,0.0,0.0,0.0,0.0,0.0,0.0,0.0,0.00021308628,0.0,0.0,nan,0.0,0.0,0.0,7.9726706,0.0,0.0,0.0,0.0,2.3530557,0.00087640656,0.0,0.0
344849861,344749531,0.0077339783,0.0,0.0046668616,0.005774279,0.0,0.0,0.0,0.0,0.0,0.0,0.0,0.0,0.0,0.016036818,0.0,0.0,nan,0.0,0.0,0.0,8.356663,0.0,0.0,0.0,0.0,2.3530557,0.0016479322,0.0,0.0
345349856,345249572,0.008846047,0.0,0.0048693726,0.006438407,0.0,0.0,0.0,0.0,0.0,0.0,0.0,0.0,0.0,0.007302516,0.0,0.0,nan,0.0,0.0,0.0,7.417979,0.0,0.0,0.0,0.0,2.3530557,0.0030005397,0.0,0.0
345850176,345749607,0.008530892,0.0,0.017379655,0.0061279,0.0,0.0,0.0,0.0,0.0,0.0,0.0,0.0,0.0,3.2932985e-05,0.0,0.0,nan,0.0,0.0,0.0,7.5399733,0.0,0.0,0.0,0.0,2.3530557,0.004341731,0.0,0.0
346339972,346239643,0.01806088,0.0,0.004786823,0.005455197,0.0,0.0,0.0,0.0,0.0,0.0,0.0,0.0,0.0,0.0124118915,0.0,0.0,nan,0.0,0.0,0.0,6.7311187,0.0,0.0,0.0,0.0,2.3530557,0.004534222,0.0,0.0
346840016,346739683,0.05881729,0.0,0.002016986,0.004131677,0.0,0.0,0.0,0.0,0.0,0.0,0.0,0.0,0.0,0.00093351863,0.0,0.0,nan,0.0,0.0,0.0,6.607977,0.0,0.0,0.0,0.0,2.3530557,0.00654496,0.0,0.0
347340006,347239718,0.0021473018,0.0,0.015129534,0.0041284324,0.0,0.0,0.0,0.0,0.0,0.0,0.0,0.0,0.0,0.0036539254,0.0,0.0,nan,0.0,0.0,0.0,5.6933184,0.0,0.0,0.0,0.0,2.3530557,0.00876625,0.0,0.0
347840107,347739756,0.05524573,0.0,0.0069869854,0.006979398,0.0,0.0,0.0,0.0,0.0,0.0,0.0,0.0,0.0,0.00081967853,0.0,0.0,nan,0.0,0.0,0.0,5.8595586,0.0,0.0,0.0,0.0,2.3530557,0.011346732,0.0,0.0
348340127,348239793,0.014433453,0.0,0.0010922328,0.0025237997,0.0,0.0,0.0,0.0,0.0,0.0,0.0,0.0,0.0,0.013345233,0.0,0.0,nan,0.0,0.0,0.0,5.2160463,0.0,0.0,0.0,0.0,2.3530557,0.012266252,0.0,0.0
348850368,348749831,0.034168154,0.0,0.008053517,0.0074270046,0.0,0.0,0.0,0.0,0.0,0.0,0.0,0.0,0.0,0.050115086,0.0,0.0,nan,0.0,0.0,0.0,5.578704,0.0,0.0,0.0,0.0,2.3530557,0.011330673,0.0,0.0
349350209,349249869,0.03253333,0.0,0.002516224,0.00676578,0.0,0.0,0.0,0.0,0.0,0.0,0.0,0.0,0.0,0.026104325,0.0,0.0,nan,0.0,0.0,0.0,5.304008,0.0,0.0,0.0,0.0,2.3530557,0.010012105,0.0,0.0
349840212,349739905,0.010791455,0.0,0.00030481923,0.0010805216,0.0,0.0,0.0,0.0,0.0,0.0,0.0,0.0,0.0,0.043403476,0.0,0.0,nan,0.0,0.0,0.0,4.4404635,0.0,0.0,0.0,0.0,2.3530557,0.010521405,0.0,0.0
350340224,350239942,0.05057037,0.0,0.008542121,0.0027889342,0.0,0.0,0.0,0.0,0.0,0.0,0.0,0.0,0.0,0.0041856454,0.0,0.0,nan,0.0,0.0,0.0,3.014597,0.0,0.0,0.0,0.0,2.3530557,0.008924763,0.0,0.0
350840279,350739980,0.019017525,0.0,0.014114622,0.0002650286,0.0,0.0,0.0,0.0,0.0,0.0,0.0,0.0,0.0,0.016266547,0.0,0.0,nan,0.0,0.0,0.0,3.039184,0.0,0.0,0.0,0.0,2.3530557,0.010106308,0.0,0.0
351340381,351240017,0.040323906,0.0,0.019359699,0.00029429374,0.0,0.0,0.0,0.0,0.0,0.0,0.0,0.0,0.0,0.06417854,0.0,0.0,nan,0.0,0.0,0.0,3.1943884,0.0,0.0,0.0,0.0,2.3530557,0.008690744,0.0,0.0
351840346,351740054,0.0080806445,0.0,0.0041573765,0.0050708707,0.0,0.0,0.0,0.0,0.0,0.0,0.0,0.0,0.0,0.002401065,0.0,0.0,nan,0.0,0.0,0.0,3.1184342,0.0,0.0,0.0,0.0,2.3530557,0.009044419,0.0,0.0
352350428,352250091,0.008672279,0.0,0.013176401,0.0012983016,0.0,0.0,0.0,0.0,0.0,0.0,0.0,0.0,0.0,0.0035500943,0.0,0.0,nan,0.0,0.0,0.0,3.3692594,0.0,0.0,0.0,0.0,2.3530557,0.008002499,0.0,0.0
352850489,352750128,0.0035504291,0.0,0.00044401185,0.0006220605,0.0,0.0,0.0,0.0,0.0,0.0,0.0,0.0,0.0,0.033666763,0.0,0.0,nan,0.0,0.0,0.0,3.2071142,0.0,0.0,0.0,0.0,2.3530557,0.0060492717,0.0,0.0
353340450,353240165,0.0018834153,0.0,3.6397432e-05,0.0015160737,0.0,0.0,0.0,0.0,0.0,0.0,0.0,0.0,0.0,0.01859327,0.0,0.0,nan,0.0,0.0,0.0,3.4925659,0.0,0.0,0.0,0.0,2.3530557,0.0043874825,0.0,0.0
353840756,353740201,0.005275528,0.0,0.0007142928,0.005789974,0.0,0.0,0.0,0.0,0.0,0.0,0.0,0.0,0.0,0.018859548,0.0,0.0,nan,0.0,0.0,0.0,3.529691,0.0,0.0,0.0,0.0,2.3530557,0.0038648858,0.0,0.0
354340521,354240238,0.0016534709,0.0,0.00060853595,0.0042622443,0.0,0.0,0.0,0.0,0.0,0.0,0.0,0.0,0.0,0.0071705645,0.0,0.0,nan,0.0,0.0,0.0,3.4386525,0.0,0.0,0.0,0.0,2.3530557,0.0021457456,0.0,0.0
354840734,354740275,0.0027402136,0.0,0.0034942476,0.0038870247,0.0,0.0,0.0,0.0,0.0,0.0,0.0,0.0,0.0,0.012537267,0.0,0.0,nan,0.0,0.0,0.0,3.3867953,0.0,0.0,0.0,0.0,2.3530557,0.0010277738,0.0,0.0
355340593,355240312,0.012296427,0.0,0.006275585,0.0021963448,0.0,0.0,0.0,0.0,0.0,0.0,0.0,0.0,0.0,2.1059411e-06,0.0,0.0,nan,0.0,0.0,0.0,3.119394,0.0,0.0,0.0,0.0,2.3530557,0.0007350261,0.0,0.0
355840670,355740348,0.006544459,0.0,0.00042428978,0.0025269412,0.0,0.0,0.0,0.0,0.0,0.0,0.0,0.0,0.0,0.007398333,0.0,0.0,nan,0.0,0.0,0.0,3.150547,0.0,0.0,0.0,0.0,2.3530557,0.00018367486,0.0,0.0
356350675,356250385,0.00060882786,0.0,0.0033988252,0.0027411124,0.0,0.0,0.0,0.0,0.0,0.0,0.0,0.0,0.0,9.9892364e-05,0.0,0.0,nan,0.0,0.0,0.0,3.0205834,0.0,0.0,0.0,0.0,2.3530557,0.00019619113,0.0,0.0
356840957,356740421,0.00332562,0.0,0.00461064,0.008497951,0.0,0.0,0.0,0.0,0.0,0.0,0.0,0.0,0.0,0.008673132,0.0,0.0,nan,0.0,0.0,0.0,2.955161,0.0,0.0,0.0,0.0,2.3530557,3.227126e-05,0.0,0.0
357340749,357240457,0.0050901365,0.0,0.013804782,0.003431284,0.0,0.0,0.0,0.0,0.0,0.0,0.0,0.0,0.0,0.004921339,0.0,0.0,nan,0.0,0.0,0.0,2.3380718,0.0,0.0,0.0,0.0,2.3530557,4.4768745e-05,0.0,0.0
357840859,357740494,0.008804916,0.0,0.00081974413,0.004209431,0.0,0.0,0.0,0.0,0.0,0.0,0.0,0.0,0.0,0.007197889,0.0,0.0,nan,0.0,0.0,0.0,2.0031319,0.0,0.0,0.0,0.0,2.3530557,0.0003089081,0.0,0.0
358340825,358240530,0.005372212,0.0,0.00034337497,0.0053814403,0.0,0.0,0.0,0.0,0.0,0.0,0.0,0.0,0.0,0.017720263,0.0,0.0,nan,0.0,0.0,0.0,1.7663012,0.0,0.0,0.0,0.0,2.3530557,0.0024531004,0.0,0.0
358840864,358740566,0.005103134,0.0,0.002898684,0.008550314,0.0,0.0,0.0,0.0,0.0,0.0,0.0,0.0,0.0,0.053532027,0.0,0.0,nan,0.0,0.0,0.0,1.5021435,0.0,0.0,0.0,0.0,2.3530557,0.005819657,0.0,0.0
359340891,359240603,0.028965881,0.0,0.016474506,0.009677597,0.0,0.0,0.0,0.0,0.0,0.0,0.0,0.0,0.0,0.00039695465,0.0,0.0,nan,0.0,0.0,0.0,1.4820421,0.0,0.0,0.0,0.0,2.3530557,0.009995107,0.0,0.0
359850986,359750640,0.008219767,0.0,0.0027524198,0.009827096,0.0,0.0,0.0,0.0,0.0,0.0,0.0,0.0,0.0,0.0077411365,0.0,0.0,nan,0.0,0.0,0.0,1.0042847,0.0,0.0,0.0,0.0,2.3530557,0.018268714,0.0,0.0
360341008,360240675,0.0018500967,0.0,0.036532108,0.004060965,0.0,0.0,0.0,0.0,0.0,0.0,0.0,0.0,0.0,0.038318075,0.0,0.0,nan,0.0,0.0,0.0,0.71552473,0.0,0.0,0.0,0.0,2.3530557,0.017242743,0.0,0.0
360840991,360740711,0.0015765142,0.0,0.00027547247,0.005296645,0.0,0.0,0.0,0.0,0.0,0.0,0.0,0.0,0.0,0.004244643,0.0,0.0,nan,0.0,0.0,0.0,0.16332465,0.0,0.0,0.0,0.0,2.3530557,0.029566536,0.0,0.0
361341032,361240747,0.001585642,0.0,2.6994716e-05,0.0150647,0.0,0.0,0.0,0.0,0.0,0.0,0.0,0.0,0.0,0.03808375,0.0,0.0,nan,0.0,0.0,0.0,0.1427549,0.0,0.0,0.0,0.0,2.3530557,0.02738758,0.0,0.0
361841254,361740783,0.0053791087,0.0,0.00011415855,0.014358397,0.0,0.0,0.0,0.0,0.0,0.0,0.0,0.0,0.0,0.008141066,0.0,0.0,nan,0.0,0.0,0.0,0.8252417,0.0,0.0,0.0,0.0,2.3530557,0.034932975,0.0,0.0
362341150,362240819,0.0140348775,0.0,0.009020534,0.010385571,0.0,0.0,0.0,0.0,0.0,0.0,0.0,0.0,0.0,0.075028144,0.0,0.0,nan,0.0,0.0,0.0,0.13148965,0.0,0.0,0.0,0.0,2.3530557,0.04271823,0.0,0.0
362841187,362740855,0.009116304,0.0,0.041278295,0.008345644,0.0,0.0,0.0,0.0,0.0,0.0,0.0,0.0,0.0,0.06894934,0.0,0.0,nan,0.0,0.0,0.0,0.021270795,0.0,0.0,0.0,0.0,2.3530557,0.027300684,0.0,0.0
363341312,363240890,0.0016731204,0.0,0.00014989961,0.0025008428,0.0,0.0,0.0,0.0,0.0,0.0,0.0,0.0,0.0,0.0034535516,0.0,0.0,nan,0.0,0.0,0.0,0.06860005,0.0,0.0,0.0,0.0,2.3530557,0.021949263,0.0,0.0
363841219,363740926,0.019006312,0.0,0.011149135,0.0017536759,0.0,0.0,0.0,0.0,0.0,0.0,0.0,0.0,0.0,0.077331185,0.0,0.0,nan,0.0,0.0,0.0,0.10441179,0.0,0.0,0.0,0.0,2.3530557,0.035720773,0.0,0.0
364341248,364240962,0.005347457,0.0,0.00430049,0.00093360926,0.0,0.0,0.0,0.0,0.0,0.0,0.0,0.0,0.0,0.0011331312,0.0,0.0,nan,0.0,0.0,0.0,0.12288503,0.0,0.0,0.0,0.0,2.3530557,0.03028549,0.0,0.0
364841318,364740997,0.0027833732,0.0,0.0013143341,0.00087739754,0.0,0.0,0.0,0.0,0.0,0.0,0.0,0.0,0.0,0.0013736788,0.0,0.0,nan,0.0,0.0,0.0,0.1771969,0.0,0.0,0.0,0.0,2.3530557,0.022824917,0.0,0.0
365341326,365241033,0.010801071,0.0,0.015091256,0.00086215255,0.0,0.0,0.0,0.0,0.0,0.0,0.0,0.0,0.0,0.05414171,0.0,0.0,nan,0.0,0.0,0.0,0.14873616,0.0,0.0,0.0,0.0,2.3530557,0.014512736,0.0,0.0
365841527,365741068,0.02879213,0.0,0.013066138,0.00024375145,0.0,0.0,0.0,0.0,0.0,0.0,0.0,0.0,0.0,0.00019288804,0.0,0.0,nan,0.0,0.0,0.0,0.14875454,0.0,0.0,0.0,0.0,2.3530557,0.00694354,0.0,0.0
366341388,366241104,0.00048361934,0.0,0.008099731,7.527535e-07,0.0,0.0,0.0,0.0,0.0,0.0,0.0,0.0,0.0,0.044110347,0.0,0.0,nan,0.0,0.0,0.0,0.1701778,0.0,0.0,0.0,0.0,2.3530557,0.004026304,0.0,0.0
366841428,366741139,0.00068322604,0.0,0.00026386348,9.871802e-05,0.0,0.0,0.0,0.0,0.0,0.0,0.0,0.0,0.0,0.007660645,0.0,0.0,nan,0.0,0.0,0.0,0.08245384,0.0,0.0,0.0,0.0,2.3530557,0.0026885145,0.0,0.0
367341515,367241174,0.014319997,0.0,0.00044842035,0.0014320986,0.0,0.0,0.0,0.0,0.0,0.0,0.0,0.0,0.0,4.6098525e-05,0.0,0.0,nan,0.0,0.0,0.0,0.66483074,0.0,0.0,0.0,0.0,2.3530557,0.001059029,0.0,0.0
367841500,367741210,0.00038569816,0.0,1.0884986e-05,0.0032734424,0.0,0.0,0.0,0.0,0.0,0.0,0.0,0.0,0.0,0.009677827,0.0,0.0,nan,0.0,0.0,0.0,0.46091223,0.0,0.0,0.0,0.0,2.3530557,7.1120296e-05,0.0,0.0
368341608,368241245,0.001059643,0.0,0.00042398268,0.0037215839,0.0,0.0,0.0,0.0,0.0,0.0,0.0,0.0,0.0,0.00038534863,0.0,0.0,nan,0.0,0.0,0.0,0.505191,0.0,0.0,0.0,0.0,2.3530557,0.00030067778,0.0,0.0
368841563,368741280,0.004883756,0.0,0.010507608,0.005050444,0.0,0.0,0.0,0.0,0.0,0.0,0.0,0.0,0.0,0.016814172,0.0,0.0,nan,0.0,0.0,0.0,0.054684587,0.0,0.0,0.0,0.0,2.3530557,0.0019095896,0.0,0.0
369341736,369241315,0.00038162002,0.0,0.004220609,0.002776931,0.0,0.0,0.0,0.0,0.0,0.0,0.0,0.0,0.0,0.00027103673,0.0,0.0,nan,0.0,0.0,0.0,0.07705449,0.0,0.0,0.0,0.0,2.3530557,0.0002470519,0.0,0.0
369841780,369741350,0.0048249303,0.0,0.0022713381,0.0030614743,0.0,0.0,0.0,0.0,0.0,0.0,0.0,0.0,0.0,0.041464616,0.0,0.0,nan,0.0,0.0,0.0,0.154919,0.0,0.0,0.0,0.0,2.3530557,0.00028888692,0.0,0.0
370341746,370241385,0.005197509,0.0,7.25571e-05,0.0036434894,0.0,0.0,0.0,0.0,0.0,0.0,0.0,0.0,0.0,0.0013147146,0.0,0.0,nan,0.0,0.0,0.0,0.23487663,0.0,0.0,0.0,0.0,2.3530557,0.0031794521,0.0,0.0
370841735,370741420,0.0040993476,0.0,0.004988081,0.0058235675,0.0,0.0,0.0,0.0,0.0,0.0,0.0,0.0,0.0,4.616351e-05,0.0,0.0,nan,0.0,0.0,0.0,0.09153369,0.0,0.0,0.0,0.0,2.3530557,0.0041705905,0.0,0.0
371341838,371241458,0.009480497,0.0,0.0006372848,0.0047308034,0.0,0.0,0.0,0.0,0.0,0.0,0.0,0.0,0.0,0.07499257,0.0,0.0,nan,0.0,0.0,0.0,0.06398986,0.0,0.0,0.0,0.0,2.3530557,0.0040125083,0.0,0.0
371841777,371741490,0.016129203,0.0,0.01901986,0.0036549915,0.0,0.0,0.0,0.0,0.0,0.0,0.0,0.0,0.0,7.343014e-05,0.0,0.0,nan,0.0,0.0,0.0,0.16163296,0.0,0.0,0.0,0.0,2.3530557,0.0049194493,0.0,0.0
372341902,372241525,0.011529889,0.0,0.0032440799,0.0036467228,0.0,0.0,0.0,0.0,0.0,0.0,0.0,0.0,0.0,0.03709565,0.0,0.0,nan,0.0,0.0,0.0,0.08852595,0.0,0.0,0.0,0.0,2.3530557,0.0064796675,0.0,0.0
372841844,372741559,0.015442081,0.0,0.0021758196,0.0042679724,0.0,0.0,0.0,0.0,0.0,0.0,0.0,0.0,0.0,0.06932797,0.0,0.0,nan,0.0,0.0,0.0,0.15282878,0.0,0.0,0.0,0.0,2.3530557,0.0106896255,0.0,0.0
373344455,373241594,0.008846472,0.0,0.0021118764,0.004961226,0.0,0.0,0.0,0.0,0.0,0.0,0.0,0.0,0.0,0.002092541,0.0,0.0,nan,0.0,0.0,0.0,0.1363232,0.0,0.0,0.0,0.0,2.3530557,0.014586454,0.0,0.0
373842053,373741629,0.0037358627,0.0,0.0019094468,0.0060026827,0.0,0.0,0.0,0.0,0.0,0.0,0.0,0.0,0.0,0.025150703,0.0,0.0,nan,0.0,0.0,0.0,0.33090788,0.0,0.0,0.0,0.0,2.3530557,0.012707586,0.0,0.0
374342078,374241663,0.004263388,0.0,0.0009846109,0.006870637,0.0,0.0,0.0,0.0,0.0,0.0,0.0,0.0,0.0,0.05823429,0.0,0.0,nan,0.0,0.0,0.0,0.1572144,0.0,0.0,0.0,0.0,2.3530557,0.013091282,0.0,0.0
374842021,374741698,0.012785673,0.0,3.268322e-05,0.0072241942,0.0,0.0,0.0,0.0,0.0,0.0,0.0,0.0,0.0,9.5250296e-05,0.0,0.0,nan,0.0,0.0,0.0,0.19001877,0.0,0.0,0.0,0.0,2.3530557,0.013748507,0.0,0.0
375342214,375241732,0.032253414,0.0,0.0004857451,0.0027408581,0.0,0.0,0.0,0.0,0.0,0.0,0.0,0.0,0.0,0.07167542,0.0,0.0,nan,0.0,0.0,0.0,0.09245823,0.0,0.0,0.0,0.0,2.3530557,0.0131003,0.0,0.0
375842051,375741767,0.017370995,0.0,0.003933652,0.002864195,0.0,0.0,0.0,0.0,0.0,0.0,0.0,0.0,0.0,0.0027321442,0.0,0.0,nan,0.0,0.0,0.0,0.23620662,0.0,0.0,0.0,0.0,2.3530557,0.012211554,0.0,0.0
376342088,376241801,0.008037504,0.0,0.004493585,0.0031847851,0.0,0.0,0.0,0.0,0.0,0.0,0.0,0.0,0.0,0.075803004,0.0,0.0,nan,0.0,0.0,0.0,0.14139286,0.0,0.0,0.0,0.0,2.3530557,0.010741938,0.0,0.0
376842119,376741835,0.0047176853,0.0,0.0012443461,0.0024730803,0.0,0.0,0.0,0.0,0.0,0.0,0.0,0.0,0.0,0.006142279,0.0,0.0,nan,0.0,0.0,0.0,0.11436357,0.0,0.0,0.0,0.0,2.3530557,0.009169612,0.0,0.0
