timestamp,timestamp_sample,gps_hvel[0],gps_hvel[1],gps_vvel,gps_hpos[0],gps_hpos[1],gps_vpos,ev_hvel[0],ev_hvel[1],ev_vvel,ev_hpos[0],ev_hpos[1],ev_vpos,rng_vpos,baro_vpos,aux_hvel[0],aux_hvel[1],aux_vvel,flow[0],flow[1],heading,mag_field[0],mag_field[1],mag_field[2],drag[0],drag[1],airspeed,beta,hagl,hagl_rate
217777415,217678174,-0.012706403,0.0018970711,0.02045865,0.0022735596,-0.039411902,0.0,0.0,0.0,0.0,0.0,0.0,0.0,0.0,0.37823486,0.0,0.0,nan,0.0,0.0,-0.056589246,0.0,0.0,0.0,0.0,0.0,0.0,0.0,0.0,0.0
218281370,218181945,-0.009677842,0.009277472,-0.044596042,0.011484146,-0.04186189,0.0,0.0,0.0,0.0,0.0,0.0,0.0,0.0,0.2937765,0.0,0.0,nan,0.0,0.0,-0.049808025,0.0,0.0,0.0,0.0,0.0,0.0,0.0,0.0,0.0
218775101,218675837,0.0033843443,0.0033299325,-0.05823396,0.003455162,-0.040277064,0.0,0.0,0.0,0.0,0.0,0.0,0.0,0.0,0.197299,0.0,0.0,nan,0.0,0.0,-0.03300357,0.0,0.0,0.0,0.0,0.0,0.0,0.0,0.0,0.0
219279342,219179608,0.015454255,0.029791243,-0.037853003,-0.00901413,-0.035707653,0.0,0.0,0.0,0.0,0.0,0.0,0.0,0.0,0.33040714,0.0,0.0,nan,0.0,0.0,-0.05309069,0.0,0.0,0.0,0.0,0.0,0.0,0.0,0.0,0.0
219782654,219683379,0.026175462,0.07634882,-0.06889321,-0.01832962,-0.029088855,0.0,0.0,0.0,0.0,0.0,0.0,0.0,0.0,0.6267481,0.0,0.0,nan,0.0,0.0,-0.01759398,0.0,0.0,0.0,0.0,0.0,0.0,0.0,0.0,0.0
220276636,220177273,0.056277893,0.020333195,-0.0039293617,-0.024195671,-0.03018558,0.0,0.0,0.0,0.0,0.0,0.0,0.0,0.0,0.07009697,0.0,0.0,nan,0.0,0.0,-0.042156816,0.0,0.0,0.0,0.0,0.0,0.0,0.0,0.0,0.0
220780257,220681044,0.034982923,-0.021713614,0.004531704,-0.028074265,-0.03344357,0.0,0.0,0.0,0.0,0.0,0.0,0.0,0.0,-0.0,0.0,0.0,nan,0.0,0.0,0.021024466,0.0,0.0,0.0,0.0,0.0,0.0,0.0,0.0,0.0
221274310,221174938,0.005649654,-0.023689805,0.037959434,-0.021912575,-0.04063505,0.0,0.0,0.0,0.0,0.0,0.0,0.0,0.0,0.28792667,0.0,0.0,nan,0.0,0.0,0.03316462,0.0,0.0,0.0,0.0,0.0,0.0,0.0,0.0,0.0
221777989,221678709,0.007727515,-0.021576636,-0.012360463,-0.026810646,-0.04250568,0.0,0.0,0.0,0.0,0.0,0.0,0.0,0.0,0.36176395,0.0,0.0,nan,0.0,0.0,0.04620409,0.0,0.0,0.0,0.0,0.0,0.0,0.0,0.0,0.0
222281761,222182481,0.05867368,0.009581571,-0.026445933,-0.020671844,-0.032667577,0.0,0.0,0.0,0.0,0.0,0.0,0.0,0.0,0.26852798,0.0,0.0,nan,0.0,0.0,0.057421803,0.0,0.0,0.0,0.0,0.0,0.0,0.0,0.0,0.0
222775589,222676375,0.02077384,-0.0271456,-0.05773791,-0.037846565,-0.031618834,0.0,0.0,0.0,0.0,0.0,0.0,0.0,0.0,0.52139187,0.0,0.0,nan,0.0,0.0,0.08326864,0.0,0.0,0.0,0.0,0.0,0.0,0.0,0.0,0.0
223279779,223180147,0.06760804,0.029667512,-0.03693498,-0.038484573,-0.02337575,0.0,0.0,0.0,0.0,0.0,0.0,0.0,0.0,0.71168995,0.0,0.0,nan,0.0,0.0,0.12129176,0.0,0.0,0.0,0.0,0.0,0.0,0.0,0.0,0.0
223773254,223674042,-0.06701799,0.004103303,-0.14285417,-0.042523384,-0.03449756,0.0,0.0,0.0,0.0,0.0,0.0,0.0,0.0,0.4645319,0.0,0.0,nan,0.0,0.0,0.11640227,0.0,0.0,0.0,0.0,0.0,0.0,0.0,0.0,0.0
224277081,224177814,0.05477511,0.00037036836,-0.05217272,-0.0392704,-0.03792721,0.0,0.0,0.0,0.0,0.0,0.0,0.0,0.0,-0.0,0.0,0.0,nan,0.0,0.0,0.12838328,0.0,0.0,0.0,0.0,0.0,0.0,0.0,0.0,0.0
224780855,224681587,0.13022321,0.095836714,0.05759296,-0.022542953,-0.03878683,0.0,0.0,0.0,0.0,0.0,0.0,0.0,0.0,0.2643013,0.0,0.0,nan,0.0,0.0,0.131006,0.0,0.0,0.0,0.0,0.0,0.0,0.0,0.0,0.0
225274737,225175482,0.046725497,0.029861443,-0.05512333,-0.034431458,-0.04027778,0.0,0.0,0.0,0.0,0.0,0.0,0.0,0.0,0.29202557,0.0,0.0,nan,0.0,0.0,0.12789679,0.0,0.0,0.0,0.0,0.0,0.0,0.0,0.0,0.0
225778467,225679255,-0.01706241,0.07541608,-0.027506351,-0.039388657,-0.039508224,0.0,0.0,0.0,0.0,0.0,0.0,0.0,0.0,0.24125671,0.0,0.0,nan,0.0,0.0,0.122611284,0.0,0.0,0.0,0.0,0.0,0.0,0.0,0.0,0.0
226282348,226183027,0.05482638,-0.05281666,-0.017901897,-0.028747559,-0.04661864,0.0,0.0,0.0,0.0,0.0,0.0,0.0,0.0,-0.0,0.0,0.0,nan,0.0,0.0,0.00239861,0.0,0.0,0.0,0.0,0.0,0.0,0.0,0.0,0.0
226776177,226676923,0.0730336,-0.024070382,-0.033881962,-0.03614998,-0.030599117,0.0,0.0,0.0,0.0,0.0,0.0,0.0,0.0,-0.0,0.0,0.0,nan,0.0,0.0,-0.001870513,0.0,0.0,0.0,0.0,0.0,0.0,0.0,0.0,0.0
227279988,227180696,0.12158382,0.03277296,0.017499268,-0.023784637,-0.032230496,0.0,0.0,0.0,0.0,0.0,0.0,0.0,0.0,-0.0,0.0,0.0,nan,0.0,0.0,-0.007389903,0.0,0.0,0.0,0.0,0.0,0.0,0.0,0.0,0.0
227773823,227674591,-0.0069847554,-0.05159834,-0.05032575,-0.037791252,-0.025126278,0.0,0.0,0.0,0.0,0.0,0.0,0.0,0.0,-0.0,0.0,0.0,nan,0.0,0.0,-0.0023514032,0.0,0.0,0.0,0.0,0.0,0.0,0.0,0.0,0.0
228277588,228178365,0.0017513484,-0.18102495,-0.015387297,-0.04975891,-0.06343138,0.0,0.0,0.0,0.0,0.0,0.0,0.0,0.0,-0.0,0.0,0.0,nan,0.0,0.0,-0.010283351,0.0,0.0,0.0,0.0,0.0,0.0,0.0,0.0,0.0
228781380,228682139,0.058238596,0.08958562,0.04012537,-0.045277596,-0.037365377,0.0,0.0,0.0,0.0,0.0,0.0,0.0,0.0,0.9689512,0.0,0.0,nan,0.0,0.0,-0.015510082,0.0,0.0,0.0,0.0,0.0,0.0,0.0,0.0,0.0
229275308,229176035,-0.0050388724,-0.036918025,0.10545039,-0.06503487,-0.048755825,0.0,0.0,0.0,0.0,0.0,0.0,0.0,0.0,-0.0,0.0,0.0,nan,0.0,0.0,-0.005130172,0.0,0.0,0.0,0.0,0.0,0.0,0.0,0.0,0.0
229779074,229679809,0.023812242,0.117349885,0.006401658,-0.0634222,-0.015943766,0.0,0.0,0.0,0.0,0.0,0.0,0.0,0.0,-0.0,0.0,0.0,nan,0.0,0.0,-0.014415622,0.0,0.0,0.0,0.0,0.0,0.0,0.0,0.0,0.0
230282851,230183583,-0.04901503,0.1509172,-0.025812685,-0.08276653,-0.0053589344,0.0,0.0,0.0,0.0,0.0,0.0,0.0,0.0,-0.0,0.0,0.0,nan,0.0,0.0,0.0016475916,0.0,0.0,0.0,0.0,0.0,0.0,0.0,0.0,0.0
230776792,230677479,-0.07685338,-0.08584963,-0.070474684,-0.081495285,-0.025381505,0.0,0.0,0.0,0.0,0.0,0.0,0.0,0.0,0.59233856,0.0,0.0,nan,0.0,0.0,0.00010073185,0.0,0.0,0.0,0.0,0.0,0.0,0.0,0.0,0.0
231280485,231181254,0.14832702,0.018922053,0.075588465,-0.06585598,-0.024680734,0.0,0.0,0.0,0.0,0.0,0.0,0.0,0.0,-0.0,0.0,0.0,nan,0.0,0.0,0.0034644604,0.0,0.0,0.0,0.0,0.0,0.0,0.0,0.0,0.0
231774419,231675150,-0.088261686,0.036208674,-0.033825994,-0.07811737,-0.023560405,0.0,0.0,0.0,0.0,0.0,0.0,0.0,0.0,-0.0,0.0,0.0,nan,0.0,0.0,-0.0035003424,0.0,0.0,0.0,0.0,0.0,0.0,0.0,0.0,0.0
232278155,232178925,0.0024266988,0.060336083,0.032870173,-0.08370495,-0.0073524714,0.0,0.0,0.0,0.0,0.0,0.0,0.0,0.0,-0.0,0.0,0.0,nan,0.0,0.0,0.0028128624,0.0,0.0,0.0,0.0,0.0,0.0,0.0,0.0,0.0
232781912,232682700,0.100113295,0.07474395,0.018560886,-0.07423687,-0.0049391985,0.0,0.0,0.0,0.0,0.0,0.0,0.0,0.0,-0.0,0.0,0.0,nan,0.0,0.0,0.012421608,0.0,0.0,0.0,0.0,0.0,0.0,0.0,0.0,0.0
233275847,233176597,-0.021473601,0.10730536,0.041638017,-0.06640148,0.00701046,0.0,0.0,0.0,0.0,0.0,0.0,0.0,0.0,-0.0,0.0,0.0,nan,0.0,0.0,0.0054941177,0.0,0.0,0.0,0.0,0.0,0.0,0.0,0.0,0.0
233780322,233680372,0.122690596,0.08100843,-0.063646495,-0.0651989,0.005984068,0.0,0.0,0.0,0.0,0.0,0.0,0.0,0.0,-0.40534115,0.0,0.0,nan,0.0,0.0,0.004812002,0.0,0.0,0.0,0.0,0.0,0.0,0.0,0.0,0.0
234273556,234174269,0.034595355,0.010715291,-0.08136815,-0.059223175,-0.003942013,0.0,0.0,0.0,0.0,0.0,0.0,0.0,0.0,-0.51023865,0.0,0.0,nan,0.0,0.0,0.0016902685,0.0,0.0,0.0,0.0,0.0,0.0,0.0,0.0,0.0
234777415,234678044,-0.022042207,0.02885539,-0.079517305,-0.06860733,0.0029438734,0.0,0.0,0.0,0.0,0.0,0.0,0.0,0.0,-0.29800892,0.0,0.0,nan,0.0,0.0,-0.00017297268,0.0,0.0,0.0,0.0,0.0,0.0,0.0,0.0,0.0
235281031,235181820,0.081649974,0.01468841,-0.19627148,-0.06689644,-0.006231427,0.0,0.0,0.0,0.0,0.0,0.0,0.0,0.0,0.42351437,0.0,0.0,nan,0.0,0.0,0.0422343,0.0,0.0,0.0,0.0,0.0,0.0,0.0,0.0,0.0
235775376,235675718,-0.056460164,-0.10189381,-0.3459469,-0.060894966,-0.02811867,0.0,0.0,0.0,0.0,0.0,0.0,0.0,0.0,-0.045660973,0.0,0.0,nan,0.0,0.0,0.076409936,0.0,0.0,0.0,0.0,0.0,0.0,0.0,0.0,0.0
236278796,236179494,0.042190686,0.008731728,0.045119762,-0.03771496,-0.027502298,0.0,0.0,0.0,0.0,0.0,0.0,0.0,0.0,0.92992496,0.0,0.0,nan,0.0,0.0,-0.0033091307,0.0,0.0,0.0,0.0,0.0,0.0,0.0,0.0,0.0
236782624,236683270,-0.047129475,-0.08031176,0.042414427,-0.053590775,-0.036803603,0.0,0.0,0.0,0.0,0.0,0.0,0.0,0.0,-0.05655384,0.0,0.0,nan,0.0,0.0,0.019095302,0.0,0.0,0.0,0.0,0.0,0.0,0.0,0.0,0.0
237276458,237177168,0.0023373077,0.0077569336,0.10770011,-0.05018425,-0.031039357,0.0,0.0,0.0,0.0,0.0,0.0,0.0,0.0,0.29357338,0.0,0.0,nan,0.0,0.0,0.012529135,0.0,0.0,0.0,0.0,0.0,0.0,0.0,0.0,0.0
237780698,237680944,0.022775427,0.05483266,0.10319686,-0.036305428,-0.02053845,0.0,0.0,0.0,0.0,0.0,0.0,0.0,0.0,0.2143631,0.0,0.0,nan,0.0,0.0,0.03145492,0.0,0.0,0.0,0.0,0.0,0.0,0.0,0.0,0.0
238274103,238174842,0.026935462,-0.01859801,0.07253647,-0.039880753,-0.020968616,0.0,0.0,0.0,0.0,0.0,0.0,0.0,0.0,-0.7210083,0.0,0.0,nan,0.0,0.0,0.04328525,0.0,0.0,0.0,0.0,0.0,0.0,0.0,0.0,0.0
238777998,238678619,0.011085138,-0.042233422,0.17981935,-0.037802696,-0.019241214,0.0,0.0,0.0,0.0,0.0,0.0,0.0,0.0,-0.8974695,0.0,0.0,nan,0.0,0.0,0.045293808,0.0,0.0,0.0,0.0,0.0,0.0,0.0,0.0,0.0
239281658,239182395,-0.0006814562,0.0803631,0.22150874,-0.044779778,0.0047258735,0.0,0.0,0.0,0.0,0.0,0.0,0.0,0.0,0.6942091,0.0,0.0,nan,0.0,0.0,0.051739097,0.0,0.0,0.0,0.0,0.0,0.0,0.0,0.0,0.0
239775952,239676294,0.057751514,0.012509081,0.1057508,-0.03239727,0.007418871,0.0,0.0,0.0,0.0,0.0,0.0,0.0,0.0,0.078808784,0.0,0.0,nan,0.0,0.0,0.047556996,0.0,0.0,0.0,0.0,0.0,0.0,0.0,0.0,0.0
240279357,240180071,0.0381442,0.05528539,0.04373336,-0.03981304,0.02125591,0.0,0.0,0.0,0.0,0.0,0.0,0.0,0.0,0.41538525,0.0,0.0,nan,0.0,0.0,0.039178967,0.0,0.0,0.0,0.0,0.0,0.0,0.0,0.0,0.0
240783193,240683851,-0.014690882,0.013329767,-0.0083556175,-0.040392876,0.014729559,0.0,0.0,0.0,0.0,0.0,0.0,0.0,0.0,0.11703968,0.0,0.0,nan,0.0,0.0,0.04839456,0.0,0.0,0.0,0.0,0.0,0.0,0.0,0.0,0.0
241276997,241177747,0.020368557,0.024456114,0.12528181,-0.036449432,0.010505438,0.0,0.0,0.0,0.0,0.0,0.0,0.0,0.0,-0.90133,0.0,0.0,nan,0.0,0.0,0.0458318,0.0,0.0,0.0,0.0,0.0,0.0,0.0,0.0,0.0
241781226,241681524,-0.108681634,-0.03988889,0.06741762,-0.060500145,-0.010809183,0.0,0.0,0.0,0.0,0.0,0.0,0.0,0.0,-0.3976469,0.0,0.0,nan,0.0,0.0,0.03370869,0.0,0.0,0.0,0.0,0.0,0.0,0.0,0.0,0.0
242274934,242175424,-0.001461573,3.889948e-05,0.037471294,-0.06669521,-0.013764083,0.0,0.0,0.0,0.0,0.0,0.0,0.0,0.0,-1.3456774,0.0,0.0,nan,0.0,0.0,0.031490326,0.0,0.0,0.0,0.0,0.0,0.0,0.0,0.0,0.0
242778612,242679201,-0.093027525,-0.022146095,0.031270266,-0.08587265,-0.018128872,0.0,0.0,0.0,0.0,0.0,0.0,0.0,0.0,-0.99291134,0.0,0.0,nan,0.0,0.0,0.023607254,0.0,0.0,0.0,0.0,0.0,0.0,0.0,0.0,0.0
243282253,243182979,0.008150278,0.079114646,0.08933163,-0.084462166,-0.009830892,0.0,0.0,0.0,0.0,0.0,0.0,0.0,0.0,0.53839016,0.0,0.0,nan,0.0,0.0,0.031871438,0.0,0.0,0.0,0.0,0.0,0.0,0.0,0.0,0.0
243776381,243676878,0.05441334,0.08626572,-0.0048160553,-0.07726765,0.0078118443,0.0,0.0,0.0,0.0,0.0,0.0,0.0,0.0,-1.3337736,0.0,0.0,nan,0.0,0.0,0.031976104,0.0,0.0,0.0,0.0,0.0,0.0,0.0,0.0,0.0
244280019,244180658,0.051903382,0.0690673,0.0674839,-0.06240368,0.008361816,0.0,0.0,0.0,0.0,0.0,0.0,0.0,0.0,2.466241,0.0,0.0,nan,0.0,0.0,0.044368863,0.0,0.0,0.0,0.0,0.0,0.0,0.0,0.0,0.0
244773817,244674556,-0.0018557012,0.07724951,0.094340324,-0.054834366,0.01334089,0.0,0.0,0.0,0.0,0.0,0.0,0.0,0.0,-0.83827305,0.0,0.0,nan,0.0,0.0,0.044142604,0.0,0.0,0.0,0.0,0.0,0.0,0.0,0.0,0.0
245277561,245178334,0.10346689,0.04652726,0.14764595,-0.04159355,0.019871652,0.0,0.0,0.0,0.0,0.0,0.0,0.0,0.0,-2.6649027,0.0,0.0,nan,0.0,0.0,0.03842032,0.0,0.0,0.0,0.0,0.0,0.0,0.0,0.0,0.0
245781596,245682112,0.09695073,0.01094231,0.11707258,-0.036382675,0.01621455,0.0,0.0,0.0,0.0,0.0,0.0,0.0,0.0,-0.5769434,0.0,0.0,nan,0.0,0.0,0.04454851,0.0,0.0,0.0,0.0,0.0,0.0,0.0,0.0,0.0
246275299,246176012,0.06670155,0.021635547,0.03711152,-0.028097153,0.01675558,0.0,0.0,0.0,0.0,0.0,0.0,0.0,0.0,-1.2451868,0.0,0.0,nan,0.0,0.0,0.040162444,0.0,0.0,0.0,0.0,0.0,0.0,0.0,0.0,0.0
246779006,246679790,0.034989767,-0.0053356886,0.010805607,-0.028182983,0.016394675,0.0,0.0,0.0,0.0,0.0,0.0,0.0,0.0,0.19197369,0.0,0.0,nan,0.0,0.0,0.012940168,0.0,0.0,0.0,0.0,0.0,0.0,0.0,0.0,0.0
247282793,247183568,-0.05893661,-0.08534686,-0.010551453,-0.045230865,-0.005455494,0.0,0.0,0.0,0.0,0.0,0.0,0.0,0.0,-0.6147547,0.0,0.0,nan,0.0,0.0,0.02660954,0.0,0.0,0.0,0.0,0.0,0.0,0.0,0.0,0.0
247776738,247677469,-0.01643315,-0.0149009,0.18460202,-0.041443825,-0.006768942,0.0,0.0,0.0,0.0,0.0,0.0,0.0,0.0,-0.6012049,0.0,0.0,nan,0.0,0.0,-0.010950804,0.0,0.0,0.0,0.0,0.0,0.0,0.0,0.0,0.0
248280587,248181251,-0.06578791,0.041881986,0.114423156,-0.0414114,-0.006893873,0.0,0.0,0.0,0.0,0.0,0.0,0.0,0.0,0.076239586,0.0,0.0,nan,0.0,0.0,-0.028892279,0.0,0.0,0.0,0.0,0.0,0.0,0.0,0.0,0.0
248774402,248675148,-0.06060131,0.02784884,0.09948313,-0.04672718,-0.009698033,0.0,0.0,0.0,0.0,0.0,0.0,0.0,0.0,-0.4090624,0.0,0.0,nan,0.0,0.0,-0.03228569,0.0,0.0,0.0,0.0,0.0,0.0,0.0,0.0,0.0
249278251,249178926,-0.052590013,0.018377751,0.076345086,-0.044988632,-0.011456192,0.0,0.0,0.0,0.0,0.0,0.0,0.0,0.0,-0.6360941,0.0,0.0,nan,0.0,0.0,-0.023499012,0.0,0.0,0.0,0.0,0.0,0.0,0.0,0.0,0.0
249782060,249682705,0.034149826,0.025451839,0.24019372,-0.025583267,-0.01457876,0.0,0.0,0.0,0.0,0.0,0.0,0.0,0.0,0.09981823,0.0,0.0,nan,0.0,0.0,-0.02076435,0.0,0.0,0.0,0.0,0.0,0.0,0.0,0.0,0.0
250275869,250176606,0.042206243,0.17198908,0.20475465,-0.031469345,0.019523859,0.0,0.0,0.0,0.0,0.0,0.0,0.0,0.0,-0.49491978,0.0,0.0,nan,0.0,0.0,-0.014824867,0.0,0.0,0.0,0.0,0.0,0.0,0.0,0.0,0.0
250779597,250680384,-0.05763389,0.1368889,0.011064231,-0.04507351,0.026622474,0.0,0.0,0.0,0.0,0.0,0.0,0.0,0.0,-0.5985155,0.0,0.0,nan,0.0,0.0,-0.012101769,0.0,0.0,0.0,0.0,0.0,0.0,0.0,0.0,0.0
251283394,251184163,0.014502376,0.023336004,-0.009365469,-0.03330517,0.013446033,0.0,0.0,0.0,0.0,0.0,0.0,0.0,0.0,-0.4400568,0.0,0.0,nan,0.0,0.0,-0.013999581,0.0,0.0,0.0,0.0,0.0,0.0,0.0,0.0,0.0
251777380,251678064,-0.138147,-0.04683283,-0.088526696,-0.042502403,0.009866506,0.0,0.0,0.0,0.0,0.0,0.0,0.0,0.0,-0.8586359,0.0,0.0,nan,0.0,0.0,-0.05655229,0.0,0.0,0.0,0.0,0.0,0.0,0.0,0.0,0.0
252281051,252181843,-0.09245783,0.16559404,-0.10994375,-0.05456066,0.00977613,0.0,0.0,0.0,0.0,0.0,0.0,0.0,0.0,0.28974056,0.0,0.0,nan,0.0,0.0,0.0045318604,0.0,0.0,0.0,0.0,0.0,0.0,0.0,0.0,0.0
252775092,252675744,0.15699506,0.19880736,-0.046909884,-0.04678154,0.0006700754,0.0,0.0,0.0,0.0,0.0,0.0,0.0,0.0,-0.63724995,0.0,0.0,nan,0.0,0.0,0.046668887,0.0,0.0,0.0,0.0,0.0,0.0,0.0,0.0,0.0
253278792,253179523,0.0763281,0.18729976,-0.009177193,-0.027321815,-0.007272482,0.0,0.0,0.0,0.0,0.0,0.0,0.0,0.0,1.933383,0.0,0.0,nan,0.0,0.0,0.08373463,0.0,0.0,0.0,0.0,0.0,0.0,0.0,0.0,0.0
253782529,253683303,0.44268993,0.053965747,0.080798805,0.020245552,-0.023462892,0.0,0.0,0.0,0.0,0.0,0.0,0.0,0.0,-0.2712984,0.0,0.0,nan,0.0,0.0,0.08493221,-0.010259725,0.004040867,0.014119163,0.0,0.0,0.0,0.0,0.0,0.0
254276432,254177204,0.50126886,-0.2805071,-0.15844464,0.059269905,-0.09712669,0.0,0.0,0.0,0.0,0.0,0.0,0.0,0.0,1.0569944,0.0,0.0,nan,0.0,0.0,0.08493221,0.002478391,0.010094464,0.00045885146,0.0,0.0,0.0,0.0,0.0,0.0
254780253,254680983,0.2351861,-0.6241629,-0.11311304,0.057003975,-0.156641,0.0,0.0,0.0,0.0,0.0,0.0,0.0,0.0,0.1531477,0.0,0.0,nan,0.0,0.0,0.08493221,0.017738484,0.00949052,0.0020340085,0.0,0.0,0.0,0.0,0.0,0.0
255274300,255174885,-0.1166482,-0.5455165,-0.12807775,0.022960663,-0.22514868,0.0,0.0,0.0,0.0,0.0,0.0,0.0,0.0,0.5625944,0.0,0.0,nan,0.0,0.0,0.08493221,0.022209603,0.0029228032,0.010396957,0.0,0.0,0.0,0.0,0.0,0.0
255778132,255678664,-0.19781995,-0.40890828,0.008645378,0.03927231,-0.23953652,0.0,0.0,0.0,0.0,0.0,0.0,0.0,0.0,0.6302099,0.0,0.0,nan,0.0,0.0,0.08493221,0.031811934,-0.006281048,-0.017913729,0.0,0.0,0.0,0.0,0.0,0.0
256281659,256182444,-0.4028256,-0.063812286,-0.042516947,-0.024959564,-0.20587993,0.0,0.0,0.0,0.0,0.0,0.0,0.0,0.0,0.11371136,0.0,0.0,nan,0.0,0.0,0.08493221,0.030116878,-0.00577271,-0.02222678,0.0,0.0,0.0,0.0,0.0,0.0
256775572,256676346,-0.5251852,0.12749916,-0.11530964,-0.05927849,-0.15164351,0.0,0.0,0.0,0.0,0.0,0.0,0.0,0.0,0.33276653,0.0,0.0,nan,0.0,0.0,0.08493221,0.015869774,0.00033459067,-0.005592376,0.0,0.0,0.0,0.0,0.0,0.0
257279592,257180125,-0.21465,0.26690686,-0.016269848,-0.06842613,-0.12224305,0.0,0.0,0.0,0.0,0.0,0.0,0.0,0.0,1.6934118,0.0,0.0,nan,0.0,0.0,0.08493221,0.011583522,0.00510177,0.0019150972,0.0,0.0,0.0,0.0,0.0,0.0
257783192,257683905,-0.011508837,0.37072027,-0.11711725,-0.07346535,-0.09829897,0.0,0.0,0.0,0.0,0.0,0.0,0.0,0.0,-0.24196339,0.0,0.0,nan,0.0,0.0,0.08493221,0.004496515,0.0016984344,-0.030103594,0.0,0.0,0.0,0.0,0.0,0.0
258277683,258177807,0.24097091,0.40981162,-0.16497956,-0.059646606,-0.06469842,0.0,0.0,0.0,0.0,0.0,0.0,0.0,0.0,0.03604412,0.0,0.0,nan,0.0,0.0,0.08493221,-0.020790994,0.00068089366,-0.016177908,0.0,0.0,0.0,0.0,0.0,0.0
258780808,258681587,0.18154752,0.2440122,0.021361604,-0.059501648,-0.056408316,0.0,0.0,0.0,0.0,0.0,0.0,0.0,0.0,-0.07544422,0.0,0.0,nan,0.0,0.0,0.08493221,-0.015067041,0.0065211654,0.00809972,0.0,0.0,0.0,0.0,0.0,0.0
259274843,259175489,0.05362606,-0.02812928,-0.102033034,-0.057706833,-0.070688635,0.0,0.0,0.0,0.0,0.0,0.0,0.0,0.0,0.40889263,0.0,0.0,nan,0.0,0.0,0.08493221,0.0048039854,0.005310178,-0.0022695959,0.0,0.0,0.0,0.0,0.0,0.0
259778555,259679269,0.0068517923,0.0459767,-0.044117752,-0.047483444,-0.054892123,0.0,0.0,0.0,0.0,0.0,0.0,0.0,0.0,1.8149252,0.0,0.0,nan,0.0,0.0,0.08493221,0.003022626,-0.0024698377,-0.007236451,0.0,0.0,0.0,0.0,0.0,0.0
260282767,260183050,0.045482874,0.06984359,-0.14873378,-0.047971725,-0.053841352,0.0,0.0,0.0,0.0,0.0,0.0,0.0,0.0,-0.07006931,0.0,0.0,nan,0.0,0.0,0.08493221,0.0056643635,0.00027418137,-0.0035349429,0.0,0.0,0.0,0.0,0.0,0.0
260776190,260676952,0.0217551,-0.01342392,-0.19824883,-0.06218338,-0.053270817,0.0,0.0,0.0,0.0,0.0,0.0,0.0,0.0,0.37670422,0.0,0.0,nan,0.0,0.0,0.08493221,0.00589855,0.00567618,0.002497673,0.0,0.0,0.0,0.0,0.0,0.0
261280077,261180732,-0.15744485,0.014075212,-0.017030545,-0.096343994,-0.05137384,0.0,0.0,0.0,0.0,0.0,0.0,0.0,0.0,-1.3946543,0.0,0.0,nan,0.0,0.0,0.08493221,0.001620695,0.00014927983,0.009984344,0.0,0.0,0.0,0.0,0.0,0.0
261783731,261684513,0.011577979,0.039876074,0.057513103,-0.06738281,-0.03849423,0.0,0.0,0.0,0.0,0.0,0.0,0.0,0.0,0.32477093,0.0,0.0,nan,0.0,0.0,0.08493221,0.0017973781,-0.0015474856,0.005033672,0.0,0.0,0.0,0.0,0.0,0.0
262278564,262178416,0.03886179,0.12747008,0.13061064,-0.027471542,-0.01110971,0.0,0.0,0.0,0.0,0.0,0.0,0.0,0.0,-0.24613285,0.0,0.0,nan,0.0,0.0,0.08493221,-0.00093100965,-0.0037398934,-0.006472081,0.0,0.0,0.0,0.0,0.0,0.0
262781468,262682196,0.055257067,0.06736767,-0.060099408,-0.020671844,-0.0003194809,0.0,0.0,0.0,0.0,0.0,0.0,0.0,0.0,-0.57119846,0.0,0.0,nan,0.0,0.0,0.08493221,0.006048739,-0.0069079995,-0.021911383,0.0,0.0,0.0,0.0,0.0,0.0
263275475,263176099,-0.009961948,0.0070525184,-0.043418936,-0.027650833,0.0028685331,0.0,0.0,0.0,0.0,0.0,0.0,0.0,0.0,-0.3693552,0.0,0.0,nan,0.0,0.0,0.08493221,0.0002578646,-0.0071621537,-0.006596774,0.0,0.0,0.0,0.0,0.0,0.0
263779105,263679880,0.038191244,0.053000025,0.070449136,-0.013477325,0.014680386,0.0,0.0,0.0,0.0,0.0,0.0,0.0,0.0,-0.34608555,0.0,0.0,nan,0.0,0.0,0.08493221,-0.0088458285,-0.003090322,0.019130677,0.0,0.0,0.0,0.0,0.0,0.0
264283334,264183661,0.22612149,0.34571302,-0.025806464,0.030477524,0.04920745,0.0,0.0,0.0,0.0,0.0,0.0,0.0,0.0,0.16119671,0.0,0.0,nan,0.0,0.0,0.08493221,-0.07142005,0.009710193,0.1473278,0.0,0.0,0.0,0.0,0.0,0.0
264776844,264677564,0.38586497,0.17380047,-0.10478632,0.07797432,0.06383872,0.0,0.0,0.0,0.0,0.0,0.0,0.0,0.0,0.6969824,0.0,0.0,nan,0.0,0.0,0.08493221,-0.056093335,0.011313438,0.14702621,0.0,0.0,0.0,0.0,0.0,0.0
265280781,265181345,0.46477103,-0.07738161,-0.12857354,0.15038872,0.08206558,0.0,0.0,0.0,0.0,0.0,0.0,0.0,0.0,3.530242,0.0,0.0,nan,0.0,0.0,0.08493221,-0.04038228,0.010757655,0.12155683,0.0,0.0,0.0,0.0,0.0,0.0
265774465,265675249,0.3776517,-0.010529995,0.18269792,0.15560913,0.054038525,0.0,0.0,0.0,0.0,0.0,0.0,0.0,0.0,1.7367392,0.0,0.0,nan,0.0,0.0,0.08493221,-0.010289878,-0.00094619393,0.03487982,0.0,0.0,0.0,0.0,0.0,0.0
266278645,266179030,0.2524314,-0.17492676,-0.13603291,0.114494324,-0.008626938,0.0,0.0,0.0,0.0,0.0,0.0,0.0,0.0,1.5176268,0.0,0.0,nan,0.0,0.0,0.08493221,-0.010994762,-0.0034180284,0.026583418,0.0,0.0,0.0,0.0,0.0,0.0
266782091,266682811,0.18077612,-0.09597683,-0.08579752,0.1140728,0.0234375,0.0,0.0,0.0,0.0,0.0,0.0,0.0,0.0,1.2605734,0.0,0.0,nan,0.0,0.0,0.08493221,-0.010954678,-0.0033525825,0.02754198,0.0,0.0,0.0,0.0,0.0,0.0
267276198,267176714,0.116405964,-0.15659904,-0.15499687,0.05202484,-0.057861328,0.0,0.0,0.0,0.0,0.0,0.0,0.0,0.0,1.9176931,0.0,0.0,nan,0.0,0.0,0.08493221,-0.00870648,-0.0055169463,0.008973807,0.0,0.0,0.0,0.0,0.0,0.0
267779724,267680499,-0.02062416,-0.12984371,-0.31880236,0.06636047,0.0050354004,0.0,0.0,0.0,0.0,0.0,0.0,0.0,0.0,2.7297506,0.0,0.0,nan,0.0,0.0,0.08493221,-0.006726116,-0.005145788,0.0016764104,0.0,0.0,0.0,0.0,0.0,0.0
268283629,268184278,-0.06446171,-0.20696068,-0.27898157,0.02973938,0.016284943,0.0,0.0,0.0,0.0,0.0,0.0,0.0,0.0,2.3103895,0.0,0.0,nan,0.0,0.0,0.08493221,-0.0051342994,-0.0056201816,0.0028345287,0.0,0.0,0.0,0.0,0.0,0.0
268777548,268678182,-0.048135757,-0.17814636,-0.11008614,0.06964493,0.10480499,0.0,0.0,0.0,0.0,0.0,0.0,0.0,0.0,2.4360456,0.0,0.0,nan,0.0,0.0,0.08493221,-0.0012412667,-0.0053109825,-0.0011075735,0.0,0.0,0.0,0.0,0.0,0.0
269281237,269181963,-0.1604042,-0.33054256,-0.23899627,-0.01908493,-0.038303375,0.0,0.0,0.0,0.0,0.0,0.0,0.0,0.0,-0.3032732,0.0,0.0,nan,0.0,0.0,0.08493221,0.033041634,-0.009448662,-0.06998235,0.0,0.0,0.8395767,-0.025440352,0.0,0.0
269775095,269675867,-0.36159086,0.00030708313,0.024640918,-0.096523285,-0.080696106,0.0,0.0,0.0,0.0,0.0,0.0,0.0,0.0,2.4432936,0.0,0.0,nan,0.0,0.0,0.08493221,0.010130212,-0.013012126,0.008132309,0.0,0.0,0.46798897,-0.057936087,0.0,0.0
270278921,270179649,-0.864416,-0.19796753,-0.37687695,-0.15579987,-0.048713684,0.0,0.0,0.0,0.0,0.0,0.0,0.0,0.0,0.761611,0.0,0.0,nan,0.0,0.0,0.08493221,0.019025799,-0.020135304,-0.019688219,0.0,0.0,0.49752998,-0.05380571,0.0,0.0
270782807,270683431,0.09375119,-0.22909737,0.1469602,-0.04456711,0.005332947,0.0,0.0,0.0,0.0,0.0,0.0,0.0,0.0,1.4399443,0.0,0.0,nan,0.0,0.0,0.08493221,0.021844313,-0.023597643,-0.089199305,0.0,0.0,1.7025585,0.039639592,0.0,0.0
271276806,271177335,0.4667995,-0.06197548,-0.124949336,0.012950897,0.07443237,0.0,0.0,0.0,0.0,0.0,0.0,0.0,0.0,0.11324978,0.0,0.0,nan,0.0,0.0,0.08493221,0.0008058613,-0.007555902,-0.048525468,0.0,0.0,0.530426,0.102730535,0.0,0.0
271780434,271681118,0.323668,0.15688705,-0.16034198,0.04638672,0.010215759,0.0,0.0,0.0,0.0,0.0,0.0,0.0,0.0,0.5204687,0.0,0.0,nan,0.0,0.0,0.08493221,-0.0027721822,-0.0021443963,-0.025258884,0.0,0.0,1.0222607,0.031394873,0.0,0.0
272284381,272184899,0.3714248,-0.06480026,-0.22233415,0.10044479,0.02469635,0.0,0.0,0.0,0.0,0.0,0.0,0.0,0.0,0.69819546,0.0,0.0,nan,0.0,0.0,0.08493221,0.0016658977,0.00058427453,-0.017954424,0.0,0.0,1.8781786,0.050085694,0.0,0.0
272778065,272678803,0.14161372,-0.08258438,-0.11101782,0.06042099,-0.1068573,0.0,0.0,0.0,0.0,0.0,0.0,0.0,0.0,-0.8363352,0.0,0.0,nan,0.0,0.0,0.08493221,0.0035477057,0.0016769171,-0.015759349,0.0,0.0,0.63114643,0.012563177,0.0,0.0
273281851,273182585,-0.019501448,-0.04637146,-0.15258229,0.06206131,-0.014625549,0.0,0.0,0.0,0.0,0.0,0.0,0.0,0.0,1.7532072,0.0,0.0,nan,0.0,0.0,0.08493221,0.0029682368,-0.0035476983,-0.027542174,0.0,0.0,0.23867512,-0.0023287812,0.0,0.0
273775877,273676489,-0.10023594,0.004430771,-0.30870163,-0.004589081,-0.25430298,0.0,0.0,0.0,0.0,0.0,0.0,0.0,0.0,-1.0125093,0.0,0.0,nan,0.0,0.0,0.08493221,0.004005052,-0.003733635,-0.022993386,0.0,0.0,1.7428198,-0.0070348224,0.0,0.0
274279506,274180271,-0.21342039,0.074733734,-0.24297565,0.023151398,0.052871704,0.0,0.0,0.0,0.0,0.0,0.0,0.0,0.0,0.2472105,0.0,0.0,nan,0.0,0.0,0.08493221,0.0045815855,-0.0048137903,-0.01804024,0.0,0.0,1.8354702,-0.0066589257,0.0,0.0
274783384,274684054,-0.11895418,-0.04642296,-0.1938293,0.04045105,0.15711975,0.0,0.0,0.0,0.0,0.0,0.0,0.0,0.0,0.2746687,0.0,0.0,nan,0.0,0.0,0.08493221,0.0034506395,-0.0051720142,-0.014875263,0.0,0.0,0.20674038,-0.003604588,0.0,0.0
275277566,275177958,-0.19664812,0.032274246,-0.21394278,-0.0062026978,0.049621582,0.0,0.0,0.0,0.0,0.0,0.0,0.0,0.0,1.2253637,0.0,0.0,nan,0.0,0.0,0.08493221,0.004869342,-0.010424882,-0.029142797,0.0,0.0,1.5893888,-0.012655405,0.0,0.0
275780972,275681740,0.20022297,-0.071084976,-0.027221262,0.01612854,0.15986633,0.0,0.0,0.0,0.0,0.0,0.0,0.0,0.0,0.14766216,0.0,0.0,nan,0.0,0.0,0.08493221,-0.003689386,0.0057263076,0.0078984015,0.0,0.0,0.050362587,-0.050008908,0.0,0.0
276274872,276175644,0.80152225,-0.67894745,-0.63527894,-0.07837677,-0.20343018,0.0,0.0,0.0,0.0,0.0,0.0,0.0,0.0,0.60989285,0.0,0.0,nan,0.0,0.0,0.08493221,-0.0044237077,0.018451393,0.04533586,0.0,0.0,1.3305387,-0.06712384,0.0,0.0
276778666,276679426,0.371068,-1.0913124,-0.7455092,0.061538696,-0.018432617,0.0,0.0,0.0,0.0,0.0,0.0,0.0,0.0,-0.55593586,0.0,0.0,nan,0.0,0.0,0.08493221,0.006612301,0.01930815,0.041219097,0.0,0.0,1.619278,-0.0040567843,0.0,0.0
277282527,277183208,-0.22316742,-0.40683043,-0.34212232,-0.054405212,-0.058532715,0.0,0.0,0.0,0.0,0.0,0.0,0.0,0.0,3.5119314,0.0,0.0,nan,0.0,0.0,0.08493221,0.0056296587,0.017689228,0.039715335,0.0,0.0,2.6120396,0.016645735,0.0,0.0
277776332,277677112,-0.15179062,-0.35890102,-0.13672662,0.06264496,-0.12695312,0.0,0.0,0.0,0.0,0.0,0.0,0.0,0.0,0.18017483,0.0,0.0,nan,0.0,0.0,0.08493221,0.0056387484,0.017748803,0.018888608,0.0,0.0,4.3175335,0.015707826,0.0,0.0
278280214,278180894,-0.2731352,-0.15251541,0.05609238,-0.036827087,-0.008895874,0.0,0.0,0.0,0.0,0.0,0.0,0.0,0.0,1.7029142,0.0,0.0,nan,0.0,0.0,0.08493221,0.0145199,0.0224863,0.015782326,0.0,0.0,6.422942,0.00066680304,0.0,0.0
278784467,278684676,-0.45763016,0.14180183,0.15651274,0.040252686,-0.06704712,0.0,0.0,0.0,0.0,0.0,0.0,0.0,0.0,0.4059019,0.0,0.0,nan,0.0,0.0,0.08493221,0.018220171,0.023418918,0.00544402,0.0,0.0,8.554163,-0.015136666,0.0,0.0
279277847,279178579,0.17083031,0.193079,0.14884305,0.19052124,-0.13601685,0.0,0.0,0.0,0.0,0.0,0.0,0.0,0.0,-0.8547373,0.0,0.0,nan,0.0,0.0,0.08493221,0.014927752,0.02667413,0.00035256147,0.0,0.0,9.695555,0.015843302,0.0,0.0
279771880,279672483,0.60899496,0.33691978,0.3073995,0.25526428,-0.012557983,0.0,0.0,0.0,0.0,0.0,0.0,0.0,0.0,1.394309,0.0,0.0,nan,0.0,0.0,0.08493221,0.029013483,0.030337587,-0.011716813,0.0,0.0,11.906869,0.035905786,0.0,0.0
280275661,280176265,0.77060986,-0.28017235,0.08920622,0.3359604,-0.17878723,0.0,0.0,0.0,0.0,0.0,0.0,0.0,0.0,0.2212553,0.0,0.0,nan,0.0,0.0,0.08493221,0.037606653,0.026970029,-0.05894056,0.0,0.0,10.498231,-0.12387327,0.0,0.0
280779726,280680046,0.9412637,-0.48545647,-0.18807673,0.40115356,-0.14198303,0.0,0.0,0.0,0.0,0.0,0.0,0.0,0.0,1.294734,0.0,0.0,nan,0.0,0.0,0.08493221,0.038770195,0.013890982,-0.043566324,0.0,0.0,10.951184,-0.07092907,0.0,0.0
281273213,281173949,1.3245056,0.11756706,-0.49404645,0.4630661,-0.43818665,0.0,0.0,0.0,0.0,0.0,0.0,0.0,0.0,-0.20828724,0.0,0.0,nan,0.0,0.0,0.08493221,0.037103295,0.0026747286,-0.028031453,0.0,0.0,10.691777,-0.16610865,0.0,0.0
281777079,281677731,0.5633311,0.5826206,-0.40720177,0.49163055,-0.22454071,0.0,0.0,0.0,0.0,0.0,0.0,0.0,0.0,0.28198528,0.0,0.0,nan,0.0,0.0,0.08493221,0.03741797,-0.0013920963,-0.035740793,0.0,0.0,9.633782,-0.23538354,0.0,0.0
282280768,282181512,0.07156062,0.49499512,-0.2116844,0.45048523,0.070991516,0.0,0.0,0.0,0.0,0.0,0.0,0.0,0.0,1.0940924,0.0,0.0,nan,0.0,0.0,0.08493221,0.031275615,-0.0008313358,-0.0007523522,0.0,0.0,8.060184,-0.24744767,0.0,0.0
282775086,282675415,-0.0074834824,0.5501652,-0.3884044,0.47366333,-0.12421417,0.0,0.0,0.0,0.0,0.0,0.0,0.0,0.0,1.6150961,0.0,0.0,nan,0.0,0.0,0.08493221,0.027212232,-0.0057043135,-0.014697835,0.0,0.0,7.358246,-0.31190577,0.0,0.0
283278579,283179196,-0.633831,0.4433422,-0.16922179,0.35035706,0.10684967,0.0,0.0,0.0,0.0,0.0,0.0,0.0,0.0,0.7417784,0.0,0.0,nan,0.0,0.0,0.08493221,0.02509521,-0.010423154,-0.015750602,0.0,0.0,6.5048294,-0.32537192,0.0,0.0
283772516,283673101,-0.59817886,0.2902832,-0.011000067,0.37935638,0.07061005,0.0,0.0,0.0,0.0,0.0,0.0,0.0,0.0,1.6430387,0.0,0.0,nan,0.0,0.0,0.08493221,0.021586478,-0.0065453947,-0.034380317,0.0,0.0,6.5048294,-0.32739905,0.0,0.0
284276167,284176880,-0.6399832,0.1537323,0.018653393,0.34860992,0.053604126,0.0,0.0,0.0,0.0,0.0,0.0,0.0,0.0,-2.7277765,0.0,0.0,nan,0.0,0.0,0.08493221,0.026097119,-0.009147644,-0.04370767,0.0,0.0,6.5048294,-0.36706865,0.0,0.0
284780571,284680660,-0.62505054,0.058828354,-0.34456486,0.24958038,0.1809845,0.0,0.0,0.0,0.0,0.0,0.0,0.0,0.0,0.961524,0.0,0.0,nan,0.0,0.0,0.08493221,0.025900781,-0.007283777,-0.026473224,0.0,0.0,6.5048294,-0.357038,0.0,0.0
285273936,285174563,-0.57162476,-0.0049123764,0.15281093,0.26560974,0.2362976,0.0,0.0,0.0,0.0,0.0,0.0,0.0,0.0,-2.2588472,0.0,0.0,nan,0.0,0.0,0.08493221,0.030128956,-0.0075900555,-0.025597245,0.0,0.0,6.5048294,-0.38835746,0.0,0.0
285777700,285678343,-0.5604658,-0.10465813,-0.08704371,0.28460693,0.12830734,0.0,0.0,0.0,0.0,0.0,0.0,0.0,0.0,-0.8102312,0.0,0.0,nan,0.0,0.0,0.08493221,0.026629657,-0.0042526424,-0.022322297,0.0,0.0,6.5048294,-0.37879688,0.0,0.0
286281343,286182124,-0.35004425,-0.17973137,-0.11479162,0.16371155,0.20589828,0.0,0.0,0.0,0.0,0.0,0.0,0.0,0.0,2.978858,0.0,0.0,nan,0.0,0.0,0.08493221,0.023676753,-0.00390929,-0.018787682,0.0,0.0,6.5048294,-0.38995624,0.0,0.0
286775573,286676026,-0.33252716,-0.23589039,-0.073152184,0.091156006,0.25313187,0.0,0.0,0.0,0.0,0.0,0.0,0.0,0.0,-0.67485523,0.0,0.0,nan,0.0,0.0,0.08493221,0.023735851,0.00030340254,-0.020135641,0.0,0.0,6.5048294,-0.32724938,0.0,0.0
287279139,287179806,-0.25166988,-0.19979477,-0.14468065,0.24836731,0.12779808,0.0,0.0,0.0,0.0,0.0,0.0,0.0,0.0,0.6503515,0.0,0.0,nan,0.0,0.0,0.08493221,0.022752956,-0.0018642843,-0.016741395,0.0,0.0,6.5048294,-0.34047684,0.0,0.0
287772966,287673708,-0.13071251,-0.19153023,0.028278083,0.18888855,0.266531,0.0,0.0,0.0,0.0,0.0,0.0,0.0,0.0,0.29640102,0.0,0.0,nan,0.0,0.0,0.08493221,0.021874383,-0.002181381,-0.019053787,0.0,0.0,6.5048294,-0.34074655,0.0,0.0
288276718,288177488,-0.12591934,-0.12465572,-0.03893754,0.100616455,0.38148308,0.0,0.0,0.0,0.0,0.0,0.0,0.0,0.0,0.6173239,0.0,0.0,nan,0.0,0.0,0.08493221,0.015610516,-0.0026773214,-0.016694874,0.0,0.0,6.5048294,-0.31666744,0.0,0.0
288780804,288681267,-0.031746864,-0.06680584,0.05187133,0.16488647,0.3350277,0.0,0.0,0.0,0.0,0.0,0.0,0.0,0.0,0.17780209,0.0,0.0,nan,0.0,0.0,0.030106008,0.016790867,-0.0036934614,-0.015895367,0.0,0.0,6.5048294,-0.32282797,0.0,0.0
289274389,289175169,0.0022277832,-0.11984348,0.3668309,0.12854004,0.46798623,0.0,0.0,0.0,0.0,0.0,0.0,0.0,0.0,0.85711193,0.0,0.0,nan,0.0,0.0,0.023234189,0.016790867,-0.0036934614,-0.015895367,0.0,0.0,6.5048294,-0.32059458,0.0,0.0
289778211,289678948,0.061570168,-0.07474136,0.26607066,0.3363495,0.23640442,0.0,0.0,0.0,0.0,0.0,0.0,0.0,0.0,0.46527386,0.0,0.0,nan,0.0,0.0,0.019311607,0.016790867,-0.0036934614,-0.015895367,0.0,0.0,6.5048294,-0.30875143,0.0,0.0
290272137,290172849,0.08931923,-0.08352566,0.16651857,0.2789917,0.37741756,0.0,0.0,0.0,0.0,0.0,0.0,0.0,0.0,-2.2614527,0.0,0.0,nan,0.0,0.0,0.010926306,0.016790867,-0.0036934614,-0.015895367,0.0,0.0,6.5048294,-0.30866238,0.0,0.0
290775894,290676628,0.07502651,0.022871017,0.005551368,0.2132721,0.4229889,0.0,0.0,0.0,0.0,0.0,0.0,0.0,0.0,0.79609203,0.0,0.0,nan,0.0,0.0,0.014377356,0.016790867,-0.0036934614,-0.015895367,0.0,0.0,6.5048294,-0.34827965,0.0,0.0
291279620,291180407,-0.02429676,0.06201458,0.18075863,0.25553894,0.31803322,0.0,0.0,0.0,0.0,0.0,0.0,0.0,0.0,-0.72075367,0.0,0.0,nan,0.0,0.0,0.008239269,0.016790867,-0.0036934614,-0.015895367,0.0,0.0,6.5048294,-0.35541844,0.0,0.0
291773574,291674307,-0.03780842,0.049463272,0.010314763,0.29315186,0.25259018,0.0,0.0,0.0,0.0,0.0,0.0,0.0,0.0,3.870822,0.0,0.0,nan,0.0,0.0,0.018327296,0.016790867,-0.0036934614,-0.015895367,0.0,0.0,6.5048294,-0.401912,0.0,0.0
292277305,292178086,0.085206985,-0.04597473,0.02817835,0.18125916,0.29231262,0.0,0.0,0.0,0.0,0.0,0.0,0.0,0.0,0.5522146,0.0,0.0,nan,0.0,0.0,0.011940122,0.015107274,0.0011593848,-0.021573931,0.0,0.0,6.5048294,-0.42287415,0.0,0.0
292781137,292681864,0.14446068,0.089048386,0.058646455,0.34080505,0.13353729,0.0,0.0,0.0,0.0,0.0,0.0,0.0,0.0,-1.5201883,0.0,0.0,nan,0.0,0.0,0.011940122,0.014556825,0.0042522848,-0.013991892,0.0,0.0,6.5048294,-0.3907229,0.0,0.0
293275150,293175764,-0.029388428,0.065200806,-0.022703484,0.1893158,0.2205162,0.0,0.0,0.0,0.0,0.0,0.0,0.0,0.0,-0.6961603,0.0,0.0,nan,0.0,0.0,0.011940122,0.014048696,0.0020564348,-0.010751396,0.0,0.0,6.5048294,-0.3649862,0.0,0.0
293778827,293679542,-0.05086708,-0.06603336,0.19742365,0.08883667,0.2429161,0.0,0.0,0.0,0.0,0.0,0.0,0.0,0.0,0.73237896,0.0,0.0,nan,0.0,0.0,0.011940122,0.011914074,0.003568709,-0.0026285946,0.0,0.0,6.5048294,-0.3614099,0.0,0.0
294272772,294173442,-0.039488792,0.074643135,-0.117954284,0.07740784,0.18814087,0.0,0.0,0.0,0.0,0.0,0.0,0.0,0.0,0.49118328,0.0,0.0,nan,0.0,0.0,0.011940122,0.011613846,0.002021566,-0.010680467,0.0,0.0,6.5048294,-0.367956,0.0,0.0
294776474,294677220,-0.050628662,0.01922226,0.076051235,-0.021362305,0.24810791,0.0,0.0,0.0,0.0,0.0,0.0,0.0,0.0,-0.33085346,0.0,0.0,nan,0.0,0.0,0.011940122,0.016461462,0.0017853081,-0.00816083,0.0,0.0,6.5048294,-0.32605582,0.0,0.0
295280262,295180998,0.12793636,0.02355957,0.09016734,0.02029419,0.14524841,0.0,0.0,0.0,0.0,0.0,0.0,0.0,0.0,3.8946295,0.0,0.0,nan,0.0,0.0,0.011940122,0.012200594,0.0014801323,-0.0117250085,0.0,0.0,6.5048294,-0.34098536,0.0,0.0
295774174,295674897,0.07878399,-0.01880455,-0.038895316,-0.054473877,0.17590332,0.0,0.0,0.0,0.0,0.0,0.0,0.0,0.0,-2.1330423,0.0,0.0,nan,0.0,0.0,0.01658529,0.014409155,0.0022373646,-0.011506975,0.0,0.0,6.5048294,-0.37059712,0.0,0.0
296277909,296178674,0.15910816,0.063111305,-0.19601195,0.11199951,-0.0140686035,0.0,0.0,0.0,0.0,0.0,0.0,0.0,0.0,-0.31428623,0.0,0.0,nan,0.0,0.0,0.020406544,0.014409155,0.0022373646,-0.011506975,0.0,0.0,6.5048294,-0.3765894,0.0,0.0
296771855,296672573,0.19013786,0.060426712,0.047731437,0.031677246,0.05555725,0.0,0.0,0.0,0.0,0.0,0.0,0.0,0.0,-0.7585764,0.0,0.0,nan,0.0,0.0,0.02135402,0.014409155,0.0022373646,-0.011506975,0.0,0.0,6.5048294,-0.355559,0.0,0.0
297275581,297176350,0.04311943,0.059290886,0.12677386,0.055511475,-0.030227661,0.0,0.0,0.0,0.0,0.0,0.0,0.0,0.0,-1.7090693,0.0,0.0,nan,0.0,0.0,0.015235662,0.014409155,0.0022373646,-0.011506975,0.0,0.0,6.5048294,-0.3590839,0.0,0.0
297779424,297680127,0.07892418,0.09515095,0.2020981,-0.035827637,0.018676758,0.0,0.0,0.0,0.0,0.0,0.0,0.0,0.0,1.6696081,0.0,0.0,nan,0.0,0.0,0.012516677,0.014409155,0.0022373646,-0.011506975,0.0,0.0,6.5048294,-0.35994494,0.0,0.0
298273283,298174025,-0.011049271,0.14923286,0.1759963,-0.025604248,-0.05089569,0.0,0.0,0.0,0.0,0.0,0.0,0.0,0.0,-0.24078465,0.0,0.0,nan,0.0,0.0,0.018786907,0.014409155,0.0022373646,-0.011506975,0.0,0.0,6.5048294,-0.36140934,0.0,0.0
298777016,298677802,0.013435364,0.103998184,-0.040333524,0.02859497,-0.1218338,0.0,0.0,0.0,0.0,0.0,0.0,0.0,0.0,1.4037848,0.0,0.0,nan,0.0,0.0,0.029558718,0.014409155,0.0022373646,-0.011506975,0.0,0.0,6.5048294,-0.3514279,0.0,0.0
299280852,299181578,0.087940216,0.12822819,0.122042656,-0.09701538,-0.07002258,0.0,0.0,0.0,0.0,0.0,0.0,0.0,0.0,-1.3504915,0.0,0.0,nan,0.0,0.0,0.033741534,0.014409155,0.0022373646,-0.011506975,0.0,0.0,6.5048294,-0.33616552,0.0,0.0
299774907,299675476,0.12042332,0.007256508,0.16318381,-0.3112793,0.0839386,0.0,0.0,0.0,0.0,0.0,0.0,0.0,0.0,-0.1754198,0.0,0.0,nan,0.0,0.0,0.027871132,0.014409155,0.0022373646,-0.011506975,0.0,0.0,6.5048294,-0.32977435,0.0,0.0
300278512,300179252,0.018212318,0.05438137,0.003951192,-0.16384888,-0.109802246,0.0,0.0,0.0,0.0,0.0,0.0,0.0,0.0,-0.10824299,0.0,0.0,nan,0.0,0.0,0.025534987,0.014409155,0.0022373646,-0.011506975,0.0,0.0,6.5048294,-0.36345357,0.0,0.0
300772367,300673150,0.112241745,0.13536263,0.15882754,0.0340271,-0.26715088,0.0,0.0,0.0,0.0,0.0,0.0,0.0,0.0,1.2626562,0.0,0.0,nan,0.0,0.0,0.03504473,0.014409155,0.0022373646,-0.011506975,0.0,0.0,6.5048294,-0.38772509,0.0,0.0
301276547,301176925,0.014040947,0.109791756,0.07796581,-0.23764038,-0.09437561,0.0,0.0,0.0,0.0,0.0,0.0,0.0,0.0,-0.20291233,0.0,0.0,nan,0.0,0.0,-0.009710431,0.014409155,0.0022373646,-0.011506975,0.0,0.0,6.5048294,-0.3549215,0.0,0.0
301779939,301680701,0.19318008,0.5361614,0.033705205,-0.14700317,-0.1322937,0.0,0.0,0.0,0.0,0.0,0.0,0.0,0.0,-1.302392,0.0,0.0,nan,0.0,0.0,-0.02203226,0.015752822,0.00013503432,-0.0031118467,0.0,0.0,6.5048294,-0.22079189,0.0,0.0
302273934,302174598,-0.44400978,1.1487522,-0.056812882,-0.31381226,-0.06124878,0.0,0.0,0.0,0.0,0.0,0.0,0.0,0.0,0.76819515,0.0,0.0,nan,0.0,0.0,-0.02203226,-0.00083324313,0.005985856,0.0065998584,0.0,0.0,6.5048294,-0.267405,0.0,0.0
302777685,302678373,-0.5896206,0.66974866,0.04316795,-0.24404907,-0.15913391,0.0,0.0,0.0,0.0,0.0,0.0,0.0,0.0,0.6837492,0.0,0.0,nan,0.0,0.0,-0.02203226,0.008284211,0.0029126704,-0.0031635165,0.0,0.0,6.5048294,-0.29196405,0.0,0.0
303282166,303182148,-0.260211,-0.08547115,0.31816715,-0.030975342,-0.19422913,0.0,0.0,0.0,0.0,0.0,0.0,0.0,0.0,1.3265371,0.0,0.0,nan,0.0,0.0,-0.02203226,0.006950915,0.0009154901,-0.023886353,0.0,0.0,6.5048294,-0.26975498,0.0,0.0
303775267,303676045,-0.38592434,-0.37888432,0.18800464,-0.1546936,-0.2789917,0.0,0.0,0.0,0.0,0.0,0.0,0.0,0.0,-3.8085375,0.0,0.0,nan,0.0,0.0,-0.02203226,0.018386275,-0.008629655,-0.026189208,0.0,0.0,6.5048294,-0.17846666,0.0,0.0
304279288,304179820,-0.3328247,-0.19393444,-0.36670005,-0.12884521,-0.25219727,0.0,0.0,0.0,0.0,0.0,0.0,0.0,0.0,-4.447961,0.0,0.0,nan,0.0,0.0,-0.02203226,0.018017039,-0.0072668493,-0.019768327,0.0,0.0,6.5048294,-0.15097122,0.0,0.0
304773112,304673716,-0.18292236,-0.31895638,-0.034336984,0.045013428,-0.08792114,0.0,0.0,0.0,0.0,0.0,0.0,0.0,0.0,-2.3333712,0.0,0.0,nan,0.0,0.0,-0.02203226,0.012130469,-0.0014343262,-0.03387761,0.0,0.0,6.5048294,-0.12620655,0.0,0.0
305277593,305177491,0.0046653748,-0.39882278,0.20039934,-0.04727173,-0.16514587,0.0,0.0,0.0,0.0,0.0,0.0,0.0,0.0,-0.74361515,0.0,0.0,nan,0.0,0.0,-0.02203226,0.024901316,-0.0067177117,-0.055169165,0.0,0.0,6.5048294,-0.0718106,0.0,0.0
305780555,305681265,-0.3064251,-0.30687523,0.27783424,-0.23736572,-0.36590576,0.0,0.0,0.0,0.0,0.0,0.0,0.0,0.0,-2.0901499,0.0,0.0,nan,0.0,0.0,-0.02203226,0.03970851,0.0075057056,-0.057875097,0.0,0.0,6.5048294,0.042212047,0.0,0.0
306274720,306175161,-0.8527932,0.62235737,-0.18881118,-0.22445679,-0.20742798,0.0,0.0,0.0,0.0,0.0,0.0,0.0,0.0,2.2706938,0.0,0.0,nan,0.0,0.0,-0.02203226,0.0013870746,0.011438206,0.024481207,0.0,0.0,6.5048294,0.12064073,0.0,0.0
306778305,306678935,-0.8739941,0.09776878,-0.30271846,-0.20410156,-0.32874298,0.0,0.0,0.0,0.0,0.0,0.0,0.0,0.0,-0.17810917,0.0,0.0,nan,0.0,0.0,-0.02203226,0.006355063,0.013914868,0.026569903,0.0,0.0,6.5048294,0.10161213,0.0,0.0
307282381,307182708,-0.50893307,-0.34007645,-0.2224806,-0.18188477,-0.24872589,0.0,0.0,0.0,0.0,0.0,0.0,0.0,0.0,0.35631084,0.0,0.0,nan,0.0,0.0,-0.02203226,0.0072660595,0.014280722,0.018755406,0.0,0.0,6.5048294,0.111224376,0.0,0.0
307775866,307676604,0.0106134415,-0.4033003,0.041873246,-0.06283569,-0.30026245,0.0,0.0,0.0,0.0,0.0,0.0,0.0,0.0,4.81248,0.0,0.0,nan,0.0,0.0,-0.02203226,0.023737043,0.0036117285,-0.025560439,0.0,0.0,6.5048294,0.11178096,0.0,0.0
308279735,308180377,0.22993565,-0.32561016,0.22304755,-0.008117676,-0.2017746,0.0,0.0,0.0,0.0,0.0,0.0,0.0,0.0,-0.9347811,0.0,0.0,nan,0.0,0.0,-0.02203226,0.03824228,0.0018522888,-0.053191483,0.0,0.0,6.5048294,0.10850288,0.0,0.0
308773497,308674272,0.23339272,0.019827843,0.34688136,0.13809204,-0.17896271,0.0,0.0,0.0,0.0,0.0,0.0,0.0,0.0,0.64921093,0.0,0.0,nan,0.0,0.0,-0.02203226,0.041798085,0.00043195486,-0.075261995,0.0,0.0,6.5048294,0.11896966,0.0,0.0
309277508,309178046,0.19603157,-0.07372546,0.06398785,0.09942627,-0.120529175,0.0,0.0,0.0,0.0,0.0,0.0,0.0,0.0,-0.85319996,0.0,0.0,nan,0.0,0.0,-0.02203226,0.041712478,-0.010540247,-0.08179709,0.0,0.0,6.5048294,0.062747106,0.0,0.0
309781253,309681818,0.13544273,0.29032296,0.10699463,0.21487427,-0.09732056,0.0,0.0,0.0,0.0,0.0,0.0,0.0,0.0,-1.3164873,0.0,0.0,nan,0.0,0.0,-0.02203226,0.033972517,-0.017917663,-0.06975141,0.0,0.0,6.5048294,0.07706089,0.0,0.0
310274948,310175713,-0.042570114,0.51329744,0.3312776,0.17059326,-0.06764984,0.0,0.0,0.0,0.0,0.0,0.0,0.0,0.0,-1.2812738,0.0,0.0,nan,0.0,0.0,-0.02203226,0.027538896,-0.024131864,-0.061072648,0.0,0.0,6.5048294,0.10415793,0.0,0.0
310778793,310679486,-0.006336212,0.58963877,0.34641027,0.12936401,-0.04269409,0.0,0.0,0.0,0.0,0.0,0.0,0.0,0.0,-1.4420595,0.0,0.0,nan,0.0,0.0,-0.02203226,0.024650037,-0.02595868,-0.06425068,0.0,0.0,6.5048294,0.17206505,0.0,0.0
311272812,311173380,0.12918854,0.20422888,0.33562374,0.0975647,-0.024124146,0.0,0.0,0.0,0.0,0.0,0.0,0.0,0.0,-1.5086145,0.0,0.0,nan,0.0,0.0,-0.02203226,0.02509658,-0.019548088,-0.08057496,0.0,0.0,6.5048294,0.22914909,0.0,0.0
311776397,311677153,0.0656147,0.20001721,0.18466663,0.19528198,-0.029823303,0.0,0.0,0.0,0.0,0.0,0.0,0.0,0.0,-0.98134327,0.0,0.0,nan,0.0,0.0,-0.02203226,0.025184333,-0.017989025,-0.08143431,0.0,0.0,6.5048294,0.22445752,0.0,0.0
312280180,312180925,0.0783329,-0.028244972,0.14623451,0.16744995,-0.05214691,0.0,0.0,0.0,0.0,0.0,0.0,0.0,0.0,-0.7939997,0.0,0.0,nan,0.0,0.0,-0.02203226,0.026272759,-0.017969951,-0.07863611,0.0,0.0,6.5048294,0.27287856,0.0,0.0
312774184,312674819,-0.071525574,-0.12280083,-0.008731127,0.08239746,-0.07272339,0.0,0.0,0.0,0.0,0.0,0.0,0.0,0.0,-0.5737753,0.0,0.0,nan,0.0,0.0,-0.02203226,0.029012993,-0.01927659,-0.058704913,0.0,0.0,6.5048294,0.309331,0.0,0.0
313277950,313178591,0.19579697,-0.23011112,0.45205283,0.22235107,-0.16555023,0.0,0.0,0.0,0.0,0.0,0.0,0.0,0.0,-0.6961355,0.0,0.0,nan,0.0,0.0,-0.02203226,0.02970092,-0.015353322,-0.07194787,0.0,0.0,6.5048294,0.36039996,0.0,0.0
313781591,313682362,-0.059127808,-0.12411213,0.19627476,0.12741089,-0.17064667,0.0,0.0,0.0,0.0,0.0,0.0,0.0,0.0,-0.4314661,0.0,0.0,nan,0.0,0.0,-0.02203226,0.027574569,-0.017034382,-0.072770536,0.0,0.0,6.5048294,0.3744757,0.0,0.0
314275550,314176256,-0.07414913,-0.25872612,0.2856679,0.065704346,-0.18832397,0.0,0.0,0.0,0.0,0.0,0.0,0.0,0.0,-0.04905796,0.0,0.0,nan,0.0,0.0,-0.02203226,0.031180054,-0.017030537,-0.037340224,0.0,0.0,6.5048294,0.36617336,0.0,0.0
314779273,314680027,-0.09092331,-0.2283454,0.034888744,0.11993408,-0.22758484,0.0,0.0,0.0,0.0,0.0,0.0,0.0,0.0,-0.05013752,0.0,0.0,nan,0.0,0.0,-0.02203226,0.028662324,-0.018410556,-0.04005754,0.0,0.0,6.5048294,0.36239293,0.0,0.0
315273145,315173921,-0.10829353,-0.22387314,0.03142643,0.20629883,-0.28678894,0.0,0.0,0.0,0.0,0.0,0.0,0.0,0.0,0.08501911,0.0,0.0,nan,0.0,0.0,-0.02203226,0.028240666,-0.0154528245,-0.04162833,0.0,0.0,6.5048294,0.3036781,0.0,0.0
315776954,315677692,-0.03870678,-0.24207973,-0.058735132,0.12466431,-0.26023483,0.0,0.0,0.0,0.0,0.0,0.0,0.0,0.0,0.17222309,0.0,0.0,nan,0.0,0.0,-0.02203226,0.028133616,-0.016287327,-0.039358675,0.0,0.0,6.5048294,0.27565014,0.0,0.0
316280838,316181463,-0.16728115,-0.10504007,0.13146281,0.05166626,-0.25920868,0.0,0.0,0.0,0.0,0.0,0.0,0.0,0.0,0.4814787,0.0,0.0,nan,0.0,0.0,-0.02203226,0.026654571,-0.018206947,-0.035291374,0.0,0.0,6.5048294,0.2998131,0.0,0.0
316774582,316675356,-0.15292358,-0.0051112175,0.07256222,0.11166382,-0.2854271,0.0,0.0,0.0,0.0,0.0,0.0,0.0,0.0,0.2253828,0.0,0.0,nan,0.0,0.0,-0.07452011,0.025550753,-0.020361133,-0.036275983,0.0,0.0,6.5048294,0.3019855,0.0,0.0
317278346,317179127,-0.016231537,-0.25707245,0.04970336,0.053222656,-0.26634216,0.0,0.0,0.0,0.0,0.0,0.0,0.0,0.0,0.5910826,0.0,0.0,nan,0.0,0.0,-0.055288076,0.025550753,-0.020361133,-0.036275983,0.0,0.0,6.5048294,0.23921295,0.0,0.0
317782252,317682898,-0.08044338,-0.11310196,0.045848846,0.12251282,-0.28958893,0.0,0.0,0.0,0.0,0.0,0.0,0.0,0.0,0.5442667,0.0,0.0,nan,0.0,0.0,-0.0391891,0.025550753,-0.020361133,-0.036275983,0.0,0.0,6.5048294,0.24379905,0.0,0.0
318276085,318176790,-0.33640194,-0.24647474,0.12498021,0.052352905,-0.2853279,0.0,0.0,0.0,0.0,0.0,0.0,0.0,0.0,0.2367754,0.0,0.0,nan,0.0,0.0,0.022480011,0.031074047,0.006850034,-0.033940732,0.0,0.0,6.5048294,0.3945698,0.0,0.0
318779917,318680561,-0.31611538,-0.302953,-0.2324593,0.12307739,-0.27791595,0.0,0.0,0.0,0.0,0.0,0.0,0.0,0.0,0.82192516,0.0,0.0,nan,0.0,0.0,0.022480011,0.031965226,0.0019051135,-0.03978768,0.0,0.0,6.5048294,0.29893363,0.0,0.0
319273820,319174453,-0.21806908,-0.113081835,-0.090624094,0.0637207,-0.2936058,0.0,0.0,0.0,0.0,0.0,0.0,0.0,0.0,0.77562904,0.0,0.0,nan,0.0,0.0,0.022480011,0.018936083,-0.007423669,-0.041653246,0.0,0.0,6.5048294,0.012466958,0.0,0.0
319777441,319678224,0.18821812,0.47385734,0.09407449,0.03401184,-0.25839996,0.0,0.0,0.0,0.0,0.0,0.0,0.0,0.0,1.1237707,0.0,0.0,nan,0.0,0.0,0.022480011,0.011552036,-0.01922509,-0.035532653,0.0,0.0,6.5048294,-0.037485156,0.0,0.0
320281220,320181994,-0.07903957,0.6407415,-0.0425148,0.00088500977,-0.25571442,0.0,0.0,0.0,0.0,0.0,0.0,0.0,0.0,1.439949,0.0,0.0,nan,0.0,0.0,0.022480011,0.0063969344,-0.03725949,-0.05771792,0.0,0.0,6.5048294,0.107100666,0.0,0.0
320775131,320675886,0.22765732,0.8842263,0.10959673,-0.040237427,-0.17998123,0.0,0.0,0.0,0.0,0.0,0.0,0.0,0.0,1.6395931,0.0,0.0,nan,0.0,0.0,0.022480011,-0.0037160069,-0.025246233,0.011708438,0.0,0.0,6.5048294,0.15321161,0.0,0.0
321279023,321179656,0.30304718,0.1918621,-0.12300038,0.11557007,-0.20305252,0.0,0.0,0.0,0.0,0.0,0.0,0.0,0.0,-1.8263588,0.0,0.0,nan,0.0,0.0,0.022480011,0.0034008324,-0.026296288,-0.0076691806,0.0,0.0,6.5048294,0.3595786,0.0,0.0
321772802,321673548,0.12539959,-0.14213657,-0.48694074,0.17590332,-0.25953293,0.0,0.0,0.0,0.0,0.0,0.0,0.0,0.0,7.0457125,0.0,0.0,nan,0.0,0.0,0.022480011,0.0030145496,-0.006581366,-0.004559189,0.0,0.0,6.5048294,0.44329995,0.0,0.0
322276619,322177318,-0.04724312,-0.24706554,-0.3334316,0.11349487,-0.21518707,0.0,0.0,0.0,0.0,0.0,0.0,0.0,0.0,2.8419561,0.0,0.0,nan,0.0,0.0,0.022480011,0.0020093918,-0.0020524785,0.017502338,0.0,0.0,6.5048294,0.3592788,0.0,0.0
322780589,322681088,-0.17789459,-0.32731724,-0.40428472,0.1579895,-0.25977516,0.0,0.0,0.0,0.0,0.0,0.0,0.0,0.0,0.33139515,0.0,0.0,nan,0.0,0.0,0.022480011,-0.0034125447,0.00186381,0.03098002,0.0,0.0,6.5048294,0.2233648,0.0,0.0
323274247,323174980,-0.08770275,-0.21720028,-0.4062443,0.12854004,-0.2239418,0.0,0.0,0.0,0.0,0.0,0.0,0.0,0.0,-1.3413506,0.0,0.0,nan,0.0,0.0,0.022480011,-0.0051552355,-0.00068251695,0.028776258,0.0,0.0,6.5048294,0.164528,0.0,0.0
323778319,323678750,0.24853325,0.043640614,0.01771754,0.07084656,-0.15685272,0.0,0.0,0.0,0.0,0.0,0.0,0.0,0.0,3.0558138,0.0,0.0,nan,0.0,0.0,0.022480011,-0.0059823096,-0.0098990165,0.012452453,0.0,0.0,6.5048294,0.146108,0.0,0.0
324281834,324182523,0.05926895,0.08334303,-0.3137501,0.17198181,-0.1954565,0.0,0.0,0.0,0.0,0.0,0.0,0.0,0.0,1.2854414,0.0,0.0,nan,0.0,0.0,0.022480011,-0.0012284219,-0.009849049,0.008307397,0.0,0.0,6.5048294,0.22185418,0.0,0.0
324775812,324676411,0.11374283,0.09980011,-0.16124862,0.0987854,-0.1479578,0.0,0.0,0.0,0.0,0.0,0.0,0.0,0.0,-0.953948,0.0,0.0,nan,0.0,0.0,0.022480011,0.00014933944,-0.009372383,0.0057748556,0.0,0.0,6.5048294,0.19858912,0.0,0.0
325279549,325180180,-0.026865005,-0.010957241,-0.34535062,0.05003357,-0.13015842,0.0,0.0,0.0,0.0,0.0,0.0,0.0,0.0,-1.8268394,0.0,0.0,nan,0.0,0.0,0.022480011,0.0025117993,-0.009725101,-0.002760142,0.0,0.0,6.5048294,0.16426887,0.0,0.0
325773878,325674072,0.019680023,0.0061569214,-0.091749564,0.28251648,-0.2317872,0.0,0.0,0.0,0.0,0.0,0.0,0.0,0.0,-0.8778496,0.0,0.0,nan,0.0,0.0,0.022480011,0.0031989217,-0.011410855,-0.0021730065,0.0,0.0,6.5048294,0.20582455,0.0,0.0
326277129,326177841,0.027558327,0.10453844,0.045452863,0.083984375,-0.14564085,0.0,0.0,0.0,0.0,0.0,0.0,0.0,0.0,-3.0583143,0.0,0.0,nan,0.0,0.0,0.022480011,0.0017754734,-0.009807266,0.0010659993,0.0,0.0,6.5048294,0.21318531,0.0,0.0
326781002,326681611,-0.04504299,0.18682432,-0.055907726,0.011650085,-0.104673624,0.0,0.0,0.0,0.0,0.0,0.0,0.0,0.0,-1.8686132,0.0,0.0,nan,0.0,0.0,0.022480011,0.0010198057,-0.008853391,0.014755547,0.0,0.0,6.5048294,0.20800734,0.0,0.0
327274874,327175502,0.016332626,0.07980013,-0.10099828,-0.018173218,-0.09142065,0.0,0.0,0.0,0.0,0.0,0.0,0.0,0.0,-4.826891,0.0,0.0,nan,0.0,0.0,0.022480011,-0.00553447,-0.011991411,0.011380345,0.0,0.0,6.5048294,0.23940514,0.0,0.0
327778968,327679271,0.029631615,0.110648155,-0.11075711,0.080596924,-0.10465813,0.0,0.0,0.0,0.0,0.0,0.0,0.0,0.0,0.7154856,0.0,0.0,nan,0.0,0.0,-0.018679619,-0.005661547,-0.007946037,0.015741527,0.0,0.0,6.5048294,0.22681226,0.0,0.0
328282295,328183040,-0.09456539,0.015307903,-0.19372267,0.3370285,-0.20333385,0.0,0.0,0.0,0.0,0.0,0.0,0.0,0.0,-0.9703436,0.0,0.0,nan,0.0,0.0,-0.015922308,-0.005661547,-0.007946037,0.015741527,0.0,0.0,6.5048294,0.22425255,0.0,0.0
328776341,328676932,0.037395477,0.016497612,-0.41284576,0.115364075,-0.08801651,0.0,0.0,0.0,0.0,0.0,0.0,0.0,0.0,0.7944536,0.0,0.0,nan,0.0,0.0,-0.014313459,-0.005661547,-0.007946037,0.015741527,0.0,0.0,6.5048294,0.20248966,0.0,0.0
329279968,329180701,-0.012319565,-0.04294491,-0.20874685,0.08332062,-0.06441116,0.0,0.0,0.0,0.0,0.0,0.0,0.0,0.0,1.3954563,0.0,0.0,nan,0.0,0.0,-0.007935762,-0.005661547,-0.007946037,0.015741527,0.0,0.0,6.5048294,0.18348595,0.0,0.0
329774312,329674592,0.065546036,-0.0041804314,-0.030743122,0.16751099,-0.09999657,0.0,0.0,0.0,0.0,0.0,0.0,0.0,0.0,0.23909187,0.0,0.0,nan,0.0,0.0,-0.016377926,-0.005661547,-0.007946037,0.015741527,0.0,0.0,6.5048294,0.20325616,0.0,0.0
330277704,330178361,0.026260376,-0.056517124,-0.1345481,0.14951324,-0.08308792,0.0,0.0,0.0,0.0,0.0,0.0,0.0,0.0,1.9285393,0.0,0.0,nan,0.0,0.0,-0.02707839,-0.005661547,-0.007946037,0.015741527,0.0,0.0,6.5048294,0.18304293,0.0,0.0
330781511,330682129,-0.0116586685,0.0027313232,-0.15884608,0.25024796,-0.12075615,0.0,0.0,0.0,0.0,0.0,0.0,0.0,0.0,-0.83767796,0.0,0.0,nan,0.0,0.0,-0.010256767,-0.005661547,-0.007946037,0.015741527,0.0,0.0,6.5048294,0.16274741,0.0,0.0
331275252,331176020,-0.05676937,-0.023396969,-0.05462119,0.011207581,-0.0332222,0.0,0.0,0.0,0.0,0.0,0.0,0.0,0.0,3.784192,0.0,0.0,nan,0.0,0.0,-0.015776634,-0.005661547,-0.007946037,0.015741527,0.0,0.0,6.5048294,0.16830075,0.0,0.0
331779327,331679789,0.07998562,-0.14910889,0.1260898,0.10904312,-0.08673859,0.0,0.0,0.0,0.0,0.0,0.0,0.0,0.0,0.666337,0.0,0.0,nan,0.0,0.0,-0.013901472,-0.005661547,-0.007946037,0.015741527,0.0,0.0,6.5048294,0.16596119,0.0,0.0
332272911,332173680,0.03139305,-0.07517958,0.04110467,0.05596161,-0.061065674,0.0,0.0,0.0,0.0,0.0,0.0,0.0,0.0,3.6704893,0.0,0.0,nan,0.0,0.0,-0.012757063,-0.005661547,-0.007946037,0.015741527,0.0,0.0,6.5048294,0.15049092,0.0,0.0
332776711,332677448,0.017334938,0.041039467,-0.12630504,0.14066696,-0.09646225,0.0,0.0,0.0,0.0,0.0,0.0,0.0,0.0,-2.0296917,0.0,0.0,nan,0.0,0.0,-0.0058829784,-0.005661547,-0.007946037,0.015741527,0.0,0.0,6.5048294,0.1268005,0.0,0.0
333280496,333181221,-0.13019562,-0.002752304,-0.022717774,0.1057539,-0.081466675,0.0,0.0,0.0,0.0,0.0,0.0,0.0,0.0,-1.6550951,0.0,0.0,nan,0.0,0.0,-0.023847342,-0.005661547,-0.007946037,0.015741527,0.0,0.0,6.5048294,0.14910518,0.0,0.0
333774467,333675108,0.009250641,-0.0015091896,0.05321774,0.17737293,-0.10807037,0.0,0.0,0.0,0.0,0.0,0.0,0.0,0.0,-1.9976568,0.0,0.0,nan,0.0,0.0,-0.017691135,-0.005661547,-0.007946037,0.015741527,0.0,0.0,6.5048294,0.14704344,0.0,0.0
334278148,334178879,-0.029115677,-0.09936237,-0.04826343,0.14723063,-0.09460831,0.0,0.0,0.0,0.0,0.0,0.0,0.0,0.0,-0.31237316,0.0,0.0,nan,0.0,0.0,-0.018574715,-0.005661547,-0.007946037,0.015741527,0.0,0.0,6.5048294,0.13962185,0.0,0.0
334781898,334682644,-0.077124596,0.014801502,0.07572806,0.22560692,-0.1303482,0.0,0.0,0.0,0.0,0.0,0.0,0.0,0.0,-3.356398,0.0,0.0,nan,0.0,0.0,-0.015663862,-0.005661547,-0.007946037,0.015741527,0.0,0.0,6.5048294,0.14278333,0.0,0.0
335275805,335176535,-0.07435799,-0.13894081,0.121189415,0.19227982,-0.12455368,0.0,0.0,0.0,0.0,0.0,0.0,0.0,0.0,0.99658585,0.0,0.0,nan,0.0,0.0,-0.013013363,-0.005661547,-0.007946037,0.015741527,0.0,0.0,6.5048294,0.14586341,0.0,0.0
335779739,335680303,-0.15347195,0.065434456,-0.2793875,0.11285591,-0.06447601,0.0,0.0,0.0,0.0,0.0,0.0,0.0,0.0,-0.041030884,0.0,0.0,nan,0.0,0.0,0.0107524395,-0.005661547,-0.007946037,0.015741527,0.0,0.0,6.5048294,0.12374191,0.0,0.0
336273492,336174194,0.055259705,-0.020928383,0.027384639,0.07396698,-0.043556213,0.0,0.0,0.0,0.0,0.0,0.0,0.0,0.0,-2.02489,0.0,0.0,nan,0.0,0.0,-0.00804925,-0.005661547,-0.007946037,0.015741527,0.0,0.0,6.5048294,0.1124134,0.0,0.0
336777288,336677962,0.10193062,-0.18407679,-0.01796776,0.22451401,-0.104896545,0.0,0.0,0.0,0.0,0.0,0.0,0.0,0.0,0.2412386,0.0,0.0,nan,0.0,0.0,-0.005311489,-0.005661547,-0.007946037,0.015741527,0.0,0.0,6.5048294,0.14517991,0.0,0.0
337280952,337181730,0.080848694,0.20115852,-0.052452743,0.33335876,-0.13802338,0.0,0.0,0.0,0.0,0.0,0.0,0.0,0.0,-2.2478676,0.0,0.0,nan,0.0,0.0,0.060166836,-0.037935793,-0.0054452717,0.047360495,0.0,0.0,6.5048294,0.11190044,0.0,0.0
337774936,337675620,0.2008419,0.34114552,-0.25171894,0.28346634,-0.020698547,0.0,0.0,0.0,0.0,0.0,0.0,0.0,0.0,-0.88090897,0.0,0.0,nan,0.0,0.0,0.060166836,-0.043224216,-0.013108492,0.06083627,0.0,0.0,6.5048294,0.13775519,0.0,0.0
338278632,338179388,0.30344582,0.2158556,-0.11731291,0.2857132,0.057769775,0.0,0.0,0.0,0.0,0.0,0.0,0.0,0.0,0.8589096,0.0,0.0,nan,0.0,0.0,0.060166836,-0.0422232,-0.008084714,0.070367225,0.0,0.0,6.5048294,0.16096099,0.0,0.0
338782454,338683156,0.038176537,-0.054938316,0.08853054,0.4697342,-0.14849854,0.0,0.0,0.0,0.0,0.0,0.0,0.0,0.0,3.5576267,0.0,0.0,nan,0.0,0.0,0.060166836,-0.040781796,-0.007952064,0.07782978,0.0,0.0,6.5048294,0.13759398,0.0,0.0
339276268,339177047,0.3366413,0.06178093,-0.22899032,0.30680847,0.07446289,0.0,0.0,0.0,0.0,0.0,0.0,0.0,0.0,-0.7754679,0.0,0.0,nan,0.0,0.0,0.060166836,-0.03660743,-0.013861984,0.07612664,0.0,0.0,6.5048294,0.16504855,0.0,0.0
339780040,339680814,0.3293686,0.059246063,-0.17205858,0.2627716,0.17310333,0.0,0.0,0.0,0.0,0.0,0.0,0.0,0.0,-3.2575588,0.0,0.0,nan,0.0,0.0,0.060166836,-0.03461823,-0.012627125,0.07270667,0.0,0.0,6.5048294,0.2061996,0.0,0.0
340274087,340174705,0.47609425,-0.17141914,-0.2511618,0.2774124,0.17688751,0.0,0.0,0.0,0.0,0.0,0.0,0.0,0.0,1.5227919,0.0,0.0,nan,0.0,0.0,0.060166836,-0.032454565,-0.009818554,0.076235466,0.0,0.0,6.5048294,0.19437702,0.0,0.0
340777879,340678472,0.11057234,-0.13837624,0.43690133,0.21573639,0.2947693,0.0,0.0,0.0,0.0,0.0,0.0,0.0,0.0,-1.1326323,0.0,0.0,nan,0.0,0.0,0.060166836,-0.030060388,-0.009949088,0.075158894,0.0,0.0,6.5048294,0.21764569,0.0,0.0
341281467,341182240,0.15344691,0.018259048,0.070179224,0.20069122,-0.025619507,0.0,0.0,0.0,0.0,0.0,0.0,0.0,0.0,3.2214212,0.0,0.0,nan,0.0,0.0,0.060166836,-0.028522857,-0.012098581,0.07682696,0.0,0.0,6.5048294,0.1555583,0.0,0.0
341775390,341676130,0.22540362,-0.027025223,-0.011185169,0.17618561,0.1479187,0.0,0.0,0.0,0.0,0.0,0.0,0.0,0.0,-0.3295641,0.0,0.0,nan,0.0,0.0,0.060166836,-0.025731498,-0.012696058,0.07534553,0.0,0.0,6.5048294,0.1725776,0.0,0.0
342279394,342179898,0.17745543,0.07260704,0.08070016,0.17145538,0.22183228,0.0,0.0,0.0,0.0,0.0,0.0,0.0,0.0,-1.5323229,0.0,0.0,nan,0.0,0.0,0.060166836,-0.023412358,-0.009727418,0.07778876,0.0,0.0,6.5048294,0.18521912,0.0,0.0
342773059,342673788,0.09898901,0.055524826,0.14210248,0.10511017,0.12754822,0.0,0.0,0.0,0.0,0.0,0.0,0.0,0.0,-2.965888,0.0,0.0,nan,0.0,0.0,0.060166836,-0.022902295,-0.0077727735,0.07572748,0.0,0.0,6.5048294,0.10793703,0.0,0.0
343276820,343177555,-0.014258385,0.07772064,0.22513008,0.034324646,0.22200012,0.0,0.0,0.0,0.0,0.0,0.0,0.0,0.0,-0.30335522,0.0,0.0,nan,0.0,0.0,0.060166836,-0.021710575,-0.010225356,0.06988373,0.0,0.0,6.5048294,0.0500081,0.0,0.0
343780543,343681323,0.28856945,0.021287918,0.15330374,0.059028625,0.34864807,0.0,0.0,0.0,0.0,0.0,0.0,0.0,0.0,1.8099279,0.0,0.0,nan,0.0,0.0,0.060166836,-0.01780723,-0.008020967,0.067762055,0.0,0.0,6.5048294,0.037646934,0.0,0.0
344274453,344175212,0.15488052,0.062862396,0.21797991,0.06663513,0.4526825,0.0,0.0,0.0,0.0,0.0,0.0,0.0,0.0,-0.0427866,0.0,0.0,nan,0.0,0.0,0.060166836,-0.017902702,-0.009103656,0.054928593,0.0,0.0,6.5048294,0.02228116,0.0,0.0
344778255,344678980,0.17921925,0.016716003,0.18479228,-0.0127334595,0.38920593,0.0,0.0,0.0,0.0,0.0,0.0,0.0,0.0,-1.3800402,0.0,0.0,nan,0.0,0.0,0.060166836,-0.016519517,-0.004511416,0.058565423,0.0,0.0,6.5048294,0.009042383,0.0,0.0
345281969,345182747,-0.1077137,-0.00303936,0.18397665,-0.043964386,0.41983032,0.0,0.0,0.0,0.0,0.0,0.0,0.0,0.0,2.2191496,0.0,0.0,nan,0.0,0.0,0.060166836,-0.014486626,-0.0039309263,0.054618984,0.0,0.0,6.5048294,-0.01640257,0.0,0.0
345775883,345676637,-0.09733963,-0.030654907,0.17647958,-0.16046143,0.35647583,0.0,0.0,0.0,0.0,0.0,0.0,0.0,0.0,-1.2278242,0.0,0.0,nan,0.0,0.0,0.060166836,-0.013326317,-0.003978014,0.03627482,0.0,0.0,6.5048294,-0.04364575,0.0,0.0
346279625,346180404,0.23130035,0.027039051,0.15911078,-0.110874176,0.37376404,0.0,0.0,0.0,0.0,0.0,0.0,0.0,0.0,-0.3400545,0.0,0.0,nan,0.0,0.0,0.060166836,-0.0131647885,-0.0007084608,0.037730634,0.0,0.0,6.5048294,-0.05176093,0.0,0.0
346773568,346674293,0.0416584,-0.2559719,-0.11622095,-0.22249603,0.30630493,0.0,0.0,0.0,0.0,0.0,0.0,0.0,0.0,-3.2941713,0.0,0.0,nan,0.0,0.0,0.060166836,-0.01283893,0.0024003685,0.031453595,0.0,0.0,6.5048294,-0.072145045,0.0,0.0
347277658,347178060,0.10150719,0.047683716,0.2777393,0.0011863708,0.3478241,0.0,0.0,0.0,0.0,0.0,0.0,0.0,0.0,-0.2739687,0.0,0.0,nan,0.0,0.0,0.060166836,-0.012010872,0.0047695637,0.03931701,0.0,0.0,6.5048294,-0.091108836,0.0,0.0
347781075,347681827,0.40874672,0.10754368,0.17542458,-0.24188614,0.32489014,0.0,0.0,0.0,0.0,0.0,0.0,0.0,0.0,-1.943532,0.0,0.0,nan,0.0,0.0,0.060166836,-0.01250571,0.0028862208,0.03625092,0.0,0.0,6.5048294,-0.12562737,0.0,0.0
348275401,348175717,0.0142326355,-0.09169817,0.04910946,-0.23952246,0.25860596,0.0,0.0,0.0,0.0,0.0,0.0,0.0,0.0,-2.4812708,0.0,0.0,nan,0.0,0.0,0.060166836,-0.010720551,0.006829098,0.033798665,0.0,0.0,6.5048294,-0.13063382,0.0,0.0
348778879,348679483,0.304924,-0.01934123,0.12171531,-0.13548115,0.23751831,0.0,0.0,0.0,0.0,0.0,0.0,0.0,0.0,-2.0358706,0.0,0.0,nan,0.0,0.0,0.060166836,-0.013857514,0.010719195,0.025672823,0.0,0.0,6.5048294,-0.13780396,0.0,0.0
349282624,349183250,0.32655525,0.051790237,0.087800026,-0.22844219,0.21136475,0.0,0.0,0.0,0.0,0.0,0.0,0.0,0.0,0.24179745,0.0,0.0,nan,0.0,0.0,0.060166836,-0.014170438,0.0151465535,0.0266051,0.0,0.0,6.5048294,-0.13266149,0.0,0.0
349776459,349677139,0.18686104,-0.079761505,0.00046730042,-0.11571503,0.13279724,0.0,0.0,0.0,0.0,0.0,0.0,0.0,0.0,-1.7258921,0.0,0.0,nan,0.0,0.0,0.060166836,-0.011791348,0.009631626,0.046554387,0.0,0.0,6.5048294,-0.14181566,0.0,0.0
350280470,350180906,0.4037161,-0.0717268,0.18092585,-0.14099121,0.18258667,0.0,0.0,0.0,0.0,0.0,0.0,0.0,0.0,-0.24029636,0.0,0.0,nan,0.0,0.0,0.060166836,-0.007828981,0.01020842,0.031843305,0.0,0.0,6.5048294,-0.13781968,0.0,0.0
350774068,350674795,0.30073643,0.011634827,0.22463715,-0.042318344,0.1454773,0.0,0.0,0.0,0.0,0.0,0.0,0.0,0.0,-1.129075,0.0,0.0,nan,0.0,0.0,0.060166836,-0.0037634969,0.013483746,0.026638389,0.0,0.0,6.5048294,-0.15161261,0.0,0.0
351277929,351178562,0.37731647,-0.077243805,0.284312,0.04550171,0.08302307,0.0,0.0,0.0,0.0,0.0,0.0,0.0,0.0,-4.678891,0.0,0.0,nan,0.0,0.0,0.060166836,-0.003977239,0.011237228,0.014090091,0.0,0.0,6.5048294,-0.15455352,0.0,0.0
351781565,351682328,0.20548248,-0.05293846,0.11745858,-0.07135391,0.28385925,0.0,0.0,0.0,0.0,0.0,0.0,0.0,0.0,-3.882699,0.0,0.0,nan,0.0,0.0,0.060166836,-0.0014763027,0.013868896,0.015179694,0.0,0.0,6.5048294,-0.15523508,0.0,0.0
352275897,352176217,0.23114395,-0.020999908,0.23288387,0.06112671,0.20996094,0.0,0.0,0.0,0.0,0.0,0.0,0.0,0.0,-0.41458988,0.0,0.0,nan,0.0,0.0,0.060166836,-0.003271073,0.016136257,0.012517482,0.0,0.0,6.5048294,-0.15434746,0.0,0.0
352779212,352679983,-0.03513813,0.0014228821,-0.0892514,0.19504929,-0.04637146,0.0,0.0,0.0,0.0,0.0,0.0,0.0,0.0,-4.901288,0.0,0.0,nan,0.0,0.0,0.060166836,-0.0038713068,0.014655612,0.0068083405,0.0,0.0,6.5048294,-0.13734448,0.0,0.0
353273247,353173873,-0.013987064,-0.039003372,-0.03349775,0.25608826,-0.071517944,0.0,0.0,0.0,0.0,0.0,0.0,0.0,0.0,0.4287176,0.0,0.0,nan,0.0,0.0,0.060166836,-0.0046555325,0.017094173,0.0078291595,0.0,0.0,6.5048294,-0.11969764,0.0,0.0
353777024,353677638,0.18250656,0.10153389,0.08183202,0.26155472,0.22738647,0.0,0.0,0.0,0.0,0.0,0.0,0.0,0.0,-3.8077822,0.0,0.0,nan,0.0,0.0,0.060166836,-0.00632973,0.015432943,-0.0017231703,0.0,0.0,6.5048294,-0.116107665,0.0,0.0
354280958,354181404,0.064091325,-0.039354324,-0.07470705,0.29510498,0.27726746,0.0,0.0,0.0,0.0,0.0,0.0,0.0,0.0,3.0277433,0.0,0.0,nan,0.0,0.0,0.060166836,-0.006391093,0.01385472,0.0045021772,0.0,0.0,6.5048294,-0.101690196,0.0,0.0
