timestamp,timestamp_sample,states[0],states[1],states[2],states[3],states[4],states[5],states[6],states[7],states[8],states[9],states[10],states[11],states[12],states[13],states[14],states[15],states[16],states[17],states[18],states[19],states[20],states[21],states[22],states[23],covariances[0],covariances[1],covariances[2],covariances[3],covariances[4],covariances[5],covariances[6],covariances[7],covariances[8],covariances[9],covariances[10],covariances[11],covariances[12],covariances[13],covariances[14],covariances[15],covariances[16],covariances[17],covariances[18],covariances[19],covariances[20],covariances[21],covariances[22],covariances[23],n_states
218274008,218173317,-0.85493565,-0.02106306,-0.0005763382,-0.5183059,0.02267059,-0.013208585,0.07460814,13.3370285,0.65562093,4.4186497,1.9494619e-05,2.2744043e-05,-3.5578241e-06,0.0010874986,0.00022053918,-0.0001744279,0.2885477,-0.04215438,0.3786044,0.0,0.0,0.0,0.0,0.0,2.2941842e-05,5.1597767e-06,5.247276e-06,6.298779e-05,0.009420751,0.009424765,0.010994196,0.06190153,0.06191574,0.15370323,2.1498437e-11,2.1784727e-11,4.284761e-11,5.0000363e-08,5.932147e-08,5.000009e-08,0.0,0.0,0.0,0.0,0.0,0.0,0.0,0.0,24
219273929,219173399,-0.8542646,-0.021318417,-0.00063517736,-0.51940084,0.015443921,-0.007764447,0.07626221,13.355308,0.65879625,4.4519014,1.9460007e-05,2.2716293e-05,-4.2129955e-06,0.0010874413,0.00022170685,-0.00017342893,0.2885477,-0.04215438,0.3786044,0.0,0.0,0.0,0.0,0.0,2.3023917e-05,5.1792654e-06,5.26784e-06,6.32155e-05,0.00939089,0.00939122,0.011011531,0.061087854,0.06109649,0.15391763,2.1242246e-11,2.1528302e-11,4.290926e-11,5.000009e-08,5.9316793e-08,5.000009e-08,0.0,0.0,0.0,0.0,0.0,0.0,0.0,0.0,24
220273941,220173481,-0.85327536,-0.019177873,0.00035963702,-0.5211077,-0.005618396,-0.011085237,0.072437175,13.376382,0.63898546,4.465313,1.9636671e-05,2.2544806e-05,-4.697301e-06,0.0010874396,0.00022169745,-0.00016572863,0.2885477,-0.04215438,0.3786044,0.0,0.0,0.0,0.0,0.0,2.3187555e-05,5.177401e-06,5.2595096e-06,6.3357664e-05,0.009356869,0.009356859,0.010976015,0.060274426,0.06027879,0.15239751,2.1006166e-11,2.1282366e-11,4.296725e-11,5.000009e-08,5.9301527e-08,5.000009e-08,0.0,0.0,0.0,0.0,0.0,0.0,0.0,0.0,24
221274022,221173565,-0.85233295,-0.0105314525,-0.00014354238,-0.5228936,0.0034987987,0.0040787803,0.062945046,13.403861,0.65620893,4.4630632,1.9793973e-05,2.27814e-05,-4.5330207e-06,0.0010885291,0.00022155934,-0.00015160191,0.2885477,-0.04215438,0.3786044,0.0,0.0,0.0,0.0,0.0,2.3374287e-05,5.162232e-06,5.219633e-06,6.3150575e-05,0.009337364,0.009337572,0.010999665,0.05946179,0.059463177,0.15297131,2.0795969e-11,2.1055246e-11,4.2949366e-11,5.000009e-08,5.927447e-08,5.000009e-08,0.0,0.0,0.0,0.0,0.0,0.0,0.0,0.0,24
222274137,222173648,-0.84403914,0.0006097827,-0.01750408,-0.53599554,-0.010709803,-0.0071564685,0.0551931,13.405255,0.650876,4.4305706,1.982961e-05,2.2708353e-05,-4.0379323e-06,0.0010877739,0.00021980767,-0.00013247534,0.2885477,-0.04215438,0.3786044,0.0,0.0,0.0,0.0,0.0,2.4744895e-05,5.1512247e-06,5.173127e-06,6.2053536e-05,0.009279443,0.009280773,0.010961573,0.058633413,0.058633063,0.15170357,2.06045e-11,2.0843051e-11,4.3001058e-11,5.0000086e-08,5.9238562e-08,5e-08,0.0,0.0,0.0,0.0,0.0,0.0,0.0,0.0,24
223274193,223173732,-0.828876,0.0065638265,0.009558682,-0.55931216,0.05844211,-0.15920016,0.03087376,13.42143,0.6280349,4.3822746,1.9732655e-05,2.2908143e-05,-2.9804717e-06,0.0010873503,0.0002188234,-0.00011836487,0.2885477,-0.04215438,0.3786044,0.0,0.0,0.0,0.0,0.0,2.7203627e-05,5.127432e-06,5.1423403e-06,5.9864433e-05,0.009271489,0.00926858,0.010978577,0.0578528,0.05785161,0.15238275,2.044696e-11,2.0665497e-11,4.3048332e-11,5.0000093e-08,5.918479e-08,5.0000093e-08,0.0,0.0,0.0,0.0,0.0,0.0,0.0,0.0,24
224274302,224173817,-0.836554,-0.026452374,0.007490572,-0.5471943,-0.114585005,-0.13554233,-0.30400413,13.498947,0.4756535,4.12304,1.9965859e-05,2.3260514e-05,-1.4023141e-06,0.0010902339,0.00021678187,-0.00012500708,0.2885477,-0.04215438,0.3786044,0.0,0.0,0.0,0.0,0.0,2.6282856e-05,5.0584267e-06,5.1876364e-06,6.059449e-05,0.009363442,0.009376903,0.011003735,0.057150394,0.057148654,0.15314104,2.0289614e-11,2.0484477e-11,4.301061e-11,5.000018e-08,5.9098248e-08,5.000018e-08,0.0,0.0,0.0,0.0,0.0,0.0,0.0,0.0,24
225274366,225173902,-0.83843315,-0.024975773,0.005224185,-0.5444068,-0.12640749,0.067088395,-0.568068,13.382866,0.4851816,3.608875,2.015204e-05,2.33858e-05,1.348466e-07,0.0010910165,0.00021324655,-0.00012138215,0.2885477,-0.04215438,0.3786044,0.0,0.0,0.0,0.0,0.0,2.6333235e-05,4.985449e-06,5.1045204e-06,6.0750408e-05,0.009346392,0.0093484325,0.010969551,0.056440037,0.05643897,0.15205102,2.014472e-11,2.0308099e-11,4.304481e-11,5.0000093e-08,5.901852e-08,5.0000093e-08,0.0,0.0,0.0,0.0,0.0,0.0,0.0,0.0,24
226274522,226173988,0.873615,0.01308831,-0.017395979,0.48613057,-0.1750603,0.13342775,-0.74855345,13.220817,0.6482014,2.9296312,2.0014457e-05,2.3734197e-05,1.6217343e-06,0.0010914158,0.0002130795,-0.00012496041,0.31630194,-0.04620906,0.29861456,0.0,0.0,0.0,0.0,0.0,0.0005533878,5.638315e-06,5.393218e-06,0.0017661127,0.009296005,0.009299955,0.010944987,0.055803064,0.05580272,0.15103832,2.0035853e-11,2.0174069e-11,4.308232e-11,5.0000086e-08,5.8961135e-08,5e-08,0.0,0.0,0.0,0.0,0.0,0.0,0.0,0.0,24
227274736,227174074,0.8726394,0.0060405787,-0.014962541,0.48809868,0.019890659,0.036807694,-0.8634953,13.1396,0.81253606,2.0589254,1.9645095e-05,2.4067022e-05,1.6351424e-06,0.0010862116,0.00020250531,-0.000111324734,0.31630194,-0.04620906,0.29861456,0.0,0.0,0.0,0.0,0.0,0.00023584184,5.5541614e-06,5.443726e-06,0.0007517671,0.00794863,0.007894649,0.010974122,0.055027623,0.05502734,0.1519318,2.0402117e-11,2.0543534e-11,4.4080038e-11,5e-08,5.8513216e-08,5e-08,0.0,0.0,0.0,0.0,0.0,0.0,0.0,0.0,24
228274595,228174160,0.85882944,0.0070303306,-0.008381005,0.512145,0.11598493,0.0020112942,-0.95719707,13.255287,0.8877875,1.1308124,1.9637e-05,2.4449173e-05,1.6595187e-06,0.0010557625,0.00020400887,-0.000120175486,0.31630194,-0.04620906,0.29861456,0.0,0.0,0.0,0.0,0.0,0.00016352341,5.249775e-06,5.3217864e-06,0.00046260745,0.00940406,0.009188755,0.011002807,0.053960763,0.053948537,0.15283072,2.1105798e-11,2.125961e-11,4.507606e-11,5.000009e-08,5.6570055e-08,5.000009e-08,0.0,0.0,0.0,0.0,0.0,0.0,0.0,0.0,24
229274681,229174247,0.8388553,0.0100376215,-0.0017749738,0.54425913,0.12163845,-0.06549728,-1.0056652,13.39614,0.8722488,0.0560608,1.9688505e-05,2.454369e-05,1.6561363e-06,0.0010474905,0.00021021135,-9.3565824e-05,0.31630194,-0.04620906,0.29861456,0.0,0.0,0.0,0.0,0.0,0.00013253406,4.7963204e-06,4.92426e-06,0.00031811267,0.010377563,0.010156485,0.011054814,0.053171605,0.053129174,0.1552926,2.1928357e-11,2.208876e-11,4.6067133e-11,5.000009e-08,5.403612e-08,5.000009e-08,0.0,0.0,0.0,0.0,0.0,0.0,0.0,0.0,24
230274794,230174334,0.8331624,0.023995591,0.008311103,0.5524451,0.0853236,-0.16039613,-0.995814,13.5523615,0.73525953,-0.95008063,1.9833205e-05,2.452963e-05,1.6359819e-06,0.0010530453,0.00022468783,-0.00010670273,0.31630194,-0.04620906,0.29861456,0.0,0.0,0.0,0.0,0.0,0.00010839119,4.507147e-06,4.843636e-06,0.0002496325,0.010412173,0.010289095,0.010985402,0.05277206,0.052710265,0.15341361,2.2777164e-11,2.293996e-11,4.705302e-11,5.0000093e-08,5.209673e-08,5e-08,0.0,0.0,0.0,0.0,0.0,0.0,0.0,0.0,24
231274907,231174422,0.82974917,0.023830257,0.01228231,0.5574924,-0.121245965,-0.08041061,-1.0054603,13.5592165,0.65023124,-1.986942,1.9763944e-05,2.4608964e-05,1.644292e-06,0.0010459197,0.00022165584,-9.761948e-05,0.31630194,-0.04620906,0.29861456,0.0,0.0,0.0,0.0,0.0,9.047716e-05,4.422192e-06,4.6702885e-06,0.00020275931,0.009992664,0.00999179,0.0109862685,0.05249779,0.052436125,0.15359055,2.3586983e-11,2.3747794e-11,4.803007e-11,5e-08,5.0933735e-08,5.0000093e-08,0.0,0.0,0.0,0.0,0.0,0.0,0.0,0.0,24
232275097,232174510,0.82809013,0.026490688,-0.004650479,0.55994934,-0.15119624,-0.07535337,-1.0245816,13.410722,0.5287138,-3.0142915,1.9834906e-05,2.4376643e-05,1.6460648e-06,0.0010561971,0.00022205383,-9.322897e-05,0.31630194,-0.04620906,0.29861456,0.0,0.0,0.0,0.0,0.0,7.816671e-05,4.484277e-06,4.7420112e-06,0.00017313375,0.009539416,0.009544042,0.010983178,0.052188244,0.052140474,0.15369155,2.4290125e-11,2.4449128e-11,4.8999693e-11,5e-08,5.033344e-08,5e-08,0.0,0.0,0.0,0.0,0.0,0.0,0.0,0.0,24
233275007,233174599,0.84075695,0.022155048,-0.0126705915,0.540811,-0.13290589,0.02540048,-1.021314,13.263644,0.43356866,-4.0843487,1.9904479e-05,2.383228e-05,1.6748052e-06,0.0010693932,0.00022037553,-6.834232e-05,0.31630194,-0.04620906,0.29861456,0.0,0.0,0.0,0.0,0.0,6.39414e-05,4.7054705e-06,4.844488e-06,0.00015643284,0.00923016,0.009215389,0.010988584,0.051797528,0.051765796,0.15384598,2.4819724e-11,2.4980287e-11,4.995813e-11,5.000009e-08,5.0066298e-08,5.000009e-08,0.0,0.0,0.0,0.0,0.0,0.0,0.0,0.0,24
234265291,234164688,0.8510498,0.019868134,-0.015277311,0.52448666,-0.027396524,0.16118252,-0.98871285,13.175301,0.50418365,-4.9218726,1.9891779e-05,2.353304e-05,1.6992201e-06,0.0010727153,0.00021958216,-0.000101669306,0.31630194,-0.04620906,0.29861456,0.0,0.0,0.0,0.0,0.0,5.3176223e-05,4.9027417e-06,5.0120407e-06,0.00014152336,0.009042869,0.009027504,0.010968024,0.051229328,0.051209565,0.15366286,2.5110388e-11,2.5272926e-11,5.0887582e-11,5e-08,5e-08,5e-08,0.0,0.0,0.0,0.0,0.0,0.0,0.0,0.0,24
235275200,235174778,0.85505587,0.014194735,-0.0050229067,0.51831734,0.05021579,0.14312986,-1.1909202,13.230053,0.65948135,-5.767656,1.9950841e-05,2.3459137e-05,1.734448e-06,0.0010725512,0.00022073608,-0.00015582306,0.31630194,-0.04620906,0.29861456,0.0,0.0,0.0,0.0,0.0,4.7121477e-05,5.0405047e-06,5.174178e-06,0.00012922836,0.009150507,0.009169317,0.010974656,0.051155824,0.051143646,0.15264583,2.515458e-11,2.5316577e-11,5.182322e-11,5.0000093e-08,5.0000093e-08,5.0000093e-08,0.0,0.0,0.0,0.0,0.0,0.0,0.0,0.0,24
236275375,236174869,0.85599107,0.017246503,0.0035641526,0.5166907,0.13919632,-0.01671605,-2.9564023,13.342052,0.73763806,-7.908521,1.990108e-05,2.364246e-05,1.9047338e-06,0.0010721564,0.00022100117,-0.00021172554,0.31630194,-0.04620906,0.29861456,0.0,0.0,0.0,0.0,0.0,4.2977936e-05,5.0111985e-06,5.1648503e-06,0.00011753955,0.009721482,0.009734172,0.0109934835,0.05084881,0.05084523,0.15310316,2.4765868e-11,2.4926249e-11,5.2718767e-11,5.000009e-08,5.0000082e-08,5.000009e-08,0.0,0.0,0.0,0.0,0.0,0.0,0.0,0.0,24
237275396,237174959,0.84396464,0.020163635,0.00528502,0.53599375,-0.00406468,-0.07595491,-2.811691,13.446631,0.72575307,-10.732237,1.9938596e-05,2.3907995e-05,1.949865e-06,0.0010733784,0.0002209298,-0.00019078054,0.31630194,-0.04620906,0.29861456,0.0,0.0,0.0,0.0,0.0,4.2899723e-05,5.0186536e-06,5.1958427e-06,0.00010575088,0.009359373,0.009359529,0.011018231,0.050609965,0.05061214,0.15363893,2.4333237e-11,2.4493504e-11,5.3600305e-11,5.000027e-08,5.0000267e-08,5.000027e-08,0.0,0.0,0.0,0.0,0.0,0.0,0.0,0.0,24
238265625,238165049,0.8369195,0.01553507,0.0009433958,0.5471047,-0.062437292,-0.04271496,-2.789373,13.430501,0.6530629,-13.625505,2.0105968e-05,2.387613e-05,2.094645e-06,0.00107317,0.00022063014,-0.00015154186,0.31630194,-0.04620906,0.29861456,0.0,0.0,0.0,0.0,0.0,4.190666e-05,5.0288045e-06,5.1964007e-06,9.690422e-05,0.009112573,0.009120008,0.010942796,0.050039947,0.050043277,0.15180847,2.3869032e-11,2.402607e-11,5.4451704e-11,5e-08,5e-08,5e-08,0.0,0.0,0.0,0.0,0.0,0.0,0.0,0.0,24
239275572,239175141,0.832488,0.024573809,-7.626645e-06,0.5534978,-0.08429268,-0.013746841,-2.8487997,13.405671,0.6274392,-16.536337,2.0387166e-05,2.3995577e-05,2.3360178e-06,0.0010741428,0.00021976809,-9.886122e-05,0.31630194,-0.04620906,0.29861456,0.0,0.0,0.0,0.0,0.0,4.03758e-05,5.0620993e-06,5.2795017e-06,8.946607e-05,0.009142996,0.00914795,0.011001243,0.049986273,0.04998964,0.1529421,2.3406922e-11,2.3558945e-11,5.5287563e-11,5.000009e-08,5.000009e-08,5.000009e-08,0.0,0.0,0.0,0.0,0.0,0.0,0.0,0.0,24
240275678,240175235,0.82373583,0.022727149,-0.0036001331,0.5665067,-0.076826565,0.045721434,-2.9335535,13.325937,0.60121673,-19.445059,2.0446352e-05,2.3638746e-05,2.59803e-06,0.0010721207,0.00021936426,-6.2951505e-05,0.31630194,-0.04620906,0.29861456,0.0,0.0,0.0,0.0,0.0,4.0248127e-05,5.066562e-06,5.264536e-06,8.278733e-05,0.009156461,0.00915374,0.010966437,0.049741656,0.049744435,0.15172932,2.2926772e-11,2.3072223e-11,5.6098216e-11,5.0000093e-08,5.0000093e-08,5e-08,0.0,0.0,0.0,0.0,0.0,0.0,0.0,0.0,24
241265931,241165324,0.8175697,0.018419473,-0.0036685618,0.5755234,-0.016984707,0.115556516,-2.951841,13.286225,0.6743449,-22.368721,2.0524016e-05,2.3593475e-05,2.8739007e-06,0.0010719543,0.00021907351,-4.3859134e-05,0.31630194,-0.04620906,0.29861456,0.0,0.0,0.0,0.0,0.0,3.973723e-05,5.0370477e-06,5.209961e-06,7.751991e-05,0.009066826,0.009061504,0.010939285,0.04920391,0.049205694,0.1519477,2.2455045e-11,2.2593255e-11,5.6868427e-11,5e-08,5e-08,5e-08,0.0,0.0,0.0,0.0,0.0,0.0,0.0,0.0,24
242265824,242165416,0.8152222,0.011094696,0.008094068,0.5789854,0.03950676,0.04836077,-2.9678142,13.376066,0.795132,-25.319935,2.0964442e-05,2.395839e-05,3.112472e-06,0.0010756666,0.00021835044,-2.8858656e-05,0.31630194,-0.04620906,0.29861456,0.0,0.0,0.0,0.0,0.0,3.847712e-05,5.240611e-06,5.386098e-06,7.334715e-05,0.010334153,0.010331517,0.011584192,0.05447149,0.054471735,0.15610619,2.2321913e-11,2.2453194e-11,5.7594495e-11,5.00018e-08,5.00018e-08,5.0000267e-08,0.0,0.0,0.0,0.0,0.0,0.0,0.0,0.0,24
243275937,243175510,0.8162319,0.014474321,0.007198365,0.57749826,-0.02426702,-0.08290899,-2.9975653,13.478358,0.7884801,-28.313255,2.1425782e-05,2.423429e-05,3.2982286e-06,0.001079038,0.00021738268,-1.2650742e-05,0.31630194,-0.04620906,0.29861456,0.0,0.0,0.0,0.0,0.0,3.6975754e-05,5.0007825e-06,5.1578504e-06,7.073955e-05,0.009116554,0.009109939,0.010964496,0.04900871,0.04900871,0.15199363,2.1693543e-11,2.1812113e-11,5.830986e-11,5.000009e-08,5.000009e-08,5.000009e-08,0.0,0.0,0.0,0.0,0.0,0.0,0.0,0.0,24
244276075,244175603,0.82056415,0.02412726,-0.0052419393,0.5710209,-0.13044374,-0.10770908,-2.9685261,13.371381,0.626773,-31.190205,2.1284079e-05,2.3677772e-05,3.5816092e-06,0.0010752307,0.00021575589,-1.2612165e-05,0.31630194,-0.04620906,0.29861456,0.0,0.0,0.0,0.0,0.0,3.4942088e-05,4.9762493e-06,5.1729526e-06,6.873645e-05,0.009080554,0.009082399,0.010995441,0.048830617,0.048830174,0.15283775,2.1389945e-11,2.1495439e-11,5.895335e-11,5.000009e-08,5.0000093e-08,5.0000093e-08,0.0,0.0,0.0,0.0,0.0,0.0,0.0,0.0,24
245266240,245165696,0.8176783,0.022677887,-0.009752282,0.575146,-0.14680201,0.08032319,-2.9962592,13.227213,0.5762839,-34.10459,2.123593e-05,2.3303563e-05,3.8998237e-06,0.0010729692,0.00021470986,8.831827e-06,0.31630194,-0.04620906,0.29861456,0.0,0.0,0.0,0.0,0.0,3.452319e-05,4.9557198e-06,5.1264424e-06,6.619943e-05,0.009021867,0.009016174,0.010933394,0.04842244,0.048422262,0.15132529,2.1119266e-11,2.1215314e-11,5.957448e-11,5e-08,5e-08,5e-08,0.0,0.0,0.0,0.0,0.0,0.0,0.0,0.0,24
246266246,246165789,0.8136443,0.009787471,-0.012953659,0.58113647,-0.03575403,0.1982619,-2.9907644,13.09955,0.71887857,-36.987534,2.090503e-05,2.3146406e-05,4.219797e-06,0.0010712335,0.00021547372,1.4459071e-05,0.31630194,-0.04620906,0.29861456,0.0,0.0,0.0,0.0,0.0,3.4425993e-05,4.9454316e-06,5.0674803e-06,6.382565e-05,0.009024312,0.009019756,0.0109730065,0.04836398,0.048363812,0.15229042,2.0898673e-11,2.098856e-11,6.0161265e-11,5.0000093e-08,5.0000093e-08,5.0000093e-08,0.0,0.0,0.0,0.0,0.0,0.0,0.0,0.0,24
247276332,247175883,0.8153846,0.0022529527,-0.00457903,0.5788971,0.1602037,0.15545695,-2.779756,13.168559,0.94552183,-39.86762,2.0756108e-05,2.3550234e-05,4.435971e-06,0.0010725852,0.00021654308,1.7115186e-05,0.31630194,-0.04620906,0.29861456,0.0,0.0,0.0,0.0,0.0,3.3346372e-05,4.9292876e-06,5.0641843e-06,6.244217e-05,0.0089638475,0.008981977,0.010988128,0.04850216,0.048501555,0.15187705,2.0726905e-11,2.0812093e-11,6.067452e-11,5.000009e-08,5.000009e-08,5.000009e-08,0.0,0.0,0.0,0.0,0.0,0.0,0.0,0.0,24
248266533,248165976,0.81643456,0.0077683125,0.01068639,0.57728684,0.23163354,-0.0899238,-1.9191859,13.436725,1.0220094,-42.238674,2.1017891e-05,2.3983888e-05,4.2573774e-06,0.0010741934,0.00021647936,4.38806e-05,0.31630194,-0.04620906,0.29861456,0.0,0.0,0.0,0.0,0.0,3.2466058e-05,4.9831237e-06,5.1075554e-06,6.149986e-05,0.008632807,0.008624131,0.010975889,0.04816788,0.04816879,0.15230654,2.0611107e-11,2.069431e-11,6.115049e-11,5.000127e-08,5.000336e-08,5e-08,0.0,0.0,0.0,0.0,0.0,0.0,0.0,0.0,24
249266638,249166072,0.81051195,0.020260341,0.012552476,0.585237,0.029043345,-0.31465635,-1.1177163,13.637518,0.7984159,-43.675957,2.1439573e-05,2.4006593e-05,3.9597194e-06,0.0010744854,0.0002163713,6.162211e-05,0.31630194,-0.04620906,0.29861456,0.0,0.0,0.0,0.0,0.0,3.2700736e-05,5.066455e-06,5.245258e-06,5.9729333e-05,0.008558173,0.008538356,0.010992488,0.047976237,0.047977008,0.15316692,2.055515e-11,2.0630352e-11,6.158386e-11,5.000797e-08,5.0010957e-08,5e-08,0.0,0.0,0.0,0.0,0.0,0.0,0.0,0.0,24
250266579,250166165,0.7977667,0.028151067,-0.002867428,0.60230196,-0.2360955,-0.26661015,-0.67217493,13.50493,0.4907154,-44.553032,2.1306283e-05,2.3815357e-05,3.759921e-06,0.0010741437,0.00021564202,0.00011219256,0.31630194,-0.04620906,0.29861456,0.0,0.0,0.0,0.0,0.0,3.3896715e-05,5.1137235e-06,5.347561e-06,5.6915047e-05,0.00863779,0.008663363,0.010951773,0.047840223,0.0478386,0.15196325,2.0485362e-11,2.0542583e-11,6.1922266e-11,5.00144e-08,5.001881e-08,5.0000093e-08,0.0,0.0,0.0,0.0,0.0,0.0,0.0,0.0,24
251276675,251176260,0.78485894,0.010033367,0.01533644,0.61940354,-0.3140541,-0.014439423,-0.48469654,13.229792,0.30308694,-44.9653,2.1462216e-05,2.3300034e-05,3.6402896e-06,0.0010731941,0.00021459827,0.000111516114,0.31630194,-0.04620906,0.29861456,0.0,0.0,0.0,0.0,0.0,3.538744e-05,5.139218e-06,5.282601e-06,5.4616114e-05,0.008884263,0.008883531,0.011005365,0.048024423,0.048025053,0.15318035,2.0381927e-11,2.043e-11,6.227334e-11,5.0013785e-08,5.002181e-08,5.000009e-08,0.0,0.0,0.0,0.0,0.0,0.0,0.0,0.0,24
252266841,252166354,0.7554648,0.047248483,-0.014749352,0.653317,-0.97384024,-0.89584786,-0.30284026,12.601712,-0.2790524,-45.1559,2.240687e-05,2.3382905e-05,3.0167025e-06,0.0010766031,0.00021181349,8.738183e-05,0.31630194,-0.04620906,0.29861456,0.0,0.0,0.0,0.0,0.0,3.835546e-05,5.17188e-06,5.4233815e-06,4.9668517e-05,0.008998113,0.009039779,0.0109707285,0.04783769,0.0478419,0.1533043,2.0276477e-11,2.0295132e-11,6.2412124e-11,5.0000082e-08,5.001022e-08,5.000009e-08,0.0,0.0,0.0,0.0,0.0,0.0,0.0,0.0,24
253266908,253166448,0.7383479,0.037906058,-0.12042162,0.6624985,-0.75176626,0.16349882,-0.18844134,11.733598,-0.7799963,-45.304302,2.2445194e-05,2.234378e-05,3.2838263e-06,0.0010711286,0.00020643708,7.674027e-05,0.31630194,-0.04620906,0.29861456,0.0,0.0,0.0,0.0,0.0,3.9164708e-05,6.810517e-06,5.3999643e-06,4.7033845e-05,0.010396605,0.010209779,0.011528072,0.053297654,0.053310025,0.15549017,2.0371326e-11,2.0391687e-11,6.265366e-11,5.0001766e-08,5.000178e-08,5.0000178e-08,0.0,0.0,0.0,0.0,0.0,0.0,0.0,0.0,24
254276983,254176544,0.7909067,-0.086103834,-0.14007291,0.589434,1.7197742,2.060176,-0.23568839,11.870531,0.39285848,-45.416645,1.9849449e-05,2.126979e-05,1.4726555e-06,0.0010489278,0.00021379229,4.575085e-05,0.3293138,-0.04759337,0.29487783,0.031855065,-0.0076941587,-0.017227601,0.0,0.0,2.936814e-05,6.1254823e-06,5.7647294e-06,5.1353636e-05,0.010031119,0.010417968,0.010928091,0.048356403,0.0483506,0.1529979,2.0037664e-11,2.0081709e-11,6.209236e-11,5.0000093e-08,5.0000093e-08,5.0000093e-08,0.0012610969,6.517782e-05,0.0012992771,0.00036354072,0.0012826317,0.0012285555,0.0,0.0,24
255267206,255166639,0.82981974,-0.1058129,-0.011975825,0.54777694,3.2552903,0.96733975,-0.023135964,14.3932085,2.276467,-45.53426,1.8509845e-05,2.3986908e-05,-3.3402648e-06,0.0010580815,0.00022630881,4.025898e-05,0.31822923,-0.04683796,0.311413,0.021672586,-0.021025527,-0.04551536,0.0,0.0,2.2966402e-05,4.978242e-06,5.808419e-06,5.3076637e-05,0.0089498125,0.010208043,0.0108752735,0.048270617,0.048281886,0.15447418,2.0002845e-11,2.0119144e-11,6.148656e-11,5e-08,5e-08,5e-08,0.0011074422,6.0739607e-05,0.0010028125,0.00019043367,0.0011713036,0.00093373604,0.0,0.0,24
256267321,256166735,0.8640919,-0.028107837,0.1343544,0.48425645,2.060501,-0.49590972,-0.07176082,17.56297,2.7620673,-45.770103,2.0352856e-05,2.6051022e-05,-5.4338134e-06,0.0010624618,0.00020646855,6.391992e-05,0.31721157,-0.045914818,0.3473739,0.009358511,-0.011337537,-0.071759045,0.0,0.0,1.7369608e-05,7.4639074e-06,4.8685347e-06,5.676426e-05,0.0095699355,0.008989135,0.010787285,0.048261534,0.04837479,0.15260236,1.9925648e-11,2.0169984e-11,6.161528e-11,5e-08,5e-08,5e-08,0.00078889704,5.484732e-05,0.00072879595,0.00014915643,0.00084095786,0.00067206315,0.0,0.0,24
257267530,257166830,0.9034137,-0.04742095,0.04091963,0.42417026,-0.11326167,-1.77199,0.17690995,18.556238,1.5625485,-45.71044,2.2802804e-05,2.5650399e-05,-8.7003755e-06,0.001031144,0.00019994036,6.40669e-05,0.3136704,-0.044866696,0.36253577,0.007815661,-0.010415476,-0.082186,0.0,0.0,1.2244031e-05,4.9893983e-06,4.875044e-06,5.912441e-05,0.009645177,0.010328647,0.010874033,0.04827367,0.04828073,0.15282655,1.993191e-11,1.9989383e-11,6.031811e-11,5e-08,5e-08,5e-08,0.00052933634,4.9006103e-05,0.000567249,0.00012846531,0.0005512441,0.00053451763,0.0,0.0,24
258277394,258176927,0.902451,0.08225595,-0.1850767,0.38021433,0.8069481,-0.5878685,0.002984978,18.650972,-0.1652403,-45.641357,2.3000393e-05,2.353681e-05,-1.1174332e-05,0.0010081262,0.0002409381,5.2059047e-05,0.31422848,-0.045750085,0.3688345,0.012956734,-0.008575012,-0.08455137,0.0,0.0,9.258449e-06,7.0936308e-06,5.3680033e-06,5.7887348e-05,0.009187113,0.009265897,0.01078818,0.04867058,0.048642714,0.1518792,1.9990272e-11,1.9909291e-11,6.005153e-11,5.000018e-08,5.0000093e-08,5e-08,0.000411293,4.4270608e-05,0.00044481675,0.00011929551,0.00039853473,0.00043749003,0.0,0.0,24
259267457,259167022,0.9139813,-0.010875078,-0.0063736737,0.4055605,1.7794422,0.8333165,0.12713735,20.062586,0.1753611,-45.53473,2.2141416e-05,2.2514983e-05,-1.2553192e-05,0.0010164568,0.00026658893,2.2285074e-05,0.31517932,-0.046660844,0.37348726,0.016260695,-0.0068852487,-0.08624116,0.0,0.0,1.0664225e-05,4.6014234e-06,4.679102e-06,6.0181985e-05,0.009556781,0.009111039,0.010781661,0.048567764,0.04857972,0.15186366,1.9918418e-11,1.9894234e-11,6.010125e-11,5.0000093e-08,5.0000093e-08,5.0000093e-08,0.00036412137,4.1961186e-05,0.00038457083,0.00011311332,0.00033714357,0.00038785813,0.0,0.0,24
260267691,260167118,0.90397614,-0.023156526,-0.037882205,0.42527157,1.7000464,0.7119791,-0.062330484,21.653494,1.0265692,-45.43835,2.2066872e-05,2.2632174e-05,-1.2611753e-05,0.0010169501,0.0002648278,-1.7478726e-05,0.31452438,-0.046589796,0.37396973,0.015878454,-0.0075713187,-0.08565412,0.0,0.0,1.2247233e-05,4.594154e-06,4.662771e-06,6.113114e-05,0.009216438,0.0091217905,0.010864034,0.048889223,0.048896093,0.15253867,1.9945138e-11,1.9918222e-11,6.053609e-11,5.000009e-08,5.000009e-08,5.000009e-08,0.00034334118,4.0697978e-05,0.00037965243,0.00011084298,0.00031346112,0.0003828251,0.0,0.0,24
261267963,261167215,0.89264923,-0.009723506,0.071825795,0.44488642,0.17262374,0.09339618,0.095881335,22.938812,1.4901845,-45.486042,2.2810576e-05,2.3202756e-05,-1.2736513e-05,0.0010020372,0.00025615148,-5.228923e-05,0.313716,-0.04646143,0.37606913,0.014940326,-0.008130679,-0.08703067,0.0,0.0,1.3995167e-05,5.018108e-06,4.611618e-06,6.215439e-05,0.008906265,0.009451236,0.010848739,0.04910735,0.049109165,0.15142584,2.0009851e-11,1.9956703e-11,6.095156e-11,5e-08,5e-08,5e-08,0.00031507786,3.9601688e-05,0.0003525731,0.000106038526,0.0002884819,0.00035329588,0.0,0.0,24
262268044,262167312,0.8731152,0.012057171,0.010664709,0.48724827,-0.11798617,-0.28268376,-0.0021587762,22.875475,1.293799,-45.543846,2.2761937e-05,2.2983666e-05,-1.2958592e-05,0.0010004244,0.00025584383,-5.0251176e-05,0.31407604,-0.046564087,0.37691268,0.014458443,-0.007328164,-0.08703694,0.0,0.0,1.7412687e-05,4.5925694e-06,4.63318e-06,6.143658e-05,0.008904638,0.009133173,0.010902742,0.04927189,0.049311083,0.15218893,2.009088e-11,2.0010868e-11,6.09729e-11,5e-08,5e-08,5e-08,0.0003098161,3.8967268e-05,0.0003463738,0.00010347914,0.00028272998,0.0003467974,0.0,0.0,24
263267874,263167410,0.8593434,0.022648968,-0.033043094,0.5098276,-0.1580757,-0.1276481,-0.075523764,22.726418,1.0615811,-45.52346,2.2696828e-05,2.2897619e-05,-1.30202325e-05,0.0009984627,0.0002561245,-6.0385908e-05,0.31414506,-0.04667399,0.37778947,0.014571385,-0.0065743984,-0.08734134,0.0,0.0,2.0102476e-05,4.8630686e-06,4.662659e-06,6.2307285e-05,0.008897638,0.008963055,0.010895269,0.049406305,0.049460534,0.15112492,2.0132958e-11,2.0040972e-11,6.133127e-11,5.0000175e-08,5.0000107e-08,5.0000093e-08,0.0003046806,3.8230846e-05,0.0003407055,0.00010019285,0.0002783933,0.0003408611,0.0,0.0,24
264267939,264167508,0.85061646,0.0028588169,0.028745448,0.5249926,0.4832017,1.645526,0.14016005,22.577671,1.1780989,-45.71263,2.2904782e-05,2.1669179e-05,-1.25354945e-05,0.0010068555,0.00025037036,-1.6304317e-05,0.30894706,-0.04575589,0.37578213,0.018071182,-0.011269465,-0.088103436,0.0,0.0,2.2207187e-05,4.682239e-06,4.734105e-06,6.3693995e-05,0.00967389,0.009004096,0.01098892,0.049500186,0.049546372,0.15188311,2.0093049e-11,2.0051176e-11,6.1534465e-11,5.000009e-08,5.000009e-08,5.000009e-08,0.00029883505,3.754755e-05,0.00033652777,9.7055046e-05,0.00027379143,0.00033649147,0.0,0.0,24
265268423,265167605,0.8396797,-0.06915264,0.013414796,0.5384943,2.512196,5.8420997,-0.19282033,23.758316,4.9586,-45.984875,2.2520358e-05,2.081746e-05,-1.6379738e-05,0.0010154832,0.00023126134,2.3540642e-05,0.2936476,-0.043519564,0.36209145,0.034570057,-0.024668247,-0.08902979,0.0,0.0,1.8628323e-05,4.754743e-06,5.663414e-06,5.047881e-05,0.012856874,0.010399996,0.011440322,0.049475264,0.049444735,0.15268305,2.0045871e-11,1.999174e-11,5.6422034e-11,5e-08,5e-08,5e-08,0.00028903005,3.659899e-05,0.00033002335,8.934659e-05,0.0002649705,0.0003303165,0.0,0.0,24
266268244,266167704,0.8652869,-0.051068418,0.00031104332,0.4986689,5.0383263,9.254597,0.57571954,27.186296,12.564542,-46.386295,2.1452524e-05,2.0749943e-05,-2.1903583e-05,0.0009946488,0.00021245077,0.00012766547,0.2928622,-0.043503784,0.35825673,0.04151207,-0.023362959,-0.08980202,0.0,0.0,1.1723705e-05,5.0482568e-06,5.6443987e-06,3.9666116e-05,0.01205851,0.010945277,0.01181123,0.04961732,0.049450688,0.151726,2.051188e-11,1.9906882e-11,5.104981e-11,5.0000093e-08,5.0000093e-08,5.0000093e-08,0.0002870294,3.5975274e-05,0.00032435075,8.4286396e-05,0.00026225796,0.0003247171,0.0,0.0,24
267268286,267167802,0.87475646,-0.004359732,0.015823228,0.48428494,7.5319147,12.347095,0.20016995,33.35261,23.448662,-46.16443,2.1057696e-05,2.0899945e-05,-2.4473318e-05,0.0009912768,0.00020394794,0.0001720534,0.29249564,-0.04329961,0.35661057,0.04491832,-0.022645608,-0.09053096,0.0,0.0,8.592188e-06,5.8374007e-06,5.273521e-06,3.199631e-05,0.010785748,0.010738663,0.011972773,0.04955743,0.049347762,0.15268116,2.1190893e-11,1.981947e-11,4.760603e-11,5.000009e-08,5.000009e-08,5.000009e-08,0.00028604674,3.5448178e-05,0.00032280022,8.1288206e-05,0.0002605808,0.00032305077,0.0,0.0,24
268268531,268167901,0.86366946,0.01816889,0.010940324,0.50361234,8.858441,15.030994,-0.40495774,41.667515,37.205864,-46.6737,2.1013995e-05,2.1795835e-05,-2.4461866e-05,0.000983557,0.00020765155,0.00024311432,0.2916479,-0.043120053,0.35715157,0.045780353,-0.02294508,-0.09149564,0.0,0.0,8.58835e-06,6.4973146e-06,5.133655e-06,2.8782071e-05,0.009889966,0.009688402,0.0117324,0.049547352,0.049368773,0.15190595,2.179241e-11,1.9731647e-11,4.6245126e-11,5e-08,5e-08,5e-08,0.00028168136,3.479412e-05,0.0003179568,7.886621e-05,0.00025671182,0.00031781985,0.0,0.0,24
269268369,269168005,0.8534902,0.108945996,0.07561885,0.5039516,8.72526,15.618283,-1.1350155,50.911846,53.12785,-47.736313,2.058038e-05,2.3360006e-05,-2.4904073e-05,0.0009717725,0.00021363552,0.00029965895,0.29912776,-0.044584583,0.36010736,0.041899875,-0.015332527,-0.09153832,2.042444,3.2161336,8.094772e-06,8.020159e-06,4.5847246e-06,2.984093e-05,0.009218222,0.009236834,0.011224225,0.049584877,0.049434867,0.15296233,2.20148e-11,1.966117e-11,4.6233788e-11,5.000009e-08,5.000009e-08,5.000009e-08,0.00027592372,3.414313e-05,0.0003111511,7.693596e-05,0.00025188227,0.00031062373,2.9233387,1.2536966,24
270268847,270168100,0.66459984,0.24016936,0.22990306,0.66915655,0.93258995,18.839882,-1.462541,57.594223,70.405975,-48.909733,2.4592784e-05,2.5734802e-05,-2.1892583e-05,0.0009608777,0.00019686912,0.0003014311,0.3052594,-0.046194524,0.37304497,0.038110677,-0.008196593,-0.103550844,2.195413,2.8470507,1.2179574e-05,1.0251933e-05,4.570125e-06,1.8344366e-05,0.009428552,0.01647029,0.011621417,0.04958351,0.04949551,0.15194686,2.1264556e-11,1.973752e-11,4.476365e-11,5e-08,5e-08,5e-08,0.00015605836,2.9113702e-05,0.00017105046,6.001349e-05,0.00014133308,0.00016971174,1.3512452,0.3253347,24
271268596,271168199,0.69896287,-0.024303222,-0.10645541,0.7067726,-1.376017,18.322618,1.5236834,56.483635,88.96328,-49.246456,2.2887061e-05,2.5890105e-05,-2.0292591e-05,0.0009233369,0.00020252743,0.00034425664,0.32004493,-0.050327748,0.37432778,0.031956732,0.0062092324,-0.101434894,0.5001381,3.7648726,1.2904546e-05,4.8129577e-06,5.7926345e-06,1.2461269e-05,0.008298117,0.011246363,0.011213274,0.049712136,0.049772933,0.1506885,2.0281233e-11,2.0192839e-11,4.2619182e-11,5e-08,5.0000086e-08,5e-08,0.000118758966,2.7048547e-05,0.00015594158,4.9179827e-05,0.000109533066,0.00015497419,0.6065958,0.10773258,24
272268847,272168299,0.7596713,-0.072583824,-0.12884468,0.6332694,1.5225832,19.132727,1.7272305,56.022476,107.65129,-47.32147,2.0186671e-05,2.4262481e-05,-2.0111996e-05,0.0008680739,0.00017709077,0.00026739147,0.31683344,-0.050267752,0.3719383,0.032947443,0.002910835,-0.098155916,-0.050148964,4.184081,1.0721208e-05,4.906918e-06,6.5658046e-06,1.4351343e-05,0.008902062,0.008757157,0.010553615,0.049805067,0.05011015,0.15147024,2.0125408e-11,2.0513119e-11,4.3179994e-11,5e-08,5e-08,5e-08,0.00010306926,2.5943858e-05,0.0001450718,4.4145683e-05,9.671402e-05,0.00014401921,0.48598602,0.07152029,24
273268775,273168398,0.79059374,-0.022742044,-0.06385324,0.60857785,3.9514246,19.373241,1.3184112,58.847332,126.91995,-45.90861,1.9013636e-05,2.3925415e-05,-2.030668e-05,0.0008391534,0.00017621534,0.000203599,0.31606424,-0.05024373,0.3715773,0.032852393,0.0018878446,-0.09706664,0.026746275,4.369144,1.00783045e-05,4.7094404e-06,5.633142e-06,1.6712202e-05,0.0095710475,0.009617228,0.010622831,0.049978063,0.050177645,0.15212238,1.997607e-11,2.0398261e-11,4.297452e-11,5.0000093e-08,5.0000093e-08,5.0000093e-08,9.818995e-05,2.5409154e-05,0.00014052071,4.2054744e-05,9.2863644e-05,0.00013941673,0.42307845,0.057383094,24
274268871,274168498,0.8033902,0.010725957,-0.020339236,0.59500897,4.8886294,19.560926,0.5816723,63.438046,146.3973,-44.883995,1.9824829e-05,2.3905877e-05,-2.0562127e-05,0.0008398979,0.00017769403,0.00012739743,0.3153614,-0.05037606,0.37199256,0.03334178,0.0018413605,-0.09635139,0.2721238,4.4946,9.662942e-06,4.6474242e-06,4.966836e-06,1.7832961e-05,0.009910043,0.0098736035,0.010747904,0.050231017,0.05032023,0.15103067,1.9829749e-11,2.0245949e-11,4.2540676e-11,5.000009e-08,5.000009e-08,5.000009e-08,9.674921e-05,2.5045152e-05,0.00014004674,4.0804316e-05,9.185378e-05,0.00013894962,0.36166176,0.049671933,24
275268986,275168597,0.8012926,-0.002278794,-0.009971988,0.5981853,5.0071964,19.657684,-0.03606472,68.52874,165.9924,-44.59958,2.0446678e-05,2.3944678e-05,-2.0929561e-05,0.0008391028,0.00017929061,0.00010145841,0.31541786,-0.05057245,0.372747,0.03361844,0.0025063567,-0.09600625,0.37520882,4.5280414,1.0079207e-05,4.59896e-06,4.755689e-06,1.8335975e-05,0.009813377,0.009555809,0.0108625665,0.050339174,0.05037997,0.15196718,1.9720243e-11,2.0164865e-11,4.2494296e-11,5.000009e-08,5.000009e-08,5.000009e-08,9.5781914e-05,2.4715271e-05,0.0001398077,3.9797622e-05,9.1167196e-05,0.00013873687,0.3172892,0.044427756,24
276269084,276168696,0.819452,-0.39595005,-0.15969972,0.38238496,11.067932,16.67163,0.4944164,75.04684,185.0084,-44.230507,1.8202583e-05,2.4484709e-05,-2.0777778e-05,0.00083438447,0.00017398027,9.8215634e-05,0.32008404,-0.051726546,0.37942708,0.03242956,0.006439864,-0.10291786,0.61532223,4.573538,5.4442694e-06,4.097822e-06,8.238287e-06,1.8469358e-05,0.010905065,0.012512366,0.011090696,0.05033241,0.050354537,0.15106893,1.971649e-11,2.0186023e-11,4.1290065e-11,5.0000523e-08,5.000054e-08,5.000027e-08,8.332588e-05,2.372097e-05,0.00011170551,3.8405866e-05,7.857438e-05,0.000110578,0.27792364,0.041764256,24
277269199,277168796,0.89793116,-0.438884,0.016468303,-0.028797759,19.178864,1.3718381,-1.9695358,91.17733,195.26424,-45.115517,1.5515418e-05,2.7950406e-05,-3.1666896e-05,0.0008359042,0.00018160562,9.735278e-05,0.3192883,-0.053487487,0.3919484,0.0377167,0.007316728,-0.115876235,2.4469168,4.277975,1.2467436e-06,3.7679006e-06,4.583197e-06,1.3042989e-05,0.019855276,0.013151926,0.014206845,0.05069807,0.050793227,0.15207015,1.9729397e-11,2.0445265e-11,3.4858245e-11,5.000018e-08,5.000024e-08,5.000324e-08,6.434546e-05,2.1080661e-05,8.482668e-05,3.5023353e-05,5.9348527e-05,8.2653394e-05,0.14740247,0.0381994,24
278269271,278168894,0.80601,-0.3873092,0.18708004,-0.40662074,13.244553,-13.303703,-2.0455022,108.75188,189.1582,-47.180744,1.5660633e-05,2.865369e-05,-3.7765414e-05,0.0008376426,0.0001677914,8.096203e-05,0.31019697,-0.05177712,0.3964385,0.041895203,-0.00036207322,-0.120539375,3.8958516,3.8177695,1.7921951e-06,4.527531e-06,2.9921916e-06,7.4142813e-06,0.017228495,0.009637146,0.015523818,0.05209413,0.051537782,0.15146124,2.0363065e-11,2.0746228e-11,3.253402e-11,5.0000093e-08,5.0000093e-08,5.0000093e-08,4.6797704e-05,1.6922182e-05,7.65997e-05,2.8586752e-05,4.301764e-05,7.306574e-05,0.1063936,0.034112412,24
279269447,279168993,0.60166335,-0.3106793,0.29283744,-0.67507476,-0.46349472,-19.454103,-1.0090337,115.45608,171.7721,-48.80414,1.5811387e-05,2.837382e-05,-3.998738e-05,0.0008104086,0.00015219935,7.0947535e-05,0.3048351,-0.04843834,0.39879218,0.04171521,-0.006195325,-0.12308031,3.931346,3.8053896,2.9069536e-06,4.776942e-06,2.7222356e-06,4.1581698e-06,0.0118982745,0.011988551,0.016234692,0.05411931,0.052549336,0.15077724,2.1309038e-11,2.1171846e-11,3.1831e-11,5.0000047e-08,5.0000033e-08,5e-08,3.6050795e-05,1.3420285e-05,7.415112e-05,2.2109689e-05,3.4296998e-05,7.013794e-05,0.105246246,0.034137957,24
280269460,280169091,0.5757292,-0.03779139,-0.086389124,-0.8121851,-7.5325065,-18.680803,2.8042617,109.70588,152.8907,-48.161785,1.5567966e-05,2.7907232e-05,-3.8992657e-05,0.00082262134,0.00022559743,0.00017828858,0.30232647,-0.045390923,0.39846447,0.03921243,-0.010654097,-0.12314498,3.8920946,3.8196397,4.7371864e-06,3.2386608e-06,3.869158e-06,2.2746747e-06,0.008933582,0.010474296,0.014149739,0.056036726,0.054432955,0.15308292,2.2231501e-11,2.1866573e-11,3.1691996e-11,5.000009e-08,5.000009e-08,5.000009e-08,2.6139402e-05,1.10800565e-05,7.021863e-05,1.7132927e-05,2.5795629e-05,6.675732e-05,0.104194626,0.0341489,24
281269560,281169189,0.6827351,0.20965102,-0.2356456,-0.65908307,-2.365782,-20.556229,1.3540525,102.897644,133.51181,-45.31501,1.5630854e-05,2.5307398e-05,-4.0700863e-05,0.0008249209,0.00049393036,0.00014591654,0.30205005,-0.04338687,0.39215702,0.037268367,-0.013671654,-0.11772805,3.8437347,3.8362703,3.95294e-06,3.1240809e-06,5.1727884e-06,2.7597512e-06,0.009037345,0.00922997,0.010346593,0.055993874,0.054925065,0.15125576,2.3178924e-11,2.2691373e-11,3.238249e-11,5.0000093e-08,5.0000093e-08,5.0000093e-08,1.6737524e-05,9.566476e-06,5.1078958e-05,1.3512207e-05,1.6124199e-05,4.9523023e-05,0.10325619,0.034164708,24
282269706,282169287,0.7744845,0.22000688,-0.16902539,-0.56850785,3.942845,-19.883604,0.4541489,103.50392,112.74107,-44.246227,1.7814218e-05,2.5073607e-05,-3.8693724e-05,0.00061138184,0.0005333894,8.4130195e-05,0.302397,-0.041205153,0.39182484,0.03588146,-0.014331762,-0.11697923,3.7780645,3.8599353,3.171259e-06,3.2692426e-06,4.887003e-06,4.139385e-06,0.009879731,0.010757219,0.00985525,0.055751853,0.055036146,0.15021089,2.3918579e-11,2.3547274e-11,3.2428147e-11,5.000018e-08,5.000018e-08,5.000018e-08,1.3435178e-05,8.6081045e-06,4.3508193e-05,1.1825383e-05,1.2702306e-05,4.2630138e-05,0.10231962,0.034215186,24
283269921,283169384,0.8595357,0.17214459,-0.10730058,-0.46909627,9.005715,-17.837282,0.20800601,110.26337,93.384155,-44.034813,1.9974435e-05,2.6749813e-05,-3.2772932e-05,0.00037025186,0.0004898711,-1.1253653e-05,0.30102926,-0.039738886,0.39340678,0.035533797,-0.015289425,-0.1173823,3.667608,3.8905115,2.2332345e-06,3.472582e-06,4.0998225e-06,5.6231784e-06,0.010343362,0.010902496,0.010397432,0.055626858,0.055271465,0.14770567,2.4438342e-11,2.4322355e-11,3.202478e-11,5e-08,5e-08,5e-08,1.1632168e-05,7.90462e-06,3.9614046e-05,1.0771127e-05,1.0846549e-05,3.9070543e-05,0.10105691,0.034288365,24
284269984,284169481,0.90938634,0.0985807,-0.06331686,-0.39911076,11.688215,-15.937354,0.23250227,121.044205,76.16619,-43.553032,1.9782019e-05,2.7854767e-05,-2.8656887e-05,0.00022161275,0.00038649968,-6.87971e-05,0.2991439,-0.038993906,0.3950261,0.0354614,-0.016061082,-0.11713099,3.5423827,3.9090633,1.6985007e-06,3.7823913e-06,3.7871823e-06,6.8663776e-06,0.010242879,0.010148641,0.010839893,0.05593115,0.055836305,0.14793834,2.4864595e-11,2.4975223e-11,3.2153506e-11,5e-08,5e-08,5e-08,1.059188e-05,7.4453797e-06,3.8331258e-05,1.0142596e-05,9.814122e-06,3.791396e-05,0.09968598,0.034386776,24
285269947,285169577,0.928398,0.022677446,-0.018017843,-0.37045676,12.438867,-14.908738,0.09828132,133.56595,60.715298,-43.3602,1.8015791e-05,2.8396787e-05,-2.6132691e-05,9.607866e-05,0.00029003844,-9.1011105e-05,0.29760554,-0.038227376,0.39606518,0.035138503,-0.016826088,-0.11676721,3.4287655,3.9184797,1.550463e-06,4.069996e-06,3.909182e-06,7.994791e-06,0.009771162,0.009520394,0.010947964,0.056207947,0.056214325,0.14880821,2.517049e-11,2.542129e-11,3.2754216e-11,5.0000093e-08,5.0000093e-08,5.0000093e-08,9.85093e-06,7.10095e-06,3.802681e-05,9.694895e-06,9.104069e-06,3.7646296e-05,0.09850811,0.034496594,24
286270045,286169673,0.9295146,-0.00057349174,-0.007203459,-0.36871463,12.437614,-14.617081,0.041492317,146.24763,45.976772,-43.15425,1.615635e-05,2.7945198e-05,-2.4824078e-05,1.0291204e-05,0.00020196485,-0.00011199273,0.29657263,-0.037352424,0.3967594,0.034557708,-0.017460631,-0.1163782,3.296363,3.9233267,1.6965184e-06,4.2722513e-06,4.178695e-06,9.232625e-06,0.009449872,0.0094017545,0.010953807,0.05643479,0.056447625,0.14824335,2.5345698e-11,2.5642516e-11,3.3506996e-11,5.000009e-08,5.000009e-08,5.000009e-08,9.247806e-06,6.8027875e-06,3.7923633e-05,9.32025e-06,8.529321e-06,3.7548794e-05,0.0971131,0.034608554,24
287270310,287169770,0.92237866,-0.0032333825,0.0041942648,-0.38625085,12.151541,-14.745287,-0.041875336,158.69049,31.441036,-43.072796,1.4291286e-05,2.684491e-05,-2.389241e-05,-4.875038e-05,0.000119439166,-0.00011746538,0.29579088,-0.036693484,0.39724806,0.034176465,-0.01802694,-0.11599359,3.186822,3.9263575,2.0546945e-06,4.457346e-06,4.416378e-06,1.0489802e-05,0.009347515,0.009451432,0.011006445,0.056475867,0.056482945,0.14958102,2.534623e-11,2.5636295e-11,3.4216754e-11,5e-08,5e-08,5e-08,8.777468e-06,6.5589516e-06,3.7854745e-05,9.0115e-06,8.082864e-06,3.7476122e-05,0.09584465,0.034721445,24
288270437,288169862,0.91745937,0.010531324,-0.0025724054,-0.39768183,12.157844,-14.814386,0.22906922,170.88617,16.738195,-42.89581,1.3214942e-05,2.5590974e-05,-2.316516e-05,-7.81189e-05,6.5514534e-05,-0.000113266506,0.2953089,-0.03610921,0.3977234,0.033765644,-0.018415255,-0.11571152,3.0966115,3.9287214,2.4138155e-06,4.6279533e-06,4.5869765e-06,1.1879168e-05,0.009246529,0.009338366,0.011028904,0.056379158,0.05639662,0.1491611,2.5181152e-11,2.5453799e-11,3.4850522e-11,5e-08,5e-08,5.0000054e-08,8.3635305e-06,6.3282746e-06,3.7778183e-05,8.725533e-06,7.680752e-06,3.739842e-05,0.09481528,0.03483415,24
289270418,289169957,0.918441,0.014070946,-0.010184899,-0.39517665,12.183882,-14.929008,0.13597411,183.01929,1.8937788,-42.88323,1.2468108e-05,2.4921323e-05,-2.2844311e-05,-8.5818334e-05,4.8501715e-05,-9.625037e-05,0.2952603,-0.036026176,0.39781463,0.033704583,-0.018453509,-0.115657195,3.0000768,3.9304929,2.6535804e-06,4.8099023e-06,4.773739e-06,1.34639395e-05,0.009314659,0.009342675,0.011073831,0.056231752,0.05626248,0.150571,2.4915138e-11,2.5171929e-11,3.554096e-11,5.000018e-08,5.000018e-08,5.000018e-08,0.0,0.0,0.0,0.0,0.0,0.0,0.0936906,0.034946952,24
290270413,290170051,0.9179667,0.050119855,-0.019750826,-0.39298245,12.211021,-14.828267,-0.1588492,195.1833,-13.033361,-42.79883,1.2085586e-05,2.4093337e-05,-2.2564063e-05,-8.447208e-05,4.1286763e-05,-0.00010244263,0.2952603,-0.036026176,0.39781463,0.033704583,-0.018453509,-0.115657195,2.9097097,3.9317024,2.923972e-06,4.96316e-06,4.9392775e-06,1.5141005e-05,0.009487381,0.009480971,0.011046076,0.056105416,0.056141637,0.15007053,2.455494e-11,2.4796996e-11,3.626901e-11,5.0000093e-08,5.0000093e-08,5.0000093e-08,0.0,0.0,0.0,0.0,0.0,0.0,0.09264462,0.035058945,24
291270506,291170144,0.93360424,0.07531463,-0.01658394,-0.34990832,12.820256,-13.730919,-0.4195027,207.53369,-27.38276,-43.070538,1.2464888e-05,2.338689e-05,-2.2449653e-05,-7.813808e-05,4.3402317e-05,-8.5422864e-05,0.2952603,-0.036026176,0.39781463,0.033704583,-0.018453509,-0.115657195,2.8236747,3.9314826,2.648968e-06,5.0427225e-06,5.057566e-06,1.752006e-05,0.009509822,0.009523033,0.0110543985,0.055995032,0.056028463,0.15132496,2.4124914e-11,2.43078e-11,3.704376e-11,5.000009e-08,5.000009e-08,5.000009e-08,0.0,0.0,0.0,0.0,0.0,0.0,0.09178066,0.035168603,24
292270603,292170236,0.9526979,0.03776561,0.002814343,-0.3015506,13.318398,-12.8039,-0.16168988,220.50128,-40.707638,-43.332867,1.270598e-05,2.3147277e-05,-2.2473323e-05,-7.549636e-05,4.583496e-05,-4.711245e-05,0.2952603,-0.036026176,0.39781463,0.033704583,-0.018453509,-0.115657195,2.7079074,3.9272773,2.2420647e-06,5.1290035e-06,5.0851936e-06,2.021679e-05,0.009386091,0.009390463,0.011029399,0.055914477,0.055943187,0.15069722,2.3730722e-11,2.381684e-11,3.7802695e-11,5.0000093e-08,5.0000093e-08,5.0000093e-08,0.0,0.0,0.0,0.0,0.0,0.0,0.09075105,0.035273787,24
293270942,293170329,0.948964,0.02187065,-0.0050905314,-0.3145842,13.661762,-12.497932,0.14941993,233.86276,-53.29753,-43.28163,1.3112556e-05,2.264868e-05,-2.2506163e-05,-7.2148665e-05,4.4761036e-05,-3.5159108e-05,0.2952603,-0.036026176,0.39781463,0.033704583,-0.018453509,-0.115657195,2.6007314,3.9203496,2.6216921e-06,5.1908264e-06,5.1427937e-06,2.2136792e-05,0.009227392,0.009239585,0.011026991,0.055718523,0.055741113,0.15183394,2.3337129e-11,2.335442e-11,3.8496345e-11,5e-08,5e-08,5e-08,0.0,0.0,0.0,0.0,0.0,0.0,0.089829355,0.035374843,24
294270815,294170420,0.95113844,0.017479695,-0.0048026484,-0.3082324,13.751694,-12.437701,-0.4158628,247.5495,-65.86569,-43.389847,1.32786145e-05,2.2541524e-05,-2.2457167e-05,-7.218083e-05,4.418441e-05,-6.385678e-05,0.2952603,-0.036026176,0.39781463,0.033704583,-0.018453509,-0.115657195,2.5191052,3.9139972,2.7519063e-06,5.1743737e-06,5.127499e-06,2.4430601e-05,0.009492358,0.009476884,0.0109795015,0.055639736,0.0556566,0.15100692,2.2884401e-11,2.288837e-11,3.918098e-11,5.0000093e-08,5.0000093e-08,5.0000093e-08,0.0,0.0,0.0,0.0,0.0,0.0,0.08913783,0.035474844,24
295270883,295170511,0.9480023,0.006357272,0.0065954947,-0.31813183,13.560912,-12.484447,-0.14870827,261.20346,-78.265915,-43.95928,1.3108088e-05,2.2152823e-05,-2.2346625e-05,-7.3134484e-05,4.549365e-05,-1.3423755e-05,0.2952603,-0.036026176,0.39781463,0.033704583,-0.018453509,-0.115657195,2.434955,3.9069242,3.1562286e-06,5.151758e-06,5.1093457e-06,2.6523145e-05,0.009251537,0.009200268,0.010985688,0.055563856,0.055574577,0.15200537,2.2478772e-11,2.249344e-11,3.9813704e-11,5.000009e-08,5.000009e-08,5.000009e-08,0.0,0.0,0.0,0.0,0.0,0.0,0.08837588,0.03557004,24
296270992,296170602,0.95261997,0.011881056,0.008990232,-0.30379808,13.6178,-12.434606,0.03485313,274.676,-90.76214,-43.73159,1.3890251e-05,2.1504704e-05,-2.2090557e-05,-7.3893614e-05,4.196109e-05,-3.1433516e-05,0.2952603,-0.036026176,0.39781463,0.033704583,-0.018453509,-0.115657195,2.3423176,3.8993888,3.1255597e-06,5.191403e-06,5.1408742e-06,2.9067995e-05,0.009256555,0.009210465,0.010960656,0.055531636,0.055534344,0.15113683,2.2178004e-11,2.2219645e-11,4.035759e-11,5.000009e-08,5.000009e-08,5.000009e-08,0.0,0.0,0.0,0.0,0.0,0.0,0.08760881,0.035664976,24
297271066,297170692,0.95037544,0.014417074,-0.0015142257,-0.31076774,13.553035,-12.462851,-0.285987,288.16702,-103.209274,-43.829994,1.4850673e-05,2.0982394e-05,-2.1856436e-05,-7.550881e-05,3.6801026e-05,-2.1066675e-05,0.2952603,-0.036026176,0.39781463,0.033704583,-0.018453509,-0.115657195,2.2673874,3.8929067,3.4903308e-06,5.1576158e-06,5.1107863e-06,3.1303192e-05,0.009385828,0.009343182,0.010984029,0.05547452,0.05547182,0.15210693,2.1830019e-11,2.1901682e-11,4.089312e-11,5.000009e-08,5.000009e-08,5.000009e-08,0.0,0.0,0.0,0.0,0.0,0.0,0.08700825,0.035760097,24
298271210,298170781,0.95158863,0.017983722,-0.0010534717,-0.30684608,13.552131,-12.320091,-0.22606325,301.6468,-115.64509,-44.04916,1.5876562e-05,2.0806312e-05,-2.1650625e-05,-7.7166376e-05,3.057174e-05,-1.8817645e-05,0.2952603,-0.036026176,0.39781463,0.033704583,-0.018453509,-0.115657195,2.1820803,3.8851988,3.6490883e-06,5.1154684e-06,5.081187e-06,3.3806868e-05,0.00926594,0.009248268,0.010956488,0.05537072,0.05536439,0.15120079,2.1521047e-11,2.1616502e-11,4.1395234e-11,5.0000093e-08,5.0000093e-08,5.0000093e-08,0.0,0.0,0.0,0.0,0.0,0.0,0.08632761,0.035856776,24
299271273,299170871,0.9485301,0.005722628,0.008195706,-0.31652924,13.475029,-12.1822405,-0.33440316,315.1249,-127.91247,-44.27398,1.657538e-05,2.0730058e-05,-2.1463815e-05,-7.847418e-05,2.6910342e-05,1.992255e-07,0.2952603,-0.036026176,0.39781463,0.033704583,-0.018453509,-0.115657195,2.102831,3.8774269,4.118077e-06,5.095834e-06,5.053266e-06,3.6010097e-05,0.009291268,0.00928324,0.010983198,0.055200968,0.055194065,0.1521582,2.127263e-11,2.1377363e-11,4.1823253e-11,5.000009e-08,5.000009e-08,5.000009e-08,0.0,0.0,0.0,0.0,0.0,0.0,0.08568934,0.035954386,24
300271338,300170959,0.9519299,0.02806994,-0.002177886,-0.30501932,13.3454685,-12.255738,-0.14015175,328.49063,-140.13786,-44.421482,1.70035e-05,2.0603422e-05,-2.125809e-05,-8.0219135e-05,2.5248764e-05,1.7235327e-05,0.2952603,-0.036026176,0.39781463,0.033704583,-0.018453509,-0.115657195,2.0388916,3.8711376,4.086441e-06,5.079389e-06,5.09008e-06,3.8728886e-05,0.009189375,0.009181737,0.010954167,0.0549753,0.05496886,0.15123971,2.1054167e-11,2.117094e-11,4.224051e-11,5.000009e-08,5.000009e-08,5.000009e-08,0.0,0.0,0.0,0.0,0.0,0.0,0.085179165,0.036054295,24
301271464,301171047,0.9417707,0.15609853,-0.046722602,-0.29414016,13.603414,-11.748039,-0.11816752,341.8563,-152.2623,-44.49591,1.7887176e-05,2.0709755e-05,-2.1142565e-05,-8.2675986e-05,2.0295698e-05,3.613485e-05,0.2952603,-0.036026176,0.39781463,0.033704583,-0.018453509,-0.115657195,1.9539571,3.8622615,4.1460266e-06,5.0580447e-06,6.1082756e-06,4.0300165e-05,0.009194158,0.009193719,0.010963185,0.05465211,0.054646038,0.15216641,2.0860598e-11,2.0969096e-11,4.2560008e-11,5e-08,5e-08,5.000009e-08,0.0,0.0,0.0,0.0,0.0,0.0,0.08456606,0.036152344,24
302271492,302171134,0.8977721,0.4384912,0.013734779,-0.03927053,17.103971,-3.5620143,-1.1870409,356.97253,-161.62729,-44.932438,2.3663262e-05,2.383264e-05,-1.584633e-05,-6.457858e-05,-4.4323682e-05,-6.605441e-05,0.29485896,-0.03612575,0.3998038,0.033390526,-0.018456804,-0.11329033,1.9403415,3.853744,1.3545017e-06,3.991821e-06,9.411188e-06,3.3015796e-05,0.01630264,0.010923928,0.011402228,0.054450035,0.054455422,0.15117884,2.0581741e-11,2.0556631e-11,3.8032428e-11,5.0000178e-08,5.0000178e-08,5.000009e-08,8.0144655e-06,6.1260826e-06,3.281524e-05,8.366577e-06,7.3843e-06,3.262552e-05,0.084278435,0.036233127,24
303271771,303171221,0.9247042,0.30736375,0.06895521,0.21376392,15.960859,6.459217,-0.6850866,374.12564,-159.36528,-46.605515,2.6383965e-05,2.804948e-05,-4.9647106e-06,-8.412838e-05,-2.4664301e-05,-7.797973e-05,0.29453576,-0.036635827,0.4002795,0.03294955,-0.018796423,-0.11113011,1.9970901,3.8251297,1.8625527e-06,4.1508474e-06,4.09e-06,2.0039754e-05,0.016542187,0.009303862,0.011670379,0.054576974,0.054354005,0.1518078,2.0485353e-11,2.0683137e-11,2.9388134e-11,5e-08,5e-08,5e-08,7.740812e-06,5.9777567e-06,2.9099845e-05,8.0566315e-06,7.186181e-06,2.8900273e-05,0.084115565,0.03614468,24
304271951,304171308,0.9187472,0.18503554,0.05265283,0.34480882,13.490585,11.056465,0.44356248,388.98602,-150.04684,-46.4402,2.5308711e-05,2.78149e-05,-1.8656239e-06,-0.00014501541,-4.137223e-05,-6.6611254e-05,0.29407343,-0.037371244,0.40307117,0.032018803,-0.018983305,-0.10716664,2.0544574,3.7913315,2.7015622e-06,3.9926413e-06,4.321275e-06,1.5370342e-05,0.011782047,0.009319967,0.010921485,0.054909885,0.05424001,0.15004246,2.0906743e-11,2.1136405e-11,2.7800505e-11,5e-08,5e-08,5e-08,7.491799e-06,5.830118e-06,2.664636e-05,7.76382e-06,6.9989737e-06,2.6317399e-05,0.08331735,0.03574831,24
305271894,305171394,0.9217675,0.06486916,-0.002768757,0.38226816,11.97805,12.717677,0.48372293,401.61,-137.70837,-45.66353,2.4405663e-05,2.6619347e-05,-8.4750116e-07,-0.00017936183,-8.277209e-05,-5.6947672e-05,0.2935384,-0.03785079,0.40653324,0.031152913,-0.019159807,-0.103192374,2.0931315,3.7717876,3.2899575e-06,3.8736493e-06,5.6887393e-06,1.43783e-05,0.011257726,0.010778306,0.01083519,0.06078244,0.059649948,0.15242718,2.1555872e-11,2.1701379e-11,2.8230748e-11,5.000033e-08,5.0000157e-08,5e-08,7.2899174e-06,5.7004972e-06,2.5158432e-05,7.5229104e-06,6.8241093e-06,2.473531e-05,0.081565246,0.03525148,24
306272135,306171479,0.7664076,0.3630973,0.21696757,0.4834303,7.231563,15.682851,1.7790283,412.071,-124.11666,-44.02939,2.4066927e-05,2.6952344e-05,-2.00495e-06,-0.00023658827,-5.104548e-05,-8.525422e-05,0.2931188,-0.038631223,0.4088393,0.029932735,-0.019357655,-0.099978514,2.0791585,3.7753313,5.014573e-06,4.4918656e-06,3.4260577e-06,1.5043013e-05,0.009375379,0.009933966,0.010930415,0.05482307,0.054205034,0.14906892,2.215931e-11,2.2070342e-11,2.8714206e-11,5e-08,5e-08,5.000007e-08,7.1005907e-06,5.5828305e-06,2.3769286e-05,7.2911625e-06,6.685699e-06,2.3267237e-05,0.08014481,0.035040673,24
307271998,307171564,0.5189952,0.23873064,0.36805165,0.7336141,-6.6233735,17.905863,-0.56300634,413.19754,-106.293396,-43.46854,2.4155945e-05,3.0193463e-05,-1.5640501e-06,-0.00028716243,2.267469e-05,-0.000209465,0.2923922,-0.039044566,0.40798613,0.029429687,-0.019438004,-0.10141006,2.0529993,3.7775683,7.885804e-06,5.6926233e-06,3.4418592e-06,7.1547306e-06,0.010147092,0.015471157,0.013622147,0.054796487,0.05445286,0.14743502,2.3074972e-11,2.2363255e-11,2.7223793e-11,5.000009e-08,5.000009e-08,5.0000086e-08,6.9206253e-06,5.431287e-06,2.237396e-05,7.057714e-06,6.5549984e-06,2.1742631e-05,0.07931426,0.03510607,24
308272092,308171651,0.26177123,0.13007951,0.40391618,0.86683726,-15.755693,11.186756,0.22387141,401.34012,-90.91612,-43.679993,2.454041e-05,3.0605403e-05,2.4592732e-06,-0.00035196976,3.896664e-05,-0.00021698172,0.2935869,-0.039608173,0.4074472,0.028138533,-0.01982593,-0.10001638,2.0465724,3.7755785,8.340615e-06,4.557655e-06,3.7170937e-06,2.587903e-06,0.011441168,0.012833147,0.014099336,0.05488902,0.055168863,0.14789987,2.4001048e-11,2.2620765e-11,2.5317443e-11,5.000009e-08,5.000009e-08,5.000009e-08,6.707572e-06,5.2503137e-06,2.1140042e-05,6.798398e-06,6.4239375e-06,2.0360656e-05,0.07922991,0.035173554,24
309272164,309171732,0.0048911776,0.05913305,0.2688154,0.9613624,-17.979948,2.474804,1.50198,383.81714,-84.21387,-42.59536,2.4903293e-05,3.137071e-05,4.469836e-06,-0.0003798917,5.6573692e-05,-0.00021060127,0.29537702,-0.038808588,0.40922868,0.026203943,-0.020015357,-0.09554874,2.051792,3.7686145,8.5250695e-06,3.3966733e-06,4.075531e-06,6.769873e-07,0.011935379,0.009537038,0.013491964,0.05506698,0.055683006,0.1484567,2.4824323e-11,2.3122887e-11,2.450117e-11,5.000009e-08,5.000009e-08,5.000009e-08,6.456883e-06,5.0655144e-06,2.0153675e-05,6.517788e-06,6.2904883e-06,1.9172732e-05,0.07931059,0.03517849,24
310272242,310171815,-0.023281416,0.07733608,-0.061169278,0.9948545,-17.290352,0.12382646,2.9156485,366.19226,-83.65947,-40.032707,2.5319046e-05,3.0566614e-05,5.1326806e-06,-0.00034054415,-2.2766282e-05,-0.00014531148,0.2965582,-0.038587794,0.4117413,0.025020998,-0.01974559,-0.092592575,2.0620348,3.75645,8.76389e-06,3.3570645e-06,3.9053484e-06,5.0633884e-07,0.009584009,0.008673345,0.011629878,0.055360645,0.0557451,0.14739342,2.5691184e-11,2.3848014e-11,2.4699461e-11,5.000009e-08,5.000009e-08,5.000009e-08,6.2454264e-06,4.9193927e-06,1.9589079e-05,6.280273e-06,6.0928346e-06,1.8656541e-05,0.079274476,0.03504218,24
311272284,311171898,0.10235517,0.056970574,-0.1299897,0.9845713,-16.72909,2.30094,3.094823,349.20187,-82.916176,-36.7446,2.5123356e-05,2.9383085e-05,6.0986536e-06,-0.00029402747,-0.00013062425,-8.9767425e-05,0.29731566,-0.039273046,0.41349933,0.024228815,-0.01918485,-0.089216605,2.079435,3.7277923,9.319658e-06,3.921997e-06,3.8258136e-06,4.819288e-07,0.008827335,0.009039564,0.010308569,0.05529004,0.055427942,0.148025,2.6539507e-11,2.4679474e-11,2.5333098e-11,5.000009e-08,5.000009e-08,5.000009e-08,6.0664083e-06,4.8058487e-06,1.8915547e-05,6.0822217e-06,5.8596156e-06,1.81957e-05,0.079309985,0.034916013,24
312272413,312171981,0.1722385,0.054742582,-0.09539177,0.9788961,-15.945928,4.4077735,3.0607238,332.85245,-79.55221,-33.58112,2.4205381e-05,2.8694618e-05,6.6054554e-06,-0.0002632493,-0.00016723882,-9.261448e-05,0.297939,-0.040127464,0.41582125,0.0233577,-0.018908165,-0.08558847,2.0916634,3.6960726,1.00957195e-05,3.9266993e-06,3.8889284e-06,6.0961344e-07,0.009326787,0.009550927,0.010188963,0.055007156,0.055089656,0.14676104,2.7152036e-11,2.5508972e-11,2.5734593e-11,5.000009e-08,5.000009e-08,5.000009e-08,5.8953174e-06,4.70596e-06,1.8334078e-05,5.904453e-06,5.6563977e-06,1.7779861e-05,0.07945007,0.03485121,24
313272448,313172063,0.23969083,0.059768643,-0.044104557,0.9680035,-15.217326,5.4828887,2.9968636,317.3196,-74.40936,-30.754587,2.3650911e-05,2.8352542e-05,6.0787243e-06,-0.0002406375,-0.00013910122,-7.041996e-05,0.29847375,-0.04088574,0.41765085,0.022484919,-0.018603401,-0.08301361,2.1033,3.6447423,1.0584773e-05,3.964023e-06,4.03094e-06,9.213173e-07,0.009425111,0.0096523985,0.010506465,0.054740936,0.054827586,0.1476078,2.7527914e-11,2.621097e-11,2.6066573e-11,5.0000093e-08,5.0000093e-08,5.0000093e-08,5.7565157e-06,4.6275036e-06,1.795089e-05,5.7630346e-06,5.5104847e-06,1.7485117e-05,0.07963899,0.034742195,24
314272514,314172145,0.25354016,0.06505567,0.003775275,0.96512747,-14.800391,6.001896,3.0912812,302.44403,-68.47586,-27.575872,2.3763057e-05,2.7667777e-05,5.1755696e-06,-0.00022027473,-7.836431e-05,-3.751738e-05,0.29895318,-0.041621678,0.4193533,0.021631882,-0.01826944,-0.08080732,2.1125183,3.5822518,1.1293886e-05,4.210286e-06,4.2681127e-06,1.0898796e-06,0.009365444,0.009541972,0.010764809,0.054588508,0.054686278,0.14713523,2.7689807e-11,2.6684488e-11,2.656897e-11,5.0000093e-08,5.0000093e-08,5.0000093e-08,5.6271924e-06,4.5544643e-06,1.7642897e-05,5.630011e-06,5.384957e-06,1.7229824e-05,0.07986661,0.0346329,24
315272637,315172226,0.22624086,0.059168816,0.005949253,0.97225446,-14.696385,5.9853864,2.8673244,287.79675,-62.333553,-24.598707,2.4369563e-05,2.6637585e-05,4.2136553e-06,-0.00022096341,-2.2792054e-05,-4.099157e-05,0.29935932,-0.042224526,0.42026496,0.020966142,-0.01783699,-0.07960472,2.1194777,3.5326445,1.2521561e-05,4.48894e-06,4.4921126e-06,1.0148134e-06,0.0093542375,0.009463053,0.010962533,0.054531317,0.054633055,0.14872418,2.7567473e-11,2.6821486e-11,2.7256197e-11,5.000018e-08,5.000018e-08,5.000018e-08,5.5211617e-06,4.495548e-06,1.742029e-05,5.5186133e-06,5.288611e-06,1.702995e-05,0.0801262,0.034608036,24
316272681,316172307,0.22086193,0.05857442,0.008498607,0.9735075,-14.749775,5.6923943,2.963483,273.14642,-56.341385,-21.661541,2.5067331e-05,2.5380159e-05,3.280313e-06,-0.00022619322,2.1985456e-05,-4.45209e-05,0.29977486,-0.04268776,0.42110994,0.020398274,-0.017492175,-0.07855065,2.1267612,3.4863966,1.3875882e-05,4.72728e-06,4.705473e-06,1.0628333e-06,0.009290812,0.009324584,0.011033859,0.054548636,0.054643523,0.14856616,2.7219364e-11,2.664659e-11,2.803701e-11,5.0000093e-08,5.0000093e-08,5.0000093e-08,5.4254306e-06,4.443675e-06,1.7229275e-05,5.416438e-06,5.203675e-06,1.6853755e-05,0.080410704,0.03458367,24
317272754,317172387,0.18643478,0.05203364,0.012434014,0.9810097,-14.472354,5.62354,2.8649476,258.67038,-50.52635,-18.950668,2.555569e-05,2.3853365e-05,2.7398844e-06,-0.00021250137,4.662843e-05,-3.206501e-06,0.29987237,-0.042833436,0.4213568,0.020243455,-0.017383356,-0.07822382,2.133804,3.4398801,1.561959e-05,4.9546875e-06,4.9069404e-06,9.2470304e-07,0.009336854,0.009326182,0.011098404,0.05461078,0.054681487,0.1501931,2.6783561e-11,2.6302386e-11,2.8865639e-11,5.0000093e-08,5.0000093e-08,5.0000093e-08,0.0,0.0,0.0,0.0,0.0,0.0,0.08071989,0.03458083,24
318272838,318172467,0.20213827,0.0849939,0.23711765,0.9464098,-14.620629,4.24902,3.157968,244.3863,-45.16167,-16.100033,2.7329912e-05,2.2656943e-05,2.142177e-06,-0.00021250462,6.321828e-05,3.134571e-05,0.2999435,-0.042836934,0.42151976,0.020182699,-0.017384008,-0.07802774,2.1458354,3.3990679,1.6074404e-05,6.137025e-06,4.90979e-06,1.3471434e-06,0.009383744,0.009245247,0.011025033,0.054682422,0.054728355,0.14980741,2.6289663e-11,2.5781537e-11,2.967187e-11,5.000009e-08,5.000009e-08,5.000009e-08,5.3875738e-06,4.4214808e-06,1.7058588e-05,5.376162e-06,5.1690104e-06,1.6692833e-05,0.08103542,0.034631204,24
319273042,319172552,-0.09650954,0.082188286,0.062069327,0.9899891,-15.530241,-0.11112855,2.6311848,229.34457,-43.075016,-13.258501,3.0329806e-05,2.131232e-05,1.4614043e-06,-0.00022858796,5.009561e-05,2.7045218e-07,0.30087042,-0.042644292,0.42412573,0.019435732,-0.017373672,-0.07480798,2.17734,3.3577266,1.804833e-05,4.995462e-06,5.0317717e-06,6.089116e-07,0.0105505325,0.009608419,0.011111309,0.054729298,0.054749284,0.1510518,2.541001e-11,2.4762258e-11,2.9806258e-11,5e-08,5e-08,5e-08,5.2474584e-06,4.3230907e-06,1.5707461e-05,5.227254e-06,5.035523e-06,1.5395752e-05,0.0812146,0.034677926,24
320273066,320172627,0.07698683,0.028647814,-0.35792312,0.93013084,-15.061015,1.315938,2.897176,214.0087,-43.428562,-10.953768,2.6652728e-05,1.9689569e-05,6.2687957e-07,-0.00027418757,6.3647916e-05,7.304753e-05,0.30135512,-0.043166954,0.42576396,0.01907475,-0.01700493,-0.07199669,2.1796978,3.3539836,1.6587303e-05,7.2917173e-06,4.2708625e-06,1.0375006e-06,0.00920841,0.00921375,0.010682476,0.05471579,0.05466981,0.15028542,2.4660378e-11,2.4061298e-11,3.0199357e-11,5e-08,5.000009e-08,5e-08,5.1349284e-06,4.2442534e-06,1.4767077e-05,5.1062875e-06,4.92447e-06,1.4467221e-05,0.08143453,0.034785744,24
321273073,321172707,0.37676007,-0.025666457,-0.17624599,0.9090272,-13.264468,8.870047,2.940456,199.43178,-38.24525,-8.235981,2.1233003e-05,2.006346e-05,-1.1994879e-06,-0.0003129196,7.9357196e-05,7.2373194e-05,0.3011433,-0.043231044,0.42420077,0.019034227,-0.016535254,-0.07216853,2.1675286,3.3341649,1.5684676e-05,5.030473e-06,4.6369646e-06,3.1328602e-06,0.011479394,0.009457475,0.0107221445,0.054449465,0.054429483,0.15110126,2.3885179e-11,2.3781348e-11,2.9718325e-11,5.000009e-08,5.000009e-08,5.000009e-08,5.030989e-06,4.1753146e-06,1.3977877e-05,4.9949144e-06,4.820791e-06,1.3699628e-05,0.08179961,0.03504507,24
322273173,322172786,0.3664731,0.04757669,0.12037684,0.9213812,-13.455567,10.095882,1.1618537,186.28647,-28.121151,-6.837854,2.2075019e-05,2.1539736e-05,-3.505148e-06,-0.00032317688,4.6689354e-05,4.9356255e-05,0.30099922,-0.04347811,0.42365533,0.0188583,-0.016252331,-0.072621785,2.1193342,3.2774498,1.5031552e-05,5.2658256e-06,4.4453386e-06,2.892141e-06,0.010516631,0.009870912,0.010708191,0.05452272,0.05448079,0.1501105,2.305747e-11,2.3601045e-11,2.9181286e-11,5e-08,5.0000093e-08,5e-08,4.927231e-06,4.109608e-06,1.3356182e-05,4.886642e-06,4.7184744e-06,1.30879525e-05,0.08205662,0.03520116,24
