timestamp,timestamp_sample,ref_timestamp,ref_lat,ref_lon,x,y,z,delta_xy[0],delta_xy[1],delta_z,vx,vy,vz,z_deriv,delta_vxy[0],delta_vxy[1],delta_vz,ax,ay,az,heading,delta_heading,ref_alt,dist_bottom,eph,epv,evh,evv,vxy_max,vz_max,hagl_min,hagl_max,xy_valid,z_valid,v_xy_valid,v_z_valid,xy_reset_counter,z_reset_counter,vxy_reset_counter,vz_reset_counter,heading_reset_counter,heading_good_for_control,xy_global,z_global,dist_bottom_valid,dist_bottom_sensor_bitfield
217876126,217875731,19482372,36.660603099999996,126.342033,13.31905,0.6667343,4.3898907,-0.0023442465,-0.00101622,0.0,0.032566495,-0.00092997245,0.06295185,0.024624541,0.11088751,-0.07729845,0.16924699,0.009336457,0.006367114,0.01192309,1.0340074,-0.0013807509,13.964416,0.1,0.35285804,0.39193785,0.13715957,0.105167694,inf,inf,inf,inf,1,1,1,1,2,0,2,1,3,0,1,1,1,0
218379828,218379502,19482372,36.660603099999996,126.342033,13.339045,0.66378504,4.4023576,-0.0023442465,-0.00101622,0.0,0.039380435,-0.0015043874,0.06282464,0.024981715,0.11088751,-0.07729845,0.16924699,0.0047690226,0.011003138,0.017558232,1.03746,-0.0013807509,13.964416,0.1,0.36016572,0.39442283,0.14180115,0.10678974,inf,inf,inf,inf,1,1,1,1,2,0,2,1,3,0,1,1,1,0
218874027,218873395,19482372,36.660603099999996,126.342033,13.357616,0.66540354,4.421528,-0.0023442465,-0.00101622,0.0,0.044362575,0.00097567873,0.064886786,0.032390714,0.11088751,-0.07729845,0.16924699,0.018680094,-0.0040503074,0.016356174,1.041063,-0.0013807509,13.964416,0.1,0.35038176,0.3919603,0.13683985,0.10519697,inf,inf,inf,inf,1,1,1,1,2,0,2,1,3,0,1,1,1,0
219377461,219377166,19482372,36.660603099999996,126.342033,13.364438,0.6678248,4.43722,-0.0023442465,-0.00101622,0.0,0.040476426,0.003495144,0.064873755,0.031317834,0.11088751,-0.07729845,0.16924699,-0.016222376,0.028557379,-0.23508115,1.0441037,-0.0013807509,13.964416,0.1,0.3576314,0.3945575,0.14142661,0.10681236,inf,inf,inf,inf,1,1,1,1,2,0,2,1,3,0,1,1,1,0
219871573,219871060,19482372,36.660603099999996,126.342033,13.3776,0.6609619,4.454316,-0.0023442465,-0.00101622,0.0,0.040479764,-0.0011999666,0.06559986,0.03268456,0.11088751,-0.07729845,0.16924699,-0.049615428,-0.134892,-0.48760232,1.0451815,-0.0013807509,13.964416,0.1,0.34785995,0.39220533,0.13650568,0.105230674,inf,inf,inf,inf,1,1,1,1,2,0,2,1,3,0,1,1,1,0
220375147,220374830,19482372,36.660603099999996,126.342033,13.388567,0.647676,4.453163,-0.0023442465,-0.00101622,0.0,0.035563514,-0.00673793,0.062046155,0.016474456,0.11088751,-0.07729845,0.16924699,-0.036836494,-0.049760982,0.48927546,1.04787,-0.0013807509,13.964416,0.1,0.35509717,0.39244473,0.14105967,0.10658112,inf,inf,inf,inf,1,1,1,1,2,0,2,1,3,0,1,1,1,0
220879313,220878603,19482372,36.660603099999996,126.342033,13.398942,0.6446867,4.459887,-0.0023442465,-0.00101622,0.0,0.0372759,-0.007363116,0.055509094,0.010047072,0.11088751,-0.07729845,0.16924699,0.16546217,-0.8720622,-1.3206648,1.0477188,-0.0013807509,13.964416,0.1,0.3461014,0.39083767,0.1366737,0.10521052,inf,inf,inf,inf,1,1,1,1,2,0,2,1,3,0,1,1,1,0
221372818,221372495,19482372,36.660603099999996,126.342033,13.413408,0.6542368,4.449742,-0.0023442465,-0.00101622,0.0,0.031455554,-0.00077091425,0.047970515,-0.009017218,0.11088751,-0.07729845,0.16924699,-0.8527772,-0.7664838,-0.6540635,1.045752,-0.0013807509,13.964416,0.1060648,0.3526235,0.39304507,0.14081353,0.10665777,inf,inf,inf,inf,1,1,1,1,2,0,2,1,3,0,1,1,1,0
221876698,221876267,19482372,36.660603099999996,126.342033,13.42173,0.66388494,4.426582,-0.0023442465,-0.00101622,0.0,0.028433729,0.0020464396,0.03476625,-0.03021407,0.11088751,-0.07729845,0.16924699,0.89575636,-0.37377352,-0.11472682,1.0455612,-0.0013807509,13.964416,0.12922478,0.34363374,0.39153156,0.13636872,0.10528821,inf,inf,inf,inf,1,1,1,1,2,0,2,1,3,0,1,1,1,0
222380334,222380039,19482372,36.660603099999996,126.342033,13.420451,0.6609418,4.406925,-0.0023442465,-0.00101622,0.0,0.016249552,0.01880745,0.040939007,-0.028004693,0.11088751,-0.07729845,0.16924699,0.045740765,-0.5926091,-1.0083854,1.0784208,-0.0013807509,13.964416,0.14888144,0.3507812,0.39191148,0.14069104,0.10660067,inf,inf,inf,inf,1,1,1,1,2,0,2,1,3,0,1,1,1,0
222874432,222873933,19482372,36.660603099999996,126.342033,13.43152,0.6533915,4.402852,-0.0023442465,-0.00101622,0.0,0.017545465,-0.035154775,0.027275803,-0.028532669,0.11088751,-0.07729845,0.16924699,-0.028959537,-2.2786736,-5.2761345,1.1059844,-0.0013807509,13.964416,0.15295458,0.3408609,0.38975194,0.1356281,0.10500087,inf,inf,inf,inf,1,1,1,1,2,0,2,1,3,0,1,1,1,0
223377997,223377705,19482372,36.660603099999996,126.342033,13.46059,0.5983288,4.346217,-0.0023442465,-0.00101622,0.0,0.19248527,-0.20503047,-0.11207199,-0.19772908,0.11088751,-0.07729845,0.16924699,1.980731,0.51247126,0.09661901,1.091383,-0.0013807509,13.964416,0.20958948,0.3482928,0.39261088,0.14064881,0.10661951,inf,inf,inf,inf,1,1,1,1,2,0,2,1,3,0,1,1,1,0
223872064,223871600,19482372,36.660603099999996,126.342033,13.503569,0.5261249,4.19055,-0.0023442465,-0.00101622,0.0,-0.070777915,-0.055872396,-0.30339432,-0.38665232,0.11088751,-0.07729845,0.16924699,0.66953385,0.90268743,-0.48340842,1.0698179,-0.0013807509,13.964416,0.3652568,0.33852977,0.39050743,0.13646287,0.10504949,inf,inf,inf,inf,1,1,1,1,2,0,2,1,3,0,1,1,1,0
224375699,224375372,19482372,36.660603099999996,126.342033,13.481019,0.47682464,3.9988012,-0.0023442465,-0.00101622,0.0,-0.12415607,0.008250437,-0.42783138,-0.49207705,0.11088751,-0.07729845,0.16924699,-1.5256937,0.51959556,-1.6501317,1.0408168,-0.0013807509,13.964416,0.5570054,0.34601706,0.39098996,0.14120814,0.106423475,inf,inf,inf,inf,1,1,1,1,2,0,2,1,3,0,1,1,0,0
224879987,224879145,19482372,36.660603099999996,126.342033,13.424293,0.495034,3.742526,-0.0023442465,-0.00101622,0.0,-0.10356083,0.12880185,-0.55213207,-0.6092064,0.11088751,-0.07729845,0.16924699,-0.17129232,0.5578462,-1.1509511,1.0293577,-0.0013807509,13.964416,0.8132806,0.33693653,0.38959116,0.1366284,0.10504007,inf,inf,inf,inf,1,1,1,1,2,0,2,1,3,0,1,1,0,0
225373336,225373039,19482372,36.660603099999996,126.342033,13.377573,0.5263529,3.4407904,-0.0023442465,-0.00101622,0.0,-0.12526332,0.15541553,-0.6137686,-0.6578188,0.11088751,-0.07729845,0.16924699,-0.19789742,0.6196372,1.1875247,1.0197384,-0.0013807509,13.964416,1.1150162,0.343697,0.39188498,0.140793,0.10647889,inf,inf,inf,inf,1,1,1,1,2,0,2,1,3,0,1,1,0,0
225877138,225876812,19482372,36.660603099999996,126.342033,13.319065,0.6143047,3.1085522,-0.0023442465,-0.00101622,0.0,-0.111257836,0.19442977,-0.6963783,-0.7203668,0.11088751,-0.07729845,0.16924699,0.17274457,-0.13910855,-0.2873325,0.9950135,-0.0013807509,13.964416,1.4472544,0.33486462,0.3905161,0.13632749,0.10514654,inf,inf,inf,inf,1,1,1,1,2,0,2,1,3,0,1,1,0,0
226380928,226380585,19482372,36.660603099999996,126.342033,13.22466,0.6959511,2.7185662,-0.0023442465,-0.00101622,0.0,-0.08168846,0.16823694,-0.81658846,-0.8409251,0.11088751,-0.07729845,0.16924699,0.54364884,-0.81656027,-1.4561195,0.9785163,-0.0013807509,13.964416,1.8372405,0.34247714,0.39106095,0.1408294,0.10651201,inf,inf,inf,inf,1,1,1,1,2,0,2,1,3,0,1,1,0,0
226874778,226874481,19482372,36.660603099999996,126.342033,13.177106,0.7706836,2.2941456,-0.0023442465,-0.00101622,0.0,0.011217507,0.1055945,-0.86793405,-0.8914698,0.11088751,-0.07729845,0.16924699,0.04489486,-0.58912766,-1.5916578,0.9691579,-0.0013807509,13.964416,2.261661,0.3328605,0.38907513,0.13577995,0.10498425,inf,inf,inf,inf,1,1,1,1,2,0,2,1,3,0,1,1,0,0
227378554,227378254,19482372,36.660603099999996,126.342033,13.1713,0.8407805,1.8367094,-0.0023442465,-0.00101622,0.0,0.06157362,0.04793865,-0.8946702,-0.9246913,0.11088751,-0.07729845,0.16924699,1.8222555,-0.09352573,0.3388164,0.9551823,-0.0013807509,13.964416,2.7190971,0.34048733,0.39206448,0.14011927,0.106615335,inf,inf,inf,inf,1,1,1,1,2,0,2,1,3,0,1,1,0,0
227872516,227872150,19482372,36.660603099999996,126.342033,13.183008,0.85909575,1.3569752,-0.0023442465,-0.00101622,0.0,0.06482946,0.01661611,-0.9452768,-0.9823174,0.11088751,-0.07729845,0.16924699,-1.1605538,0.5315255,-1.8077766,0.9683803,-0.0013807509,13.964416,3.1988316,0.33087677,0.3900697,0.1351649,0.10507865,inf,inf,inf,inf,1,1,1,1,2,0,2,1,3,0,1,1,0,0
228376337,228375923,19482372,36.660603099999996,126.342033,13.273762,0.9024199,0.88763905,-0.0023442465,-0.00101622,0.0,0.10210597,0.0019750125,-0.94761854,-0.9589191,0.11088751,-0.07729845,0.16924699,1.0841,-0.21166624,-0.23690118,0.9982686,-0.0013807509,13.964416,3.6681676,0.33864617,0.39309102,0.13968967,0.10673232,inf,inf,inf,inf,1,1,1,1,2,0,2,1,3,0,1,1,0,0
228880036,228879697,19482372,36.660603099999996,126.342033,13.343067,0.9081487,0.3658168,-0.0023442465,-0.00101622,0.0,0.08943984,-0.03053712,-0.9709635,-1.0092077,0.11088751,-0.07729845,0.16924699,-1.1408834,0.70760083,3.4684741,1.0258756,-0.0013807509,13.964416,4.18999,0.32967037,0.39157754,0.1350831,0.105314,inf,inf,inf,inf,1,1,1,1,2,0,2,1,3,0,1,1,0,0
229373887,229373593,19482372,36.660603099999996,126.342033,13.4221,0.89438224,-0.16750532,-0.0023442465,-0.00101622,0.0,0.11516048,-0.04924483,-1.0035185,-1.0623564,0.11088751,-0.07729845,0.16924699,-0.33375692,-1.1941764,-3.6139205,1.0333226,-0.0013807509,13.964416,4.723312,0.3365209,0.39601734,0.13910432,0.10692504,inf,inf,inf,inf,1,1,1,1,2,0,2,1,3,0,1,1,0,0
229877674,229877367,19482372,36.660603099999996,126.342033,13.480267,0.8299601,-0.7020809,-0.0023442465,-0.00101622,0.0,0.08588558,-0.10900053,-1.0038986,-1.0631266,0.11088751,-0.07729845,0.16924699,-0.3861074,-0.3570204,-1.3708421,1.0295686,-0.0013807509,13.964416,5.2578874,0.32774046,0.39410615,0.13476732,0.1054706,inf,inf,inf,inf,1,1,1,1,2,0,2,1,3,0,1,1,0,0
230381468,230381141,19482372,36.660603099999996,126.342033,13.558055,0.7547762,-1.2010401,-0.0023442465,-0.00101622,0.0,0.028487064,-0.09878861,-1.0055393,-1.0360419,0.11088751,-0.07729845,0.16924699,-0.74003506,-0.4949571,-0.43013504,1.0237432,-0.0013807509,13.964416,5.756847,0.33540922,0.39409968,0.13931967,0.1067388,inf,inf,inf,inf,1,1,1,1,2,0,2,1,3,0,1,1,0,0
230875344,230875038,19482372,36.660603099999996,126.342033,13.588148,0.69122833,-1.6928396,-0.0023442465,-0.00101622,0.0,-0.049998865,-0.05296584,-1.0196545,-1.037418,0.11088751,-0.07729845,0.16924699,-0.2642681,0.22160485,-0.5862563,1.0175134,-0.0013807509,13.964416,6.2486463,0.3257486,0.39163038,0.13459884,0.10512809,inf,inf,inf,inf,1,1,1,1,2,0,2,1,3,0,1,1,0,0
231379112,231378812,19482372,36.660603099999996,126.342033,13.557488,0.6737783,-2.2151113,-0.0023442465,-0.00101622,0.0,-0.1452039,-0.032715265,-1.0040355,-1.0289233,0.11088751,-0.07729845,0.16924699,0.098679096,0.16883798,-0.17016953,1.0103023,-0.0013807509,13.964416,6.770918,0.33350185,0.39414918,0.13911405,0.10668746,inf,inf,inf,inf,1,1,1,1,2,0,2,1,3,0,1,1,0,0
231873014,231872709,19482372,36.660603099999996,126.342033,13.466717,0.63641024,-2.7326586,-0.0023442465,-0.00101622,0.0,-0.14898568,-0.023465289,-0.9966018,-1.0212561,0.11088751,-0.07729845,0.16924699,-0.08109443,0.34923285,2.507562,1.0008702,-0.0013807509,13.964416,7.2884655,0.32401273,0.3941301,0.1343748,0.10534558,inf,inf,inf,inf,1,1,1,1,2,0,2,1,3,0,1,1,0,0
232376874,232376484,19482372,36.660603099999996,126.342033,13.394502,0.5675967,-3.2510588,-0.0023442465,-0.00101622,0.0,-0.12748668,-0.01195089,-1.0218467,-1.0413345,0.11088751,-0.07729845,0.16924699,0.48396674,0.56358445,2.1759305,0.98403853,-0.0013807509,13.964416,7.8068657,0.33182275,0.3941444,0.13893194,0.106654555,inf,inf,inf,inf,1,1,1,1,2,0,2,1,3,0,1,1,0,0
232880569,232880259,19482372,36.660603099999996,126.342033,13.334022,0.5171177,-3.7823799,-0.0023442465,-0.00101622,0.0,-0.09426698,0.019603755,-1.0220772,-1.0467792,0.11088751,-0.07729845,0.16924699,-0.020429429,-0.6549303,-1.1877273,0.9472966,-0.0013807509,13.964416,8.338186,0.32293734,0.3922761,0.13437809,0.10521756,inf,inf,inf,inf,1,1,1,1,2,0,2,1,3,0,1,1,0,0
233374450,233374156,19482372,36.660603099999996,126.342033,13.261642,0.48104054,-4.3104277,-0.0023442465,-0.00101622,0.0,-0.06607247,0.054381132,-1.0161027,-1.0509139,0.11088751,-0.07729845,0.16924699,0.8764817,-0.48282477,-1.8747481,0.9110574,-0.0013807509,13.964416,8.866234,0.32996112,0.39418715,0.13847356,0.10661769,inf,inf,inf,inf,1,1,1,1,2,0,2,1,3,0,1,1,0,0
233878255,233877931,19482372,36.660603099999996,126.342033,13.206175,0.49610168,-4.768761,-0.0023442465,-0.00101622,0.0,-0.023794418,0.117365055,-0.9926907,-0.97039956,0.11088751,-0.07729845,0.16924699,-0.23840617,0.43349263,0.040388927,0.8808678,-0.0013807509,13.964416,9.324568,0.32134485,0.39244595,0.13411419,0.10522408,inf,inf,inf,inf,1,1,1,1,2,0,2,1,3,0,1,1,0,0
234372122,234371828,19482372,36.660603099999996,126.342033,13.196373,0.53776884,-5.1672473,-0.0023442465,-0.00101622,0.0,0.04154131,0.12726706,-1.005386,-0.91636574,0.11088751,-0.07729845,0.16924699,-0.7611926,-0.5880771,-2.236173,0.85488653,-0.0013807509,13.964416,9.723054,0.3285738,0.39445353,0.1384081,0.106650375,inf,inf,inf,inf,1,1,1,1,2,0,2,1,3,0,1,1,0,0
234875943,234875604,19482372,36.660603099999996,126.342033,13.228471,0.5947578,-5.572606,-0.0023442465,-0.00101622,0.0,0.077604875,0.097124666,-1.0008808,-0.8760317,0.11088751,-0.07729845,0.16924699,-1.1700265,-0.38526404,-1.072254,0.8369518,-0.0013807509,13.964416,10.128412,0.32005936,0.39028054,0.13406505,0.1049903,inf,inf,inf,inf,1,1,1,1,2,0,2,1,3,0,1,1,0,0
235379683,235379379,19482372,36.660603099999996,126.342033,13.262905,0.66637146,-6.086332,-0.0023442465,-0.00101622,0.0,0.080369435,0.058319505,-1.650061,-1.5074816,0.11088751,-0.07729845,0.16924699,0.46013695,-0.8443682,-5.2993536,0.8277081,-0.0013807509,13.964416,10.6421385,0.32826552,0.39298612,0.1403531,0.10663083,inf,inf,inf,inf,1,1,1,1,2,0,2,1,3,0,1,1,0,0
235873585,235873277,19482372,36.660603099999996,126.342033,13.300644,0.70639,-7.102953,-0.0023442465,-0.00101622,0.0,0.09821954,-0.031004645,-2.8095577,-2.6433551,0.11088751,-0.07729845,0.16924699,1.3415455,-0.77103513,-1.7688899,0.81605,-0.0013807509,13.964416,11.65876,0.31894663,0.39070728,0.13886094,0.10506682,inf,inf,inf,inf,1,1,1,1,2,0,2,1,3,0,1,1,0,0
236377595,236377053,19482372,36.660603099999996,126.342033,13.368155,0.71878666,-8.476088,-0.0023442465,-0.00101622,0.0,0.083432704,-0.060072318,-2.8091874,-2.6552246,0.11088751,-0.07729845,0.16924699,-0.12415758,-0.6400307,1.024229,0.80863947,-0.0013807509,13.964416,13.031895,0.3273419,0.39343223,0.14287043,0.10668115,inf,inf,inf,inf,1,1,1,1,2,0,2,1,3,0,1,1,0,0
236881151,236880829,19482372,36.660603099999996,126.342033,13.42426,0.72939056,-9.857703,-0.0023442465,-0.00101622,0.0,0.023039818,-0.03062065,-2.7870977,-2.6888094,0.11088751,-0.07729845,0.16924699,-0.43369526,0.79185766,3.0112863,0.82079023,-0.0013807509,13.964416,14.413509,0.31885865,0.391802,0.13653108,0.105305746,inf,inf,inf,inf,1,1,1,1,2,0,2,1,3,0,1,1,0,0
237375426,237374727,19482372,36.660603099999996,126.342033,13.440254,0.7165892,-11.25859,-0.0023442465,-0.00101622,0.0,-0.025286047,-0.066905655,-2.81796,-2.7779412,0.11088751,-0.07729845,0.16924699,0.08157311,0.06510463,-0.27636707,0.84283274,-0.0013807509,13.964416,15.814396,0.32644358,0.3939635,0.13993847,0.10676568,inf,inf,inf,inf,1,1,1,1,2,0,2,1,3,0,1,1,0,0
237878839,237878503,19482372,36.660603099999996,126.342033,13.4271145,0.68586344,-12.733846,-0.0023442465,-0.00101622,0.0,-0.08230057,-0.0026171482,-2.802306,-2.8206317,0.11088751,-0.07729845,0.16924699,0.36798435,0.64160824,-0.8522227,0.8462,-0.0013807509,13.964416,17.289652,0.31784266,0.38998106,0.13459805,0.105132334,inf,inf,inf,inf,1,1,1,1,2,0,2,1,3,0,1,1,0,0
238372838,238372402,19482372,36.660603099999996,126.342033,13.421398,0.65550256,-14.181424,-0.0023442465,-0.00101622,0.0,-0.05079132,-0.022597067,-2.780407,-2.8447866,0.11088751,-0.07729845,0.16924699,0.5841547,-0.11361404,0.6281717,0.83637977,-0.0013807509,13.964416,18.73723,0.32511035,0.3920867,0.1379682,0.10653636,inf,inf,inf,inf,1,1,1,1,2,0,2,1,3,0,1,1,0,0
238876484,238876178,19482372,36.660603099999996,126.342033,13.413456,0.6499634,-15.609282,-0.0023442465,-0.00101622,0.0,-0.036038134,-0.0041675465,-2.8196936,-2.863231,0.11088751,-0.07729845,0.16924699,-0.5006744,0.45771828,-0.5644974,0.8343797,-0.0013807509,13.964416,20.165089,0.31654194,0.3905625,0.13342969,0.10515011,inf,inf,inf,inf,1,1,1,1,2,0,2,1,3,0,1,1,0,0
239380766,239379955,19482372,36.660603099999996,126.342033,13.39632,0.64456165,-17.092512,-0.0023442465,-0.00101622,0.0,-0.051548738,0.016011165,-2.8691273,-2.9313612,0.11088751,-0.07729845,0.16924699,0.8010493,-0.2260034,-1.3837203,0.83796,-0.0013807509,13.964416,21.64832,0.32462668,0.3934241,0.13787203,0.10676416,inf,inf,inf,inf,1,1,1,1,2,0,2,1,3,0,1,1,0,0
239874158,239873854,19482372,36.660603099999996,126.342033,13.373222,0.62027866,-18.577473,-0.0023442465,-0.00101622,0.0,-0.028988764,0.031328574,-2.9358838,-3.012625,0.11088751,-0.07729845,0.16924699,-0.119980045,-0.49391815,0.35770762,0.8447609,-0.0013807509,13.964416,23.13328,0.3154772,0.39126265,0.13328718,0.10520476,inf,inf,inf,inf,1,1,1,1,2,0,2,1,3,0,1,1,0,0
240378131,240377630,19482372,36.660603099999996,126.342033,13.337311,0.6245418,-20.064909,-0.0023442465,-0.00101622,0.0,-0.0066901706,0.056890715,-2.9510267,-2.992535,0.11088751,-0.07729845,0.16924699,0.096974164,0.19585739,-0.20382386,0.8479357,-0.0013807509,13.964416,24.620716,0.32365763,0.39166906,0.13784873,0.10655326,inf,inf,inf,inf,1,1,1,1,2,0,2,1,3,0,1,1,0,0
240881719,240881408,19482372,36.660603099999996,126.342033,13.312892,0.6514603,-21.563162,-0.0023442465,-0.00101622,0.0,0.020852743,0.07690102,-2.9470954,-2.9793077,0.11088751,-0.07729845,0.16924699,1.3657755,-1.6753825,0.294475,0.8496987,-0.0013807509,13.964416,26.118969,0.31503898,0.39018926,0.1332674,0.10513421,inf,inf,inf,inf,1,1,1,1,2,0,2,1,3,0,1,1,0,0
241375991,241375307,19482372,36.660603099999996,126.342033,13.310607,0.69157565,-23.001005,-0.0023442465,-0.00101622,0.0,0.056372337,0.08255028,-2.9801483,-2.9800677,0.11088751,-0.07729845,0.16924699,1.1000475,-0.50296277,-0.4259293,0.8457334,-0.0013807509,13.964416,27.556812,0.32241386,0.39242977,0.13755836,0.10656094,inf,inf,inf,inf,1,1,1,1,2,0,2,1,3,0,1,1,0,0
241879378,241879084,19482372,36.660603099999996,126.342033,13.356199,0.7562107,-24.496592,-0.0023442465,-0.00101622,0.0,0.042902526,0.07941569,-3.0010796,-2.9971297,0.11088751,-0.07729845,0.16924699,0.12079858,-0.8767038,-3.1296995,0.8370868,-0.0013807509,13.964416,29.052399,0.31417403,0.39099807,0.13349475,0.105211556,inf,inf,inf,inf,1,1,1,1,2,0,2,1,3,0,1,1,0,0
242373417,242372983,19482372,36.660603099999996,126.342033,13.393056,0.7962173,-25.963776,-0.0023442465,-0.00101622,0.0,0.006246725,0.012807358,-2.978758,-2.9708009,0.11088751,-0.07729845,0.16924699,0.21606995,0.60623235,-0.4084893,0.8354255,-0.0013807509,13.964416,30.519583,0.32151094,0.3931476,0.13752486,0.10660393,inf,inf,inf,inf,1,1,1,1,2,0,2,1,3,0,1,1,0,0
242877169,242876761,19482372,36.660603099999996,126.342033,13.42983,0.8084146,-27.425295,-0.0023442465,-0.00101622,0.0,-0.043278046,-0.008689572,-2.9899986,-2.9494398,0.11088751,-0.07729845,0.16924699,0.06464026,1.3716353,0.1513896,0.82402426,-0.0013807509,13.964416,31.981102,0.31319165,0.38921937,0.13336538,0.10496494,inf,inf,inf,inf,1,1,1,1,2,0,2,1,3,0,1,1,0,0
243381257,243380538,19482372,36.660603099999996,126.342033,13.453182,0.7948463,-28.908918,-0.0023442465,-0.00101622,0.0,-0.114284076,-0.027817532,-2.9953284,-2.9547312,0.11088751,-0.07729845,0.16924699,-1.3004942,-0.15825762,-0.6935453,0.79875946,-0.0013807509,13.964416,33.464725,0.32141864,0.39217347,0.13801366,0.10660103,inf,inf,inf,inf,1,1,1,1,2,0,2,1,3,0,1,1,0,0
243874824,243874438,19482372,36.660603099999996,126.342033,13.409978,0.7319255,-30.361881,-0.0023442465,-0.00101622,0.0,-0.14189322,-0.04151229,-2.9846678,-2.9391341,0.11088751,-0.07729845,0.16924699,0.30137208,-0.2616774,-1.0382949,0.77852535,-0.0013807509,13.964416,34.917686,0.31240666,0.39015377,0.13334377,0.10507911,inf,inf,inf,inf,1,1,1,1,2,0,2,1,3,0,1,1,0,0
244378632,244378216,19482372,36.660603099999996,126.342033,13.353815,0.6510453,-31.818604,-0.0023442465,-0.00101622,0.0,-0.11069169,0.005904034,-2.9992125,-2.9393857,0.11088751,-0.07729845,0.16924699,0.15934281,-0.11056385,-2.3929043,0.7718747,-0.0013807509,13.964416,36.37441,0.32062194,0.39313027,0.1379053,0.106703766,inf,inf,inf,inf,1,1,1,1,2,0,2,1,3,0,1,1,0,0
244872453,244872116,19482372,36.660603099999996,126.342033,13.303218,0.60560393,-33.268414,-0.0023442465,-0.00101622,0.0,-0.063315205,0.06358103,-2.9939952,-2.9363801,0.11088751,-0.07729845,0.16924699,-0.2742558,-0.20235164,-0.8405535,0.76826966,-0.0013807509,13.964416,37.82422,0.3115288,0.38867694,0.13316137,0.1048954,inf,inf,inf,inf,1,1,1,1,2,0,2,1,3,0,1,1,0,0
245376295,245375894,19482372,36.660603099999996,126.342033,13.253697,0.612616,-34.746758,-0.0023442465,-0.00101622,0.0,0.0010129997,0.11985555,-2.9848943,-2.924845,0.11088751,-0.07729845,0.16924699,-0.8422142,0.5534557,1.3675305,0.7643408,-0.0013807509,13.964416,39.302563,0.3199325,0.39169174,0.13789569,0.1065545,inf,inf,inf,inf,1,1,1,1,2,0,2,1,3,0,1,1,0,0
245880013,245879672,19482372,36.660603099999996,126.342033,13.184529,0.65965056,-36.194336,-0.0023442465,-0.00101622,0.0,0.030538077,0.13732865,-2.9892192,-2.9076526,0.11088751,-0.07729845,0.16924699,-0.3370858,0.45262656,-1.4050153,0.7647597,-0.0013807509,13.964416,40.75014,0.3119374,0.3904113,0.13380036,0.10525406,inf,inf,inf,inf,1,1,1,1,2,0,2,1,3,0,1,1,0,0
246373911,246373572,19482372,36.660603099999996,126.342033,13.155831,0.73673505,-37.59977,-0.0023442465,-0.00101622,0.0,0.11052122,0.10394947,-2.9791384,-2.8730316,0.11088751,-0.07729845,0.16924699,-0.82217646,0.020924445,1.9493599,0.7579688,-0.0013807509,13.964416,42.155575,0.31966624,0.39281806,0.13806583,0.106719084,inf,inf,inf,inf,1,1,1,1,2,0,2,1,3,0,1,1,0,0
246877650,246877350,19482372,36.660603099999996,126.342033,13.156764,0.81742954,-39.024776,-0.0023442465,-0.00101622,0.0,0.13661145,0.057282146,-2.8111959,-2.7080655,0.11088751,-0.07729845,0.16924699,-0.28703785,-0.750469,-1.1058637,0.74667317,-0.0013807509,13.964416,43.58058,0.31139076,0.38906014,0.13327488,0.1050818,inf,inf,inf,inf,1,1,1,1,2,0,2,1,3,0,1,1,0,0
247381597,247381128,19482372,36.660603099999996,126.342033,13.210738,0.9108132,-40.427917,-0.0023442465,-0.00101622,0.0,0.14544792,0.00062492635,-2.7713823,-2.7118752,0.11088751,-0.07729845,0.16924699,-1.3973665,0.40961677,0.5885624,0.72867954,-0.0013807509,13.964416,44.983723,0.31982395,0.39210233,0.1377168,0.106713414,inf,inf,inf,inf,1,1,1,1,2,0,2,1,3,0,1,1,0,0
247875336,247875029,19482372,36.660603099999996,126.342033,13.30896,0.97334427,-41.649963,-0.0023442465,-0.00101622,0.0,0.12496446,-0.10276167,-2.2034724,-2.1594036,0.11088751,-0.07729845,0.16924699,0.16147359,-0.649531,0.37879974,0.7167976,-0.0013807509,13.964416,46.20577,0.3109902,0.3901327,0.13180253,0.10518606,inf,inf,inf,inf,1,1,1,1,2,0,2,1,3,0,1,1,0,0
248379157,248378807,19482372,36.660603099999996,126.342033,13.428475,0.97580874,-42.622974,-0.0023442465,-0.00101622,0.0,0.036512155,-0.13859917,-1.7330391,-1.6936626,0.11088751,-0.07729845,0.16924699,0.46356592,-0.45015618,0.68139905,0.7147241,-0.0013807509,13.964416,47.17878,0.31926748,0.3931802,0.13523968,0.10680757,inf,inf,inf,inf,1,1,1,1,2,0,2,1,3,0,1,1,0,0
248873017,248872708,19482372,36.660603099999996,126.342033,13.517272,0.91157156,-43.364082,-0.0023442465,-0.00101622,0.0,-0.062249616,-0.16514614,-1.3082618,-1.2755327,0.11088751,-0.07729845,0.16924699,-0.16114882,-0.044079594,1.5781146,0.7192948,-0.0013807509,13.964416,47.919888,0.31031668,0.39115036,0.13027354,0.10523834,inf,inf,inf,inf,1,1,1,1,2,0,2,1,3,0,1,1,0,0
249376816,249376486,19482372,36.660603099999996,126.342033,13.575014,0.7850755,-43.904633,-0.0023442465,-0.00101622,0.0,-0.15461355,-0.14871936,-1.0167339,-0.9626088,0.11088751,-0.07729845,0.16924699,1.1033202,-0.89068735,-0.24748345,0.7301434,-0.0013807509,13.964416,48.460438,0.3185011,0.39166203,0.13478754,0.106582806,inf,inf,inf,inf,1,1,1,1,2,0,2,1,3,0,1,1,0,0
249880588,249880265,19482372,36.660603099999996,126.342033,13.537075,0.67474806,-44.346226,-0.0023442465,-0.00101622,0.0,-0.22226772,-0.07366898,-0.79101497,-0.74891967,0.11088751,-0.07729845,0.16924699,-0.8172139,0.6557769,-0.104564756,0.7463706,-0.0013807509,13.964416,48.90203,0.31035176,0.3901712,0.13116056,0.10519438,inf,inf,inf,inf,1,1,1,1,2,0,2,1,3,0,1,1,0,0
250374463,250374166,19482372,36.660603099999996,126.342033,13.45294,0.54342353,-44.673702,-0.0023442465,-0.00101622,0.0,-0.20503949,-0.027683083,-0.5875863,-0.5517063,0.11088751,-0.07729845,0.16924699,-0.7488039,0.20285697,1.1013144,0.7646615,-0.0013807509,13.964416,49.229507,0.31798345,0.39237502,0.13560636,0.10660971,inf,inf,inf,inf,1,1,1,1,2,0,2,1,3,0,1,1,0,0
250878316,250877945,19482372,36.660603099999996,126.342033,13.347701,0.4308004,-44.906544,-0.0023442465,-0.00101622,0.0,-0.15069687,0.071442924,-0.45851195,-0.40958023,0.11088751,-0.07729845,0.16924699,-0.76855,-0.61508477,-2.8805778,0.7821509,-0.0013807509,13.964416,49.46235,0.3099697,0.3908899,0.13200994,0.10521422,inf,inf,inf,inf,1,1,1,1,2,0,2,1,3,0,1,1,0,0
251382034,251381724,19482372,36.660603099999996,126.342033,13.21027,0.35684985,-45.066624,-0.0023442465,-0.00101622,0.0,-0.33572733,-0.051417924,-0.31479248,-0.23288025,0.11088751,-0.07729845,0.16924699,-0.8032829,-1.6774073,-0.27617928,0.8048816,-0.0013807509,13.964416,49.62243,0.31849736,0.3937951,0.13722616,0.10681973,inf,inf,inf,inf,1,1,1,1,2,0,2,1,3,0,1,1,0,0
251875954,251875625,19482372,36.660603099999996,126.342033,12.791224,0.17592113,-45.13522,-0.0023442465,-0.00101622,0.0,-1.2107009,-0.3054556,-0.24084641,-0.15159266,0.11088751,-0.07729845,0.16924699,-1.0788077,-0.05290267,-0.1947275,0.8415367,-0.0013807509,13.964416,49.691025,0.30979663,0.3915891,0.13364145,0.105180256,inf,inf,inf,inf,1,1,1,1,2,0,2,1,3,0,1,1,0,0
252379818,252379404,19482372,36.660603099999996,126.342033,12.332403,-0.24200574,-45.233112,-0.0023442465,-0.00101622,0.0,-1.0028211,-0.3285474,-0.29061463,-0.20097093,0.11088751,-0.07729845,0.16924699,0.8337843,1.6798419,2.326041,0.8852704,-0.0013807509,13.964416,49.788918,0.31852484,0.39196134,0.13875115,0.106506005,inf,inf,inf,inf,1,1,1,1,2,0,2,1,3,0,1,1,0,0
252873599,252873305,19482372,36.660603099999996,126.342033,12.043415,-0.6087301,-45.298645,-0.0023442465,-0.00101622,0.0,-0.49223816,-0.14600517,-0.20415676,-0.105043605,0.11088751,-0.07729845,0.16924699,-0.4827234,1.7000432,-0.5667006,0.9172028,-0.0013807509,13.964416,49.85445,0.30979645,0.38980386,0.1335777,0.104843274,inf,inf,inf,inf,1,1,1,1,2,0,2,1,3,0,1,1,0,0
253377381,253377084,19482372,36.660603099999996,126.342033,11.798029,-0.7132494,-45.34004,-0.0023442465,-0.00101622,0.0,0.37163803,0.1430677,-0.26190892,-0.16582556,0.11088751,-0.07729845,0.16924699,3.4028153,0.59033966,0.5353064,0.91102684,-0.0013807509,13.964416,49.895844,0.31856728,0.3926539,0.13969275,0.10638676,inf,inf,inf,inf,1,1,1,1,2,0,2,1,3,0,1,1,0,0
253881167,253880863,19482372,36.660603099999996,126.342033,11.988138,-0.50305617,-45.39515,-0.0023442465,-0.00101622,0.0,1.7698315,0.3349094,-0.14268632,-0.058330454,0.11088751,-0.07729845,0.16924699,2.827794,1.2860272,1.4877331,0.8384966,-0.0013807509,13.964416,49.950954,0.31088793,0.39098826,0.13941997,0.10488803,inf,inf,inf,inf,1,1,1,1,2,0,2,1,3,0,1,1,0,0
254375101,254374764,19482372,36.660603099999996,126.342033,12.686249,0.0847103,-45.43504,-0.0023442465,-0.00101622,0.0,2.6389697,0.04100801,0.0018384068,0.08511417,0.11088751,-0.07729845,0.16924699,0.4842091,-2.0801845,0.84312296,0.6949204,-0.0013807509,13.964416,49.990845,0.3262595,0.3929815,0.15762551,0.106265694,inf,inf,inf,inf,1,1,1,1,2,0,2,1,3,0,1,1,0,0
254878999,254878544,19482372,36.660603099999996,126.342033,13.957415,0.09424387,-45.501625,-0.0023442465,-0.00101622,0.0,3.1620264,-0.9776128,-0.12824225,-0.090224296,0.11088751,-0.07729845,0.16924699,-0.14179032,-1.8513143,2.9981675,0.63692564,-0.0013807509,13.964416,50.05743,0.34243143,0.39356375,0.17770977,0.1049734,inf,inf,inf,inf,1,1,1,1,2,0,2,1,3,0,1,1,0,0
255372745,255372445,19482372,36.660603099999996,126.342033,15.332967,-0.17056704,-45.534504,-0.0023442465,-0.00101622,0.0,2.7992644,-1.6140417,-0.1231348,-0.103923485,0.11088751,-0.07729845,0.16924699,-0.31153315,-2.761274,-2.4284194,0.5582704,-0.0013807509,13.964416,50.09031,0.3756255,0.39533097,0.19334699,0.1061922,inf,inf,inf,inf,1,1,1,1,2,0,2,1,3,0,1,1,0,0
255876592,255876225,19482372,36.660603099999996,126.342033,16.478876,-0.39857876,-45.62377,-0.0023442465,-0.00101622,0.0,1.7653782,-1.7189676,-0.038012117,-0.061059933,0.11088751,-0.07729845,0.16924699,-1.461915,-1.8691049,0.9095559,0.49848017,-0.0013807509,13.964416,50.179577,0.3921912,0.390944,0.19889297,0.104395986,inf,inf,inf,inf,1,1,1,1,2,0,2,1,3,0,1,1,0,0
256380318,256380005,19482372,36.660603099999996,126.342033,17.586443,0.27961314,-45.73267,-0.0023442465,-0.00101622,0.0,0.47482216,-0.9468477,0.10162534,0.015868532,0.11088751,-0.07729845,0.16924699,-5.279435,-0.21579237,1.7149584,0.4766816,-0.0013807509,13.964416,50.288475,0.3815518,0.39342362,0.1744967,0.10590485,inf,inf,inf,inf,1,1,1,1,2,0,2,1,3,0,1,1,0,0
256874254,256873906,19482372,36.660603099999996,126.342033,18.410847,0.7936783,-45.70232,-0.0023442465,-0.00101622,0.0,-0.49494785,-0.4684761,0.10386961,0.02549254,0.11088751,-0.07729845,0.16924699,-1.8345717,-0.17239103,0.19601463,0.38999024,-0.0013807509,13.964416,50.258125,0.35008615,0.3910276,0.15341827,0.104524754,inf,inf,inf,inf,1,1,1,1,2,0,2,1,3,0,1,1,0,0
257377982,257377686,19482372,36.660603099999996,126.342033,18.69301,0.4306674,-45.667416,-0.0023442465,-0.00101622,0.0,-0.6913514,-0.7026356,0.13313779,0.06502163,0.11088751,-0.07729845,0.16924699,-1.034365,-0.26770905,-2.1735504,0.33897674,-0.0013807509,13.964416,50.22322,0.35146824,0.3936152,0.15314187,0.10632515,inf,inf,inf,inf,1,1,1,1,2,0,2,1,3,0,1,1,0,0
257881765,257881466,19482372,36.660603099999996,126.342033,18.851032,-0.3422577,-45.709164,-0.0023442465,-0.00101622,0.0,0.27788386,-0.6629975,0.0306384,-0.04061797,0.11088751,-0.07729845,0.16924699,1.0107762,2.232291,1.2197679,0.31024706,-0.0013807509,13.964416,50.26497,0.33352515,0.39198264,0.14039922,0.104748085,inf,inf,inf,inf,1,1,1,1,2,0,2,1,3,0,1,1,0,0
258375663,258375368,19482372,36.660603099999996,126.342033,19.351545,-0.861179,-45.671753,-0.0023442465,-0.00101622,0.0,1.9206874,-0.06800547,-0.0017438426,-0.018371549,0.11088751,-0.07729845,0.16924699,4.0556045,1.0587791,-1.8228323,0.3124746,-0.0013807509,13.964416,50.22756,0.3374533,0.39403036,0.14311123,0.10577022,inf,inf,inf,inf,1,1,1,1,2,0,2,1,3,0,1,1,0,0
258869768,258869270,19482372,36.660603099999996,126.342033,20.14164,-0.8400199,-45.58772,-0.0023442465,-0.00101622,0.0,2.7942734,0.22388881,0.061186165,0.06485256,0.11088751,-0.07729845,0.16924699,1.2758309,-0.007982589,2.482725,0.33012864,-0.0013807509,13.964416,50.143524,0.3234977,0.38932177,0.13855624,0.103999436,inf,inf,inf,inf,1,1,1,1,2,0,2,1,3,0,1,1,0,0
259373346,259373050,19482372,36.660603099999996,126.342033,20.94666,-0.34407791,-45.510468,-0.0023442465,-0.00101622,0.0,2.376562,0.59761643,0.09956307,0.11742288,0.11088751,-0.07729845,0.16924699,-1.2036979,1.676148,-3.7051392,0.37785396,-0.0013807509,13.964416,50.066273,0.32998294,0.39204466,0.14181522,0.10574145,inf,inf,inf,inf,1,1,1,1,2,0,2,1,3,0,1,1,0,0
259877150,259876830,19482372,36.660603099999996,126.342033,21.631592,0.30153126,-45.447968,-0.0023442465,-0.00101622,0.0,2.113607,0.69814944,0.070302136,0.097944155,0.11088751,-0.07729845,0.16924699,-0.44082037,-0.05061692,0.35070205,0.40649515,-0.0013807509,13.964416,50.003773,0.3196744,0.3905838,0.13600403,0.104554035,inf,inf,inf,inf,1,1,1,1,2,0,2,1,3,0,1,1,0,0
260371046,260370733,19482372,36.660603099999996,126.342033,22.342396,0.7799161,-45.426495,-0.0023442465,-0.00101622,0.0,1.9739946,0.63477546,-0.020856665,0.014597039,0.11088751,-0.07729845,0.16924699,-4.5235176,1.3207842,-0.53838795,0.40108553,-0.0013807509,13.964416,49.9823,0.3262592,0.39279282,0.13964073,0.106085226,inf,inf,inf,inf,1,1,1,1,2,0,2,1,3,0,1,1,0,0
260874957,260874513,19482372,36.660603099999996,126.342033,22.941547,1.192824,-45.445957,-0.0023442465,-0.00101622,0.0,0.98002666,0.8635602,-0.07073251,-0.04702315,0.11088751,-0.07729845,0.16924699,-2.4924488,2.9038594,3.1998749,0.42925915,-0.0013807509,13.964416,50.001762,0.3170746,0.388948,0.1353413,0.1044927,inf,inf,inf,inf,1,1,1,1,2,0,2,1,3,0,1,1,0,0
261378589,261378293,19482372,36.660603099999996,126.342033,23.095074,1.5327365,-45.433205,-0.0023442465,-0.00101622,0.0,-0.05626732,0.8923108,0.008024967,0.0041927863,0.11088751,-0.07729845,0.16924699,-0.31104112,-2.1730623,-1.1390496,0.47257578,-0.0013807509,13.964416,49.98901,0.3248934,0.39185655,0.14216566,0.10611745,inf,inf,inf,inf,1,1,1,1,2,0,2,1,3,0,1,1,0,0
261872934,261872196,19482372,36.660603099999996,126.342033,23.018425,1.5452527,-45.460976,-0.0023442465,-0.00101622,0.0,-0.13803072,0.48494968,-0.048951227,-0.07936632,0.11088751,-0.07729845,0.16924699,0.48378047,0.4042174,0.47799623,0.52896726,-0.0013807509,13.964416,50.01678,0.3156962,0.3897983,0.1364616,0.10466526,inf,inf,inf,inf,1,1,1,1,2,0,2,1,3,0,1,1,0,0
262376272,262375977,19482372,36.660603099999996,126.342033,22.938917,1.3929667,-45.47418,-0.0023442465,-0.00101622,0.0,-0.2366886,0.3279047,0.08973358,0.057773475,0.11088751,-0.07729845,0.16924699,0.8137,-0.46082354,0.24239333,0.57521147,-0.0013807509,13.964416,50.029984,0.32392573,0.39270234,0.1397981,0.10633849,inf,inf,inf,inf,1,1,1,1,2,0,2,1,3,0,1,1,0,0
262870346,262869879,19482372,36.660603099999996,126.342033,22.862751,1.2410532,-45.476913,-0.0023442465,-0.00101622,0.0,-0.17032394,0.23310502,0.06320374,0.049320135,0.11088751,-0.07729845,0.16924699,-0.52971095,-0.67613065,-0.52409244,0.6048823,-0.0013807509,13.964416,50.03272,0.3149692,0.3906144,0.13431364,0.10481271,inf,inf,inf,inf,1,1,1,1,2,0,2,1,3,0,1,1,0,0
263374066,263373660,19482372,36.660603099999996,126.342033,22.78513,1.1249663,-45.485973,-0.0023442465,-0.00101622,0.0,-0.097065024,0.19180846,-0.018237457,-0.0359747,0.11088751,-0.07729845,0.16924699,-1.2777673,1.441658,0.6366586,0.6220942,-0.0013807509,13.964416,50.04178,0.32350478,0.3911396,0.13882491,0.10624099,inf,inf,inf,inf,1,1,1,1,2,0,2,1,3,0,1,1,0,0
263878262,263877441,19482372,36.660603099999996,126.342033,22.70137,1.0839657,-45.479855,-0.0023442465,-0.00101622,0.0,0.10361881,0.3228111,0.090724334,0.063581705,0.11088751,-0.07729845,0.16924699,1.8792256,1.7502824,-3.8798816,0.6352553,-0.0013807509,13.964416,50.03566,0.31563514,0.3897375,0.13404232,0.10494475,inf,inf,inf,inf,1,1,1,1,2,0,2,1,3,0,1,1,0,0
264371643,264371344,19482372,36.660603099999996,126.342033,23.054924,1.5430965,-45.60648,-0.0023442465,-0.00101622,0.0,2.0300696,1.9891609,0.03139996,-0.13636065,0.11088751,-0.07729845,0.16924699,3.3650558,4.0841727,0.37005636,0.6699918,-0.0013807509,13.964416,50.162285,0.32334644,0.39199018,0.14433081,0.10681598,inf,inf,inf,inf,1,1,1,1,2,0,2,1,3,0,1,1,0,0
264875567,264875125,19482372,36.660603099999996,126.342033,24.109625,2.971753,-45.875465,-0.0023442465,-0.00101622,0.0,3.6978784,3.4357855,-0.17948899,-0.45123655,0.11088751,-0.07729845,0.16924699,3.4851499,3.0369594,2.7335021,0.70575607,-0.0013807509,13.964416,50.43127,0.32901263,0.39055178,0.17061691,0.10651485,inf,inf,inf,inf,1,1,1,1,2,0,2,1,3,0,1,1,0,0
265379231,265378906,19482372,36.660603099999996,126.342033,26.176115,5.0525074,-46.11855,-0.0023442465,-0.00101622,0.0,5.4373884,4.3414335,-0.43332767,-0.6513583,0.11088751,-0.07729845,0.16924699,1.7669811,-0.26798153,4.9657,0.6335529,-0.0013807509,13.964416,50.674355,0.3620477,0.39107475,0.20806107,0.109214984,inf,inf,inf,inf,1,1,1,1,2,0,2,1,3,0,1,1,0,0
265873344,265872810,19482372,36.660603099999996,126.342033,28.892313,7.720256,-46.353413,-0.0023442465,-0.00101622,0.0,7.1726685,5.3207507,0.09060556,-0.15607582,0.11088751,-0.07729845,0.16924699,1.8771819,-0.19934855,1.4912435,0.57026106,-0.0013807509,13.964416,50.909218,0.38645718,0.38910985,0.23484837,0.10881552,inf,inf,inf,inf,1,1,1,1,2,0,2,1,3,0,1,1,0,0
266376910,266376591,19482372,36.660603099999996,126.342033,32.184235,11.323854,-46.387783,-0.0023442465,-0.00101622,0.0,8.939843,6.381381,0.38395745,0.10599876,0.11088751,-0.07729845,0.16924699,7.6567774,2.707269,13.008983,0.58508456,-0.0013807509,13.964416,50.94359,0.43456092,0.3922462,0.26319,0.1119814,inf,inf,inf,inf,1,1,1,1,2,0,2,1,3,0,1,1,0,0
266870833,266870494,19482372,36.660603099999996,126.342033,35.775898,15.896981,-46.28507,-0.0023442465,-0.00101622,0.0,10.238972,7.739993,0.22217639,0.015391736,0.11088751,-0.07729845,0.16924699,3.7574492,3.0300314,-0.6441201,0.5894686,-0.0013807509,13.964416,50.840874,0.44956365,0.39018458,0.26923954,0.11083549,inf,inf,inf,inf,1,1,1,1,2,0,2,1,3,0,1,1,0,0
267374642,267374276,19482372,36.660603099999996,126.342033,39.556427,21.89312,-46.381588,-0.0023442465,-0.00101622,0.0,10.969327,9.404911,-0.11130313,-0.31249434,0.11088751,-0.07729845,0.16924699,-0.05850668,-0.24427806,-11.450259,0.63219285,-0.0013807509,13.964416,50.937393,0.49104595,0.39101556,0.2780526,0.11261184,inf,inf,inf,inf,1,1,1,1,2,0,2,1,3,0,1,1,0,0
267878803,267878058,19482372,36.660603099999996,126.342033,43.50339,28.969143,-46.671352,-0.0023442465,-0.00101622,0.0,11.2332,11.4017935,-0.3058943,-0.55303514,0.11088751,-0.07729845,0.16924699,1.8109875,6.7799697,-3.37317,0.71588564,-0.0013807509,13.964416,51.227158,0.48508838,0.38973403,0.26198357,0.11032521,inf,inf,inf,inf,1,1,1,1,2,0,2,1,3,0,1,1,0,0
268372280,268371961,19482372,36.660603099999996,126.342033,47.3367,36.9233,-47.120903,-0.0023442465,-0.00101622,0.0,11.160331,13.223997,-0.85314775,-1.1160436,0.11088751,-0.07729845,0.16924699,1.4244374,-1.0751646,-0.8598543,0.7399872,-0.0013807509,13.964416,51.67671,0.50981,0.3923096,0.26004317,0.11110895,inf,inf,inf,inf,1,1,1,1,2,0,2,1,3,0,1,1,0,0
268876072,268875743,19482372,36.660603099999996,126.342033,51.38833,45.51102,-47.774483,-0.0023442465,-0.00101622,0.0,10.739241,14.394225,-1.0790733,-1.3798815,0.11088751,-0.07729845,0.16924699,-1.8842812,-0.7065279,0.056030013,0.77922493,-0.0013807509,13.964416,52.330288,0.49002925,0.39094394,0.24027218,0.108227536,inf,inf,inf,inf,1,1,1,1,2,0,2,1,3,0,1,1,0,0
269370013,269369647,19482372,36.660603099999996,126.342033,54.82996,54.312244,-48.41532,-0.0023442465,-0.00101622,0.0,8.99106,15.346879,-0.9556829,-1.1555474,0.11088751,-0.07729845,0.16924699,-0.44223258,1.049993,0.28936034,0.81754774,-0.0013807509,13.964416,52.971127,0.46388602,0.3908737,0.20566924,0.107175894,inf,inf,inf,inf,1,1,1,1,2,0,2,1,3,0,1,1,0,0
269873896,269873429,19482372,36.660603099999996,126.342033,57.614845,64.31289,-48.828594,-0.0023442465,-0.00101622,0.0,5.0041385,19.231453,-0.4752062,-0.7766937,0.11088751,-0.07729845,0.16924699,-13.721244,7.91887,-2.2848716,1.1273259,-0.0013807509,13.964416,53.3844,0.39382994,0.38947177,0.19104213,0.10606568,inf,inf,inf,inf,1,1,1,1,2,0,2,1,3,0,1,1,0,0
270377544,270377211,19482372,36.660603099999996,126.342033,58.49026,74.42011,-49.44587,-0.0023442465,-0.00101622,0.0,-0.4789607,20.620707,-0.78551584,-1.1056538,0.11088751,-0.07729845,0.16924699,-7.657257,0.018285101,2.865414,1.524427,-0.0013807509,13.964416,54.001675,0.38517988,0.3921989,0.24211195,0.11610987,inf,inf,inf,inf,1,1,1,1,2,0,2,1,3,1,1,1,0,0
270871596,270871115,19482372,36.660603099999996,126.342033,57.85697,83.68562,-49.70605,-0.0023442465,-0.00101622,0.0,-1.5573323,19.739614,0.6683406,0.29219186,0.11088751,-0.07729845,0.16924699,-0.4892281,0.17305745,5.1059675,1.803662,-0.0013807509,13.964416,54.261856,0.35624623,0.38998288,0.16239557,0.11701258,inf,inf,inf,inf,1,1,1,1,2,0,2,1,3,1,1,1,0,0
271375250,271374897,19482372,36.660603099999996,126.342033,56.91943,93.02328,-49.125317,-0.0023442465,-0.00101622,0.0,-0.9730582,20.151457,1.9290503,1.622704,0.11088751,-0.07729845,0.16924699,4.2889166,2.770339,-0.27743286,1.8330828,-0.0013807509,13.964416,53.68112,0.35543934,0.39045337,0.21065454,0.10761932,inf,inf,inf,inf,1,1,1,1,2,0,2,1,3,1,1,1,0,0
271879030,271878679,19482372,36.660603099999996,126.342033,56.325405,102.35382,-48.09947,-0.0023442465,-0.00101622,0.0,-0.0029131388,19.54414,2.1249125,1.927112,0.11088751,-0.07729845,0.16924699,5.475369,-0.22709462,-0.5010174,1.3397828,-0.0013807509,13.964416,52.655273,0.33835545,0.38907903,0.22498497,0.106742755,inf,inf,inf,inf,1,1,1,1,2,0,2,1,3,1,1,1,0,0
272372899,272372583,19482372,36.660603099999996,126.342033,56.570763,111.35477,-47.22052,-0.0023442465,-0.00101622,0.0,1.5187113,18.818155,1.3596901,1.2873836,0.11088751,-0.07729845,0.16924699,3.6588051,-1.443834,-1.2226835,1.2158144,-0.0013807509,13.964416,51.776325,0.34227893,0.39126855,0.2469092,0.107112505,inf,inf,inf,inf,1,1,1,1,2,0,2,1,3,1,1,1,0,0
272876679,272876365,19482372,36.660603099999996,126.342033,57.7606,120.9774,-46.467495,-0.0023442465,-0.00101622,0.0,2.6493735,19.008047,1.3050228,1.2899605,0.11088751,-0.07729845,0.16924699,1.831707,-0.43009192,-3.2192948,1.2576301,-0.0013807509,13.964416,51.0233,0.32921168,0.3898411,0.1925472,0.10437362,inf,inf,inf,inf,1,1,1,1,2,0,2,1,3,1,1,1,0,0
273370621,273370270,19482372,36.660603099999996,126.342033,59.5652,130.67816,-45.835495,-0.0023442465,-0.00101622,0.0,3.395675,19.281284,1.2628455,1.2491282,0.11088751,-0.07729845,0.16924699,-0.20679815,0.21284948,-2.438099,1.2949585,-0.0013807509,13.964416,50.3913,0.3353432,0.3920215,0.18433814,0.10567438,inf,inf,inf,inf,1,1,1,1,2,0,2,1,3,1,1,1,0,0
273874368,273874051,19482372,36.660603099999996,126.342033,61.808132,140.60916,-45.27968,-0.0023442465,-0.00101622,0.0,3.9724872,19.445452,0.99517864,0.990555,0.11088751,-0.07729845,0.16924699,-0.079377666,0.2895246,-1.9166714,1.3232913,-0.0013807509,13.964416,49.835484,0.32477537,0.3882922,0.16239293,0.10411989,inf,inf,inf,inf,1,1,1,1,2,0,2,1,3,1,1,1,0,0
274378139,274377833,19482372,36.660603099999996,126.342033,64.30872,150.51027,-44.911884,-0.0023442465,-0.00101622,0.0,4.3541136,19.576199,0.6390942,0.63322574,0.11088751,-0.07729845,0.16924699,-1.3337184,0.99126613,0.17796746,1.3582367,-0.0013807509,13.964416,49.46769,0.33268553,0.39119005,0.16006283,0.10583501,inf,inf,inf,inf,1,1,1,1,2,0,2,1,3,1,1,1,0,0
274872051,274871737,19482372,36.660603099999996,126.342033,66.85223,160.19629,-44.724873,-0.0023442465,-0.00101622,0.0,4.54542,19.61271,0.529552,0.44480672,0.11088751,-0.07729845,0.16924699,1.8896011,-0.45409864,-1.1142662,1.4134505,-0.0013807509,13.964416,49.280678,0.32203504,0.38926396,0.14661881,0.10442135,inf,inf,inf,inf,1,1,1,1,2,0,2,1,3,1,1,1,0,0
275375851,275375519,19482372,36.660603099999996,126.342033,69.47961,170.05443,-44.697746,-0.0023442465,-0.00101622,0.0,4.852509,19.399927,0.15183803,0.041193705,0.11088751,-0.07729845,0.16924699,2.031185,-0.12222818,2.6364386,1.4562362,-0.0013807509,13.964416,49.25355,0.330089,0.38986507,0.15113342,0.10593019,inf,inf,inf,inf,1,1,1,1,2,0,2,1,3,1,1,1,0,0
275879660,275879301,19482372,36.660603099999996,126.342033,72.65084,179.75934,-44.52335,-0.0023442465,-0.00101622,0.0,7.3414207,18.960619,1.1351463,0.99333835,0.11088751,-0.07729845,0.16924699,8.521521,-1.6951768,3.840043,1.3256006,-0.0013807509,13.964416,49.079155,0.3206881,0.38862967,0.1525879,0.104472294,inf,inf,inf,inf,1,1,1,1,2,0,2,1,3,1,1,1,0,0
276373528,276373205,19482372,36.660603099999996,126.342033,77.81422,188.36043,-44.25001,-0.0023442465,-0.00101622,0.0,14.358642,15.281292,-0.03899053,-0.18403542,0.11088751,-0.07729845,0.16924699,15.865847,-13.672697,-4.1357536,0.8252887,-0.0013807509,13.964416,48.805817,0.32936385,0.3908384,0.25875583,0.11015006,inf,inf,inf,inf,1,1,1,1,2,0,2,1,3,1,1,1,0,0
276877352,276876987,19482372,36.660603099999996,126.342033,85.8829,193.9029,-44.64787,-0.0023442465,-0.00101622,0.0,19.11742,7.029948,-1.2624372,-1.3530964,0.11088751,-0.07729845,0.16924699,6.9957643,-16.05539,-1.2049494,0.28620473,-0.0013807509,13.964416,49.203674,0.3198593,0.38947168,0.22603461,0.11618737,inf,inf,inf,inf,1,1,1,1,2,0,2,1,3,1,1,1,0,0
277371213,277370891,19482372,36.660603099999996,126.342033,95.200294,195.06128,-45.424652,-0.0023442465,-0.00101622,0.0,19.793985,-1.9753284,-1.5453856,-1.6388594,0.11088751,-0.07729845,0.16924699,-2.1940289,-18.951956,-0.7275714,-0.16733383,-0.0013807509,13.964416,49.980457,0.3306106,0.3922657,0.22676456,0.12933135,inf,inf,inf,inf,1,1,1,1,2,0,2,1,3,1,1,1,0,0
277875006,277874673,19482372,36.660603099999996,126.342033,104.268135,192.11969,-46.29833,-0.0023442465,-0.00101622,0.0,16.869406,-10.05151,-1.2996042,-1.4780921,0.11088751,-0.07729845,0.16924699,-8.055662,-14.472163,1.0822135,-0.61394036,-0.0013807509,13.964416,50.854134,0.32283768,0.38926038,0.18937396,0.13222653,inf,inf,inf,inf,1,1,1,1,2,0,2,1,3,1,1,1,0,0
278378761,278378455,19482372,36.660603099999996,126.342033,111.25837,185.73836,-47.182194,-0.0023442465,-0.00101622,0.0,11.052054,-16.302404,-0.8785679,-1.2440673,0.11088751,-0.07729845,0.16924699,-13.669534,-9.7609415,4.7453585,-1.0157934,-0.0013807509,13.964416,51.738,0.3332608,0.39261243,0.18702509,0.14272429,inf,inf,inf,inf,1,1,1,1,2,0,2,1,3,1,1,1,0,0
278872667,278872359,19482372,36.660603099999996,126.342033,114.89969,177.1151,-47.979343,-0.0023442465,-0.00101622,0.0,4.0027556,-19.668247,-0.37071592,-0.961383,0.11088751,-0.07729845,0.16924699,-14.699749,-5.0120797,0.5281047,-1.373695,-0.0013807509,13.964416,52.53515,0.3248489,0.39025438,0.16619003,0.1400981,inf,inf,inf,inf,1,1,1,1,2,0,2,1,3,1,1,1,0,0
279376490,279376141,19482372,36.660603099999996,126.342033,114.969604,167.3398,-48.47363,-0.0023442465,-0.00101622,0.0,-3.2951956,-20.349073,0.53328097,-0.15437146,0.11088751,-0.07729845,0.16924699,-14.904523,1.9701786,4.6976666,-1.7524562,-0.0013807509,13.964416,53.029434,0.33666646,0.39250433,0.1712241,0.14810699,inf,inf,inf,inf,1,1,1,1,2,0,2,1,3,1,1,1,0,0
279870347,279870044,19482372,36.660603099999996,126.342033,112.11466,157.88474,-48.267067,-0.0023442465,-0.00101622,0.0,-7.0187674,-19.518366,2.3946517,1.6655583,0.11088751,-0.07729845,0.16924699,-4.8088074,1.4268157,6.915166,-1.8386533,-0.0013807509,13.964416,52.822872,0.33209452,0.39270058,0.15578102,0.13960698,inf,inf,inf,inf,1,1,1,1,2,0,2,1,3,1,1,1,0,0
280374148,280373826,19482372,36.660603099999996,126.342033,108.11176,148.65303,-47.12909,-0.0023442465,-0.00101622,0.0,-7.4772787,-19.366138,3.4021213,2.6173878,0.11088751,-0.07729845,0.16924699,2.7292113,-1.1869789,-0.7753274,-1.8337353,-0.0013807509,13.964416,51.684895,0.34167555,0.3963765,0.14543283,0.13039869,inf,inf,inf,inf,1,1,1,1,2,0,2,1,3,1,1,1,0,0
280877911,280877607,19482372,36.660603099999996,126.342033,104.463844,139.1879,-45.7676,-0.0023442465,-0.00101622,0.0,-5.1448956,-19.97722,2.6564424,2.0533707,0.11088751,-0.07729845,0.16924699,7.5509343,-0.58373404,-6.2337537,-1.6439416,-0.0013807509,13.964416,50.323406,0.3343253,0.39477152,0.13323893,0.11463069,inf,inf,inf,inf,1,1,1,1,2,0,2,1,3,1,1,1,0,0
281371990,281371511,19482372,36.660603099999996,126.342033,102.56848,129.41693,-44.82355,-0.0023442465,-0.00101622,0.0,-1.0842294,-19.895988,1.2857475,0.9869534,0.11088751,-0.07729845,0.16924699,4.3926926,1.387688,-0.5623817,-1.3574388,-0.0013807509,13.964416,49.379356,0.34144706,0.39361346,0.14540514,0.106278725,inf,inf,inf,inf,1,1,1,1,2,0,2,1,3,1,1,1,0,0
281875638,281875292,19482372,36.660603099999996,126.342033,102.48098,119.17009,-44.16642,-0.0023442465,-0.00101622,0.0,1.7778331,-19.260153,0.70002013,0.6277542,0.11088751,-0.07729845,0.16924699,5.354617,2.1627197,-0.45637348,-1.2485602,-0.0013807509,13.964416,48.722225,0.33355734,0.39101455,0.15016454,0.102471605,inf,inf,inf,inf,1,1,1,1,2,0,2,1,3,1,1,1,0,0
282379829,282379073,19482372,36.660603099999996,126.342033,104.10307,108.99057,-43.800797,-0.0023442465,-0.00101622,0.0,4.5228076,-18.5484,0.51607555,0.49993524,0.11088751,-0.07729845,0.16924699,6.1658354,2.2550611,0.17179233,-1.0701596,-0.0013807509,13.964416,48.3566,0.34162465,0.39226425,0.16167109,0.1041288,inf,inf,inf,inf,1,1,1,1,2,0,2,1,3,1,1,1,0,0
282873291,282872976,19482372,36.660603099999996,126.342033,107.25784,99.41613,-43.706467,-0.0023442465,-0.00101622,0.0,7.2555676,-17.424484,-0.09405711,-0.12019503,0.11088751,-0.07729845,0.16924699,4.3311105,2.998434,-0.30583903,-0.9340448,-0.0013807509,13.964416,48.26227,0.33311364,0.3893829,0.15808925,0.10392223,inf,inf,inf,inf,1,1,1,1,2,0,2,1,3,1,1,1,0,0
283377156,283376757,19482372,36.660603099999996,126.342033,111.802864,89.99623,-43.615356,-0.0023442465,-0.00101622,0.0,9.093519,-16.767508,0.2631832,0.21329203,0.11088751,-0.07729845,0.16924699,0.46245494,1.599413,-0.9336594,-0.87130713,-0.0013807509,13.964416,48.17116,0.34205133,0.38866457,0.16020818,0.10617163,inf,inf,inf,inf,1,1,1,1,2,0,2,1,3,1,1,1,0,0
283870990,283870660,19482372,36.660603099999996,126.342033,117.11571,81.30224,-43.396564,-0.0023442465,-0.00101622,0.0,10.515496,-16.175135,0.5411241,0.4725845,0.11088751,-0.07729845,0.16924699,0.3451879,0.8965369,-3.3196325,-0.7778886,-0.0013807509,13.964416,47.95237,0.33425543,0.38647312,0.14876236,0.10502326,inf,inf,inf,inf,1,1,1,1,2,0,2,1,3,1,1,1,0,0
284375120,284374441,19482372,36.660603099999996,126.342033,123.2009,72.96581,-43.143585,-0.0023442465,-0.00101622,0.0,11.618889,-15.509995,0.3439775,0.33963013,0.11088751,-0.07729845,0.16924699,0.19489095,1.2621069,-2.273876,-0.730436,-0.0013807509,13.964416,47.69939,0.3433746,0.38877138,0.1517112,0.10716317,inf,inf,inf,inf,1,1,1,1,2,0,2,1,3,1,1,1,0,0
284878670,284878221,19482372,36.660603099999996,126.342033,129.5871,65.07156,-42.959553,-0.0023442465,-0.00101622,0.0,12.094445,-15.207073,0.4145556,0.42020553,0.11088751,-0.07729845,0.16924699,-1.1194776,-1.0298564,-0.6512328,-0.7026035,-0.0013807509,13.964416,47.515358,0.3360654,0.38751644,0.14212845,0.10557434,inf,inf,inf,inf,1,1,1,1,2,0,2,1,3,1,1,1,0,0
285372562,285372124,19482372,36.660603099999996,126.342033,135.96509,57.60568,-42.89408,-0.0023442465,-0.00101622,0.0,12.335224,-14.953092,0.20476079,0.14120454,0.11088751,-0.07729845,0.16924699,1.531283,1.0577657,0.9559067,-0.6753907,-0.0013807509,13.964416,47.449886,0.34401304,0.38958037,0.14468352,0.10692232,inf,inf,inf,inf,1,1,1,1,2,0,2,1,3,1,1,1,0,0
285876229,285875904,19482372,36.660603099999996,126.342033,142.4397,50.141354,-42.81389,-0.0023442465,-0.00101622,0.0,12.3607855,-14.975178,0.5008875,0.39165983,0.11088751,-0.07729845,0.16924699,0.3027815,0.6178927,-1.7238983,-0.66587657,-0.0013807509,13.964416,47.369694,0.3366172,0.38608822,0.13771078,0.1051263,inf,inf,inf,inf,1,1,1,1,2,0,2,1,3,1,1,1,0,0
286380452,286379685,19482372,36.660603099999996,126.342033,148.85347,42.76213,-42.701084,-0.0023442465,-0.00101622,0.0,12.467661,-14.895787,0.4499566,0.32443804,0.11088751,-0.07729845,0.16924699,0.19999863,0.7021639,0.2757882,-0.69240874,-0.0013807509,13.964416,47.25689,0.3450513,0.38896677,0.14234269,0.10677456,inf,inf,inf,inf,1,1,1,1,2,0,2,1,3,1,1,1,0,0
286873959,286873587,19482372,36.660603099999996,126.342033,155.04266,35.564854,-42.734745,-0.0023442465,-0.00101622,0.0,12.279404,-15.067675,0.33678004,0.107462145,0.11088751,-0.07729845,0.16924699,-0.5817707,-0.6936872,0.7589204,-0.7146785,-0.0013807509,13.964416,47.29055,0.3366246,0.38725954,0.13797985,0.105168544,inf,inf,inf,inf,1,1,1,1,2,0,2,1,3,1,1,1,0,0
287377745,287377367,19482372,36.660603099999996,126.342033,161.27368,28.199835,-42.699413,-0.0023442465,-0.00101622,0.0,12.27125,-15.096586,0.1830034,-0.014625742,0.11088751,-0.07729845,0.16924699,-1.7835346,-1.0541234,1.800337,-0.69286245,-0.0013807509,13.964416,47.25522,0.34483412,0.3902868,0.143592,0.10687688,inf,inf,inf,inf,1,1,1,1,2,0,2,1,3,1,1,1,0,0
287871790,287871268,19482372,36.660603099999996,126.342033,167.31247,20.98478,-42.598984,-0.0023442465,-0.00101622,0.0,12.328312,-15.088678,0.29890662,0.13061547,0.11088751,-0.07729845,0.16924699,1.776108,-0.06785288,1.0147676,-0.71263146,-0.0013807509,13.964416,47.15479,0.33609626,0.38856167,0.13772391,0.10538453,inf,inf,inf,inf,1,1,1,1,2,0,2,1,3,1,1,1,0,0
288375424,288375048,19482372,36.660603099999996,126.342033,173.47151,13.573226,-42.49872,-0.0023442465,-0.00101622,0.0,12.336416,-15.134645,0.2030854,0.04334204,0.11088751,-0.07729845,0.16924699,1.714991,0.34429154,1.6231816,-0.7183883,-0.0013807509,13.964416,47.054523,0.34428656,0.38928804,0.14309217,0.10687559,inf,inf,inf,inf,1,1,1,1,2,0,2,1,3,1,1,1,0,0
288879148,288878828,19482372,36.660603099999996,126.342033,179.59218,6.124242,-42.472607,-0.0023442465,-0.00101622,0.0,12.37098,-15.160224,0.0051436396,-0.14563093,0.11088751,-0.07729845,0.16924699,2.0402503,0.21203193,0.12189727,-0.707943,-0.0013807509,13.964416,47.02841,0.33624023,0.38826036,0.13873217,0.10554185,inf,inf,inf,inf,1,1,1,1,2,0,2,1,3,1,1,1,0,0
289373026,289372729,19482372,36.660603099999996,126.342033,185.6067,-1.2369777,-42.472,-0.0023442465,-0.00101622,0.0,12.427265,-15.162643,0.11925287,-0.031595822,0.11088751,-0.07729845,0.16924699,0.8892034,0.7750802,-2.3039236,-0.70900625,-0.0013807509,13.964416,47.027805,0.343732,0.39078903,0.14255275,0.10704923,inf,inf,inf,inf,1,1,1,1,2,0,2,1,3,1,1,1,0,0
289876804,289876508,19482372,36.660603099999996,126.342033,191.72841,-8.7191105,-42.477795,-0.0023442465,-0.00101622,0.0,12.362923,-15.118658,0.0948154,-0.08117211,0.11088751,-0.07729845,0.16924699,0.85441786,1.0655895,-1.386247,-0.71429056,-0.0013807509,13.964416,47.0336,0.33574545,0.3896963,0.1378173,0.10567909,inf,inf,inf,inf,1,1,1,1,2,0,2,1,3,1,1,1,0,0
290370739,290370409,19482372,36.660603099999996,126.342033,197.71364,-16.044983,-42.531063,-0.0023442465,-0.00101622,0.0,12.457797,-14.872298,-0.059022695,-0.19207332,0.11088751,-0.07729845,0.16924699,2.362699,1.67482,-0.348368,-0.67031527,-0.0013807509,13.964416,47.08687,0.34316635,0.38978332,0.14254996,0.106842354,inf,inf,inf,inf,1,1,1,1,2,0,2,1,3,1,1,1,0,0
290874494,290874188,19482372,36.660603099999996,126.342033,203.88448,-23.28209,-42.671196,-0.0023442465,-0.00101622,0.0,12.689685,-14.28335,0.24822257,0.12091644,0.11088751,-0.07729845,0.16924699,0.833732,0.599592,2.4004066,-0.6192894,-0.0013807509,13.964416,47.227,0.3352158,0.38860324,0.13723034,0.10540942,inf,inf,inf,inf,1,1,1,1,2,0,2,1,3,1,1,1,0,0
291378260,291377967,19482372,36.660603099999996,126.342033,210.2334,-30.251917,-42.8386,-0.0023442465,-0.00101622,0.0,12.927264,-13.667755,-0.057090946,-0.20782474,0.11088751,-0.07729845,0.16924699,0.31513247,0.33492723,1.6724674,-0.57289195,-0.0013807509,13.964416,47.394405,0.34361354,0.39178503,0.14253674,0.10705685,inf,inf,inf,inf,1,1,1,1,2,0,2,1,3,1,1,1,0,0
291872278,291871868,19482372,36.660603099999996,126.342033,216.5973,-36.850468,-42.96209,-0.0023442465,-0.00101622,0.0,13.124408,-13.156294,0.07959321,-0.08570752,0.11088751,-0.07729845,0.16924699,1.4767812,1.8218187,-1.1687113,-0.5064486,-0.0013807509,13.964416,47.517895,0.33477047,0.38996205,0.13691613,0.105485335,inf,inf,inf,inf,1,1,1,1,2,0,2,1,3,1,1,1,0,0
292375982,292375646,19482372,36.660603099999996,126.342033,223.24028,-43.36422,-43.135216,-0.0023442465,-0.00101622,0.0,13.370031,-12.731571,0.0119928215,-0.20332511,0.11088751,-0.07729845,0.16924699,-0.06490929,-0.18466933,3.5850275,-0.48902875,-0.0013807509,13.964416,47.69102,0.34313253,0.3906999,0.14232963,0.10689319,inf,inf,inf,inf,1,1,1,1,2,0,2,1,3,1,1,1,0,0
292879732,292879424,19482372,36.660603099999996,126.342033,229.9689,-49.695045,-43.181736,-0.0023442465,-0.00101622,0.0,13.567482,-12.561916,0.06073166,-0.1628148,0.11088751,-0.07729845,0.16924699,-0.69963795,-1.7727078,0.87579525,-0.50721747,-0.0013807509,13.964416,47.73754,0.3348308,0.38949716,0.13676548,0.10544898,inf,inf,inf,inf,1,1,1,1,2,0,2,1,3,1,1,1,0,0
293373624,293373324,19482372,36.660603099999996,126.342033,236.64644,-55.872902,-43.12486,-0.0023442465,-0.00101622,0.0,13.703617,-12.5405245,-0.18652552,-0.30559593,0.11088751,-0.07729845,0.16924699,-1.2760254,-1.6453137,0.42060536,-0.5086792,-0.0013807509,13.964416,47.680664,0.34235543,0.39199594,0.1417131,0.10686094,inf,inf,inf,inf,1,1,1,1,2,0,2,1,3,1,1,1,0,0
293877424,293877102,19482372,36.660603099999996,126.342033,243.53539,-62.191853,-43.185047,-0.0023442465,-0.00101622,0.0,13.748932,-12.587482,-0.4471443,-0.50260514,0.11088751,-0.07729845,0.16924699,-1.5644367,-1.2774131,-0.44719565,-0.49565965,-0.0013807509,13.964416,47.740852,0.3343484,0.39073,0.13789499,0.10543098,inf,inf,inf,inf,1,1,1,1,2,0,2,1,3,1,1,1,0,0
294371428,294371002,19482372,36.660603099999996,126.342033,250.29515,-68.37171,-43.363564,-0.0023442465,-0.00101622,0.0,13.801223,-12.458934,-0.612713,-0.6244485,0.11088751,-0.07729845,0.16924699,-1.4006253,-1.0301127,-0.42920655,-0.5054224,-0.0013807509,13.964416,47.91937,0.341912,0.39070922,0.14274947,0.106574535,inf,inf,inf,inf,1,1,1,1,2,0,2,1,3,1,1,1,0,0
294875109,294874780,19482372,36.660603099999996,126.342033,257.1988,-74.632706,-43.659573,-0.0023442465,-0.00101622,0.0,13.734234,-12.541725,-0.14054175,-0.15556276,0.11088751,-0.07729845,0.16924699,-1.0308441,-1.9779168,2.8271027,-0.5237829,-0.0013807509,13.964416,48.215378,0.33387345,0.38943556,0.13692021,0.10515865,inf,inf,inf,inf,1,1,1,1,2,0,2,1,3,1,1,1,0,0
295378876,295378557,19482372,36.660603099999996,126.342033,264.05115,-80.91668,-43.782963,-0.0023442465,-0.00101622,0.0,13.675273,-12.562176,0.08386254,-0.009825984,0.11088751,-0.07729845,0.16924699,0.24675505,1.4742589,-0.9023199,-0.49044517,-0.0013807509,13.964416,48.338768,0.34225056,0.39250374,0.14021398,0.106763735,inf,inf,inf,inf,1,1,1,1,2,0,2,1,3,1,1,1,0,0
295872769,295872457,19482372,36.660603099999996,126.342033,270.72238,-87.087776,-43.828285,-0.0023442465,-0.00101622,0.0,13.667836,-12.546898,0.1964759,0.086651415,0.11088751,-0.07729845,0.16924699,1.1777725,1.2943691,2.1391768,-0.479242,-0.0013807509,13.964416,48.38409,0.3336113,0.39054793,0.13565041,0.10521874,inf,inf,inf,inf,1,1,1,1,2,0,2,1,3,1,1,1,0,0
296376559,296376234,19482372,36.660603099999996,126.342033,277.5267,-93.352264,-43.686718,-0.0023442465,-0.00101622,0.0,13.725502,-12.457661,-0.0729913,-0.06011741,0.11088751,-0.07729845,0.16924699,-0.545739,-1.7775967,1.1290184,-0.47535825,-0.0013807509,13.964416,48.242523,0.34192368,0.39118406,0.141077,0.106582105,inf,inf,inf,inf,1,1,1,1,2,0,2,1,3,1,1,1,0,0
296880332,296880011,19482372,36.660603099999996,126.342033,284.2979,-99.61274,-43.619217,-0.0023442465,-0.00101622,0.0,13.665993,-12.469913,-0.33022377,-0.22712404,0.11088751,-0.07729845,0.16924699,0.7242933,1.1453763,-0.98385996,-0.4932256,-0.0013807509,13.964416,48.175022,0.3338312,0.38988706,0.13699374,0.10520301,inf,inf,inf,inf,1,1,1,1,2,0,2,1,3,1,1,1,0,0
297374224,297373909,19482372,36.660603099999996,126.342033,290.9489,-105.7756,-43.805782,-0.0023442465,-0.00101622,0.0,13.637815,-12.500675,-0.5021102,-0.4596118,0.11088751,-0.07729845,0.16924699,-0.48328543,-1.1395514,0.66588616,-0.48630768,-0.0013807509,13.964416,48.361588,0.3415636,0.39229214,0.14184308,0.10665075,inf,inf,inf,inf,1,1,1,1,2,0,2,1,3,1,1,1,0,0
297878023,297877686,19482372,36.660603099999996,126.342033,297.7238,-112.02955,-43.879265,-0.0023442465,-0.00101622,0.0,13.652939,-12.377124,-0.15175204,-0.07371303,0.11088751,-0.07729845,0.16924699,-0.4581039,0.2638021,-3.4414062,-0.47807437,-0.0013807509,13.964416,48.43507,0.33343273,0.3909594,0.13571861,0.1052655,inf,inf,inf,inf,1,1,1,1,2,0,2,1,3,1,1,1,0,0
298371911,298371585,19482372,36.660603099999996,126.342033,304.36856,-118.13159,-43.98985,-0.0023442465,-0.00101622,0.0,13.590091,-12.31356,-0.08394429,-0.043675292,0.11088751,-0.07729845,0.16924699,-0.0077828397,1.0182385,-1.1046531,-0.48064724,-0.0013807509,13.964416,48.545654,0.34089303,0.39089942,0.1398594,0.10643323,inf,inf,inf,inf,1,1,1,1,2,0,2,1,3,1,1,1,0,0
298875669,298875361,19482372,36.660603099999996,126.342033,311.13522,-124.32001,-44.05841,-0.0023442465,-0.00101622,0.0,13.525639,-12.272774,0.0139088435,0.022698771,0.11088751,-0.07729845,0.16924699,0.8103971,1.1757406,-1.7042551,-0.49353948,-0.0013807509,13.964416,48.614216,0.33268812,0.38957652,0.13527232,0.10505813,inf,inf,inf,inf,1,1,1,1,2,0,2,1,3,1,1,1,0,0
299379448,299379137,19482372,36.660603099999996,126.342033,317.9159,-130.46793,-44.25229,-0.0023442465,-0.00101622,0.0,13.480418,-12.244643,-0.12941313,-0.18951313,0.11088751,-0.07729845,0.16924699,0.9549947,0.63347036,0.017786771,-0.4996461,-0.0013807509,13.964416,48.808094,0.34094912,0.39263988,0.14041844,0.10670286,inf,inf,inf,inf,1,1,1,1,2,0,2,1,3,1,1,1,0,0
