timestamp,timestamp_sample,states[0],states[1],states[2],states[3],states[4],states[5],states[6],states[7],states[8],states[9],states[10],states[11],states[12],states[13],states[14],states[15],states[16],states[17],states[18],states[19],states[20],states[21],states[22],states[23],covariances[0],covariances[1],covariances[2],covariances[3],covariances[4],covariances[5],covariances[6],covariances[7],covariances[8],covariances[9],covariances[10],covariances[11],covariances[12],covariances[13],covariances[14],covariances[15],covariances[16],covariances[17],covariances[18],covariances[19],covariances[20],covariances[21],covariances[22],covariances[23],n_states
218271517,218172067,-0.85999924,-0.012970785,-0.0037697698,-0.5101165,0.039366115,-0.0011350644,0.06385624,13.333927,0.66360635,4.3971763,-2.9886676e-06,-6.0064162e-06,1.3782753e-05,0.0013230483,0.0005811761,-0.0004443149,0.28325912,-0.041381765,0.38266158,0.0,0.0,0.0,0.0,0.0,2.1961925e-05,5.1215065e-06,5.2004707e-06,6.363971e-05,0.009371985,0.009375661,0.011059338,0.061816078,0.0618308,0.15378669,2.0733533e-11,2.0993702e-11,4.1447082e-11,5.0000082e-08,5.745517e-08,5.0000086e-08,0.0,0.0,0.0,0.0,0.0,0.0,0.0,0.0,24
219269802,219169731,-0.85934526,-0.013041951,-0.0038374935,-0.5112153,0.037932295,0.0020696581,0.06521568,13.35471,0.66624177,4.4306345,-3.1157288e-06,-6.1997384e-06,1.3180882e-05,0.0013225997,0.00058172294,-0.00044801555,0.28325912,-0.041381765,0.38266158,0.0,0.0,0.0,0.0,0.0,2.2053502e-05,5.1389484e-06,5.21935e-06,6.3852676e-05,0.009323945,0.009323354,0.011063927,0.06092443,0.060933553,0.15387072,2.0481138e-11,2.074559e-11,4.1502954e-11,5e-08,5.745293e-08,5e-08,0.0,0.0,0.0,0.0,0.0,0.0,0.0,0.0,24
220266979,220167395,-0.8584117,-0.010938368,-0.0029790092,-0.51283604,0.03466426,-0.009440801,0.061133236,13.378504,0.6462023,4.4440255,-3.158417e-06,-6.535226e-06,1.2750015e-05,0.0013214399,0.00058146537,-0.00044523858,0.28325912,-0.041381765,0.38266158,0.0,0.0,0.0,0.0,0.0,2.2218208e-05,5.1339935e-06,5.213793e-06,6.398864e-05,0.009275315,0.009273578,0.011016383,0.06004079,0.060045477,0.15221538,2.0248678e-11,2.050831e-11,4.15555e-11,5e-08,5.7440197e-08,5e-08,0.0,0.0,0.0,0.0,0.0,0.0,0.0,0.0,24
221264876,221165060,-0.8575303,-0.0026089116,-0.0037089381,-0.51441365,0.034330703,0.005285686,0.04889299,13.410769,0.66103315,4.439536,-3.2846187e-06,-6.46871e-06,1.2943893e-05,0.0013209976,0.00058172597,-0.00043569965,0.28325912,-0.041381765,0.38266158,0.0,0.0,0.0,0.0,0.0,2.2395903e-05,5.118468e-06,5.1876236e-06,6.377792e-05,0.009239425,0.009238264,0.011031092,0.059181765,0.059183314,0.15265118,2.0043273e-11,2.0290618e-11,4.153453e-11,5e-08,5.7415914e-08,5e-08,0.0,0.0,0.0,0.0,0.0,0.0,0.0,0.0,24
222271964,222172603,-0.84930533,0.008151126,-0.021180764,-0.52741396,0.011978429,0.006336526,0.036909115,13.415047,0.6545918,4.4051547,-3.4146613e-06,-6.695281e-06,1.3434504e-05,0.0013190948,0.00058032246,-0.00042244402,0.28325912,-0.041381765,0.38266158,0.0,0.0,0.0,0.0,0.0,2.3744216e-05,5.1319794e-06,5.163285e-06,6.271105e-05,0.00922541,0.009225704,0.011020694,0.058537118,0.058536716,0.15176913,1.9862749e-11,2.0092124e-11,4.158991e-11,5.000008e-08,5.738333e-08,5e-08,0.0,0.0,0.0,0.0,0.0,0.0,0.0,0.0,24
223269990,223170270,-0.8343793,0.015120045,0.0054674996,-0.5509562,0.07505749,-0.12512127,0.009048846,13.430127,0.63344735,4.3519497,-3.5606583e-06,-6.7559313e-06,1.444831e-05,0.0013177415,0.0005788153,-0.00041656397,0.28325912,-0.041381765,0.38266158,0.0,0.0,0.0,0.0,0.0,2.6180081e-05,5.0713966e-06,5.136429e-06,6.056366e-05,0.009199849,0.009197718,0.011024644,0.057685617,0.05768426,0.15230465,1.9704415e-11,1.99152e-11,4.163267e-11,5e-08,5.7333008e-08,5e-08,0.0,0.0,0.0,0.0,0.0,0.0,0.0,0.0,24
224267167,224167936,-0.8418672,-0.01703951,0.004239135,-0.539399,-0.0900661,-0.091043815,-0.33591083,13.508417,0.48062992,4.0907693,-3.344134e-06,-6.812856e-06,1.5969295e-05,0.0013190487,0.00057482993,-0.0004327415,0.28325912,-0.041381765,0.38266158,0.0,0.0,0.0,0.0,0.0,2.5321813e-05,5.0055105e-06,5.1207553e-06,6.127952e-05,0.009277085,0.009288664,0.011038497,0.05689816,0.056896295,0.15293948,1.9544524e-11,1.9733883e-11,4.159506e-11,5.0000086e-08,5.724978e-08,5.0000086e-08,0.0,0.0,0.0,0.0,0.0,0.0,0.0,0.0,24
225265184,225165604,-0.84367144,-0.015698625,0.0021450368,-0.536626,-0.09971976,0.11226507,-0.58711934,13.392754,0.49267948,3.5769243,-3.1906181e-06,-7.1348045e-06,1.7413793e-05,0.0013178203,0.0005693825,-0.0004390501,0.28325912,-0.041381765,0.38266158,0.0,0.0,0.0,0.0,0.0,2.5357347e-05,4.932986e-06,5.0413328e-06,6.141623e-05,0.009242541,0.009239505,0.010994306,0.05611588,0.056114532,0.15172453,1.9403265e-11,1.9561144e-11,4.1617428e-11,5e-08,5.7172162e-08,5e-08,0.0,0.0,0.0,0.0,0.0,0.0,0.0,0.0,24
226272825,226173149,0.8781287,0.0042255595,-0.012704812,0.47823703,-0.15352237,0.17934367,-0.76390576,13.230062,0.65995646,2.8914425,-3.343827e-06,-7.259148e-06,1.8814548e-05,0.0013162013,0.00056731224,-0.0004481322,0.3154327,-0.04608208,0.2995521,0.0,0.0,0.0,0.0,0.0,0.000535394,5.472577e-06,5.226674e-06,0.0017845329,0.00924003,0.009240708,0.011002708,0.055685744,0.055684805,0.15109164,1.9309202e-11,1.9440793e-11,4.1652515e-11,5e-08,5.711682e-08,5e-08,0.0,0.0,0.0,0.0,0.0,0.0,0.0,0.0,24
227270541,227170818,0.8773809,-0.002953593,-0.010092395,0.4796795,0.040928956,0.07216317,-0.8774547,13.14872,0.8303472,2.022082,-3.693669e-06,-7.2183157e-06,1.8801062e-05,0.0013160919,0.0005562178,-0.0004395413,0.3154327,-0.04608208,0.2995521,0.0,0.0,0.0,0.0,0.0,0.00022801623,5.583052e-06,5.5761193e-06,0.0007598052,0.007939137,0.007911533,0.011026148,0.054886118,0.05488516,0.15186086,1.9662251e-11,1.9797348e-11,4.260925e-11,5e-08,5.668582e-08,5e-08,0.0,0.0,0.0,0.0,0.0,0.0,0.0,0.0,24
228267766,228168487,0.86407614,-0.0020724528,-0.0040277382,0.50334084,0.13163441,0.037996434,-0.95282257,13.264139,0.910085,1.101363,-3.6899703e-06,-7.0040624e-06,1.8817285e-05,0.001296333,0.0005579271,-0.00045233063,0.3154327,-0.04608208,0.2995521,0.0,0.0,0.0,0.0,0.0,0.00015830024,5.320419e-06,5.375378e-06,0.00046808203,0.009405224,0.009231069,0.011049809,0.053796366,0.05378625,0.15265076,2.0340072e-11,2.049016e-11,4.356607e-11,5.0000086e-08,5.4824767e-08,5.0000086e-08,0.0,0.0,0.0,0.0,0.0,0.0,0.0,0.0,24
229265714,229166157,0.8443387,0.00069586607,0.0023267996,0.53580445,0.1373732,-0.03902185,-0.9983426,13.405174,0.8958625,0.032882098,-3.6347697e-06,-7.013768e-06,1.8806753e-05,0.0012993147,0.00056302967,-0.0004276222,0.3154327,-0.04608208,0.2995521,0.0,0.0,0.0,0.0,0.0,0.00012873868,4.8411002e-06,4.887112e-06,0.00032216366,0.010352315,0.010165324,0.011092435,0.052960675,0.052925963,0.15500388,2.1133246e-11,2.1293831e-11,4.4518646e-11,5e-08,5.2405618e-08,5e-08,0.0,0.0,0.0,0.0,0.0,0.0,0.0,0.0,24
230272999,230173705,0.838653,0.014569645,0.0122900065,0.54433244,0.1004827,-0.14001144,-0.99364305,13.562935,0.756385,-0.97776884,-3.4932664e-06,-7.107474e-06,1.8783334e-05,0.0013137994,0.00057539425,-0.00044090234,0.3154327,-0.04608208,0.2995521,0.0,0.0,0.0,0.0,0.0,0.000105483225,4.55018e-06,4.6891387e-06,0.00025286558,0.010426819,0.010321813,0.011053347,0.05275162,0.052699152,0.15352091,2.196242e-11,2.2129798e-11,4.5475856e-11,5.0000086e-08,5.0569096e-08,5e-08,0.0,0.0,0.0,0.0,0.0,0.0,0.0,0.0,24
231270971,231171376,0.83518463,0.014593149,0.016343663,0.54953307,-0.1154733,-0.069899134,-1.0095577,13.570322,0.6697296,-2.0098534,-3.5718992e-06,-7.095916e-06,1.8789866e-05,0.0013116385,0.0005703641,-0.00043206627,0.3154327,-0.04608208,0.2995521,0.0,0.0,0.0,0.0,0.0,8.808481e-05,4.4416997e-06,4.5360975e-06,0.00020538979,0.009967405,0.009974315,0.011041215,0.052403554,0.052351255,0.15356259,2.274516e-11,2.2915425e-11,4.6414986e-11,5e-08,5e-08,5e-08,0.0,0.0,0.0,0.0,0.0,0.0,0.0,0.0,24
232268577,232169047,0.83358985,0.01658274,-0.0003443643,0.55213475,-0.14460136,-0.08005767,-1.0229185,13.420056,0.5458895,-3.0335865,-3.5225419e-06,-7.3459437e-06,1.879112e-05,0.0013231416,0.00056969747,-0.000427704,0.3154327,-0.04608208,0.2995521,0.0,0.0,0.0,0.0,0.0,7.613853e-05,4.4463227e-06,4.6095283e-06,0.00017539685,0.009494039,0.009501124,0.011033075,0.052065294,0.052024417,0.153552,2.3428873e-11,2.3601723e-11,4.734718e-11,5e-08,5e-08,5e-08,0.0,0.0,0.0,0.0,0.0,0.0,0.0,0.0,24
233266243,233166719,0.8460869,0.012361477,-0.008172563,0.5328389,-0.12227238,0.014080441,-1.0126314,13.273115,0.44537726,-4.1019244,-3.5037058e-06,-7.84195e-06,1.881457e-05,0.0013352884,0.0005671401,-0.0004038874,0.3154327,-0.04608208,0.2995521,0.0,0.0,0.0,0.0,0.0,6.219975e-05,4.640951e-06,4.7450308e-06,0.00015840077,0.00914568,0.009129313,0.011024507,0.05158305,0.051555738,0.1535783,2.3942867e-11,2.411971e-11,4.8268903e-11,5e-08,5e-08,5e-08,0.0,0.0,0.0,0.0,0.0,0.0,0.0,0.0,24
234264051,234164391,0.8562992,0.010411133,-0.010908188,0.51626,-0.01904549,0.14568803,-0.9869412,13.182566,0.51207703,-4.939807,-3.603161e-06,-8.074722e-06,1.8832397e-05,0.0013378611,0.0005655216,-0.00043957378,0.3154327,-0.04608208,0.2995521,0.0,0.0,0.0,0.0,0.0,5.1635925e-05,4.8465545e-06,4.9463997e-06,0.00014330634,0.008993423,0.008974721,0.0110308025,0.05117168,0.051154125,0.15377761,2.4237543e-11,2.4416346e-11,4.917283e-11,5e-08,5e-08,5e-08,0.0,0.0,0.0,0.0,0.0,0.0,0.0,0.0,24
235271186,235171942,0.8600947,0.0051696934,-0.00068428164,0.5101077,0.059821326,0.12934251,-1.1807956,13.235755,0.6622719,-5.78038,-3.644682e-06,-8.070315e-06,1.8860788e-05,0.0013375673,0.0005663661,-0.00049164693,0.3154327,-0.04608208,0.2995521,0.0,0.0,0.0,0.0,0.0,4.5726738e-05,5.008348e-06,5.1370534e-06,0.00013080462,0.009092186,0.009103986,0.011027561,0.051030185,0.051018674,0.15262775,2.4288285e-11,2.4464132e-11,5.0073903e-11,5.0000086e-08,5.0000086e-08,5.0000086e-08,0.0,0.0,0.0,0.0,0.0,0.0,0.0,0.0,24
236269146,236169617,0.86086327,0.0084408065,0.00739544,0.50871277,0.15114819,-0.017798258,-2.9413528,13.346107,0.73999035,-7.901433,-3.8353005e-06,-7.907337e-06,1.9020725e-05,0.0013373896,0.00056717126,-0.0005454182,0.3154327,-0.04608208,0.2995521,0.0,0.0,0.0,0.0,0.0,4.2004714e-05,4.9966593e-06,5.1214774e-06,0.000119772434,0.009646215,0.009654741,0.011038051,0.050660223,0.050655715,0.15296823,2.3918893e-11,2.4087319e-11,5.0945845e-11,5e-08,5e-08,5e-08,0.0,0.0,0.0,0.0,0.0,0.0,0.0,0.0,24
237266510,237167290,0.8491697,0.0112938965,0.009746003,0.52790934,0.013157423,-0.07231766,-2.8096268,13.451862,0.7265607,-10.713221,-3.885256e-06,-7.718976e-06,1.9065355e-05,0.0013382881,0.0005677153,-0.0005182118,0.3154327,-0.04608208,0.2995521,0.0,0.0,0.0,0.0,0.0,4.1644875e-05,5.012694e-06,5.146748e-06,0.00010708385,0.009286409,0.009283026,0.011054345,0.05038092,0.050381545,0.153362,2.3504554e-11,2.3666576e-11,5.1789732e-11,5.000017e-08,5.000017e-08,5.000017e-08,0.0,0.0,0.0,0.0,0.0,0.0,0.0,0.0,24
238264623,238164964,0.84207964,0.0064201592,0.0049330513,0.53929263,-0.035223536,-0.041344423,-2.7919257,13.435436,0.6520964,-13.628102,-3.857211e-06,-7.848555e-06,1.9203791e-05,0.0013374557,0.0005682078,-0.00047599332,0.3154327,-0.04608208,0.2995521,0.0,0.0,0.0,0.0,0.0,4.073843e-05,5.024308e-06,5.1675784e-06,9.8143384e-05,0.00908018,0.009083754,0.011008013,0.04998885,0.049990483,0.15191829,2.3060227e-11,2.3213135e-11,5.2620734e-11,5e-08,5e-08,5e-08,0.0,0.0,0.0,0.0,0.0,0.0,0.0,0.0,24
239272074,239172517,0.8376734,0.015554751,0.003947968,0.5459358,-0.055920128,-0.015997674,-2.854575,13.412724,0.6257966,-16.533184,-3.8122312e-06,-7.842341e-06,1.943319e-05,0.0013374374,0.0005684677,-0.0004219087,0.3154327,-0.04608208,0.2995521,0.0,0.0,0.0,0.0,0.0,3.9278297e-05,5.0562094e-06,5.2310634e-06,9.0628455e-05,0.009076696,0.009079213,0.011054067,0.04984963,0.049851354,0.15292764,2.2607822e-11,2.2750267e-11,5.342637e-11,5e-08,5e-08,5e-08,0.0,0.0,0.0,0.0,0.0,0.0,0.0,0.0,24
240269847,240170193,0.8289652,0.013739769,0.00028038726,0.5591313,-0.06317541,0.05323382,-2.9475346,13.333764,0.6004206,-19.438639,-3.9866263e-06,-8.325004e-06,1.9675006e-05,0.0013340705,0.0005689012,-0.00038934278,0.3154327,-0.04608208,0.2995521,0.0,0.0,0.0,0.0,0.0,3.918632e-05,5.058029e-06,5.2243167e-06,8.388263e-05,0.009092144,0.009088968,0.011011714,0.049565863,0.049567364,0.15158296,2.2140827e-11,2.2272025e-11,5.4207236e-11,5e-08,5e-08,5e-08,0.0,0.0,0.0,0.0,0.0,0.0,0.0,0.0,24
241267394,241167869,0.8227615,0.009372973,0.00020743374,0.5683096,0.012837004,0.11777152,-2.9605393,13.295087,0.6752197,-22.387423,-4.1533863e-06,-8.517732e-06,1.9929745e-05,0.001332246,0.00056932535,-0.00037425035,0.3154327,-0.04608208,0.2995521,0.0,0.0,0.0,0.0,0.0,3.8712802e-05,5.0375966e-06,5.1887796e-06,7.855523e-05,0.009037938,0.009033597,0.01101195,0.04920435,0.049205255,0.15215781,2.1686276e-11,2.1806373e-11,5.495855e-11,5e-08,5e-08,5e-08,0.0,0.0,0.0,0.0,0.0,0.0,0.0,0.0,24
242264826,242165546,0.8203442,0.002349543,0.012165018,0.571736,0.04776949,0.06148609,-2.9698794,13.38741,0.79735076,-25.33196,-3.7843552e-06,-8.257573e-06,2.0158954e-05,0.0013351731,0.0005684596,-0.0003636662,0.3154327,-0.04608208,0.2995521,0.0,0.0,0.0,0.0,0.0,3.7470898e-05,5.2528767e-06,5.3775634e-06,7.430468e-05,0.010292547,0.010290327,0.011658872,0.05442849,0.05442831,0.15621223,2.1554302e-11,2.1665865e-11,5.5658648e-11,5.0001713e-08,5.0001702e-08,5.0000256e-08,0.0,0.0,0.0,0.0,0.0,0.0,0.0,0.0,24
243272705,243173101,0.8212934,0.0058758804,0.011107316,0.5703678,-0.029322825,-0.066866465,-3.0055237,13.485444,0.7907768,-28.309921,-3.2914177e-06,-8.083443e-06,2.0334452e-05,0.0013382774,0.00056678074,-0.00035113492,0.3154327,-0.04608208,0.2995521,0.0,0.0,0.0,0.0,0.0,3.6004756e-05,5.009125e-06,5.139364e-06,7.1642375e-05,0.009054067,0.009049748,0.011019878,0.0489003,0.048900142,0.1519469,2.0934532e-11,2.1035411e-11,5.6350417e-11,5e-08,5e-08,5e-08,0.0,0.0,0.0,0.0,0.0,0.0,0.0,0.0,24
244270371,244170778,0.8256678,0.015309654,-0.0018012017,0.56394595,-0.12039566,-0.084145054,-2.976189,13.377327,0.63093466,-31.182993,-3.3409747e-06,-8.801595e-06,2.0575875e-05,0.0013340447,0.0005640191,-0.00035182454,0.3154327,-0.04608208,0.2995521,0.0,0.0,0.0,0.0,0.0,3.3996595e-05,4.9690116e-06,5.1339875e-06,6.961412e-05,0.009002596,0.009004943,0.011040754,0.048654027,0.048653666,0.15268016,2.0630771e-11,2.0722039e-11,5.69726e-11,5e-08,5e-08,5e-08,0.0,0.0,0.0,0.0,0.0,0.0,0.0,0.0,24
245267978,245168456,0.8227163,0.013676688,-0.006445078,0.5682513,-0.12843446,0.11242448,-2.9993818,13.233541,0.58259606,-34.118874,-3.3623553e-06,-9.440794e-06,2.085668e-05,0.0013305428,0.0005620392,-0.00033314497,0.3154327,-0.04608208,0.2995521,0.0,0.0,0.0,0.0,0.0,3.3602166e-05,4.952712e-06,5.1004354e-06,6.7043635e-05,0.008992201,0.008982828,0.011009907,0.04843461,0.048434563,0.15156044,2.0373116e-11,2.0455637e-11,5.7579788e-11,5e-08,5e-08,5e-08,0.0,0.0,0.0,0.0,0.0,0.0,0.0,0.0,24
246265509,246166134,0.8186322,0.00064893323,-0.009163613,0.5742447,-0.011387004,0.21858644,-2.9898853,13.107006,0.72827417,-36.99517,-3.759742e-06,-9.871654e-06,2.1139404e-05,0.0013273061,0.0005625179,-0.00033014355,0.3154327,-0.04608208,0.2995521,0.0,0.0,0.0,0.0,0.0,3.349559e-05,4.9390733e-06,5.067788e-06,6.4613174e-05,0.008989322,0.008983903,0.011043829,0.048339028,0.048338775,0.15242462,2.0159568e-11,2.0234066e-11,5.8143008e-11,5.0000086e-08,5.0000086e-08,5.0000086e-08,0.0,0.0,0.0,0.0,0.0,0.0,0.0,0.0,24
247272926,247173690,0.82022923,-0.006741968,-0.0004850021,0.5719952,0.17277677,0.17164618,-2.784808,13.177966,0.95462644,-39.870304,-4.025345e-06,-9.691502e-06,2.1340595e-05,0.0013274102,0.00056369643,-0.00032838315,0.3154327,-0.04608208,0.2995521,0.0,0.0,0.0,0.0,0.0,3.242703e-05,4.9262726e-06,5.0708313e-06,6.315927e-05,0.008904101,0.008921947,0.011043824,0.048380625,0.048379827,0.15187371,1.9986571e-11,2.005442e-11,5.863757e-11,5.0000086e-08,5.0000086e-08,5.0000086e-08,0.0,0.0,0.0,0.0,0.0,0.0,0.0,0.0,24
248270964,248171369,0.8212019,-0.00076491886,0.014551652,0.57045174,0.22333284,-0.083096646,-1.9238079,13.447657,1.0310601,-42.26117,-3.7525929e-06,-9.357201e-06,2.1174495e-05,0.0013287276,0.00056351634,-0.0003028129,0.3154327,-0.04608208,0.2995521,0.0,0.0,0.0,0.0,0.0,3.1582273e-05,5.0013414e-06,5.1059633e-06,6.2196166e-05,0.008622263,0.008610792,0.0110623045,0.048231877,0.048232824,0.15269908,1.9877237e-11,1.9944678e-11,5.911031e-11,5.0001166e-08,5.000292e-08,5e-08,0.0,0.0,0.0,0.0,0.0,0.0,0.0,0.0,24
249268779,249169048,0.8153685,0.011474149,0.015959932,0.57860863,0.02326036,-0.30221197,-1.1254944,13.642498,0.80725694,-43.68218,-3.2395888e-06,-9.429291e-06,2.0883104e-05,0.0013290099,0.0005633265,-0.00028786573,0.3154327,-0.04608208,0.2995521,0.0,0.0,0.0,0.0,0.0,3.1834756e-05,5.0831304e-06,5.2173223e-06,6.04116e-05,0.0085350955,0.008516271,0.011017649,0.048002746,0.04800342,0.15155521,1.9815365e-11,1.988149e-11,5.953353e-11,5.0007614e-08,5.0010115e-08,5e-08,0.0,0.0,0.0,0.0,0.0,0.0,0.0,0.0,24
250266024,250166728,0.8028412,0.018685631,0.0003507574,0.59590006,-0.23372906,-0.25135225,-0.67933583,13.505729,0.49954322,-44.56454,-3.2838682e-06,-9.756089e-06,2.0670383e-05,0.0013285744,0.00056251814,-0.00023804493,0.3154327,-0.04608208,0.2995521,0.0,0.0,0.0,0.0,0.0,3.3030767e-05,5.1161524e-06,5.3047524e-06,5.759431e-05,0.008607294,0.008633521,0.011023182,0.047828566,0.047826987,0.15211506,1.9740844e-11,1.979703e-11,5.986219e-11,5.0013856e-08,5.001748e-08,5.0000086e-08,0.0,0.0,0.0,0.0,0.0,0.0,0.0,0.0,24
251273539,251174285,0.78990096,0.0012701984,0.01793507,0.6129708,-0.3100731,-0.00089634955,-0.485844,13.229227,0.31249136,-44.976402,-3.111712e-06,-1.0387844e-05,2.0548961e-05,0.0013273893,0.0005612304,-0.00023965274,0.3154327,-0.04608208,0.2995521,0.0,0.0,0.0,0.0,0.0,3.4490164e-05,5.146147e-06,5.2741557e-06,5.5254746e-05,0.008834879,0.008834049,0.011067583,0.047950353,0.0479512,0.15320969,1.9637809e-11,1.9686747e-11,6.019849e-11,5.0013014e-08,5.001959e-08,5.0000086e-08,0.0,0.0,0.0,0.0,0.0,0.0,0.0,0.0,24
252271316,252171965,0.760626,0.037824012,-0.013010223,0.6479569,-0.98212373,-0.8643159,-0.29655582,12.59548,-0.27354723,-45.170628,-2.0674734e-06,-1.0468752e-05,1.990691e-05,0.0013306686,0.0005573972,-0.00026502035,0.3154327,-0.04608208,0.2995521,0.0,0.0,0.0,0.0,0.0,3.753571e-05,5.169631e-06,5.360997e-06,5.0321083e-05,0.008976456,0.009029008,0.011005561,0.04793291,0.047937933,0.15181124,1.9530162e-11,1.9564253e-11,6.0348906e-11,5.0000086e-08,5.000672e-08,5e-08,0.0,0.0,0.0,0.0,0.0,0.0,0.0,0.0,24
253269309,253169645,0.744328,0.02465276,-0.11849251,0.65675545,-0.7171198,0.15739568,-0.18275523,11.727513,-0.7926021,-45.30923,-2.0464431e-06,-1.188793e-05,2.0131523e-05,0.0013228361,0.0005495237,-0.0002787002,0.3154327,-0.04608208,0.2995521,0.0,0.0,0.0,0.0,0.0,3.8226182e-05,6.521128e-06,5.12555e-06,4.767746e-05,0.0090752775,0.008923905,0.010985931,0.04794554,0.047954354,0.1523461,1.9405444e-11,1.9442982e-11,6.055145e-11,5e-08,5e-08,5e-08,0.0,0.0,0.0,0.0,0.0,0.0,0.0,0.0,24
254267562,254167326,0.7947137,-0.093216054,-0.13881238,0.58349997,1.7510717,1.9999229,-0.22664301,11.856994,0.3796601,-45.417713,-4.9811315e-06,-1.253694e-05,1.7865232e-05,0.0012997732,0.0005622526,-0.00030843532,0.32774,-0.047373794,0.2967813,0.03220237,-0.0066568307,-0.015573601,0.0,0.0,2.855568e-05,6.0739403e-06,5.8739374e-06,5.1845862e-05,0.009844299,0.010348013,0.0109572355,0.048084762,0.04808087,0.15265095,1.932733e-11,1.9338172e-11,6.001534e-11,5e-08,5e-08,5e-08,0.0012618238,6.498666e-05,0.0012993856,0.00035286476,0.0012808854,0.0012413851,0.0,0.0,24
255264594,255165007,0.83254904,-0.113952525,-0.0053947903,0.5420775,3.2670841,0.91339606,0.0026136788,14.393148,2.2701325,-45.530827,-6.575278e-06,-9.470043e-06,1.2493498e-05,0.0013100503,0.0005776872,-0.000310521,0.31637684,-0.046613168,0.31314212,0.023317201,-0.020658098,-0.04519695,0.0,0.0,2.2184595e-05,5.016994e-06,5.9288723e-06,5.3435266e-05,0.008899026,0.010153235,0.010933229,0.048187338,0.048202958,0.15450005,1.931129e-11,1.9367806e-11,5.944165e-11,5e-08,5e-08,5e-08,0.0011086821,6.063672e-05,0.0010049393,0.00019070928,0.0011705969,0.000937197,0.0,0.0,24
256272197,256172568,0.86561424,-0.031970296,0.13984376,0.47972256,2.0476544,-0.49403518,-0.06397756,17.580145,2.7471523,-45.759766,-4.913156e-06,-7.238251e-06,1.0372947e-05,0.0013165282,0.00055765983,-0.00028347663,0.31556883,-0.045791376,0.34742498,0.012087815,-0.01119745,-0.070335686,0.0,0.0,1.6762988e-05,7.6188785e-06,4.8769466e-06,5.6960893e-05,0.009560224,0.008995498,0.01087003,0.048368752,0.048486765,0.15301211,1.9220637e-11,1.9422977e-11,5.960862e-11,5.0000086e-08,5.0000086e-08,5.0000086e-08,0.0007841639,5.4556476e-05,0.00073075324,0.00015193861,0.00083391403,0.0006731911,0.0,0.0,24
257270055,257170247,0.90452063,-0.052895647,0.046048786,0.42062336,-0.13632794,-1.7051935,0.16468139,18.559818,1.5500224,-45.698048,-2.110904e-06,-8.050606e-06,6.497231e-06,0.0012780163,0.0005547398,-0.00027970216,0.3118804,-0.04474194,0.3618867,0.011919726,-0.010219098,-0.08022602,0.0,0.0,1.1753947e-05,5.0427516e-06,4.8954093e-06,5.9438953e-05,0.0095678335,0.0103865685,0.010942804,0.04834665,0.048351325,0.15312219,1.918167e-11,1.9259594e-11,5.8409846e-11,5e-08,5e-08,5e-08,0.0005253541,4.866937e-05,0.0005680832,0.00013169352,0.00054541463,0.0005336681,0.0,0.0,24
258267693,258167929,0.90480214,0.07255989,-0.17984772,0.37910843,0.8061179,-0.55719435,0.009777857,18.64211,-0.15348274,-45.632015,-1.720459e-06,-1.0622627e-05,3.625462e-06,0.0012487144,0.0006062317,-0.0002888341,0.31347102,-0.045647185,0.3688271,0.017540058,-0.007019493,-0.0835768,0.0,0.0,8.92073e-06,6.9543307e-06,5.2171763e-06,5.8398255e-05,0.009107548,0.009182708,0.010867433,0.04843272,0.048406865,0.15343332,1.9202464e-11,1.918087e-11,5.8152528e-11,5.0000086e-08,5.0000086e-08,5.0000086e-08,0.0004133787,4.416117e-05,0.00044699627,0.00012228175,0.0003982787,0.00043900395,0.0,0.0,24
259264978,259165611,0.9146856,-0.017699733,-0.0004631335,0.40377802,1.8141433,0.8564031,0.13555638,20.060055,0.17826222,-45.526234,-2.6322994e-06,-1.2023987e-05,2.0959094e-06,0.0012572624,0.0006430208,-0.00031788528,0.31521687,-0.046563596,0.3736989,0.02089668,-0.0044949073,-0.08591891,0.0,0.0,1.0242095e-05,4.606437e-06,4.6795008e-06,6.0367245e-05,0.009513243,0.009062111,0.010838073,0.04849225,0.048505306,0.1518946,1.9165499e-11,1.917525e-11,5.8143265e-11,5.0000086e-08,5.0000086e-08,5.0000086e-08,0.00036796846,4.194411e-05,0.00038672154,0.000115908995,0.0003383539,0.00038994994,0.0,0.0,24
260272846,260173172,0.90478206,-0.030607061,-0.030184224,0.42369983,1.7422925,0.72069454,-0.04071708,21.670708,1.0345656,-45.42818,-2.8565573e-06,-1.2167385e-05,1.8721291e-06,0.0012609896,0.0006472335,-0.0003549051,0.31491053,-0.04653462,0.37405482,0.020723576,-0.004875956,-0.08548532,0.0,0.0,1.17916225e-05,4.5798506e-06,4.699527e-06,6.1313665e-05,0.00919725,0.009105281,0.010950681,0.04898462,0.048990633,0.15295434,1.9215438e-11,1.921072e-11,5.8540985e-11,5.0000086e-08,5.0000086e-08,5.0000086e-08,0.00034784529,4.0706924e-05,0.00038180765,0.000113673996,0.00031539585,0.00038487357,0.0,0.0,24
261270574,261170854,0.892548,-0.015743136,0.076624185,0.44411618,0.18699127,0.12836757,0.10554764,22.950369,1.4929591,-45.472954,-2.188342e-06,-1.1851422e-05,1.628096e-06,0.0012477275,0.00064256624,-0.0003861283,0.3143183,-0.046438802,0.37586883,0.020002466,-0.0052720504,-0.08672142,0.0,0.0,1.3536707e-05,5.0972535e-06,4.6259665e-06,6.2233295e-05,0.008889593,0.009432956,0.010924058,0.049151804,0.04915325,0.15171939,1.9269844e-11,1.9254718e-11,5.893908e-11,5e-08,5e-08,5e-08,0.00031907723,3.9602106e-05,0.00035434347,0.00010872015,0.0002902918,0.00035475293,0.0,0.0,24
262268644,262168538,0.8732098,0.0044118394,0.016139492,0.48705724,-0.105470486,-0.24447234,0.004677505,22.885925,1.2995983,-45.527767,-2.145648e-06,-1.2371208e-05,1.185909e-06,0.0012459938,0.0006460348,-0.00038124423,0.3149159,-0.04655397,0.37670404,0.019806331,-0.004131805,-0.08677612,0.0,0.0,1.691727e-05,4.6004284e-06,4.635008e-06,6.16051e-05,0.008866219,0.009099383,0.01097098,0.0492682,0.049306035,0.15236892,1.9320236e-11,1.9315771e-11,5.897244e-11,5e-08,5e-08,5e-08,0.0003136708,3.89692e-05,0.00034800597,0.00010603764,0.0002845553,0.0003480834,0.0,0.0,24
263265596,263166221,0.8596536,0.014146042,-0.027557544,0.5099375,-0.15448701,-0.100561984,-0.06885116,22.735523,1.0710291,-45.50795,-2.1292724e-06,-1.2676854e-05,1.0705985e-06,0.001244491,0.0006472818,-0.0003890185,0.3149541,-0.046652082,0.3777433,0.020158624,-0.0032608788,-0.08723238,0.0,0.0,1.9575205e-05,4.8060883e-06,4.655234e-06,6.24955e-05,0.008839031,0.008905799,0.010951092,0.049317162,0.049370192,0.15117098,1.9342021e-11,1.9347003e-11,5.93117e-11,5.0000086e-08,5.0000086e-08,5.0000086e-08,0.00030806352,3.8223752e-05,0.00034231288,0.00010243348,0.00027999966,0.00034215554,0.0,0.0,24
264273221,264173783,0.8502871,-0.005509565,0.034034718,0.52518874,0.50494313,1.6899981,0.09600606,22.584047,1.1979395,-45.700333,-1.8402517e-06,-1.4074513e-05,1.5587747e-06,0.0012537966,0.0006407517,-0.00034741915,0.30957684,-0.04570553,0.3758518,0.023829648,-0.008044352,-0.08807835,0.0,0.0,2.1655638e-05,4.701201e-06,4.770417e-06,6.375836e-05,0.00971223,0.00902482,0.011071927,0.04960084,0.049647093,0.15233436,1.932388e-11,1.9369477e-11,5.948807e-11,5.000009e-08,5.000009e-08,5.000009e-08,0.0003017293,3.753018e-05,0.00033811943,9.90496e-05,0.000275094,0.0003377939,0.0,0.0,24
265271047,265171467,0.8395296,-0.07791148,0.019799635,0.537334,2.5408437,5.8274574,-0.32080415,23.765446,5.005824,-45.994026,-2.0983525e-06,-1.4766612e-05,-2.3147943e-06,0.0012666067,0.00062229246,-0.00034523962,0.29401925,-0.04346072,0.3623555,0.040323775,-0.021621687,-0.0889847,0.0,0.0,1.8120814e-05,4.792064e-06,5.814939e-06,5.0577957e-05,0.012818668,0.010484518,0.0114902,0.049549952,0.049511958,0.15298152,1.9367048e-11,1.9304903e-11,5.4544654e-11,5e-08,5e-08,5e-08,0.0002913176,3.6566686e-05,0.0003314187,9.1220594e-05,0.00026575814,0.0003314337,0.0,0.0,24
266268639,266169152,0.8651113,-0.059070762,0.006482326,0.49804723,5.033936,9.222065,0.3878478,27.192707,12.591167,-46.442295,-2.9741943e-06,-1.4514127e-05,-7.746263e-06,0.0012584069,0.00060557964,-0.00029358006,0.29306215,-0.043434035,0.3586571,0.047179695,-0.020440005,-0.08971676,0.0,0.0,1.1432774e-05,5.1003403e-06,5.7546645e-06,3.975975e-05,0.012003127,0.0109873405,0.01183049,0.049639426,0.0494697,0.15189724,1.987472e-11,1.9207346e-11,4.9364405e-11,5.0000086e-08,5.0000086e-08,5.0000086e-08,0.0002891613,3.5940993e-05,0.00032561377,8.61605e-05,0.000262917,0.0003256743,0.0,0.0,24
267266079,267166836,0.874312,-0.011808432,0.02060769,0.48478293,7.534449,12.331404,0.07427859,33.362553,23.463512,-46.260586,-3.225676e-06,-1.38768655e-05,-1.0444468e-05,0.001274199,0.0005983031,-0.00030875133,0.29261312,-0.043215968,0.3571794,0.05058893,-0.019683277,-0.09050193,0.0,0.0,8.42959e-06,5.905224e-06,5.332593e-06,3.2111846e-05,0.010746789,0.010751038,0.011980712,0.04954223,0.04933731,0.15271999,2.0556718e-11,1.9111499e-11,4.6046538e-11,5.0000086e-08,5.0000086e-08,5.0000086e-08,0.00028817655,3.5414676e-05,0.0003240795,8.313316e-05,0.00026127684,0.00032401527,0.0,0.0,24
268273679,268174400,0.8630905,0.010478232,0.01452298,0.5047318,8.888605,15.039362,-0.55023086,41.734596,37.32075,-46.80282,-3.3133665e-06,-1.2862327e-05,-1.0676172e-05,0.0012845563,0.0005997704,-0.0002910616,0.29170957,-0.043017,0.35788903,0.051619526,-0.019882439,-0.09158265,0.0,0.0,8.4557905e-06,6.5759737e-06,5.189904e-06,2.8841963e-05,0.009902996,0.009737573,0.011775463,0.049711265,0.049539253,0.15230107,2.1167488e-11,1.9030857e-11,4.470131e-11,5.0000086e-08,5.0000086e-08,5.0000086e-08,0.00028379267,3.4758996e-05,0.0003193157,8.060413e-05,0.0002574667,0.0003188665,0.0,0.0,24
269261805,269162207,0.8526614,0.09901078,0.07695101,0.5071923,8.784863,15.61702,-1.2182059,50.84475,52.997517,-47.866566,-3.910542e-06,-1.1361476e-05,-1.1222416e-05,0.0012846623,0.0006040031,-0.00027922835,0.2992803,-0.044513587,0.3608693,0.047828536,-0.012109132,-0.09162709,1.2214979,2.050852,8.04068e-06,8.086081e-06,4.589223e-06,2.9802526e-05,0.009111617,0.009130398,0.011226939,0.04938741,0.04924817,0.1527107,2.1385487e-11,1.89513e-11,4.465539e-11,5e-08,5e-08,5e-08,0.00027798503,3.4104374e-05,0.0003125886,7.856576e-05,0.00025267337,0.00031175217,0.78121835,0.5363535,24
270269387,270169771,0.66228807,0.23186761,0.2283996,0.67486703,1.0204496,18.929651,-1.5142845,57.593166,70.40287,-49.047226,-1.2487024e-07,-9.60851e-06,-8.860878e-06,0.0012794316,0.0005860398,-0.0003072514,0.3052538,-0.04611811,0.3749505,0.044631127,-0.0047159474,-0.10482499,1.419673,2.642574,1.2256378e-05,1.0348772e-05,4.536651e-06,1.8422112e-05,0.009392611,0.016304454,0.011644833,0.049580146,0.049496125,0.1521071,2.0665655e-11,1.9053228e-11,4.3300915e-11,5e-08,5e-08,5e-08,0.00015743407,2.9018396e-05,0.00017196972,6.0687067e-05,0.00014199583,0.0001706308,0.61460525,0.21588977,24
271267019,271167457,0.69709575,-0.036427606,-0.102301456,0.70870656,-1.2892423,18.347914,1.4956037,56.499958,88.931946,-49.38116,-2.1104554e-06,-1.007637e-05,-7.97669e-06,0.0012400921,0.00058470987,-0.00027407234,0.31890982,-0.05007825,0.37636703,0.039506577,0.008932434,-0.10263119,0.41362408,3.485562,1.2874335e-05,4.818067e-06,5.935056e-06,1.25952165e-05,0.008224528,0.011176711,0.011282668,0.049631752,0.04968374,0.1525847,1.9641837e-11,1.9506403e-11,4.1284472e-11,5e-08,5e-08,5e-08,0.000119036216,2.6923582e-05,0.00015700067,4.9323324e-05,0.00010950071,0.00015613683,0.43059716,0.100995876,24
272264681,272165143,0.7580321,-0.08430034,-0.12353997,0.6348377,1.5620041,19.116173,1.7346424,56.03958,107.581154,-47.433575,-5.3061613e-06,-1.1929157e-05,-7.769145e-06,0.0011747566,0.00055364304,-0.0003628889,0.31486005,-0.049869608,0.37381855,0.040709607,0.0046668323,-0.09910946,0.014781292,3.962891,1.0671316e-05,4.864534e-06,6.747795e-06,1.4487277e-05,0.0088442005,0.008687247,0.01057188,0.049663235,0.049963553,0.15138467,1.9469286e-11,1.9815963e-11,4.1837426e-11,5e-08,5e-08,5e-08,0.00010284579,2.578946e-05,0.00014596405,4.4210065e-05,9.634508e-05,0.00014490688,0.3754575,0.06913763,24
273262353,273162829,0.7888758,-0.03334833,-0.05885483,0.6108183,3.9699123,19.346022,1.3474718,58.851105,126.80636,-45.994003,-6.809568e-06,-1.2240761e-05,-7.9602305e-06,0.0011404431,0.00055314903,-0.00042125167,0.3138584,-0.049787283,0.3734253,0.04065569,0.003309286,-0.09795631,0.09908005,4.1913166,1.0041702e-05,4.703434e-06,5.745562e-06,1.6822374e-05,0.009518332,0.00951948,0.010635781,0.04977579,0.049975593,0.15189472,1.9310508e-11,1.9692274e-11,4.1652442e-11,5e-08,5e-08,5e-08,9.77835e-05,2.523912e-05,0.00014135095,4.2074265e-05,9.23691e-05,0.00014021179,0.33262312,0.0552301,24
274269698,274170393,0.8014079,0.0015144678,-0.015612513,0.5979126,4.904903,19.540102,0.6406568,63.46263,146.39172,-44.92934,-6.2846084e-06,-1.2103217e-05,-8.252344e-06,0.0011396292,0.00055702915,-0.00048339012,0.3131082,-0.049888745,0.37384075,0.041185882,0.0031577765,-0.09721436,0.32451093,4.3471446,9.656092e-06,4.676342e-06,5.0315252e-06,1.791548e-05,0.009892622,0.009812892,0.01079671,0.05022454,0.050310932,0.15119644,1.9161873e-11,1.9541245e-11,4.1256644e-11,5.000009e-08,5.000009e-08,5.000009e-08,9.623243e-05,2.486637e-05,0.0001408785,4.0769362e-05,9.129009e-05,0.00013974404,0.29701686,0.04761737,24
275267330,275168080,0.7991758,-0.01106927,-0.004735011,0.60097694,5.0290585,19.638638,0.03453389,68.538055,165.93945,-44.618835,-5.914079e-06,-1.1958628e-05,-8.5471465e-06,0.0011406015,0.00055938336,-0.00048657545,0.31315228,-0.05006444,0.3745945,0.041478638,0.0037559757,-0.09684593,0.42751712,4.3997,1.0080121e-05,4.6324753e-06,4.804e-06,1.8379269e-05,0.009774564,0.0094891265,0.010903711,0.05026869,0.050304763,0.15202071,1.9040255e-11,1.9453059e-11,4.122635e-11,5.0000086e-08,5.0000086e-08,5.0000086e-08,9.5176685e-05,2.4529567e-05,0.00014063863,3.9712584e-05,9.054777e-05,0.0001395354,0.26917663,0.04251677,24
276265036,276165766,0.81782484,-0.40361562,-0.15006095,0.3817575,11.026103,16.674557,0.56069225,75.03099,184.92017,-44.228626,-8.242014e-06,-1.1235967e-05,-8.662103e-06,0.0011308828,0.00055288017,-0.0005337442,0.31785473,-0.05121798,0.38157183,0.04037342,0.007764251,-0.10404048,0.6634017,4.4584928,5.3960835e-06,4.0345662e-06,8.441807e-06,1.8467761e-05,0.010886022,0.012381936,0.011181217,0.050205324,0.050221704,0.15097032,1.9021068e-11,1.9460444e-11,4.007614e-11,5.0000168e-08,5.0000175e-08,5.0000086e-08,8.305137e-05,2.3540584e-05,0.00011235705,3.833776e-05,7.826674e-05,0.00011119329,0.23885407,0.03970704,24
277262700,277163452,0.8963518,-0.4416201,0.02654115,-0.028648337,19.154581,1.4945458,-1.8586247,91.101845,195.22781,-45.057312,-1.0613874e-05,-7.637634e-06,-1.9786852e-05,0.001127984,0.000561599,-0.00063201936,0.31726816,-0.05316506,0.39422068,0.04594305,0.009151654,-0.11714735,2.3105054,4.2162766,1.2592814e-06,3.8299336e-06,4.6581295e-06,1.2942478e-05,0.019754697,0.013059441,0.014540509,0.050525945,0.05061482,0.15209086,1.900123e-11,1.9674937e-11,3.3823305e-11,5.0000086e-08,5.0000086e-08,5.0000086e-08,6.438947e-05,2.0941718e-05,8.5263884e-05,3.4712342e-05,5.954059e-05,8.313161e-05,0.13586211,0.037161678,24
278270277,278171016,0.8041153,-0.38361034,0.19687732,-0.40924454,13.215237,-13.26293,-1.941102,108.79299,189.10098,-47.103054,-1.0354673e-05,-7.0176643e-06,-2.5661799e-05,0.0011013338,0.00053537614,-0.0006784586,0.30856165,-0.05186833,0.39851487,0.05036185,0.0021027303,-0.12179753,3.6718583,3.7810533,1.8356974e-06,4.6052833e-06,3.032357e-06,7.355612e-06,0.017324168,0.009868558,0.016276417,0.05216848,0.051598523,0.15212402,1.9603572e-11,1.9958578e-11,3.1596985e-11,5.0000086e-08,5.0000086e-08,5.0000146e-08,4.683495e-05,1.6839742e-05,7.70285e-05,2.8075665e-05,4.3422315e-05,7.355961e-05,0.100465484,0.03359003,24
279268011,279168701,0.60028374,-0.303039,0.3001324,-0.6765703,-0.3770865,-19.368387,-0.9363161,115.470245,171.81424,-48.69489,-1.02725335e-05,-7.3440283e-06,-2.7914382e-05,0.0010559983,0.000525865,-0.0006495714,0.3032831,-0.048792597,0.40058047,0.050489407,-0.0035084954,-0.12419174,3.6990204,3.7702641,2.9702985e-06,4.8561005e-06,2.762932e-06,4.145688e-06,0.01189192,0.0119853895,0.0169934,0.05411005,0.052611157,0.15158676,2.0507944e-11,2.037736e-11,3.0943997e-11,5e-08,5e-08,5e-08,3.5991005e-05,1.3376776e-05,7.459718e-05,2.1598516e-05,3.470941e-05,7.058791e-05,0.09953896,0.033631183,24
280265678,280166386,0.5798515,-0.035087883,-0.080368154,-0.8099889,-7.423084,-18.627537,2.8519685,109.778824,152.988,-48.05504,-1.0758089e-05,-7.844088e-06,-2.7161233e-05,0.0010505149,0.0006108089,-0.0004975909,0.3010799,-0.045620795,0.40002233,0.04781094,-0.007862241,-0.12422974,3.6646752,3.7831879,4.7884764e-06,3.281894e-06,3.9282418e-06,2.3206014e-06,0.008933902,0.010354951,0.01483125,0.055951424,0.05446253,0.15410264,2.1393508e-11,2.1062237e-11,3.082168e-11,5.0000086e-08,5.0000086e-08,5.0000086e-08,2.6054424e-05,1.1057526e-05,7.061239e-05,1.6739652e-05,2.6118552e-05,6.712564e-05,0.09874488,0.03366,24
281263661,281164071,0.68776006,0.20935963,-0.23171303,-0.65533483,-2.3733888,-20.622284,1.4617372,102.96677,133.66846,-45.195004,-1.08103595e-05,-1.0298475e-05,-2.8661158e-05,0.0010299865,0.000906766,-0.00051739224,0.30137148,-0.04286251,0.39356953,0.044578362,-0.011047918,-0.11901415,3.6209867,3.7989707,3.9824718e-06,3.1527563e-06,5.21117e-06,2.8552302e-06,0.00899776,0.0092024645,0.010923423,0.055844292,0.05488432,0.15229927,2.2304885e-11,2.1869761e-11,3.149707e-11,5e-08,5e-08,5e-08,1.6719563e-05,9.561058e-06,5.1339102e-05,1.3341374e-05,1.6259099e-05,4.98002e-05,0.09803506,0.03369092,24
282270900,282171634,0.7798069,0.21916023,-0.16262507,-0.5634031,3.954811,-20.00801,0.55939823,103.55848,112.719696,-44.11202,-9.039263e-06,-1.0666677e-05,-2.7107617e-05,0.000841309,0.0009475869,-0.0005615755,0.3020807,-0.040318236,0.39332494,0.042328905,-0.011725077,-0.11868519,3.5463004,3.8220017,3.1698821e-06,3.2848952e-06,4.912843e-06,4.2611664e-06,0.009811835,0.010845057,0.010312719,0.05579106,0.05515918,0.15174218,2.3043437e-11,2.2717196e-11,3.152441e-11,5.000017e-08,5.000017e-08,5.000017e-08,1.3446773e-05,8.615783e-06,4.3764077e-05,1.1743152e-05,1.277734e-05,4.2902975e-05,0.09706728,0.0337457,24
283268768,283169318,0.86349404,0.1713001,-0.09883753,-0.46396726,8.980294,-17.96124,0.31031582,110.318214,93.368576,-43.89951,-7.6014508e-06,-9.390241e-06,-2.1853022e-05,0.0006311064,0.00088359596,-0.00062834745,0.30086708,-0.038615514,0.39497086,0.04143358,-0.012636381,-0.11943248,3.4544997,3.8453395,2.2129461e-06,3.5017997e-06,4.122788e-06,5.705482e-06,0.010259521,0.01095393,0.010681,0.05563187,0.055337835,0.14910728,2.3564577e-11,2.3475643e-11,3.1095494e-11,5e-08,5e-08,5e-08,1.16608235e-05,7.921906e-06,3.987074e-05,1.0736721e-05,1.0893677e-05,3.9337403e-05,0.09611233,0.033833064,24
284266592,284167002,0.91231734,0.09867244,-0.053583004,-0.39378902,11.651298,-16.030235,0.3333412,121.02836,76.20675,-43.41091,-8.300552e-06,-8.6483515e-06,-1.8035547e-05,0.00050074304,0.0007690875,-0.00064669014,0.29907292,-0.037798364,0.39659452,0.04117515,-0.013305578,-0.119381696,3.3533695,3.8589542,1.6651609e-06,3.8322128e-06,3.8049825e-06,6.8959584e-06,0.010154915,0.010117993,0.011002127,0.05586194,0.055807725,0.14912759,2.3976777e-11,2.4106547e-11,3.118265e-11,5e-08,5e-08,5e-08,1.062856e-05,7.4689165e-06,3.8583225e-05,1.0129574e-05,9.852022e-06,3.8169772e-05,0.09508355,0.033938818,24
285264298,285164685,0.9305956,0.022509973,-0.0069452794,-0.3652903,12.397006,-14.970119,0.2171727,133.50436,60.77736,-43.20712,-1.0467637e-05,-8.34633e-06,-1.5531217e-05,0.00037989873,0.00066876673,-0.0006225543,0.29760426,-0.03707231,0.39757663,0.040865406,-0.0139523465,-0.11913395,3.2282164,3.8660254,1.5078699e-06,4.1359394e-06,3.9209344e-06,7.977339e-06,0.009674713,0.009429955,0.011040508,0.056051858,0.056082573,0.1497438,2.4255818e-11,2.4525533e-11,3.174096e-11,5e-08,5e-08,5e-08,9.892256e-06,7.1293694e-06,3.8276434e-05,9.691874e-06,9.141415e-06,3.7893442e-05,0.09384136,0.034053467,24
286271494,286172248,0.93160623,4.186852e-05,0.0036498827,-0.36345106,12.416973,-14.629601,0.15889686,146.26317,45.93292,-42.996094,-1.2621979e-05,-8.821842e-06,-1.4222513e-05,0.00029271274,0.0005850911,-0.00059620396,0.29664412,-0.036268182,0.3981835,0.04033797,-0.014494407,-0.118829384,3.1190617,3.868575,1.6459244e-06,4.339528e-06,4.1992425e-06,9.20639e-06,0.009397838,0.009345598,0.011040025,0.056443132,0.05646569,0.14931776,2.4413648e-11,2.4725885e-11,3.2473715e-11,5.0000086e-08,5.0000086e-08,5.0000086e-08,9.292754e-06,6.835703e-06,3.8169448e-05,9.323525e-06,8.568623e-06,3.7786092e-05,0.09279135,0.034171447,24
287269632,287169928,0.924576,-0.0017727735,0.014962046,-0.3806997,12.149901,-14.728025,0.05358881,158.68167,31.42354,-42.911633,-1.45936665e-05,-9.763481e-06,-1.3389668e-05,0.00023187508,0.00051252154,-0.00056133856,0.29594374,-0.03565216,0.3986011,0.03996034,-0.014996434,-0.1185227,3.028517,3.8698869,1.9908816e-06,4.509875e-06,4.4361923e-06,1.0459505e-05,0.009290763,0.009401638,0.011065553,0.05642353,0.05643071,0.15037543,2.4399068e-11,2.4693067e-11,3.3170477e-11,5e-08,5e-08,5e-08,8.824684e-06,6.5956683e-06,3.8097005e-05,9.019994e-06,8.123749e-06,3.7705024e-05,0.09183294,0.034289476,24
288267012,288167609,0.91999763,0.011982262,0.0075973338,-0.39166716,12.165349,-14.778622,0.3063679,170.84041,16.770397,-42.74419,-1.558416e-05,-1.0750973e-05,-1.27998765e-05,0.00020392852,0.0004710878,-0.0005204831,0.29556516,-0.035072777,0.39902464,0.03949273,-0.015320569,-0.11834492,2.9264693,3.8709211,2.3340813e-06,4.6551577e-06,4.6034615e-06,1.1863778e-05,0.009175542,0.009282874,0.0110644,0.05625742,0.05627074,0.14964503,2.4229016e-11,2.448873e-11,3.3800025e-11,5e-08,5e-08,5.0000065e-08,8.413216e-06,6.368831e-06,3.80164e-05,8.740407e-06,7.7224095e-06,3.761861e-05,0.09073741,0.034407653,24
289264530,289165291,0.92126256,0.0145991305,3.2578334e-06,-0.38866714,12.203978,-14.890878,0.19334471,182.95724,1.9629848,-42.742558,-1.6140651e-05,-1.118041e-05,-1.25796405e-05,0.00019658015,0.0004612937,-0.00047505338,0.29553348,-0.03498676,0.3991065,0.039418332,-0.015349071,-0.11831043,2.845826,3.8712091,2.556983e-06,4.814485e-06,4.784479e-06,1.3465433e-05,0.009239316,0.009283486,0.011098764,0.056060936,0.056087747,0.1508187,2.3966473e-11,2.4193822e-11,3.447805e-11,5.0000086e-08,5.0000086e-08,5.0000086e-08,0.0,0.0,0.0,0.0,0.0,0.0,0.08988391,0.034525994,24
290262599,290162971,0.92100495,0.050912093,-0.009887841,-0.38608295,12.228112,-14.795439,-0.1251408,195.06337,-12.885587,-42.673664,-1.6195674e-05,-1.184842e-05,-1.2345533e-05,0.0002002331,0.0004582023,-0.00045837436,0.29553348,-0.03498676,0.3991065,0.039418332,-0.015349071,-0.11831043,2.7698514,3.8710828,2.812737e-06,4.9439113e-06,4.9327946e-06,1.516427e-05,0.009387737,0.009392332,0.01105949,0.055852637,0.055886738,0.15007353,2.3612853e-11,2.381283e-11,3.5186704e-11,5e-08,5e-08,5e-08,0.0,0.0,0.0,0.0,0.0,0.0,0.08908361,0.034643266,24
291269855,291170529,0.9366224,0.075340465,-0.006767254,-0.34207684,12.845444,-13.698693,-0.3812354,207.52782,-27.362135,-42.959667,-1.5502748e-05,-1.2413494e-05,-1.2211564e-05,0.00020831625,0.00046211565,-0.00042327534,0.29553348,-0.03498676,0.3991065,0.039418332,-0.015349071,-0.11831043,2.6716619,3.8691523,2.5313675e-06,5.0280414e-06,5.0521853e-06,1.7564493e-05,0.009477628,0.00949551,0.01110805,0.055978015,0.056012303,0.15161045,2.320996e-11,2.3350879e-11,3.5941836e-11,5.0000086e-08,5.0000086e-08,5.0000086e-08,0.0,0.0,0.0,0.0,0.0,0.0,0.08814712,0.034758504,24
292267515,292168208,0.95507735,0.037534326,0.013358384,-0.29366648,13.329419,-12.775446,-0.1340951,220.46692,-40.659683,-43.23521,-1.490763e-05,-1.2595462e-05,-1.2142696e-05,0.00020924803,0.00046382766,-0.0003708036,0.2954473,-0.034955908,0.39966795,0.039317247,-0.015355843,-0.11776937,2.5725062,3.8636956,2.118572e-06,5.1036823e-06,5.0635413e-06,2.013819e-05,0.009329172,0.009340252,0.011075397,0.05582816,0.055859994,0.15078151,2.2813565e-11,2.2863168e-11,3.6585516e-11,5.0000086e-08,5.0000086e-08,5.0000086e-08,8.280899e-06,6.290517e-06,3.691277e-05,8.626052e-06,7.598588e-06,3.6534257e-05,0.0873463,0.034867063,24
293265940,293165886,0.95150846,0.02154856,0.005671719,-0.3068145,13.658216,-12.4654875,0.16147919,233.80377,-53.230705,-43.19674,-1.403326e-05,-1.3249211e-05,-1.1896377e-05,0.00019369081,0.00045414828,-0.000349103,0.29493508,-0.034789424,0.40204462,0.03874895,-0.01544998,-0.115461946,2.4810152,3.8562176,2.4201854e-06,5.096167e-06,5.037189e-06,2.1554231e-05,0.009115151,0.009161392,0.011068981,0.055561397,0.05559775,0.15178826,2.2393958e-11,2.2361583e-11,3.6784267e-11,5e-08,5e-08,5e-08,7.971751e-06,6.1016867e-06,3.2089785e-05,8.285017e-06,7.3370084e-06,3.1802967e-05,0.086620644,0.03497123,24
294263323,294163564,0.9536694,0.01718846,0.006207767,-0.30030087,13.739771,-12.413701,-0.39953935,247.42131,-65.74124,-43.317352,-1.3521319e-05,-1.3455578e-05,-1.1571221e-05,0.00018012637,0.0004493396,-0.00037174585,0.29449472,-0.03462149,0.4031557,0.038247783,-0.015526085,-0.11442947,2.3866675,3.8471403,2.4773244e-06,5.0365265e-06,4.9673563e-06,2.324723e-05,0.009297295,0.0093278205,0.011009158,0.055376187,0.055416636,0.15080944,2.1941221e-11,2.1885606e-11,3.697074e-11,5e-08,5e-08,5e-08,7.694885e-06,5.9401605e-06,2.9175333e-05,7.984917e-06,7.111256e-06,2.8939045e-05,0.08585058,0.035071988,24
295270362,295171119,0.9504382,0.005905664,0.017860267,-0.31034425,13.552196,-12.45094,-0.14188242,261.18622,-78.24139,-43.900043,-1.3426461e-05,-1.3833553e-05,-1.1244172e-05,0.00016658337,0.0004481658,-0.00031880304,0.29413202,-0.03446127,0.40407908,0.037819646,-0.015580967,-0.113575,2.3158896,3.8399143,2.8040763e-06,5.0026547e-06,4.9385417e-06,2.4856645e-05,0.009105182,0.009087703,0.011049275,0.05548426,0.05552648,0.15218009,2.1565236e-11,2.1517461e-11,3.7240454e-11,5.000009e-08,5.000009e-08,5.000009e-08,7.477287e-06,5.8193514e-06,2.7443515e-05,7.751109e-06,6.939559e-06,2.7233393e-05,0.085255496,0.03516959,24
296268532,296168796,0.95503587,0.011083951,0.020250568,-0.2955905,13.607269,-12.405232,0.03542015,274.63315,-90.70866,-43.685097,-1.259469e-05,-1.4271921e-05,-1.09064395e-05,0.00016567673,0.00044534303,-0.00033701287,0.29405302,-0.034425464,0.40426376,0.037726153,-0.015589211,-0.11340244,2.2359116,3.8320394,2.7559615e-06,5.0672547e-06,5.0036238e-06,2.7177779e-05,0.009115959,0.00910291,0.011012646,0.0553832,0.055414088,0.15117057,2.1304352e-11,2.129277e-11,3.772214e-11,5e-08,5e-08,5e-08,0.0,0.0,0.0,0.0,0.0,0.0,0.084642686,0.035264447,24
297266583,297166472,0.95302355,0.013454972,0.009668772,-0.30244303,13.541793,-12.440533,-0.2831791,288.09677,-103.13039,-43.79574,-1.15960265e-05,-1.45436015e-05,-1.0592572e-05,0.0001671675,0.00044168602,-0.00032587425,0.29405302,-0.034425464,0.40426376,0.037726153,-0.015589211,-0.11340244,2.1472566,3.822745,3.0750894e-06,5.0718654e-06,5.016218e-06,2.9310653e-05,0.009256441,0.009235227,0.011027058,0.05527165,0.05529283,0.15202478,2.0999702e-11,2.1023861e-11,3.8271723e-11,5e-08,5e-08,5e-08,0.0,0.0,0.0,0.0,0.0,0.0,0.08396083,0.035357367,24
298263877,298164147,0.95423335,0.017196676,0.010464184,-0.29838508,13.538374,-12.290572,-0.24513233,301.53885,-115.53495,-44.02358,-1.05281515e-05,-1.4482533e-05,-1.0291524e-05,0.00016799537,0.0004366035,-0.0003254645,0.29405302,-0.034425464,0.40426376,0.037726153,-0.015589211,-0.11340244,2.0732305,3.8147256,3.2116159e-06,5.0524823e-06,5.012342e-06,3.1710035e-05,0.009147341,0.009144723,0.0109841395,0.055085927,0.05509874,0.15096162,2.0719685e-11,2.076855e-11,3.879568e-11,5e-08,5e-08,5e-08,0.0,0.0,0.0,0.0,0.0,0.0,0.08341397,0.035448864,24
299271357,299171700,0.95119023,0.0049863686,0.019056963,-0.30797592,13.470282,-12.163416,-0.3224956,315.111,-127.88944,-44.258945,-9.761552e-06,-1.4388747e-05,-1.0016902e-05,0.00016797638,0.00043315958,-0.0003069429,0.29405302,-0.034425464,0.40426376,0.037726153,-0.015589211,-0.11340244,2.003875,3.8067467,3.636621e-06,5.06299e-06,5.0156596e-06,3.3884935e-05,0.009214475,0.009214435,0.011039841,0.055105686,0.055113837,0.15228383,2.0502464e-11,2.0561072e-11,3.926831e-11,5.0000086e-08,5.0000086e-08,5.0000086e-08,0.0,0.0,0.0,0.0,0.0,0.0,0.08289851,0.035541866,24
300268793,300169374,0.95470554,0.02688856,0.008340011,-0.29621732,13.345573,-12.243385,-0.1460855,328.45667,-140.10037,-44.410145,-9.208976e-06,-1.4410354e-05,-9.743601e-06,0.00016670085,0.00043086775,-0.00029028027,0.29405302,-0.034425464,0.40426376,0.037726153,-0.015589211,-0.11340244,1.9268242,3.797848,3.5977628e-06,5.0602584e-06,5.061751e-06,3.6528403e-05,0.009133168,0.009128736,0.011005948,0.054854147,0.05485844,0.15124963,2.030227e-11,2.0371344e-11,3.9724595e-11,5.0000086e-08,5.0000086e-08,5.0000086e-08,0.0,0.0,0.0,0.0,0.0,0.0,0.082307525,0.035634093,24
301266697,301167047,0.94582915,0.1524455,-0.036561046,-0.28430775,13.599197,-11.7550955,-0.123084836,341.7782,-152.18419,-44.488503,-8.286137e-06,-1.42672725e-05,-9.480749e-06,0.00016491816,0.00042631294,-0.00027215786,0.29405302,-0.034425464,0.40426376,0.037726153,-0.015589211,-0.11340244,1.8526956,3.7887518,3.6188392e-06,5.0278304e-06,5.9756917e-06,3.8203238e-05,0.009128636,0.009135534,0.011011923,0.054519042,0.054520108,0.15207279,2.012118e-11,2.0184356e-11,4.0089928e-11,5e-08,5e-08,5.0000086e-08,0.0,0.0,0.0,0.0,0.0,0.0,0.081811756,0.035727054,24
302264081,302164720,0.90052116,0.43320513,0.020166207,-0.031438828,17.103168,-3.6851554,-1.1941688,356.85394,-161.60191,-44.918575,-2.6683238e-06,-1.131484e-05,-3.6567692e-06,0.00018753903,0.0003690812,-0.00038338723,0.29370913,-0.03430644,0.40466112,0.03738076,-0.015607388,-0.11313494,1.8417764,3.7815614,1.3151983e-06,4.004944e-06,8.959864e-06,3.1598913e-05,0.015639834,0.010792237,0.011405424,0.054252714,0.054264627,0.15097398,1.9832717e-11,1.9812502e-11,3.611979e-11,5.000009e-08,5.000009e-08,5.000009e-08,7.21403e-06,5.6593526e-06,2.4432919e-05,7.4616382e-06,6.7198775e-06,2.43141e-05,0.08157883,0.03580883,24
303272370,303172270,0.92378366,0.30085507,0.07849844,0.22349066,15.931522,6.4225693,-0.6923455,374.14108,-159.37137,-46.6075,-4.864075e-07,-7.4227223e-06,7.2446833e-06,0.00027877383,0.00035780898,-0.00041161443,0.29345065,-0.03463581,0.404328,0.03709655,-0.015941994,-0.1124578,1.8971012,3.7462456,1.9624056e-06,4.223654e-06,4.16558e-06,1.9457799e-05,0.016078807,0.00930546,0.012516191,0.054558795,0.054359194,0.15209503,1.9734974e-11,1.9988438e-11,2.8309874e-11,5e-08,5e-08,5e-08,6.9917196e-06,5.5274645e-06,2.2211205e-05,7.2121675e-06,6.5456393e-06,2.2081927e-05,0.08143503,0.035672575,24
304269757,304169942,0.9164669,0.17846847,0.06307592,0.3525039,13.436636,11.005451,0.4456949,388.97183,-150.08017,-46.447933,-1.8365706e-06,-7.6476645e-06,1.0926203e-05,0.000203839,0.00039760975,-0.0003889801,0.2931934,-0.035249636,0.40612423,0.03649651,-0.01614731,-0.10972918,1.9516686,3.7173607,2.8075424e-06,4.0686496e-06,4.4963135e-06,1.48871995e-05,0.011370152,0.009226323,0.012285227,0.054811012,0.05423089,0.1511268,2.0154553e-11,2.0464817e-11,2.6806616e-11,5e-08,5e-08,5e-08,6.7867077e-06,5.395787e-06,2.0598663e-05,6.974177e-06,6.3808193e-06,2.0385474e-05,0.08075993,0.035346843,24
305267354,305167613,0.9194624,0.056177795,0.008152485,0.38905862,11.899368,12.656408,0.5220896,401.52805,-137.81975,-45.664146,-2.8991517e-06,-8.588598e-06,1.2237694e-05,0.00010192141,0.00040510518,-0.00038940334,0.29290572,-0.035633817,0.40881774,0.035953496,-0.016339416,-0.10659554,1.9905406,3.6983504,3.3265462e-06,3.969378e-06,5.853152e-06,1.3888723e-05,0.010793281,0.010564222,0.0124627715,0.060523473,0.059605718,0.15556477,2.0801728e-11,2.1037066e-11,2.7225317e-11,5.0000015e-08,5.0000345e-08,5e-08,6.619084e-06,5.281495e-06,1.9540166e-05,6.7767032e-06,6.2308477e-06,1.9262545e-05,0.079385124,0.034952488,24
306264922,306165283,0.7640337,0.3581078,0.22107692,0.48901582,7.2424555,15.578814,1.8714237,412.01025,-124.26915,-44.009922,-3.4046304e-06,-7.784725e-06,1.1212627e-05,5.7445595e-05,0.000502758,-0.00041445682,0.29265058,-0.036385804,0.41089588,0.03492076,-0.016571118,-0.10371234,1.9790978,3.7004702,5.32249e-06,4.239696e-06,3.5202916e-06,1.4543887e-05,0.0091282055,0.009880225,0.012016502,0.054580573,0.054126985,0.15255833,2.1429606e-11,2.1438774e-11,2.7727562e-11,5e-08,5e-08,5e-08,6.469956e-06,5.1823204e-06,1.8633502e-05,6.5974687e-06,6.110899e-06,1.8311135e-05,0.07783937,0.034712065,24
307272432,307172830,0.5126385,0.23176129,0.3701284,0.73925203,-6.650796,17.918255,-0.43669054,413.21075,-106.354256,-43.345608,-3.157093e-06,-4.092986e-06,1.1427413e-05,8.4958316e-05,0.0007497392,-0.00064950355,0.29198453,-0.03676913,0.41002738,0.034357812,-0.016722683,-0.10471702,1.9604458,3.700512,8.381316e-06,5.213434e-06,3.4577456e-06,6.9723296e-06,0.010477121,0.015232611,0.01520628,0.05472947,0.054553717,0.15193422,2.2325418e-11,2.1803483e-11,2.6458632e-11,5e-08,5.0000008e-08,5e-08,6.304801e-06,5.0449394e-06,1.7629358e-05,6.391838e-06,5.9789836e-06,1.722431e-05,0.07724347,0.034794934,24
308269787,308170499,0.25462425,0.122179136,0.40373147,0.87019527,-15.715019,11.225959,0.32846424,401.4247,-90.985085,-43.554966,-2.7762424e-06,-3.336964e-06,1.4803663e-05,6.2225634e-05,0.0007767578,-0.00060312665,0.2931273,-0.03716488,0.4097235,0.033143736,-0.017132925,-0.103269726,1.954885,3.6992283,9.084438e-06,4.2480638e-06,3.6569081e-06,2.5305937e-06,0.011617818,0.012416105,0.015746111,0.05482364,0.055151198,0.15287513,2.3205604e-11,2.2239231e-11,2.4844796e-11,5.0000086e-08,5.0000086e-08,5.0000086e-08,6.1261253e-06,4.8950938e-06,1.6801587e-05,6.179383e-06,5.854553e-06,1.6302478e-05,0.077189,0.034870155,24
309267566,309168168,-0.0014640484,0.049583085,0.2683641,0.9620396,-17.926167,2.5338805,1.6164709,383.95688,-84.24702,-42.467197,-2.377158e-06,-2.5443298e-06,1.6799942e-05,7.8626756e-05,0.0007978604,-0.0005602289,0.2948165,-0.036276467,0.41149798,0.031332016,-0.017398525,-0.09908977,1.9597521,3.6918252,9.36003e-06,3.1652166e-06,3.942455e-06,6.4374535e-07,0.011779075,0.009559208,0.014976186,0.055018708,0.055522937,0.15367027,2.3965918e-11,2.2944086e-11,2.4164979e-11,5.0000086e-08,5.0000086e-08,5.0000086e-08,5.9196973e-06,4.740253e-06,1.6116228e-05,5.948477e-06,5.7282655e-06,1.5482552e-05,0.07726574,0.034856778,24
310265087,310165835,-0.028579172,0.06423078,-0.061426792,0.9956327,-17.197836,0.1453719,3.0433989,366.3506,-83.657906,-39.902252,-2.0311854e-06,-2.7272902e-06,1.7563882e-05,0.00010984156,0.0006826121,-0.00045281465,0.29578486,-0.03603162,0.41413814,0.030357936,-0.017243937,-0.096135095,1.9688712,3.6823087,9.553058e-06,3.234902e-06,3.6720148e-06,5.0409403e-07,0.009437522,0.00907164,0.012665198,0.055256072,0.0555021,0.15257305,2.477778e-11,2.3815576e-11,2.4439631e-11,5.0000086e-08,5.0000086e-08,5.0000086e-08,5.742866e-06,4.61487e-06,1.5677917e-05,5.751057e-06,5.5618493e-06,1.506744e-05,0.0772583,0.03475647,24
311263175,311163503,0.097528085,0.04337501,-0.1307858,0.9856481,-16.608604,2.2519422,3.2209282,349.38138,-82.922104,-36.60392,-2.6152452e-06,-3.0150304e-06,1.8134488e-05,0.00012774032,0.0005372793,-0.00033617968,0.2963496,-0.036736228,0.41628912,0.02979198,-0.016850272,-0.09281043,1.982741,3.6598456,1.0070191e-05,3.7350837e-06,3.5486287e-06,4.6031178e-07,0.009054721,0.009524218,0.010953299,0.055126145,0.055207856,0.15310325,2.5653858e-11,2.4722611e-11,2.5074045e-11,5e-08,5e-08,5e-08,5.5892274e-06,4.5153483e-06,1.518128e-05,5.584494e-06,5.3749177e-06,1.4701588e-05,0.077320166,0.034676,24
312270306,312171047,0.16690591,0.04224467,-0.09537854,0.98043907,-15.827876,4.350446,3.1707244,332.94156,-79.55508,-33.41382,-3.9826923e-06,-2.9758382e-06,1.7737215e-05,9.885343e-05,0.00049964647,-0.00028433872,0.29686397,-0.037540402,0.41888034,0.029086094,-0.016693616,-0.08925818,1.9949381,3.624128,1.06435655e-05,3.6231797e-06,3.6257825e-06,5.91148e-07,0.009702623,0.009995492,0.010610203,0.055046026,0.055146992,0.15180932,2.6423308e-11,2.5578522e-11,2.53986e-11,5.000009e-08,5.000009e-08,5.000009e-08,5.440732e-06,4.426061e-06,1.4742099e-05,5.432996e-06,5.2093114e-06,1.436846e-05,0.0774651,0.034577306,24
313267985,313168713,0.23284218,0.048275027,-0.04403015,0.9703172,-15.123803,5.424745,3.0833027,317.43677,-74.42997,-30.593449,-4.823536e-06,-2.8498396e-06,1.6506214e-05,6.480784e-05,0.0005445897,-0.00022368053,0.2973615,-0.038193036,0.42090446,0.02832221,-0.016487848,-0.08673389,2.0024507,3.5816817,1.0898819e-05,3.6519089e-06,3.8130215e-06,8.9387794e-07,0.009648596,0.009956885,0.0107174115,0.054748952,0.054876037,0.15206058,2.6946894e-11,2.6242987e-11,2.5658147e-11,5.0000086e-08,5.0000086e-08,5.0000086e-08,5.3198246e-06,4.355073e-06,1.4438461e-05,5.3113317e-06,5.0873305e-06,1.41231785e-05,0.07766528,0.03451871,24
314266130,314166378,0.24571434,0.054454897,0.003614148,0.96780485,-14.726219,5.950658,3.1581886,302.5891,-68.51639,-27.432438,-4.8511665e-06,-3.1347656e-06,1.5270105e-05,4.6572644e-05,0.00061917107,-0.00016013441,0.29782093,-0.03880402,0.4227896,0.027562339,-0.016252,-0.084558256,2.0083723,3.5314713,1.145733e-05,3.9535043e-06,4.105108e-06,1.0454605e-06,0.009460455,0.009726752,0.010804926,0.054529604,0.05467381,0.15072478,2.718475e-11,2.663151e-11,2.6113136e-11,5e-08,5e-08,5e-08,5.2067417e-06,4.288884e-06,1.41843675e-05,5.196179e-06,4.9803043e-06,1.3904962e-05,0.07790175,0.034468476,24
315263358,315164043,0.21821485,0.04904552,0.005371147,0.97465277,-14.644828,5.936149,2.9325309,287.97174,-62.392475,-24.465227,-4.1624585e-06,-3.736155e-06,1.4217842e-05,2.3808034e-05,0.00068605517,-0.0001382498,0.29822433,-0.03930629,0.42386356,0.026950173,-0.015912721,-0.083325036,2.0145338,3.477857,1.2616259e-05,4.277759e-06,4.3843156e-06,9.644649e-07,0.009371207,0.009544043,0.010900268,0.054373138,0.05452085,0.15150043,2.7074348e-11,2.6659447e-11,2.6766278e-11,5.0000086e-08,5.0000086e-08,5.0000086e-08,5.1137936e-06,4.236043e-06,1.3994499e-05,5.09947e-06,4.8971124e-06,1.3730902e-05,0.07816914,0.03440772,24
316270839,316171585,0.21177216,0.049301088,0.008139605,0.9760409,-14.720015,5.654125,3.0088058,273.22327,-56.366253,-21.526821,-3.2526534e-06,-4.6086575e-06,1.3323902e-05,6.467881e-06,0.0007414926,-0.00011741545,0.2986379,-0.039697,0.42483735,0.02641438,-0.015645113,-0.08223053,2.0197492,3.4417946,1.3963381e-05,4.566922e-06,4.6603e-06,1.0010227e-06,0.009350295,0.009409327,0.0109696025,0.05458288,0.054722864,0.15097079,2.6723675e-11,2.6398998e-11,2.753113e-11,5.0000086e-08,5.0000086e-08,5.0000086e-08,5.0296617e-06,4.1899743e-06,1.3829719e-05,5.010478e-06,4.823673e-06,1.3576413e-05,0.078465804,0.034440923,24
317268486,317169249,0.17697155,0.04285902,0.011531946,0.98321474,-14.459151,5.5934978,2.8943088,258.7605,-50.56176,-18.836317,-2.584669e-06,-5.896789e-06,1.2836435e-05,1.771996e-05,0.0007731316,-5.711467e-05,0.29873163,-0.03982561,0.42512694,0.026271315,-0.015557766,-0.08189172,2.0248268,3.4047816,1.5693746e-05,4.8283778e-06,4.9039563e-06,8.624495e-07,0.009381154,0.009372738,0.011028903,0.054571364,0.05467796,0.15188476,2.6260258e-11,2.5978553e-11,2.8332399e-11,5.0000086e-08,5.0000086e-08,5.0000086e-08,0.0,0.0,0.0,0.0,0.0,0.0,0.07878436,0.034492597,24
318266334,318166913,0.19068639,0.07766635,0.23387514,0.9502153,-14.608532,4.2390103,3.1750972,244.4737,-45.197815,-16.012325,-6.525459e-07,-6.9712114e-06,1.23539685e-05,9.7484935e-06,0.00079825765,-6.4894234e-06,0.29880735,-0.039817736,0.4252652,0.026210207,-0.01557006,-0.081709735,2.0391026,3.3592541,1.6084754e-05,6.1260375e-06,4.9404957e-06,1.2574084e-06,0.009412219,0.009265887,0.010968542,0.05460943,0.05468086,0.15084703,2.5741645e-11,2.5423694e-11,2.911824e-11,5e-08,5.0000086e-08,5e-08,4.9963924e-06,4.170083e-06,1.3707656e-05,4.975427e-06,4.793672e-06,1.3460379e-05,0.07909891,0.03450491,24
319263858,319164576,-0.10467126,0.07453864,0.059864208,0.9899011,-15.519148,-0.09612536,2.6468976,229.47975,-43.084133,-13.192575,2.6996713e-06,-8.179197e-06,1.1924987e-05,-1.5452983e-05,0.0007926947,-2.7558803e-05,0.299733,-0.039557096,0.427312,0.025450634,-0.015639946,-0.079050176,2.0619028,3.3311431,1.8063582e-05,4.929439e-06,5.079386e-06,6.2256254e-07,0.010474015,0.00954342,0.011055722,0.054563303,0.05460355,0.15157469,2.4868052e-11,2.445578e-11,2.9291795e-11,5.0000086e-08,5.0000086e-08,5.0000086e-08,4.8851566e-06,4.0893674e-06,1.2868391e-05,4.8558686e-06,4.685777e-06,1.2646586e-05,0.07930986,0.034611568,24
320271420,320172116,0.07153327,0.018851312,-0.3596593,0.93014675,-15.074563,1.3416591,2.9111454,214.01367,-43.433838,-10.883185,-1.0762391e-06,-9.775549e-06,1.0966712e-05,-4.5298104e-05,0.00081805536,5.167026e-05,0.30022353,-0.04009387,0.42920724,0.025092244,-0.015285641,-0.076144606,2.0618343,3.3315058,1.6796002e-05,7.0860615e-06,4.3197665e-06,1.0301237e-06,0.009162444,0.009151149,0.010685798,0.054731764,0.054702077,0.15090531,2.4147849e-11,2.3836972e-11,2.9668733e-11,5e-08,5.0000082e-08,5e-08,4.7795584e-06,4.0134846e-06,1.2158665e-05,4.7423105e-06,4.582242e-06,1.1940811e-05,0.0795617,0.034759693,24
321269102,321169779,0.36904708,-0.03498321,-0.17683248,0.9117624,-13.350291,8.880309,2.9149532,199.49341,-38.29855,-8.195249,-6.541578e-06,-9.8548535e-06,9.445656e-06,-6.695793e-05,0.00084099366,4.8819787e-05,0.2999637,-0.040224724,0.42824295,0.025093501,-0.014869708,-0.07590512,2.047383,3.3075836,1.5875765e-05,4.951778e-06,4.728386e-06,3.0108463e-06,0.011501462,0.009440742,0.010723301,0.05437988,0.05435913,0.15140547,2.3407715e-11,2.349418e-11,2.9125993e-11,5.0000086e-08,5.0000086e-08,5.0000086e-08,4.6899418e-06,3.952324e-06,1.1599139e-05,4.645121e-06,4.4922053e-06,1.1391747e-05,0.07991765,0.034993403,24
322266830,322167441,0.35788673,0.039138917,0.11842183,0.9253981,-13.517761,10.142148,1.1419238,186.36601,-28.196222,-6.7736807,-5.433961e-06,-9.038407e-06,8.008024e-06,-8.7939516e-05,0.00081595,1.2613279e-05,0.2998137,-0.040449448,0.42803928,0.024984898,-0.014616438,-0.07602734,2.0094767,3.261036,1.5126971e-05,5.3261538e-06,4.5145107e-06,2.7496212e-06,0.010528052,0.009889924,0.010780311,0.054374374,0.05432611,0.15202034,2.25185e-11,2.3166965e-11,2.8505757e-11,5.0000086e-08,5.0000086e-08,5.0000086e-08,4.599997e-06,3.893819e-06,1.1137166e-05,4.550666e-06,4.4028643e-06,1.0932406e-05,0.08020279,0.03519133,24
