timestamp,timestamp_sample,gps_hvel[0],gps_hvel[1],gps_vvel,gps_hpos[0],gps_hpos[1],gps_vpos,ev_hvel[0],ev_hvel[1],ev_vvel,ev_hpos[0],ev_hpos[1],ev_vpos,rng_vpos,baro_vpos,aux_hvel[0],aux_hvel[1],aux_vvel,flow[0],flow[1],heading,mag_field[0],mag_field[1],mag_field[2],drag[0],drag[1],airspeed,beta,hagl,hagl_rate
217803719,217703278,0.0003057551,0.0,0.00020400448,8.250203e-05,0.0,0.0,0.0,0.0,0.0,0.0,0.0,0.0,0.0,0.00050564046,0.0,0.0,nan,0.0,0.0,0.0059211217,0.0,0.0,0.0,0.0,0.0,0.0,0.0,0.0,0.0
218303775,218203319,0.00031638975,0.0,0.00020683653,9.0309426e-05,0.0,0.0,0.0,0.0,0.0,0.0,0.0,0.0,0.0,0.00013379398,0.0,0.0,nan,0.0,0.0,0.004615295,0.0,0.0,0.0,0.0,0.0,0.0,0.0,0.0,0.0
218803836,218703360,0.00013424993,0.0,0.00040330313,8.48043e-05,0.0,0.0,0.0,0.0,0.0,0.0,0.0,0.0,0.0,6.8252586e-05,0.0,0.0,nan,0.0,0.0,0.0071292906,0.0,0.0,0.0,0.0,0.0,0.0,0.0,0.0,0.0
219303804,219203401,0.00012995856,0.0,0.00012691962,6.968157e-05,0.0,0.0,0.0,0.0,0.0,0.0,0.0,0.0,0.0,0.0002687001,0.0,0.0,nan,0.0,0.0,0.0053163623,0.0,0.0,0.0,0.0,0.0,0.0,0.0,0.0,0.0
219803863,219703443,0.0018628191,0.0,0.00061289547,4.9417842e-05,0.0,0.0,0.0,0.0,0.0,0.0,0.0,0.0,0.0,0.0013415514,0.0,0.0,nan,0.0,0.0,0.0007677115,0.0,0.0,0.0,0.0,0.0,0.0,0.0,0.0,0.0
220303867,220203484,0.0001518266,0.0,1.1632679e-05,4.9537015e-05,0.0,0.0,0.0,0.0,0.0,0.0,0.0,0.0,0.0,2.432466e-05,0.0,0.0,nan,0.0,0.0,0.0013397161,0.0,0.0,0.0,0.0,0.0,0.0,0.0,0.0,0.0
220803992,220703525,0.00018981891,0.0,5.312619e-05,5.654002e-05,0.0,0.0,0.0,0.0,0.0,0.0,0.0,0.0,0.0,0.0005282571,0.0,0.0,nan,0.0,0.0,0.00056501373,0.0,0.0,0.0,0.0,0.0,0.0,0.0,0.0,0.0
221303965,221203567,0.00030664142,0.0,0.00040032927,7.6428514e-05,0.0,0.0,0.0,0.0,0.0,0.0,0.0,0.0,0.0,0.0005369576,0.0,0.0,nan,0.0,0.0,0.001590858,0.0,0.0,0.0,0.0,0.0,0.0,0.0,0.0,0.0
221804005,221703609,0.0002502674,0.0,8.182124e-06,8.342259e-05,0.0,0.0,0.0,0.0,0.0,0.0,0.0,0.0,0.0,0.00047224105,0.0,0.0,nan,0.0,0.0,0.0027496861,0.0,0.0,0.0,0.0,0.0,0.0,0.0,0.0,0.0
222304053,222203654,0.00052596215,0.0,5.524389e-07,5.4135384e-05,0.0,0.0,0.0,0.0,0.0,0.0,0.0,0.0,0.0,0.0002715397,0.0,0.0,nan,0.0,0.0,0.0055958545,0.0,0.0,0.0,0.0,0.0,0.0,0.0,0.0,0.0
222804148,222703693,0.00091657497,0.0,0.00015523587,9.670504e-05,0.0,0.0,0.0,0.0,0.0,0.0,0.0,0.0,0.0,0.00095743826,0.0,0.0,nan,0.0,0.0,0.01173533,0.0,0.0,0.0,0.0,0.0,0.0,0.0,0.0,0.0
223304222,223203735,0.00092256314,0.0,7.4846794e-05,9.807486e-05,0.0,0.0,0.0,0.0,0.0,0.0,0.0,0.0,0.0,0.0041225576,0.0,0.0,nan,0.0,0.0,0.025632285,0.0,0.0,0.0,0.0,0.0,0.0,0.0,0.0,0.0
223804232,223703777,0.003499646,0.0,0.0024596944,0.00011871089,0.0,0.0,0.0,0.0,0.0,0.0,0.0,0.0,0.0,0.0004141976,0.0,0.0,nan,0.0,0.0,0.025285097,0.0,0.0,0.0,0.0,0.0,0.0,0.0,0.0,0.0
224304351,224203819,0.0013634781,0.0,0.0003233292,0.00010374907,0.0,0.0,0.0,0.0,0.0,0.0,0.0,0.0,0.0,1.9870808e-07,0.0,0.0,nan,0.0,0.0,0.027515318,0.0,0.0,0.0,0.0,0.0,0.0,0.0,0.0,0.0
224804277,224703862,0.004242745,0.0,0.0012636251,0.00011102914,0.0,0.0,0.0,0.0,0.0,0.0,0.0,0.0,0.0,0.0002828734,0.0,0.0,nan,0.0,0.0,0.028994514,0.0,0.0,0.0,0.0,0.0,0.0,0.0,0.0,0.0
225304515,225203905,0.0002372461,0.0,0.00030627052,0.0001289358,0.0,0.0,0.0,0.0,0.0,0.0,0.0,0.0,0.0,0.0,0.0,0.0,nan,0.0,0.0,0.029469606,0.0,0.0,0.0,0.0,0.0,0.0,0.0,0.0,0.0
225804345,225703947,0.00079657853,0.0,5.2350868e-05,0.000129936,0.0,0.0,0.0,0.0,0.0,0.0,0.0,0.0,0.0,0.0,0.0,0.0,nan,0.0,0.0,0.025022648,0.0,0.0,0.0,0.0,0.0,0.0,0.0,0.0,0.0
226304430,226203990,0.0046917708,0.0,4.275527e-06,0.00019009349,0.0,0.0,0.0,0.0,0.0,0.0,0.0,0.0,0.0,0.0,0.0,0.0,nan,0.0,0.0,1.3548608e-05,0.0,0.0,0.0,0.0,0.0,0.0,0.0,0.0,0.0
226804460,226704033,0.002245963,0.0,5.43847e-05,0.00011311869,0.0,0.0,0.0,0.0,0.0,0.0,0.0,0.0,0.0,0.0,0.0,0.0,nan,0.0,0.0,1.586572e-08,0.0,0.0,0.0,0.0,0.0,0.0,0.0,0.0,0.0
227304544,227204076,0.0039062258,0.0,0.0001945793,0.00012994507,0.0,0.0,0.0,0.0,0.0,0.0,0.0,0.0,0.0,0.000334968,0.0,0.0,nan,0.0,0.0,6.393359e-05,0.0,0.0,0.0,0.0,0.0,0.0,0.0,0.0,0.0
227804535,227704119,0.0030152898,0.0,0.00021609043,0.00010784365,0.0,0.0,0.0,0.0,0.0,0.0,0.0,0.0,0.0,7.08717e-05,0.0,0.0,nan,0.0,0.0,1.0176648e-06,0.0,0.0,0.0,0.0,0.0,0.0,0.0,0.0,0.0
228304622,228204163,0.018834187,0.0,5.718555e-05,0.0003457948,0.0,0.0,0.0,0.0,0.0,0.0,0.0,0.0,0.0,0.0005125111,0.0,0.0,nan,0.0,0.0,0.00015045064,0.0,0.0,0.0,0.0,0.0,0.0,0.0,0.0,0.0
228804714,228704206,0.0012796513,0.0,0.00037482442,0.00017734834,0.0,0.0,0.0,0.0,0.0,0.0,0.0,0.0,0.0,0.00012962375,0.0,0.0,nan,0.0,0.0,0.00013498761,0.0,0.0,0.0,0.0,0.0,0.0,0.0,0.0,0.0
229304712,229204250,0.0014580289,0.0,0.0021480247,0.00025884467,0.0,0.0,0.0,0.0,0.0,0.0,0.0,0.0,0.0,0.0,0.0,0.0,nan,0.0,0.0,2.8531453e-05,0.0,0.0,0.0,0.0,0.0,0.0,0.0,0.0,0.0
229804675,229704293,0.00322104,0.0,1.3503632e-05,0.00025041666,0.0,0.0,0.0,0.0,0.0,0.0,0.0,0.0,0.0,0.0,0.0,0.0,nan,0.0,0.0,0.000312203,0.0,0.0,0.0,0.0,0.0,0.0,0.0,0.0,0.0
230304886,230204337,0.0064094965,0.0,0.00012864116,0.00039863962,0.0,0.0,0.0,0.0,0.0,0.0,0.0,0.0,0.0,0.0,0.0,0.0,nan,0.0,0.0,2.8028164e-06,0.0,0.0,0.0,0.0,0.0,0.0,0.0,0.0,0.0
230804826,230704381,0.0042185686,0.0,0.0009639481,0.00038010927,0.0,0.0,0.0,0.0,0.0,0.0,0.0,0.0,0.0,0.0,0.0,0.0,nan,0.0,0.0,3.649361e-08,0.0,0.0,0.0,0.0,0.0,0.0,0.0,0.0,0.0
231304861,231204425,0.008281227,0.0,0.0012769538,0.00025646572,0.0,0.0,0.0,0.0,0.0,0.0,0.0,0.0,0.0,0.0,0.0,0.0,nan,0.0,0.0,2.253634e-05,0.0,0.0,0.0,0.0,0.0,0.0,0.0,0.0,0.0
231804887,231704469,0.0037578272,0.0,0.00014834444,0.0003667567,0.0,0.0,0.0,0.0,0.0,0.0,0.0,0.0,0.0,0.0,0.0,0.0,nan,0.0,0.0,8.077378e-07,0.0,0.0,0.0,0.0,0.0,0.0,0.0,0.0,0.0
232304943,232204513,0.0016922492,0.0,0.0001806143,0.00039446156,0.0,0.0,0.0,0.0,0.0,0.0,0.0,0.0,0.0,0.0,0.0,0.0,nan,0.0,0.0,1.0017765e-05,0.0,0.0,0.0,0.0,0.0,0.0,0.0,0.0,0.0
232805020,232704558,0.0033354477,0.0,8.550588e-05,0.0003132791,0.0,0.0,0.0,0.0,0.0,0.0,0.0,0.0,0.0,0.0,0.0,0.0,nan,0.0,0.0,0.00025879144,0.0,0.0,0.0,0.0,0.0,0.0,0.0,0.0,0.0
233305027,233204603,0.0058092787,0.0,0.00029847622,0.0002621362,0.0,0.0,0.0,0.0,0.0,0.0,0.0,0.0,0.0,4.9289243e-05,0.0,0.0,nan,0.0,0.0,1.9834712e-08,0.0,0.0,0.0,0.0,0.0,0.0,0.0,0.0,0.0
233805040,233704646,0.005562204,0.0,0.0006514731,0.00023968732,0.0,0.0,0.0,0.0,0.0,0.0,0.0,0.0,0.0,0.0004908405,0.0,0.0,nan,0.0,0.0,4.188564e-05,0.0,0.0,0.0,0.0,0.0,0.0,0.0,0.0,0.0
234305111,234204691,0.00031039058,0.0,0.0012937861,0.00020969825,0.0,0.0,0.0,0.0,0.0,0.0,0.0,0.0,0.0,0.0071536107,0.0,0.0,nan,0.0,0.0,8.308321e-06,0.0,0.0,0.0,0.0,0.0,0.0,0.0,0.0,0.0
234805136,234704736,0.0010872794,0.0,0.0010407516,0.00026476555,0.0,0.0,0.0,0.0,0.0,0.0,0.0,0.0,0.0,0.00027368515,0.0,0.0,nan,0.0,0.0,1.0061521e-05,0.0,0.0,0.0,0.0,0.0,0.0,0.0,0.0,0.0
235305228,235204781,0.0022027332,0.0,0.008586198,0.0002481433,0.0,0.0,0.0,0.0,0.0,0.0,0.0,0.0,0.0,0.00057599484,0.0,0.0,nan,0.0,0.0,0.006912157,0.0,0.0,0.0,0.0,0.0,0.0,0.0,0.0,0.0
235805227,235704826,0.0034965407,0.0,0.022439025,0.00021197689,0.0,0.0,0.0,0.0,0.0,0.0,0.0,0.0,0.0,5.539702e-06,0.0,0.0,nan,0.0,0.0,0.011090453,0.0,0.0,0.0,0.0,0.0,0.0,0.0,0.0,0.0
236305303,236204871,0.00025467097,0.0,0.00019333036,9.770587e-05,0.0,0.0,0.0,0.0,0.0,0.0,0.0,0.0,0.0,1.2015553e-05,0.0,0.0,nan,0.0,0.0,6.0736315e-06,0.0,0.0,0.0,0.0,0.0,0.0,0.0,0.0,0.0
236805403,236704916,0.002599615,0.0,0.00011918025,0.00016916922,0.0,0.0,0.0,0.0,0.0,0.0,0.0,0.0,0.0,0.0041393475,0.0,0.0,nan,0.0,0.0,0.00058564794,0.0,0.0,0.0,0.0,0.0,0.0,0.0,0.0,0.0
237305377,237204962,2.7437784e-05,0.0,0.001345221,0.00015096829,0.0,0.0,0.0,0.0,0.0,0.0,0.0,0.0,0.0,0.00023638371,0.0,0.0,nan,0.0,0.0,0.00035761853,0.0,0.0,0.0,0.0,0.0,0.0,0.0,0.0,0.0
237805427,237705007,0.0010417459,0.0,0.0018173808,9.0836686e-05,0.0,0.0,0.0,0.0,0.0,0.0,0.0,0.0,0.0,0.00016482473,0.0,0.0,nan,0.0,0.0,0.001864323,0.0,0.0,0.0,0.0,0.0,0.0,0.0,0.0,0.0
238305456,238205053,0.00016139209,0.0,0.0010566466,0.000116966294,0.0,0.0,0.0,0.0,0.0,0.0,0.0,0.0,0.0,0.0016842219,0.0,0.0,nan,0.0,0.0,0.004857654,0.0,0.0,0.0,0.0,0.0,0.0,0.0,0.0,0.0
238805528,238705098,0.00070700864,0.0,0.005408099,0.0001124537,0.0,0.0,0.0,0.0,0.0,0.0,0.0,0.0,0.0,0.00049566664,0.0,0.0,nan,0.0,0.0,0.0038392202,0.0,0.0,0.0,0.0,0.0,0.0,0.0,0.0,0.0
239305552,239205144,0.0026160418,0.0,0.009450672,0.00014813102,0.0,0.0,0.0,0.0,0.0,0.0,0.0,0.0,0.0,0.0031329454,0.0,0.0,nan,0.0,0.0,0.0049419985,0.0,0.0,0.0,0.0,0.0,0.0,0.0,0.0,0.0
239805576,239705190,0.00039651594,0.0,0.0025998524,9.30872e-05,0.0,0.0,0.0,0.0,0.0,0.0,0.0,0.0,0.0,0.00018125019,0.0,0.0,nan,0.0,0.0,0.0040969457,0.0,0.0,0.0,0.0,0.0,0.0,0.0,0.0,0.0
240305674,240205235,0.001085607,0.0,0.0005647023,0.00012867527,0.0,0.0,0.0,0.0,0.0,0.0,0.0,0.0,0.0,0.00053440186,0.0,0.0,nan,0.0,0.0,0.0028128324,0.0,0.0,0.0,0.0,0.0,0.0,0.0,0.0,0.0
240805690,240705282,0.00084556086,0.0,2.457591e-06,0.00014676563,0.0,0.0,0.0,0.0,0.0,0.0,0.0,0.0,0.0,5.042976e-05,0.0,0.0,nan,0.0,0.0,0.004335393,0.0,0.0,0.0,0.0,0.0,0.0,0.0,0.0,0.0
241305757,241205328,0.0001923393,0.0,0.0033761284,0.00012512018,0.0,0.0,0.0,0.0,0.0,0.0,0.0,0.0,0.0,0.0021028542,0.0,0.0,nan,0.0,0.0,0.003758382,0.0,0.0,0.0,0.0,0.0,0.0,0.0,0.0,0.0
241805831,241705374,0.0047983644,0.0,0.0010489431,0.00025016503,0.0,0.0,0.0,0.0,0.0,0.0,0.0,0.0,0.0,0.00076259713,0.0,0.0,nan,0.0,0.0,0.0028434142,0.0,0.0,0.0,0.0,0.0,0.0,0.0,0.0,0.0
242305820,242205420,4.4651093e-05,0.0,0.00041779154,0.00029329924,0.0,0.0,0.0,0.0,0.0,0.0,0.0,0.0,0.0,0.0002949751,0.0,0.0,nan,0.0,0.0,0.0019152781,0.0,0.0,0.0,0.0,0.0,0.0,0.0,0.0,0.0
242805907,242705466,0.003438613,0.0,0.00032822677,0.00044562513,0.0,0.0,0.0,0.0,0.0,0.0,0.0,0.0,0.0,0.0032592015,0.0,0.0,nan,0.0,0.0,0.0011279372,0.0,0.0,0.0,0.0,0.0,0.0,0.0,0.0,0.0
243306016,243205513,0.0015528778,0.0,0.0017397458,0.0004034823,0.0,0.0,0.0,0.0,0.0,0.0,0.0,0.0,0.0,0.01280468,0.0,0.0,nan,0.0,0.0,0.0016129314,0.0,0.0,0.0,0.0,0.0,0.0,0.0,0.0,0.0
243805976,243705559,0.0016085275,0.0,7.45489e-06,0.0003439097,0.0,0.0,0.0,0.0,0.0,0.0,0.0,0.0,0.0,4.205903e-05,0.0,0.0,nan,0.0,0.0,0.00199893,0.0,0.0,0.0,0.0,0.0,0.0,0.0,0.0,0.0
244306008,244205606,0.00076655304,0.0,0.0009324314,0.0002303901,0.0,0.0,0.0,0.0,0.0,0.0,0.0,0.0,0.0,0.019480707,0.0,0.0,nan,0.0,0.0,0.0036868907,0.0,0.0,0.0,0.0,0.0,0.0,0.0,0.0,0.0
244796176,244695652,0.00083669886,0.0,0.001987797,0.00018111318,0.0,0.0,0.0,0.0,0.0,0.0,0.0,0.0,0.0,0.0022388042,0.0,0.0,nan,0.0,0.0,0.0036671774,0.0,0.0,0.0,0.0,0.0,0.0,0.0,0.0,0.0
245306157,245205699,0.0027375177,0.0,0.00425368,0.0001309201,0.0,0.0,0.0,0.0,0.0,0.0,0.0,0.0,0.0,3.3737612e-07,0.0,0.0,nan,0.0,0.0,0.002823583,0.0,0.0,0.0,0.0,0.0,0.0,0.0,0.0,0.0
245806150,245705746,0.0023716989,0.0,0.00270386,0.00010996079,0.0,0.0,0.0,0.0,0.0,0.0,0.0,0.0,0.0,0.008721459,0.0,0.0,nan,0.0,0.0,0.00362197,0.0,0.0,0.0,0.0,0.0,0.0,0.0,0.0,0.0
246306189,246205793,0.00048460875,0.0,0.00031422422,8.193563e-05,0.0,0.0,0.0,0.0,0.0,0.0,0.0,0.0,0.0,0.004949872,0.0,0.0,nan,0.0,0.0,0.0029746399,0.0,0.0,0.0,0.0,0.0,0.0,0.0,0.0,0.0
246806306,246705840,0.0003448305,0.0,2.1010846e-05,8.857318e-05,0.0,0.0,0.0,0.0,0.0,0.0,0.0,0.0,0.0,0.00010143138,0.0,0.0,nan,0.0,0.0,0.000320654,0.0,0.0,0.0,0.0,0.0,0.0,0.0,0.0,0.0
247306320,247205886,0.0041004936,0.0,1.0878959e-05,0.00016155685,0.0,0.0,0.0,0.0,0.0,0.0,0.0,0.0,0.0,0.005259443,0.0,0.0,nan,0.0,0.0,0.0013913993,0.0,0.0,0.0,0.0,0.0,0.0,0.0,0.0,0.0
247806477,247705933,0.00035954666,0.0,0.005747431,0.00014329699,0.0,0.0,0.0,0.0,0.0,0.0,0.0,0.0,0.0,0.00076607615,0.0,0.0,nan,0.0,0.0,0.00035860334,0.0,0.0,0.0,0.0,0.0,0.0,0.0,0.0,0.0
248296381,248195979,0.0012916374,0.0,0.002656882,0.0001320489,0.0,0.0,0.0,0.0,0.0,0.0,0.0,0.0,0.0,1.767996e-05,0.0,0.0,nan,0.0,0.0,0.0013589042,0.0,0.0,0.0,0.0,0.0,0.0,0.0,0.0,0.0
248796509,248696026,0.0010815125,0.0,0.0020164086,0.0001445168,0.0,0.0,0.0,0.0,0.0,0.0,0.0,0.0,0.0,0.0005143666,0.0,0.0,nan,0.0,0.0,0.0017219966,0.0,0.0,0.0,0.0,0.0,0.0,0.0,0.0,0.0
249306492,249206074,0.0008587856,0.0,0.0013801382,0.0001211982,0.0,0.0,0.0,0.0,0.0,0.0,0.0,0.0,0.0,0.0012991491,0.0,0.0,nan,0.0,0.0,0.00094127364,0.0,0.0,0.0,0.0,0.0,0.0,0.0,0.0,0.0
249806560,249706121,0.00087632926,0.0,0.010583871,3.6837628e-05,0.0,0.0,0.0,0.0,0.0,0.0,0.0,0.0,0.0,4.417073e-05,0.0,0.0,nan,0.0,0.0,0.00081314094,0.0,0.0,0.0,0.0,0.0,0.0,0.0,0.0,0.0
250306634,250206169,0.009254145,0.0,0.008100779,5.2121595e-05,0.0,0.0,0.0,0.0,0.0,0.0,0.0,0.0,0.0,0.008641301,0.0,0.0,nan,0.0,0.0,0.0004062921,0.0,0.0,0.0,0.0,0.0,0.0,0.0,0.0,0.0
250806699,250706215,0.005819391,0.0,5.1987223e-05,0.000108738066,0.0,0.0,0.0,0.0,0.0,0.0,0.0,0.0,0.0,0.0018014535,0.0,0.0,nan,0.0,0.0,0.0002992088,0.0,0.0,0.0,0.0,0.0,0.0,0.0,0.0,0.0
251306646,251206263,4.574647e-05,0.0,3.697472e-06,5.691964e-05,0.0,0.0,0.0,0.0,0.0,0.0,0.0,0.0,0.0,0.00011550639,0.0,0.0,nan,0.0,0.0,0.0022024075,0.0,0.0,0.0,0.0,0.0,0.0,0.0,0.0,0.0
251796722,251696309,0.008342917,0.0,0.0013466353,0.0001145166,0.0,0.0,0.0,0.0,0.0,0.0,0.0,0.0,0.0,0.0023416202,0.0,0.0,nan,0.0,0.0,0.0055721197,0.0,0.0,0.0,0.0,0.0,0.0,0.0,0.0,0.0
252296759,252196357,0.0072649345,0.0,0.002003971,0.00010958099,0.0,0.0,0.0,0.0,0.0,0.0,0.0,0.0,0.0,0.00028038726,0.0,0.0,nan,0.0,0.0,8.299613e-06,0.0,0.0,0.0,0.0,0.0,0.0,0.0,0.0,0.0
252806883,252706405,0.013629483,0.0,0.00038654753,0.000113083544,0.0,0.0,0.0,0.0,0.0,0.0,0.0,0.0,0.0,0.001292592,0.0,0.0,nan,0.0,0.0,0.0022821415,0.0,0.0,0.0,0.0,0.0,0.0,0.0,0.0,0.0
253306854,253206452,0.014924404,0.0,7.590782e-05,7.086661e-05,0.0,0.0,0.0,0.0,0.0,0.0,0.0,0.0,0.0,2.7494849e-05,0.0,0.0,nan,0.0,0.0,0.0115658995,0.0,0.0,0.0,0.0,0.0,0.0,0.0,0.0,0.0
253806962,253706500,0.064659014,0.0,0.0011687353,5.014381e-05,0.0,0.0,0.0,0.0,0.0,0.0,0.0,0.0,0.0,0.00023331467,0.0,0.0,nan,0.0,0.0,0.0,0.007940995,0.0,0.0,0.0,0.0,0.0,0.0,0.0,0.0
254306957,254206547,0.0776059,0.0,0.0049763382,0.0004196732,0.0,0.0,0.0,0.0,0.0,0.0,0.0,0.0,0.0,0.0036047392,0.0,0.0,nan,0.0,0.0,0.0,0.009995877,0.0,0.0,0.0,0.0,0.0,0.0,0.0,0.0
254807198,254706595,0.116319366,0.0,0.0032119057,0.0011745408,0.0,0.0,0.0,0.0,0.0,0.0,0.0,0.0,0.0,7.04837e-05,0.0,0.0,nan,0.0,0.0,0.0,0.0265323,0.0,0.0,0.0,0.0,0.0,0.0,0.0,0.0
255297065,255196641,0.09226442,0.0,0.004505262,0.0021276758,0.0,0.0,0.0,0.0,0.0,0.0,0.0,0.0,0.0,0.0027131045,0.0,0.0,nan,0.0,0.0,0.0,0.021539548,0.0,0.0,0.0,0.0,0.0,0.0,0.0,0.0
255797089,255696689,0.049221743,0.0,4.8440346e-05,0.0024651007,0.0,0.0,0.0,0.0,0.0,0.0,0.0,0.0,0.0,0.0012331527,0.0,0.0,nan,0.0,0.0,0.0,0.04399331,0.0,0.0,0.0,0.0,0.0,0.0,0.0,0.0
256297380,256196737,0.0674528,0.0,0.0005071668,0.0019197301,0.0,0.0,0.0,0.0,0.0,0.0,0.0,0.0,0.0,3.1967294e-05,0.0,0.0,nan,0.0,0.0,0.0,0.033409923,0.0,0.0,0.0,0.0,0.0,0.0,0.0,0.0
256807222,256706786,0.089526966,0.0,0.0026699996,0.0010271415,0.0,0.0,0.0,0.0,0.0,0.0,0.0,0.0,0.0,0.00298502,0.0,0.0,nan,0.0,0.0,0.0,0.011146139,0.0,0.0,0.0,0.0,0.0,0.0,0.0,0.0
257307273,257206834,0.0142832305,0.0,1.9685008e-06,0.00071191,0.0,0.0,0.0,0.0,0.0,0.0,0.0,0.0,0.0,0.0022749428,0.0,0.0,nan,0.0,0.0,0.0,0.0056917914,0.0,0.0,0.0,0.0,0.0,0.0,0.0,0.0
257807284,257706881,0.032309614,0.0,0.0023939132,0.00062038284,0.0,0.0,0.0,0.0,0.0,0.0,0.0,0.0,0.0,0.00021040131,0.0,0.0,nan,0.0,0.0,0.0,0.04736452,0.0,0.0,0.0,0.0,0.0,0.0,0.0,0.0
258307386,258206929,0.04659434,0.0,0.004632667,0.00031943322,0.0,0.0,0.0,0.0,0.0,0.0,0.0,0.0,0.0,1.6735133e-06,0.0,0.0,nan,0.0,0.0,0.0,0.017183341,0.0,0.0,0.0,0.0,0.0,0.0,0.0,0.0
258797394,258696977,0.013615496,0.0,5.7811532e-05,0.00025979208,0.0,0.0,0.0,0.0,0.0,0.0,0.0,0.0,0.0,2.383302e-05,0.0,0.0,nan,0.0,0.0,0.0,0.009738051,0.0,0.0,0.0,0.0,0.0,0.0,0.0,0.0
259297439,259197025,0.0011637517,0.0,0.0022702708,0.00028848965,0.0,0.0,0.0,0.0,0.0,0.0,0.0,0.0,0.0,0.0005056741,0.0,0.0,nan,0.0,0.0,0.0,0.0008234294,0.0,0.0,0.0,0.0,0.0,0.0,0.0,0.0
259797523,259697073,0.00029101176,0.0,0.00063352124,0.00021771516,0.0,0.0,0.0,0.0,0.0,0.0,0.0,0.0,0.0,8.603448e-06,0.0,0.0,nan,0.0,0.0,0.0,0.0028571333,0.0,0.0,0.0,0.0,0.0,0.0,0.0,0.0
260307542,260207122,0.0008727913,0.0,0.0051171696,0.00024347298,0.0,0.0,0.0,0.0,0.0,0.0,0.0,0.0,0.0,2.1130592e-05,0.0,0.0,nan,0.0,0.0,0.0,0.0019850866,0.0,0.0,0.0,0.0,0.0,0.0,0.0,0.0
260807673,260707171,0.00033019012,0.0,0.008258715,0.00027956945,0.0,0.0,0.0,0.0,0.0,0.0,0.0,0.0,0.0,0.00042819162,0.0,0.0,nan,0.0,0.0,0.0,0.003549793,0.0,0.0,0.0,0.0,0.0,0.0,0.0,0.0
261307804,261207219,0.012051735,0.0,0.00013775803,0.0005832178,0.0,0.0,0.0,0.0,0.0,0.0,0.0,0.0,0.0,0.0001598483,0.0,0.0,nan,0.0,0.0,0.0,0.0056672143,0.0,0.0,0.0,0.0,0.0,0.0,0.0,0.0
261807705,261707268,5.527104e-05,0.0,0.0003818435,0.00031735413,0.0,0.0,0.0,0.0,0.0,0.0,0.0,0.0,0.0,0.0014763853,0.0,0.0,nan,0.0,0.0,0.0,0.00091072073,0.0,0.0,0.0,0.0,0.0,0.0,0.0,0.0
262297728,262197315,0.002854309,0.0,0.002844888,7.827822e-05,0.0,0.0,0.0,0.0,0.0,0.0,0.0,0.0,0.0,0.00028499757,0.0,0.0,nan,0.0,0.0,0.0,0.0017726908,0.0,0.0,0.0,0.0,0.0,0.0,0.0,0.0
262797930,262697364,0.0007938671,0.0,0.00076034723,5.1980485e-05,0.0,0.0,0.0,0.0,0.0,0.0,0.0,0.0,0.0,0.0011202106,0.0,0.0,nan,0.0,0.0,0.0,0.0077002035,0.0,0.0,0.0,0.0,0.0,0.0,0.0,0.0
263297847,263197413,0.00033645844,0.0,0.00030945655,6.0583036e-05,0.0,0.0,0.0,0.0,0.0,0.0,0.0,0.0,0.0,0.00048820872,0.0,0.0,nan,0.0,0.0,0.0,0.001842741,0.0,0.0,0.0,0.0,0.0,0.0,0.0,0.0
263797876,263697461,0.00030010898,0.0,0.0010177615,2.7683149e-05,0.0,0.0,0.0,0.0,0.0,0.0,0.0,0.0,0.0,0.00042851112,0.0,0.0,nan,0.0,0.0,0.0,0.017315483,0.0,0.0,0.0,0.0,0.0,0.0,0.0,0.0
264307972,264207511,0.035756737,0.0,8.102545e-06,2.5857911e-05,0.0,0.0,0.0,0.0,0.0,0.0,0.0,0.0,0.0,0.0021224206,0.0,0.0,nan,0.0,0.0,0.0,0.9365305,0.0,0.0,0.0,0.0,0.0,0.0,0.0,0.0
264807984,264707561,0.058609,0.0,3.8976137e-05,0.00022733341,0.0,0.0,0.0,0.0,0.0,0.0,0.0,0.0,0.0,0.003647041,0.0,0.0,nan,0.0,0.0,0.0,0.97151816,0.0,0.0,0.0,0.0,0.0,0.0,0.0,0.0
265308017,265207609,0.07048326,0.0,9.338339e-06,0.00088005885,0.0,0.0,0.0,0.0,0.0,0.0,0.0,0.0,0.0,0.040338602,0.0,0.0,nan,0.0,0.0,0.0,0.6673362,0.0,0.0,0.0,0.0,0.0,0.0,0.0,0.0
265798075,265697657,0.06024417,0.0,0.020964496,0.001213728,0.0,0.0,0.0,0.0,0.0,0.0,0.0,0.0,0.0,0.010098155,0.0,0.0,nan,0.0,0.0,0.0,0.0752767,0.0,0.0,0.0,0.0,0.0,0.0,0.0,0.0
266298141,266197707,0.025009746,0.0,0.000111678826,0.000564278,0.0,0.0,0.0,0.0,0.0,0.0,0.0,0.0,0.0,0.008134639,0.0,0.0,nan,0.0,0.0,0.0,0.031598214,0.0,0.0,0.0,0.0,0.0,0.0,0.0,0.0
266798223,266697756,0.016516378,0.0,0.00063763064,0.0009705829,0.0,0.0,0.0,0.0,0.0,0.0,0.0,0.0,0.0,0.005888852,0.0,0.0,nan,0.0,0.0,0.0,0.034170102,0.0,0.0,0.0,0.0,0.0,0.0,0.0,0.0
267298293,267197805,0.007292307,0.0,0.0001345891,0.00021585783,0.0,0.0,0.0,0.0,0.0,0.0,0.0,0.0,0.0,0.013051491,0.0,0.0,nan,0.0,0.0,0.0,0.0036584223,0.0,0.0,0.0,0.0,0.0,0.0,0.0,0.0
267798261,267697855,0.0065696845,0.0,0.0050360956,0.00012369132,0.0,0.0,0.0,0.0,0.0,0.0,0.0,0.0,0.0,0.026163409,0.0,0.0,nan,0.0,0.0,0.0,0.0018990531,0.0,0.0,0.0,0.0,0.0,0.0,0.0,0.0
268308333,268207905,0.014112882,0.0,0.0038539849,0.00014876368,0.0,0.0,0.0,0.0,0.0,0.0,0.0,0.0,0.0,0.024770841,0.0,0.0,nan,0.0,0.0,0.0,0.0012416572,0.0,0.0,0.0,0.0,0.0,0.0,0.0,0.0
268808325,268707955,0.012045915,0.0,4.9209402e-06,0.00035333607,0.0,0.0,0.0,0.0,0.0,0.0,0.0,0.0,0.0,0.06185857,0.0,0.0,nan,0.0,0.0,0.0,0.0010633024,0.0,0.0,0.0,0.0,0.0,3.516295e-07,0.0,0.0
269298536,269198004,0.04328329,0.0,0.004453245,0.0004853223,0.0,0.0,0.0,0.0,0.0,0.0,0.0,0.0,0.0,9.989842e-05,0.0,0.0,nan,0.0,0.0,0.0,0.0022972515,0.0,0.0,0.0,0.0,0.000102202146,7.1764494e-05,0.0,0.0
269798407,269698053,0.07025492,0.0,0.001607894,0.00041768345,0.0,0.0,0.0,0.0,0.0,0.0,0.0,0.0,0.0,0.021468237,0.0,0.0,nan,0.0,0.0,0.0,0.00391796,0.0,0.0,0.0,0.0,0.016833315,0.00021997625,0.0,0.0
270298585,270198103,0.46070504,0.0,0.020428803,0.0015132758,0.0,0.0,0.0,0.0,0.0,0.0,0.0,0.0,0.0,0.0051526846,0.0,0.0,nan,0.0,0.0,0.0,0.016618853,0.0,0.0,0.0,0.0,0.0031025764,4.142857e-05,0.0,0.0
270798506,270698152,0.037295908,0.0,0.008079514,0.00027656704,0.0,0.0,0.0,0.0,0.0,0.0,0.0,0.0,0.0,0.008034365,0.0,0.0,nan,0.0,0.0,0.0,0.29128075,0.0,0.0,0.0,0.0,0.053028196,0.004380264,0.0,0.0
271298608,271198202,0.05101294,0.0,0.0026517871,0.00034651475,0.0,0.0,0.0,0.0,0.0,0.0,0.0,0.0,0.0,0.0001735462,0.0,0.0,nan,0.0,0.0,0.0,0.08860008,0.0,0.0,0.0,0.0,0.05540555,0.00644523,0.0,0.0
271798609,271698252,0.027354937,0.0,0.0030906373,0.00066737813,0.0,0.0,0.0,0.0,0.0,0.0,0.0,0.0,0.0,0.0012920776,0.0,0.0,nan,0.0,0.0,0.0,0.021114793,0.0,0.0,0.0,0.0,0.014185727,0.0009717524,0.0,0.0
272308765,272208303,0.042827968,0.0,0.009886484,0.00047651597,0.0,0.0,0.0,0.0,0.0,0.0,0.0,0.0,0.0,0.00026931232,0.0,0.0,nan,0.0,0.0,0.0,0.010864836,0.0,0.0,0.0,0.0,0.14375375,0.0013939396,0.0,0.0
272798726,272698352,0.0036084966,0.0,0.0038580997,0.0010482081,0.0,0.0,0.0,0.0,0.0,0.0,0.0,0.0,0.0,0.016174935,0.0,0.0,nan,0.0,0.0,0.0,0.00899238,0.0,0.0,0.0,0.0,0.060280357,0.00017858256,0.0,0.0
273298775,273198401,0.0013773228,0.0,0.0070301075,0.0003597622,0.0,0.0,0.0,0.0,0.0,0.0,0.0,0.0,0.0,0.010873151,0.0,0.0,nan,0.0,0.0,0.0,0.029855026,0.0,0.0,0.0,0.0,0.017514948,2.4664096e-06,0.0,0.0
273798873,273698451,0.006416036,0.0,0.023591187,0.0017141529,0.0,0.0,0.0,0.0,0.0,0.0,0.0,0.0,0.0,0.0029392922,0.0,0.0,nan,0.0,0.0,0.0,0.021233628,0.0,0.0,0.0,0.0,0.0068533923,6.5847717e-06,0.0,0.0
274299076,274198501,0.021346698,0.0,0.016751572,0.00019851902,0.0,0.0,0.0,0.0,0.0,0.0,0.0,0.0,0.0,0.023317955,0.0,0.0,nan,0.0,0.0,0.0,0.010574135,0.0,0.0,0.0,0.0,0.0028221067,4.819153e-07,0.0,0.0
274798912,274698551,0.008361985,0.0,0.012172438,8.599767e-05,0.0,0.0,0.0,0.0,0.0,0.0,0.0,0.0,0.0,0.0002850053,0.0,0.0,nan,0.0,0.0,0.0,0.008900375,0.0,0.0,0.0,0.0,0.00033837467,1.2685732e-05,0.0,0.0
275298959,275198603,0.019485919,0.0,0.015449291,0.0005813204,0.0,0.0,0.0,0.0,0.0,0.0,0.0,0.0,0.0,0.004949591,0.0,0.0,nan,0.0,0.0,0.0,0.0360966,0.0,0.0,0.0,0.0,0.016036984,2.1382653e-05,0.0,0.0
275799163,275698650,0.011969481,0.0,0.0022285092,0.0005076434,0.0,0.0,0.0,0.0,0.0,0.0,0.0,0.0,0.0,6.6467524e-05,0.0,0.0,nan,0.0,0.0,0.0,0.0029258197,0.0,0.0,0.0,0.0,0.08099582,0.0006364236,0.0,0.0
276299059,276198699,0.27705333,0.0,0.09518053,0.00045910917,0.0,0.0,0.0,0.0,0.0,0.0,0.0,0.0,0.0,0.0011570876,0.0,0.0,nan,0.0,0.0,0.0,0.08181297,0.0,0.0,0.0,0.0,0.053032227,0.0010464317,0.0,0.0
276799138,276698749,0.37283796,0.0,0.12831213,2.812579e-05,0.0,0.0,0.0,0.0,0.0,0.0,0.0,0.0,0.0,0.00065864663,0.0,0.0,nan,0.0,0.0,0.0,0.0590044,0.0,0.0,0.0,0.0,0.46776336,2.0898224e-05,0.0,0.0
277299149,277198799,0.04121199,0.0,0.033065654,0.0012423964,0.0,0.0,0.0,0.0,0.0,0.0,0.0,0.0,0.0,0.038763765,0.0,0.0,nan,0.0,0.0,0.0,0.05834121,0.0,0.0,0.0,0.0,0.7694921,0.00031840216,0.0,0.0
277799255,277698848,0.07640845,0.0,0.011237861,0.0007083537,0.0,0.0,0.0,0.0,0.0,0.0,0.0,0.0,0.0,2.9395098e-05,0.0,0.0,nan,0.0,0.0,0.0,0.019070916,0.0,0.0,0.0,0.0,0.9502691,0.00022184677,0.0,0.0
278299254,278198898,0.04522827,0.0,0.000788961,0.0005534153,0.0,0.0,0.0,0.0,0.0,0.0,0.0,0.0,0.0,0.008529424,0.0,0.0,nan,0.0,0.0,0.0,0.026084235,0.0,0.0,0.0,0.0,2.2149954,2.944182e-06,0.0,0.0
278799317,278698947,0.061645724,0.0,0.00039377174,5.395411e-05,0.0,0.0,0.0,0.0,0.0,0.0,0.0,0.0,0.0,0.01972458,0.0,0.0,nan,0.0,0.0,0.0,0.025883066,0.0,0.0,0.0,0.0,4.9555054,9.553094e-05,0.0,0.0
279299355,279198996,0.002902253,0.0,0.00084508606,0.0014753346,0.0,0.0,0.0,0.0,0.0,0.0,0.0,0.0,0.0,0.003033403,0.0,0.0,nan,0.0,0.0,0.0,0.0310978,0.0,0.0,0.0,0.0,5.8096204,0.00018804711,0.0,0.0
279799416,279699045,0.085795216,0.0,0.0075269453,0.0020572848,0.0,0.0,0.0,0.0,0.0,0.0,0.0,0.0,0.0,0.0052301567,0.0,0.0,nan,0.0,0.0,0.0,0.04735557,0.0,0.0,0.0,0.0,7.843249,0.0002916876,0.0,0.0
280299518,280199094,0.16155371,0.0,0.00034632298,0.0033909306,0.0,0.0,0.0,0.0,0.0,0.0,0.0,0.0,0.0,8.1643855e-05,0.0,0.0,nan,0.0,0.0,0.0,0.16770293,0.0,0.0,0.0,0.0,7.235292,0.0072437758,0.0,0.0
280799643,280699143,0.23787734,0.0,0.010432601,0.0047347024,0.0,0.0,0.0,0.0,0.0,0.0,0.0,0.0,0.0,0.003637436,0.0,0.0,nan,0.0,0.0,0.0,0.07469853,0.0,0.0,0.0,0.0,5.8955503,0.0019261362,0.0,0.0
281299544,281199192,0.60884756,0.0,0.06313429,0.006176877,0.0,0.0,0.0,0.0,0.0,0.0,0.0,0.0,0.0,0.0003899763,0.0,0.0,nan,0.0,0.0,0.0,0.04423415,0.0,0.0,0.0,0.0,4.82913,0.0181077,0.0,0.0
281799631,281699241,0.18962717,0.0,0.048320167,0.007276514,0.0,0.0,0.0,0.0,0.0,0.0,0.0,0.0,0.0,0.016907347,0.0,0.0,nan,0.0,0.0,0.0,0.07280885,0.0,0.0,0.0,0.0,3.6231544,0.026334701,0.0,0.0
282299785,282199290,0.15562393,0.0,0.017651413,0.0059944815,0.0,0.0,0.0,0.0,0.0,0.0,0.0,0.0,0.0,0.0075893817,0.0,0.0,nan,0.0,0.0,0.0,0.020390583,0.0,0.0,0.0,0.0,2.4392576,0.028706905,0.0,0.0
282799715,282699338,0.19787303,0.0,0.046383098,0.007929689,0.0,0.0,0.0,0.0,0.0,0.0,0.0,0.0,0.0,0.0069720717,0.0,0.0,nan,0.0,0.0,0.0,0.0206738,0.0,0.0,0.0,0.0,2.5530758,0.0428484,0.0,0.0
283299743,283199387,0.14187294,0.0,0.013932762,0.0033445347,0.0,0.0,0.0,0.0,0.0,0.0,0.0,0.0,0.0,0.0011622277,0.0,0.0,nan,0.0,0.0,0.0,0.021151839,0.0,0.0,0.0,0.0,2.1143625,0.045916773,0.0,0.0
283799789,283699435,0.13310021,0.0,0.0031836675,0.0031926099,0.0,0.0,0.0,0.0,0.0,0.0,0.0,0.0,0.0,0.007194598,0.0,0.0,nan,0.0,0.0,0.0,0.118224256,0.0,0.0,0.0,0.0,2.1143625,0.05027841,0.0,0.0
284299845,284199484,0.14153777,0.0,0.0014148154,0.0050754207,0.0,0.0,0.0,0.0,0.0,0.0,0.0,0.0,0.0,0.0012286868,0.0,0.0,nan,0.0,0.0,0.0,0.10875426,0.0,0.0,0.0,0.0,2.1143625,0.059379574,0.0,0.0
284799890,284699532,0.14192076,0.0,0.041088957,0.0024796976,0.0,0.0,0.0,0.0,0.0,0.0,0.0,0.0,0.0,0.0020735788,0.0,0.0,nan,0.0,0.0,0.0,0.046486016,0.0,0.0,0.0,0.0,2.1143625,0.05424457,0.0,0.0
285299946,285199580,0.108785555,0.0,0.00015386454,0.0041149384,0.0,0.0,0.0,0.0,0.0,0.0,0.0,0.0,0.0,0.018856967,0.0,0.0,nan,0.0,0.0,0.0,0.03926474,0.0,0.0,0.0,0.0,2.1143625,0.06496354,0.0,0.0
285799982,285699628,0.107956395,0.0,0.007949172,0.0028870627,0.0,0.0,0.0,0.0,0.0,0.0,0.0,0.0,0.0,0.0031034676,0.0,0.0,nan,0.0,0.0,0.0,0.034114286,0.0,0.0,0.0,0.0,2.1143625,0.062180918,0.0,0.0
286300139,286199675,0.04442201,0.0,0.010076556,0.002328164,0.0,0.0,0.0,0.0,0.0,0.0,0.0,0.0,0.0,0.0018246935,0.0,0.0,nan,0.0,0.0,0.0,0.027278353,0.0,0.0,0.0,0.0,2.1143625,0.06538014,0.0,0.0
286800079,286699723,0.037712205,0.0,0.005164006,0.005503863,0.0,0.0,0.0,0.0,0.0,0.0,0.0,0.0,0.0,0.010706449,0.0,0.0,nan,0.0,0.0,0.0,0.027980028,0.0,0.0,0.0,0.0,2.1143625,0.045378327,0.0,0.0
287302879,287199771,0.024846712,0.0,0.011278181,0.0024657312,0.0,0.0,0.0,0.0,0.0,0.0,0.0,0.0,0.0,0.0007583669,0.0,0.0,nan,0.0,0.0,0.0,0.031071337,0.0,0.0,0.0,0.0,2.1143625,0.05214368,0.0,0.0
287800185,287699818,0.020039374,0.0,0.00074163097,0.004530453,0.0,0.0,0.0,0.0,0.0,0.0,0.0,0.0,0.0,5.3020234e-05,0.0,0.0,nan,0.0,0.0,0.0,0.02460854,0.0,0.0,0.0,0.0,2.1143625,0.05133239,0.0,0.0
288300227,288199866,0.011047353,0.0,0.0026489932,0.004294657,0.0,0.0,0.0,0.0,0.0,0.0,0.0,0.0,0.0,0.0006578461,0.0,0.0,nan,0.0,0.0,0.0,0.019343019,0.0,0.0,0.0,0.0,2.1143625,0.04286055,0.0,0.0
288800322,288699913,0.0041261516,0.0,9.8356984e-05,0.005492354,0.0,0.0,0.0,0.0,0.0,0.0,0.0,0.0,0.0,0.0009951477,0.0,0.0,nan,0.0,0.0,0.0010591653,0.0,0.0,0.0,0.0,0.0,2.1143625,0.044935197,0.0,0.0
289300312,289199960,0.0104262885,0.0,0.017938716,0.010998151,0.0,0.0,0.0,0.0,0.0,0.0,0.0,0.0,0.0,0.031110378,0.0,0.0,nan,0.0,0.0,0.0008119494,0.0,0.0,0.0,0.0,0.0,2.1143625,0.04423228,0.0,0.0
289800512,289700007,0.0050860075,0.0,0.0072962497,0.0049525346,0.0,0.0,0.0,0.0,0.0,0.0,0.0,0.0,0.0,0.00034198968,0.0,0.0,nan,0.0,0.0,0.00047395486,0.0,0.0,0.0,0.0,0.0,2.1143625,0.040017057,0.0,0.0
290300402,290200053,0.0061166952,0.0,0.0021981208,0.006237189,0.0,0.0,0.0,0.0,0.0,0.0,0.0,0.0,0.0,0.018414626,0.0,0.0,nan,0.0,0.0,0.0002387223,0.0,0.0,0.0,0.0,0.0,2.1143625,0.04212748,0.0,0.0
290800647,290700100,0.0014618557,0.0,0.00029777904,0.004945474,0.0,0.0,0.0,0.0,0.0,0.0,0.0,0.0,0.0,0.021257339,0.0,0.0,nan,0.0,0.0,8.622982e-05,0.0,0.0,0.0,0.0,0.0,2.1143625,0.050238833,0.0,0.0
291300502,291200147,0.0008419737,0.0,0.003897185,0.0031815902,0.0,0.0,0.0,0.0,0.0,0.0,0.0,0.0,0.0,0.0013741628,0.0,0.0,nan,0.0,0.0,1.5385383e-06,0.0,0.0,0.0,0.0,0.0,2.1143625,0.05424748,0.0,0.0
291800596,291700193,0.0010249953,0.0,4.92598e-05,0.0036626055,0.0,0.0,0.0,0.0,0.0,0.0,0.0,0.0,0.0,0.045613486,0.0,0.0,nan,0.0,0.0,0.00014603326,0.0,0.0,0.0,0.0,0.0,2.1143625,0.06929024,0.0,0.0
292300686,292200239,0.002248622,0.0,1.4203819e-06,0.0021045457,0.0,0.0,0.0,0.0,0.0,0.0,0.0,0.0,0.0,0.00067001145,0.0,0.0,nan,0.0,0.0,2.0469768e-06,0.0,0.0,0.0,0.0,0.0,2.1143625,0.07587668,0.0,0.0
292800723,292700285,0.009273319,0.0,0.00034977752,0.008142407,0.0,0.0,0.0,0.0,0.0,0.0,0.0,0.0,0.0,0.0042532906,0.0,0.0,nan,0.0,0.0,8.108722e-07,0.0,0.0,0.0,0.0,0.0,2.1143625,0.06095828,0.0,0.0
293300688,293200331,0.0003097519,0.0,0.0002353009,0.002446338,0.0,0.0,0.0,0.0,0.0,0.0,0.0,0.0,0.0,0.0012558362,0.0,0.0,nan,0.0,0.0,0.00013912827,0.0,0.0,0.0,0.0,0.0,2.1143625,0.054742355,0.0,0.0
293800879,293700377,0.0039223176,0.0,0.006494178,0.0017393064,0.0,0.0,0.0,0.0,0.0,0.0,0.0,0.0,0.0,0.0013624147,0.0,0.0,nan,0.0,0.0,0.000101884885,0.0,0.0,0.0,0.0,0.0,2.1143625,0.054540176,0.0,0.0
294300780,294200423,0.00063737674,0.0,0.0031110481,0.0017089527,0.0,0.0,0.0,0.0,0.0,0.0,0.0,0.0,0.0,0.0005674908,0.0,0.0,nan,0.0,0.0,5.1398012e-05,0.0,0.0,0.0,0.0,0.0,2.1143625,0.05598375,0.0,0.0
294800953,294700469,0.0005916919,0.0,0.0008099211,0.0013625906,0.0,0.0,0.0,0.0,0.0,0.0,0.0,0.0,0.0,0.035441477,0.0,0.0,nan,0.0,0.0,0.00074617314,0.0,0.0,0.0,0.0,0.0,2.1143625,0.04411654,0.0,0.0
295300867,295200514,0.0076259836,0.0,0.0014396344,0.00048166976,0.0,0.0,0.0,0.0,0.0,0.0,0.0,0.0,0.0,0.00043946292,0.0,0.0,nan,0.0,0.0,0.00030350816,0.0,0.0,0.0,0.0,0.0,2.1143625,0.04838286,0.0,0.0
295800931,295700559,0.0041358317,0.0,0.00029484523,0.00034199486,0.0,0.0,0.0,0.0,0.0,0.0,0.0,0.0,0.0,0.015445162,0.0,0.0,nan,0.0,0.0,0.00021148374,0.0,0.0,0.0,0.0,0.0,2.1143625,0.057562433,0.0,0.0
296301004,296200606,0.011742502,0.0,0.0055480013,0.00010495159,0.0,0.0,0.0,0.0,0.0,0.0,0.0,0.0,0.0,0.00037856636,0.0,0.0,nan,0.0,0.0,0.00033813115,0.0,0.0,0.0,0.0,0.0,2.1143625,0.058555,0.0,0.0
296801062,296700650,0.017033897,0.0,0.0004206456,0.00018581802,0.0,0.0,0.0,0.0,0.0,0.0,0.0,0.0,0.0,0.00067481206,0.0,0.0,nan,0.0,0.0,8.136492e-05,0.0,0.0,0.0,0.0,0.0,2.1143625,0.053688906,0.0,0.0
297301040,297200695,0.0010763231,0.0,0.0029437323,3.9865486e-06,0.0,0.0,0.0,0.0,0.0,0.0,0.0,0.0,0.0,0.0035970341,0.0,0.0,nan,0.0,0.0,0.00014152865,0.0,0.0,0.0,0.0,0.0,2.1143625,0.053513046,0.0,0.0
297801088,297700739,0.003946379,0.0,0.00758014,1.8400451e-05,0.0,0.0,0.0,0.0,0.0,0.0,0.0,0.0,0.0,0.008654072,0.0,0.0,nan,0.0,0.0,3.896352e-05,0.0,0.0,0.0,0.0,0.0,2.1143625,0.05351687,0.0,0.0
298301131,298200784,0.0053002634,0.0,0.0062727933,8.977961e-05,0.0,0.0,0.0,0.0,0.0,0.0,0.0,0.0,0.0,0.00023121828,0.0,0.0,nan,0.0,0.0,0.0003356024,0.0,0.0,0.0,0.0,0.0,2.1143625,0.05397821,0.0,0.0
298801331,298700829,0.0026865348,0.0,0.00012588108,0.00017813656,0.0,0.0,0.0,0.0,0.0,0.0,0.0,0.0,0.0,0.063500136,0.0,0.0,nan,0.0,0.0,0.00092588604,0.0,0.0,0.0,0.0,0.0,2.1143625,0.049467385,0.0,0.0
299301276,299200873,0.004083093,0.0,0.0024711785,0.0003968036,0.0,0.0,0.0,0.0,0.0,0.0,0.0,0.0,0.0,0.00087477185,0.0,0.0,nan,0.0,0.0,0.0012143354,0.0,0.0,0.0,0.0,0.0,2.1143625,0.04583645,0.0,0.0
299801302,299700917,0.0055324496,0.0,0.004951966,0.00181753,0.0,0.0,0.0,0.0,0.0,0.0,0.0,0.0,0.0,0.00011956743,0.0,0.0,nan,0.0,0.0,0.00079414475,0.0,0.0,0.0,0.0,0.0,2.1143625,0.043869138,0.0,0.0
300301364,300200962,0.00062955526,0.0,1.5438238e-05,0.00093833084,0.0,0.0,0.0,0.0,0.0,0.0,0.0,0.0,0.0,4.890967e-05,0.0,0.0,nan,0.0,0.0,5.4908538e-05,0.0,0.0,0.0,0.0,0.0,2.1143625,0.0552961,0.0,0.0
300801382,300701005,0.0053063757,0.0,0.005595928,0.0056020794,0.0,0.0,0.0,0.0,0.0,0.0,0.0,0.0,0.0,0.0041878466,0.0,0.0,nan,0.0,0.0,0.00112623,0.0,0.0,0.0,0.0,0.0,2.1143625,0.0620364,0.0,0.0
301301394,301201049,0.0054410957,0.0,0.0011522634,0.0014159982,0.0,0.0,0.0,0.0,0.0,0.0,0.0,0.0,0.0,0.0077814073,0.0,0.0,nan,0.0,0.0,0.0022798837,0.0,0.0,0.0,0.0,0.0,2.1143625,0.05181112,0.0,0.0
301801444,301701093,0.107078604,0.0,0.000272329,0.0011098658,0.0,0.0,0.0,0.0,0.0,0.0,0.0,0.0,0.0,0.005539729,0.0,0.0,nan,0.0,0.0,0.0,0.006588594,0.0,0.0,0.0,0.0,2.1143625,0.015074714,0.0,0.0
302301487,302201137,0.48497888,0.0,0.00021147559,0.0053523597,0.0,0.0,0.0,0.0,0.0,0.0,0.0,0.0,0.0,0.0018120904,0.0,0.0,nan,0.0,0.0,0.0,0.00074074254,0.0,0.0,0.0,0.0,2.1143625,0.032157004,0.0,0.0
302801551,302701180,0.20675112,0.0,0.001040555,0.0020048495,0.0,0.0,0.0,0.0,0.0,0.0,0.0,0.0,0.0,0.0014514962,0.0,0.0,nan,0.0,0.0,0.0,0.0066771107,0.0,0.0,0.0,0.0,2.1143625,0.033225376,0.0,0.0
303301609,303201224,0.018526,0.0,0.019770531,0.0012954309,0.0,0.0,0.0,0.0,0.0,0.0,0.0,0.0,0.0,0.012931667,0.0,0.0,nan,0.0,0.0,0.0,0.0444666,0.0,0.0,0.0,0.0,2.1143625,0.0270748,0.0,0.0
303801613,303701267,0.049854897,0.0,0.006104136,0.0039872266,0.0,0.0,0.0,0.0,0.0,0.0,0.0,0.0,0.0,0.00053905474,0.0,0.0,nan,0.0,0.0,0.0,0.046211623,0.0,0.0,0.0,0.0,2.1143625,0.011859769,0.0,0.0
304301684,304201310,0.028186215,0.0,0.024788309,0.0017256093,0.0,0.0,0.0,0.0,0.0,0.0,0.0,0.0,0.0,0.06369824,0.0,0.0,nan,0.0,0.0,0.0,0.030581122,0.0,0.0,0.0,0.0,2.1143625,0.008385821,0.0,0.0
304801709,304701353,0.02796808,0.0,0.00041742538,0.00024242573,0.0,0.0,0.0,0.0,0.0,0.0,0.0,0.0,0.0,0.017538698,0.0,0.0,nan,0.0,0.0,0.0,0.06260343,0.0,0.0,0.0,0.0,2.1143625,0.0039531463,0.0,0.0
305301912,305201396,0.045931157,0.0,0.004895669,0.000119875716,0.0,0.0,0.0,0.0,0.0,0.0,0.0,0.0,0.0,0.0017998702,0.0,0.0,nan,0.0,0.0,0.0,0.19337149,0.0,0.0,0.0,0.0,2.1143625,0.0011974967,0.0,0.0
305801844,305701439,0.023977187,0.0,0.009476226,0.0043995325,0.0,0.0,0.0,0.0,0.0,0.0,0.0,0.0,0.0,0.014157917,0.0,0.0,nan,0.0,0.0,0.0,0.15600352,0.0,0.0,0.0,0.0,2.1143625,0.0005176401,0.0,0.0
306301856,306201482,0.2174648,0.0,0.012705558,0.0018504914,0.0,0.0,0.0,0.0,0.0,0.0,0.0,0.0,0.0,0.00095996127,0.0,0.0,nan,0.0,0.0,0.0,0.028277187,0.0,0.0,0.0,0.0,2.1143625,0.0064732963,0.0,0.0
306806902,306701524,0.26630756,0.0,0.030635258,0.0025854418,0.0,0.0,0.0,0.0,0.0,0.0,0.0,0.0,0.0,0.011389066,0.0,0.0,nan,0.0,0.0,0.0,0.033461906,0.0,0.0,0.0,0.0,2.1143625,0.0050532566,0.0,0.0
307301930,307201566,0.088044114,0.0,0.022555118,0.0013921136,0.0,0.0,0.0,0.0,0.0,0.0,0.0,0.0,0.0,0.00016515113,0.0,0.0,nan,0.0,0.0,0.0,0.022620892,0.0,0.0,0.0,0.0,2.1143625,0.0060477024,0.0,0.0
307801963,307701609,0.05479542,0.0,0.0015689892,0.0044554793,0.0,0.0,0.0,0.0,0.0,0.0,0.0,0.0,0.0,0.07034228,0.0,0.0,nan,0.0,0.0,0.0,0.025286498,0.0,0.0,0.0,0.0,2.1143625,0.0060957763,0.0,0.0
308302009,308201651,0.054897644,0.0,0.002447515,0.0006886352,0.0,0.0,0.0,0.0,0.0,0.0,0.0,0.0,0.0,0.0037761624,0.0,0.0,nan,0.0,0.0,0.0,0.11218493,0.0,0.0,0.0,0.0,2.1143625,0.0068727387,0.0,0.0
308802046,308701693,0.016370276,0.0,0.010118981,0.0011862075,0.0,0.0,0.0,0.0,0.0,0.0,0.0,0.0,0.0,0.0066981427,0.0,0.0,nan,0.0,0.0,0.0,0.22169174,0.0,0.0,0.0,0.0,2.1143625,0.0066589504,0.0,0.0
309302125,309201735,0.00921585,0.0,0.00066406233,0.0003427694,0.0,0.0,0.0,0.0,0.0,0.0,0.0,0.0,0.0,0.0031405455,0.0,0.0,nan,0.0,0.0,0.0,0.25518516,0.0,0.0,0.0,0.0,2.1143625,0.0021879692,0.0,0.0
309802148,309701776,0.02420444,0.0,0.0005061507,0.0010349213,0.0,0.0,0.0,0.0,0.0,0.0,0.0,0.0,0.0,0.0069771023,0.0,0.0,nan,0.0,0.0,0.0,0.17646286,0.0,0.0,0.0,0.0,2.1143625,0.003584297,0.0,0.0
310302380,310201818,0.09482779,0.0,0.007849434,0.0001916483,0.0,0.0,0.0,0.0,0.0,0.0,0.0,0.0,0.0,0.006517871,0.0,0.0,nan,0.0,0.0,0.0,0.15963875,0.0,0.0,0.0,0.0,2.1143625,0.0063026263,0.0,0.0
310802235,310701860,0.13674712,0.0,0.008033327,9.188116e-05,0.0,0.0,0.0,0.0,0.0,0.0,0.0,0.0,0.0,0.011345303,0.0,0.0,nan,0.0,0.0,0.0,0.13657568,0.0,0.0,0.0,0.0,2.1143625,0.018483113,0.0,0.0
311302327,311201901,0.021592217,0.0,0.007233967,0.0001286633,0.0,0.0,0.0,0.0,0.0,0.0,0.0,0.0,0.0,0.0069970125,0.0,0.0,nan,0.0,0.0,0.0,0.23029862,0.0,0.0,0.0,0.0,2.1143625,0.027761718,0.0,0.0
311802474,311701942,0.028675979,0.0,0.00043414888,5.5572316e-05,0.0,0.0,0.0,0.0,0.0,0.0,0.0,0.0,0.0,0.0044917217,0.0,0.0,nan,0.0,0.0,0.0,0.25807387,0.0,0.0,0.0,0.0,2.1143625,0.025622787,0.0,0.0
312302481,312201983,0.0012584488,0.0,0.00017077323,0.00010171759,0.0,0.0,0.0,0.0,0.0,0.0,0.0,0.0,0.0,0.002324636,0.0,0.0,nan,0.0,0.0,0.0,0.22362828,0.0,0.0,0.0,0.0,2.1143625,0.038170222,0.0,0.0
312802380,312702024,0.015170046,0.0,0.0022008235,0.00028609714,0.0,0.0,0.0,0.0,0.0,0.0,0.0,0.0,0.0,0.0011951185,0.0,0.0,nan,0.0,0.0,0.0,0.117905706,0.0,0.0,0.0,0.0,2.1143625,0.047431044,0.0,0.0
313302645,313202065,0.010978529,0.0,0.023810463,0.00068755733,0.0,0.0,0.0,0.0,0.0,0.0,0.0,0.0,0.0,0.0023966227,0.0,0.0,nan,0.0,0.0,0.0,0.15143324,0.0,0.0,0.0,0.0,2.1143625,0.06286029,0.0,0.0
313802464,313702106,0.010070235,0.0,0.0018360006,0.0011404094,0.0,0.0,0.0,0.0,0.0,0.0,0.0,0.0,0.0,0.0012139904,0.0,0.0,nan,0.0,0.0,0.0,0.19449015,0.0,0.0,0.0,0.0,2.1143625,0.06695198,0.0,0.0
314302577,314202147,0.015989011,0.0,0.0072823423,0.0015378267,0.0,0.0,0.0,0.0,0.0,0.0,0.0,0.0,0.0,0.0001839908,0.0,0.0,nan,0.0,0.0,0.0,0.050108522,0.0,0.0,0.0,0.0,2.1143625,0.067477226,0.0,0.0
314802579,314702188,0.011370642,0.0,0.0002745783,0.0017834762,0.0,0.0,0.0,0.0,0.0,0.0,0.0,0.0,0.0,5.972514e-05,0.0,0.0,nan,0.0,0.0,0.0,0.055112213,0.0,0.0,0.0,0.0,2.1143625,0.06292911,0.0,0.0
315302628,315202229,0.011352888,0.0,0.00015242712,0.0030182095,0.0,0.0,0.0,0.0,0.0,0.0,0.0,0.0,0.0,5.5879864e-06,0.0,0.0,nan,0.0,0.0,0.0,0.058177844,0.0,0.0,0.0,0.0,2.1143625,0.045803484,0.0,0.0
315802694,315702269,0.014346521,0.0,0.0026032578,0.0018135925,0.0,0.0,0.0,0.0,0.0,0.0,0.0,0.0,0.0,2.6018233e-06,0.0,0.0,nan,0.0,0.0,0.0,0.051766463,0.0,0.0,0.0,0.0,2.1143625,0.038886774,0.0,0.0
316302742,316202309,0.015951868,0.0,0.0012444091,0.0022752085,0.0,0.0,0.0,0.0,0.0,0.0,0.0,0.0,0.0,0.00024603013,0.0,0.0,nan,0.0,0.0,0.0,0.040880818,0.0,0.0,0.0,0.0,2.1143625,0.04498789,0.0,0.0
316802755,316702350,0.012769342,0.0,7.5143e-05,0.0032293452,0.0,0.0,0.0,0.0,0.0,0.0,0.0,0.0,0.0,0.00018288591,0.0,0.0,nan,0.0,0.0,0.008990544,0.0,0.0,0.0,0.0,0.0,2.1143625,0.043117736,0.0,0.0
317302810,317202390,0.018613005,0.0,0.00010010127,0.0019408982,0.0,0.0,0.0,0.0,0.0,0.0,0.0,0.0,0.0,0.00048844685,0.0,0.0,nan,0.0,0.0,0.00671815,0.0,0.0,0.0,0.0,0.0,2.1143625,0.028905103,0.0,0.0
317802783,317702430,0.0032435774,0.0,1.3073498e-05,0.0020907323,0.0,0.0,0.0,0.0,0.0,0.0,0.0,0.0,0.0,0.0005806757,0.0,0.0,nan,0.0,0.0,0.0041465517,0.0,0.0,0.0,0.0,0.0,2.1143625,0.033197977,0.0,0.0
318303019,318202470,0.049335405,0.0,0.0019215737,0.0023618813,0.0,0.0,0.0,0.0,0.0,0.0,0.0,0.0,0.0,4.1822917e-05,0.0,0.0,nan,0.0,0.0,0.0,0.060782053,0.0,0.0,0.0,0.0,2.1143625,0.07847116,0.0,0.0
318802906,318702516,0.04231838,0.0,0.011525267,0.0027000268,0.0,0.0,0.0,0.0,0.0,0.0,0.0,0.0,0.0,0.0016402255,0.0,0.0,nan,0.0,0.0,0.0,0.061483823,0.0,0.0,0.0,0.0,2.1143625,0.045078937,0.0,0.0
319302962,319202551,0.020510036,0.0,0.0022499338,0.0031246769,0.0,0.0,0.0,0.0,0.0,0.0,0.0,0.0,0.0,0.0028672607,0.0,0.0,nan,0.0,0.0,0.0,0.064598456,0.0,0.0,0.0,0.0,2.1143625,0.0008300682,0.0,0.0
319802950,319702590,0.08420014,0.0,0.0010960059,0.0025178266,0.0,0.0,0.0,0.0,0.0,0.0,0.0,0.0,0.0,0.0025948465,0.0,0.0,nan,0.0,0.0,0.0,0.04194999,0.0,0.0,0.0,0.0,2.1143625,8.8340064e-05,0.0,0.0
320303015,320202630,0.15073481,0.0,0.00064694823,0.0025664552,0.0,0.0,0.0,0.0,0.0,0.0,0.0,0.0,0.0,0.006015926,0.0,0.0,nan,0.0,0.0,0.0,0.10553709,0.0,0.0,0.0,0.0,2.1143625,0.008245835,0.0,0.0
320803026,320702670,0.282101,0.0,0.0017241868,0.0013392981,0.0,0.0,0.0,0.0,0.0,0.0,0.0,0.0,0.0,0.008232211,0.0,0.0,nan,0.0,0.0,0.0,0.029825544,0.0,0.0,0.0,0.0,2.1143625,0.015317441,0.0,0.0
321303094,321202712,0.060579523,0.0,0.0019496346,0.001177338,0.0,0.0,0.0,0.0,0.0,0.0,0.0,0.0,0.0,0.0012184425,0.0,0.0,nan,0.0,0.0,0.0,0.029409368,0.0,0.0,0.0,0.0,2.1143625,0.06766791,0.0,0.0
321803137,321702749,0.018704468,0.0,0.036940634,0.002807039,0.0,0.0,0.0,0.0,0.0,0.0,0.0,0.0,0.0,0.12297104,0.0,0.0,nan,0.0,0.0,0.0,0.0038636308,0.0,0.0,0.0,0.0,2.1143625,0.098334566,0.0,0.0
322303154,322202789,0.032429315,0.0,0.017321236,0.0023514135,0.0,0.0,0.0,0.0,0.0,0.0,0.0,0.0,0.0,0.025253208,0.0,0.0,nan,0.0,0.0,0.0,0.019804196,0.0,0.0,0.0,0.0,2.1143625,0.06871726,0.0,0.0
322803188,322702828,0.051516347,0.0,0.02279715,0.0026037602,0.0,0.0,0.0,0.0,0.0,0.0,0.0,0.0,0.0,0.00030200192,0.0,0.0,nan,0.0,0.0,0.0,0.05223284,0.0,0.0,0.0,0.0,2.1143625,0.023316292,0.0,0.0
323303422,323202868,0.022665067,0.0,0.020769814,0.0022409635,0.0,0.0,0.0,0.0,0.0,0.0,0.0,0.0,0.0,0.0059701274,0.0,0.0,nan,0.0,0.0,0.0,0.031286664,0.0,0.0,0.0,0.0,2.1143625,0.014685063,0.0,0.0
323803292,323702907,0.037212577,0.0,0.0017453315,0.00087447296,0.0,0.0,0.0,0.0,0.0,0.0,0.0,0.0,0.0,0.064187735,0.0,0.0,nan,0.0,0.0,0.0,0.011974342,0.0,0.0,0.0,0.0,2.1143625,0.01318757,0.0,0.0
324303300,324202947,0.003355609,0.0,0.009234627,0.0016180532,0.0,0.0,0.0,0.0,0.0,0.0,0.0,0.0,0.0,0.0054855417,0.0,0.0,nan,0.0,0.0,0.0,0.007013098,0.0,0.0,0.0,0.0,2.1143625,0.027194766,0.0,0.0
324803335,324702986,0.007748263,0.0,0.00095281977,0.0005330717,0.0,0.0,0.0,0.0,0.0,0.0,0.0,0.0,0.0,0.0027025028,0.0,0.0,nan,0.0,0.0,0.0,0.0046652104,0.0,0.0,0.0,0.0,2.1143625,0.022041813,0.0,0.0
325303402,325203025,0.0012348805,0.0,0.014239973,0.0006809191,0.0,0.0,0.0,0.0,0.0,0.0,0.0,0.0,0.0,0.0103068445,0.0,0.0,nan,0.0,0.0,0.0,0.0056079915,0.0,0.0,0.0,0.0,2.1143625,0.01563176,0.0,0.0
325803495,325703065,0.000424928,0.0,0.0004560476,0.005201457,0.0,0.0,0.0,0.0,0.0,0.0,0.0,0.0,0.0,0.0028762843,0.0,0.0,nan,0.0,0.0,0.0,0.0073241526,0.0,0.0,0.0,0.0,2.1143625,0.024850968,0.0,0.0
326303468,326203104,0.002180566,0.0,0.0031372425,0.0007034839,0.0,0.0,0.0,0.0,0.0,0.0,0.0,0.0,0.0,0.002970223,0.0,0.0,nan,0.0,0.0,0.0,0.006200821,0.0,0.0,0.0,0.0,2.1143625,0.024588754,0.0,0.0
326803511,326703143,0.011192416,0.0,3.3291984e-05,0.0005189574,0.0,0.0,0.0,0.0,0.0,0.0,0.0,0.0,0.0,0.010451663,0.0,0.0,nan,0.0,0.0,0.0,0.015117544,0.0,0.0,0.0,0.0,2.1143625,0.02393919,0.0,0.0
327303551,327203182,0.0020331894,0.0,0.00018263314,0.0005018493,0.0,0.0,0.0,0.0,0.0,0.0,0.0,0.0,0.0,0.07311687,0.0,0.0,nan,0.0,0.0,0.0,0.009879564,0.0,0.0,0.0,0.0,2.1143625,0.030377528,0.0,0.0
327803574,327703222,0.0053582294,0.0,0.00018545691,0.00035638537,0.0,0.0,0.0,0.0,0.0,0.0,0.0,0.0,0.0,0.0019940056,0.0,0.0,nan,0.0,0.0,0.00072338607,0.0,0.0,0.0,0.0,0.0,2.1143625,0.027574442,0.0,0.0
328303618,328203261,0.0028780675,0.0,0.002640466,0.0046078465,0.0,0.0,0.0,0.0,0.0,0.0,0.0,0.0,0.0,0.0025569736,0.0,0.0,nan,0.0,0.0,0.0011378075,0.0,0.0,0.0,0.0,0.0,2.1143625,0.02634437,0.0,0.0
328803678,328703300,0.0007053584,0.0,0.022044184,0.00015539405,0.0,0.0,0.0,0.0,0.0,0.0,0.0,0.0,0.0,0.002143655,0.0,0.0,nan,0.0,0.0,0.001022378,0.0,0.0,0.0,0.0,0.0,2.1143625,0.020069942,0.0,0.0
329303723,329203339,0.00015568564,0.0,0.0034515066,0.00015008338,0.0,0.0,0.0,0.0,0.0,0.0,0.0,0.0,0.0,0.0012244463,0.0,0.0,nan,0.0,0.0,0.0005852862,0.0,0.0,0.0,0.0,0.0,2.1143625,0.018613905,0.0,0.0
329803789,329703378,0.001954948,0.0,0.00030006844,0.0023129908,0.0,0.0,0.0,0.0,0.0,0.0,0.0,0.0,0.0,0.028613782,0.0,0.0,nan,0.0,0.0,0.0011399216,0.0,0.0,0.0,0.0,0.0,2.1143625,0.022387745,0.0,0.0
330303820,330203417,0.00078066124,0.0,0.001538436,0.0021771668,0.0,0.0,0.0,0.0,0.0,0.0,0.0,0.0,0.0,0.013053533,0.0,0.0,nan,0.0,0.0,0.0023571248,0.0,0.0,0.0,0.0,0.0,2.1143625,0.018440206,0.0,0.0
330803840,330703455,0.00012006555,0.0,0.0024159534,0.0028720135,0.0,0.0,0.0,0.0,0.0,0.0,0.0,0.0,0.0,0.03480279,0.0,0.0,nan,0.0,0.0,0.00078287843,0.0,0.0,0.0,0.0,0.0,2.1143625,0.015044148,0.0,0.0
331303891,331203494,0.001845127,0.0,1.5087725e-05,0.0001293734,0.0,0.0,0.0,0.0,0.0,0.0,0.0,0.0,0.0,0.0030357263,0.0,0.0,nan,0.0,0.0,0.0011623038,0.0,0.0,0.0,0.0,0.0,2.1143625,0.015954567,0.0,0.0
331803885,331703533,0.00862832,0.0,0.004782698,0.0003657059,0.0,0.0,0.0,0.0,0.0,0.0,0.0,0.0,0.0,0.0026949386,0.0,0.0,nan,0.0,0.0,0.0010810662,0.0,0.0,0.0,0.0,0.0,2.1143625,0.015412778,0.0,0.0
332303916,332203572,0.0020204636,0.0,0.00070880004,0.00017397672,0.0,0.0,0.0,0.0,0.0,0.0,0.0,0.0,0.0,0.045258414,0.0,0.0,nan,0.0,0.0,0.0010019165,0.0,0.0,0.0,0.0,0.0,2.1143625,0.013069203,0.0,0.0
332803960,332703610,0.0010421833,0.0,0.0019162212,0.0021699697,0.0,0.0,0.0,0.0,0.0,0.0,0.0,0.0,0.0,0.012233954,0.0,0.0,nan,0.0,0.0,0.000603924,0.0,0.0,0.0,0.0,0.0,2.1143625,0.009694772,0.0,0.0
333303998,333203649,0.007869936,0.0,1.4054895e-07,0.00022772497,0.0,0.0,0.0,0.0,0.0,0.0,0.0,0.0,0.0,0.03334537,0.0,0.0,nan,0.0,0.0,0.0021448315,0.0,0.0,0.0,0.0,0.0,2.1143625,0.013099384,0.0,0.0
333804035,333703688,0.00012744105,0.0,0.00082112127,9.3268114e-05,0.0,0.0,0.0,0.0,0.0,0.0,0.0,0.0,0.0,0.021092275,0.0,0.0,nan,0.0,0.0,0.0014880298,0.0,0.0,0.0,0.0,0.0,2.1143625,0.012703618,0.0,0.0
334304073,334203726,0.0021425397,0.0,0.0001242957,0.0020912804,0.0,0.0,0.0,0.0,0.0,0.0,0.0,0.0,0.0,0.00020734778,0.0,0.0,nan,0.0,0.0,0.0013564625,0.0,0.0,0.0,0.0,0.0,2.1143625,0.011474617,0.0,0.0
334804284,334703765,0.002567502,0.0,0.0018961547,0.0016558684,0.0,0.0,0.0,0.0,0.0,0.0,0.0,0.0,0.0,0.015169104,0.0,0.0,nan,0.0,0.0,0.0013612086,0.0,0.0,0.0,0.0,0.0,2.1143625,0.011788189,0.0,0.0
335304180,335203803,0.0031688001,0.0,0.004847317,8.3576815e-05,0.0,0.0,0.0,0.0,0.0,0.0,0.0,0.0,0.0,0.08812322,0.0,0.0,nan,0.0,0.0,0.0010867377,0.0,0.0,0.0,0.0,0.0,2.1143625,0.011980128,0.0,0.0
335804287,335703842,0.008851479,0.0,0.0104185995,0.00014524245,0.0,0.0,0.0,0.0,0.0,0.0,0.0,0.0,0.0,5.099839e-07,0.0,0.0,nan,0.0,0.0,4.9530167e-06,0.0,0.0,0.0,0.0,0.0,2.1143625,0.008812705,0.0,0.0
336304284,336203880,0.0029129172,0.0,0.0010804553,0.0021828741,0.0,0.0,0.0,0.0,0.0,0.0,0.0,0.0,0.0,0.01251248,0.0,0.0,nan,0.0,0.0,0.00042768463,0.0,0.0,0.0,0.0,0.0,2.1143625,0.008123179,0.0,0.0
336804457,336703919,0.0061723217,0.0,0.0005144535,0.00405936,0.0,0.0,0.0,0.0,0.0,0.0,0.0,0.0,0.0,0.0055063968,0.0,0.0,nan,0.0,0.0,0.00066754554,0.0,0.0,0.0,0.0,0.0,2.1143625,0.011797389,0.0,0.0
337304313,337203959,0.025430052,0.0,1.3681843e-05,0.0031559032,0.0,0.0,0.0,0.0,0.0,0.0,0.0,0.0,0.0,0.0005929688,0.0,0.0,nan,0.0,0.0,0.0,0.120210454,0.0,0.0,0.0,0.0,2.1143625,0.007363142,0.0,0.0
337804388,337703996,0.05257427,0.0,0.0046800906,0.004504655,0.0,0.0,0.0,0.0,0.0,0.0,0.0,0.0,0.0,0.0021923527,0.0,0.0,nan,0.0,0.0,0.0,0.16286354,0.0,0.0,0.0,0.0,2.1143625,0.0111803925,0.0,0.0
338304383,338204034,0.056353625,0.0,0.00029385413,0.0018691348,0.0,0.0,0.0,0.0,0.0,0.0,0.0,0.0,0.0,0.0028736268,0.0,0.0,nan,0.0,0.0,0.0,0.24167214,0.0,0.0,0.0,0.0,2.1143625,0.014324438,0.0,0.0
338804486,338704072,0.0020664083,0.0,0.004900912,0.009737585,0.0,0.0,0.0,0.0,0.0,0.0,0.0,0.0,0.0,0.042761274,0.0,0.0,nan,0.0,0.0,0.0,0.2864975,0.0,0.0,0.0,0.0,2.1143625,0.010605181,0.0,0.0
339304539,339204110,0.049253304,0.0,0.0046365326,0.0048078443,0.0,0.0,0.0,0.0,0.0,0.0,0.0,0.0,0.0,0.013089481,0.0,0.0,nan,0.0,0.0,0.0,0.27315265,0.0,0.0,0.0,0.0,2.1143625,0.018035958,0.0,0.0
339804547,339704148,0.051327463,0.0,0.0020091047,0.0028136105,0.0,0.0,0.0,0.0,0.0,0.0,0.0,0.0,0.0,0.00026088496,0.0,0.0,nan,0.0,0.0,0.0,0.24253266,0.0,0.0,0.0,0.0,2.1143625,0.022405349,0.0,0.0
340304538,340204187,0.09238387,0.0,0.0070035974,0.003355598,0.0,0.0,0.0,0.0,0.0,0.0,0.0,0.0,0.0,0.008395012,0.0,0.0,nan,0.0,0.0,0.0,0.2539631,0.0,0.0,0.0,0.0,2.1143625,0.019755559,0.0,0.0
340804625,340704225,0.014941878,0.0,0.0402514,0.002332469,0.0,0.0,0.0,0.0,0.0,0.0,0.0,0.0,0.0,0.0034127396,0.0,0.0,nan,0.0,0.0,0.0,0.23477258,0.0,0.0,0.0,0.0,2.1143625,0.022133617,0.0,0.0
341304808,341204263,0.008777708,0.0,0.0015612099,0.0015383874,0.0,0.0,0.0,0.0,0.0,0.0,0.0,0.0,0.0,2.7725924e-05,0.0,0.0,nan,0.0,0.0,0.0,0.23617448,0.0,0.0,0.0,0.0,2.1143625,0.013193995,0.0,0.0
341804753,341704301,0.016860867,0.0,5.853237e-06,0.0011011843,0.0,0.0,0.0,0.0,0.0,0.0,0.0,0.0,0.0,0.021357162,0.0,0.0,nan,0.0,0.0,0.0,0.22561714,0.0,0.0,0.0,0.0,2.1143625,0.016712973,0.0,0.0
342304694,342204339,0.0048575965,0.0,0.0012375504,0.0006915569,0.0,0.0,0.0,0.0,0.0,0.0,0.0,0.0,0.0,0.0070418674,0.0,0.0,nan,0.0,0.0,0.0,0.22640988,0.0,0.0,0.0,0.0,2.1143625,0.016449587,0.0,0.0
342804970,342704377,0.0015917633,0.0,0.0033825294,0.00053442013,0.0,0.0,0.0,0.0,0.0,0.0,0.0,0.0,0.0,0.027235063,0.0,0.0,nan,0.0,0.0,0.0,0.1638243,0.0,0.0,0.0,0.0,2.1143625,0.0074825776,0.0,0.0
343304803,343204414,0.0003569348,0.0,0.009276096,0.004882192,0.0,0.0,0.0,0.0,0.0,0.0,0.0,0.0,0.0,0.026847133,0.0,0.0,nan,0.0,0.0,0.0,0.17456025,0.0,0.0,0.0,0.0,2.1143625,0.0022264614,0.0,0.0
343804828,343704452,0.028983483,0.0,0.003487582,0.005474208,0.0,0.0,0.0,0.0,0.0,0.0,0.0,0.0,0.0,0.009880709,0.0,0.0,nan,0.0,0.0,0.0,0.16007237,0.0,0.0,0.0,0.0,2.1143625,0.0011538828,0.0,0.0
344304850,344204490,0.0051414203,0.0,0.007755611,0.007922006,0.0,0.0,0.0,0.0,0.0,0.0,0.0,0.0,0.0,0.010675349,0.0,0.0,nan,0.0,0.0,0.0,0.09827594,0.0,0.0,0.0,0.0,2.1143625,0.0005881694,0.0,0.0
344804910,344704528,0.005776479,0.0,0.0051442594,0.003509263,0.0,0.0,0.0,0.0,0.0,0.0,0.0,0.0,0.0,0.0057538017,0.0,0.0,nan,0.0,0.0,0.0,0.10725609,0.0,0.0,0.0,0.0,2.1143625,0.00022009066,0.0,0.0
345304945,345204565,0.007823491,0.0,0.00528096,0.0078071677,0.0,0.0,0.0,0.0,0.0,0.0,0.0,0.0,0.0,0.01622904,0.0,0.0,nan,0.0,0.0,0.0,0.08823592,0.0,0.0,0.0,0.0,2.1143625,3.6829315e-05,0.0,0.0
345804985,345704603,0.0071534314,0.0,0.004781581,0.003965183,0.0,0.0,0.0,0.0,0.0,0.0,0.0,0.0,0.0,4.5786883e-06,0.0,0.0,nan,0.0,0.0,0.0,0.03657594,0.0,0.0,0.0,0.0,2.1143625,0.0003715989,0.0,0.0
346304985,346204641,0.015036222,0.0,0.0042848615,0.0043017482,0.0,0.0,0.0,0.0,0.0,0.0,0.0,0.0,0.0,0.008464109,0.0,0.0,nan,0.0,0.0,0.0,0.0322561,0.0,0.0,0.0,0.0,2.1143625,0.00058821344,0.0,0.0
346805028,346704683,0.03306243,0.0,0.00227361,0.0032380936,0.0,0.0,0.0,0.0,0.0,0.0,0.0,0.0,0.0,0.03466598,0.0,0.0,nan,0.0,0.0,0.0,0.018680835,0.0,0.0,0.0,0.0,2.1143625,0.0018011407,0.0,0.0
347305064,347204716,0.0016234836,0.0,0.012869075,0.004504225,0.0,0.0,0.0,0.0,0.0,0.0,0.0,0.0,0.0,0.00019734126,0.0,0.0,nan,0.0,0.0,0.0,0.036171645,0.0,0.0,0.0,0.0,2.1143625,0.0034499792,0.0,0.0
347805321,347704753,0.056896705,0.0,0.005192084,0.007913244,0.0,0.0,0.0,0.0,0.0,0.0,0.0,0.0,0.0,0.00069787866,0.0,0.0,nan,0.0,0.0,0.0,0.027385643,0.0,0.0,0.0,0.0,2.1143625,0.00580923,0.0,0.0
348305179,348204791,0.003943475,0.0,0.000379108,0.0030527525,0.0,0.0,0.0,0.0,0.0,0.0,0.0,0.0,0.0,0.014212144,0.0,0.0,nan,0.0,0.0,0.0,0.023951786,0.0,0.0,0.0,0.0,2.1143625,0.007325073,0.0,0.0
348805216,348704828,0.030209986,0.0,0.0024980018,0.0016113283,0.0,0.0,0.0,0.0,0.0,0.0,0.0,0.0,0.0,0.0029556209,0.0,0.0,nan,0.0,0.0,0.0,0.010474113,0.0,0.0,0.0,0.0,2.1143625,0.0073004887,0.0,0.0
349305222,349204865,0.034010474,0.0,0.0015737576,0.0025700396,0.0,0.0,0.0,0.0,0.0,0.0,0.0,0.0,0.0,0.00019576903,0.0,0.0,nan,0.0,0.0,0.0,0.013801906,0.0,0.0,0.0,0.0,2.1143625,0.006600905,0.0,0.0
349805265,349704903,0.008271619,0.0,8.113285e-05,0.0014466884,0.0,0.0,0.0,0.0,0.0,0.0,0.0,0.0,0.0,0.009670733,0.0,0.0,nan,0.0,0.0,0.0,0.060528565,0.0,0.0,0.0,0.0,2.1143625,0.0083468035,0.0,0.0
350305297,350204940,0.053535126,0.0,0.00707972,0.00082748977,0.0,0.0,0.0,0.0,0.0,0.0,0.0,0.0,0.0,0.00014349958,0.0,0.0,nan,0.0,0.0,0.0,0.021593276,0.0,0.0,0.0,0.0,2.1143625,0.0075325854,0.0,0.0
350805399,350704977,0.026118686,0.0,0.010970327,0.00080247014,0.0,0.0,0.0,0.0,0.0,0.0,0.0,0.0,0.0,0.01689219,0.0,0.0,nan,0.0,0.0,0.0,0.015901498,0.0,0.0,0.0,0.0,2.1143625,0.009370376,0.0,0.0
351305377,351205014,0.051254056,0.0,0.015403222,0.0007250653,0.0,0.0,0.0,0.0,0.0,0.0,0.0,0.0,0.0,0.00040459872,0.0,0.0,nan,0.0,0.0,0.0,0.009068668,0.0,0.0,0.0,0.0,2.1143625,0.008664984,0.0,0.0
351805447,351705051,0.008687466,0.0,0.0037652892,0.0022979244,0.0,0.0,0.0,0.0,0.0,0.0,0.0,0.0,0.0,0.048123274,0.0,0.0,nan,0.0,0.0,0.0,0.013605328,0.0,0.0,0.0,0.0,2.1143625,0.009637144,0.0,0.0
352305472,352205088,0.014016192,0.0,0.010704988,0.002392864,0.0,0.0,0.0,0.0,0.0,0.0,0.0,0.0,0.0,0.0033399137,0.0,0.0,nan,0.0,0.0,0.0,0.013672355,0.0,0.0,0.0,0.0,2.1143625,0.009653999,0.0,0.0
352805678,352705125,0.0010522723,0.0,0.00086702756,0.00068292103,0.0,0.0,0.0,0.0,0.0,0.0,0.0,0.0,0.0,1.0808051e-07,0.0,0.0,nan,0.0,0.0,0.0,0.017346665,0.0,0.0,0.0,0.0,2.1143625,0.007392259,0.0,0.0
353305539,353205162,0.003058647,0.0,5.0764538e-05,0.0023340732,0.0,0.0,0.0,0.0,0.0,0.0,0.0,0.0,0.0,0.018213872,0.0,0.0,nan,0.0,0.0,0.0,0.018278217,0.0,0.0,0.0,0.0,2.1143625,0.005596263,0.0,0.0
353805552,353705199,0.008226551,0.0,0.0019219648,0.003998849,0.0,0.0,0.0,0.0,0.0,0.0,0.0,0.0,0.0,0.00045869418,0.0,0.0,nan,0.0,0.0,0.0,0.015199416,0.0,0.0,0.0,0.0,2.1143625,0.005150792,0.0,0.0
354305731,354205236,0.0006508509,0.0,0.0008863685,0.007896957,0.0,0.0,0.0,0.0,0.0,0.0,0.0,0.0,0.0,0.029922467,0.0,0.0,nan,0.0,0.0,0.0,0.012980865,0.0,0.0,0.0,0.0,2.1143625,0.003302474,0.0,0.0
354805632,354705272,0.0043171383,0.0,0.003162659,0.0034447357,0.0,0.0,0.0,0.0,0.0,0.0,0.0,0.0,0.0,0.0016471177,0.0,0.0,nan,0.0,0.0,0.0,0.013975288,0.0,0.0,0.0,0.0,2.1143625,0.0019409162,0.0,0.0
355305699,355205309,0.006720061,0.0,0.0056875013,0.0035519777,0.0,0.0,0.0,0.0,0.0,0.0,0.0,0.0,0.0,1.087324e-07,0.0,0.0,nan,0.0,0.0,0.0,0.009490706,0.0,0.0,0.0,0.0,2.1143625,0.0015085692,0.0,0.0
355805723,355705346,0.006829978,0.0,0.0006142462,0.0037471738,0.0,0.0,0.0,0.0,0.0,0.0,0.0,0.0,0.0,0.05703418,0.0,0.0,nan,0.0,0.0,0.0,0.012660628,0.0,0.0,0.0,0.0,2.1143625,0.00064847537,0.0,0.0
356305739,356205382,8.202222e-05,0.0,0.0028880406,0.004068037,0.0,0.0,0.0,0.0,0.0,0.0,0.0,0.0,0.0,0.012548595,0.0,0.0,nan,0.0,0.0,0.0,0.011964951,0.0,0.0,0.0,0.0,2.1143625,0.00063627475,0.0,0.0
356805782,356705418,0.033229966,0.0,0.0013645452,0.0046554115,0.0,0.0,0.0,0.0,0.0,0.0,0.0,0.0,0.0,0.027480133,0.0,0.0,nan,0.0,0.0,0.0,0.013708521,0.0,0.0,0.0,0.0,2.1143625,0.00026987583,0.0,0.0
357305858,357205455,0.0039492412,0.0,0.013068909,0.0044006645,0.0,0.0,0.0,0.0,0.0,0.0,0.0,0.0,0.0,0.0063185976,0.0,0.0,nan,0.0,0.0,0.0,0.007827704,0.0,0.0,0.0,0.0,2.1143625,0.00028920826,0.0,0.0
357805851,357705491,0.0077891266,0.0,0.0012921608,0.0050995047,0.0,0.0,0.0,0.0,0.0,0.0,0.0,0.0,0.0,0.0069338065,0.0,0.0,nan,0.0,0.0,0.0,0.005475575,0.0,0.0,0.0,0.0,2.1143625,7.537038e-05,0.0,0.0
358305887,358205528,0.0060119173,0.0,0.00033154464,0.0021716405,0.0,0.0,0.0,0.0,0.0,0.0,0.0,0.0,0.0,0.0028701806,0.0,0.0,nan,0.0,0.0,0.0,0.006249936,0.0,0.0,0.0,0.0,2.1143625,0.0017747616,0.0,0.0
358805930,358705564,0.0041707205,0.0,0.0024753264,0.004726368,0.0,0.0,0.0,0.0,0.0,0.0,0.0,0.0,0.0,0.0068709394,0.0,0.0,nan,0.0,0.0,0.0,0.0029066212,0.0,0.0,0.0,0.0,2.1143625,0.0050993445,0.0,0.0
359306170,359205600,0.037039496,0.0,0.020113526,0.005184361,0.0,0.0,0.0,0.0,0.0,0.0,0.0,0.0,0.0,0.0004389521,0.0,0.0,nan,0.0,0.0,0.0,0.038556475,0.0,0.0,0.0,0.0,2.1143625,0.009278909,0.0,0.0
359806005,359705636,0.010562976,0.0,0.0025008975,0.005296389,0.0,0.0,0.0,0.0,0.0,0.0,0.0,0.0,0.0,0.054241043,0.0,0.0,nan,0.0,0.0,0.0,0.03834078,0.0,0.0,0.0,0.0,2.1143625,0.019494615,0.0,0.0
360296096,360195672,0.0026543934,0.0,0.031135889,0.007408407,0.0,0.0,0.0,0.0,0.0,0.0,0.0,0.0,0.0,0.005190246,0.0,0.0,nan,0.0,0.0,0.0,0.02543045,0.0,0.0,0.0,0.0,2.1143625,0.01635042,0.0,0.0
360806254,360705709,0.0024727655,0.0,0.00012888489,0.0024558103,0.0,0.0,0.0,0.0,0.0,0.0,0.0,0.0,0.0,0.0015502168,0.0,0.0,nan,0.0,0.0,0.0,0.01167662,0.0,0.0,0.0,0.0,2.1143625,0.028215855,0.0,0.0
361306297,361205745,0.001358829,0.0,3.5195557e-05,0.010478165,0.0,0.0,0.0,0.0,0.0,0.0,0.0,0.0,0.0,0.038027856,0.0,0.0,nan,0.0,0.0,0.0,0.02396399,0.0,0.0,0.0,0.0,2.1143625,0.026520895,0.0,0.0
361806129,361705781,0.012176946,0.0,1.5416239e-06,0.019592939,0.0,0.0,0.0,0.0,0.0,0.0,0.0,0.0,0.0,0.008152931,0.0,0.0,nan,0.0,0.0,0.0,0.0011000573,0.0,0.0,0.0,0.0,2.1143625,0.034767695,0.0,0.0
362306264,362205816,0.011602486,0.0,0.009814811,0.0075254245,0.0,0.0,0.0,0.0,0.0,0.0,0.0,0.0,0.0,0.075175755,0.0,0.0,nan,0.0,0.0,0.0,0.0020676989,0.0,0.0,0.0,0.0,2.1143625,0.04417696,0.0,0.0
362806208,362705852,0.008961321,0.0,0.045020532,0.0062171347,0.0,0.0,0.0,0.0,0.0,0.0,0.0,0.0,0.0,0.00083365006,0.0,0.0,nan,0.0,0.0,0.0,0.0015120162,0.0,0.0,0.0,0.0,2.1143625,0.029998396,0.0,0.0
363306297,363205888,0.0022904174,0.0,0.00023745732,0.001672606,0.0,0.0,0.0,0.0,0.0,0.0,0.0,0.0,0.0,0.056635167,0.0,0.0,nan,0.0,0.0,0.0,0.014018627,0.0,0.0,0.0,0.0,2.1143625,0.025092678,0.0,0.0
363796282,363695923,0.023791278,0.0,0.009921419,0.0030138437,0.0,0.0,0.0,0.0,0.0,0.0,0.0,0.0,0.0,0.0014301091,0.0,0.0,nan,0.0,0.0,0.0,0.006569406,0.0,0.0,0.0,0.0,2.1143625,0.041847628,0.0,0.0
364306399,364205959,0.005043668,0.0,0.0040057264,0.0015561834,0.0,0.0,0.0,0.0,0.0,0.0,0.0,0.0,0.0,0.0011052388,0.0,0.0,nan,0.0,0.0,0.0,0.006322931,0.0,0.0,0.0,0.0,2.1143625,0.03801539,0.0,0.0
364806346,364705995,0.002199109,0.0,0.0011266043,0.0014143649,0.0,0.0,0.0,0.0,0.0,0.0,0.0,0.0,0.0,0.06311914,0.0,0.0,nan,0.0,0.0,0.0,0.006071631,0.0,0.0,0.0,0.0,2.1143625,0.031725183,0.0,0.0
365306523,365206030,0.010296269,0.0,0.014470151,0.0019723931,0.0,0.0,0.0,0.0,0.0,0.0,0.0,0.0,0.0,0.004685677,0.0,0.0,nan,0.0,0.0,0.0,0.0071097645,0.0,0.0,0.0,0.0,2.1143625,0.023244262,0.0,0.0
365806558,365706066,0.02843466,0.0,0.012910275,5.081011e-05,0.0,0.0,0.0,0.0,0.0,0.0,0.0,0.0,0.0,0.058742784,0.0,0.0,nan,0.0,0.0,0.0,0.009620378,0.0,0.0,0.0,0.0,2.1143625,0.014036042,0.0,0.0
366306484,366206101,0.00046260626,0.0,0.008603301,8.1354905e-05,0.0,0.0,0.0,0.0,0.0,0.0,0.0,0.0,0.0,0.008283306,0.0,0.0,nan,0.0,0.0,0.0,0.010790661,0.0,0.0,0.0,0.0,2.1143625,0.010410388,0.0,0.0
366806521,366706136,0.0010061266,0.0,0.0002370134,0.0009822869,0.0,0.0,0.0,0.0,0.0,0.0,0.0,0.0,0.0,0.0076521616,0.0,0.0,nan,0.0,0.0,0.0,0.006627877,0.0,0.0,0.0,0.0,2.1143625,0.008425945,0.0,0.0
367296683,367196171,0.011845408,0.0,0.00024346684,0.0007927243,0.0,0.0,0.0,0.0,0.0,0.0,0.0,0.0,0.0,0.058531437,0.0,0.0,nan,0.0,0.0,0.0,0.005551039,0.0,0.0,0.0,0.0,2.1143625,0.005504373,0.0,0.0
367796596,367696206,0.0003559121,0.0,3.083686e-05,0.004627902,0.0,0.0,0.0,0.0,0.0,0.0,0.0,0.0,0.0,0.0024650902,0.0,0.0,nan,0.0,0.0,0.0,0.0039743357,0.0,0.0,0.0,0.0,2.1143625,0.0023857139,0.0,0.0
368306671,368206242,0.0027079773,0.0,0.00032455826,0.0018442142,0.0,0.0,0.0,0.0,0.0,0.0,0.0,0.0,0.0,0.00037774272,0.0,0.0,nan,0.0,0.0,0.0,0.0034099414,0.0,0.0,0.0,0.0,2.1143625,0.0004897515,0.0,0.0
368806637,368706278,0.004950812,0.0,0.010397218,0.0030165652,0.0,0.0,0.0,0.0,0.0,0.0,0.0,0.0,0.0,0.016734703,0.0,0.0,nan,0.0,0.0,0.0,0.004770937,0.0,0.0,0.0,0.0,2.1143625,3.3569042e-05,0.0,0.0
369306666,369206313,0.00038101032,0.0,0.0049267346,0.0040377746,0.0,0.0,0.0,0.0,0.0,0.0,0.0,0.0,0.0,0.0006575486,0.0,0.0,nan,0.0,0.0,0.0,0.023738474,0.0,0.0,0.0,0.0,2.1143625,0.00042412587,0.0,0.0
369806721,369706348,0.004576511,0.0,0.002950263,0.0033890363,0.0,0.0,0.0,0.0,0.0,0.0,0.0,0.0,0.0,1.8530494e-05,0.0,0.0,nan,0.0,0.0,0.0,0.032773048,0.0,0.0,0.0,0.0,2.1143625,0.0003636281,0.0,0.0
370306780,370206383,0.004738397,0.0,7.652382e-06,0.005588298,0.0,0.0,0.0,0.0,0.0,0.0,0.0,0.0,0.0,0.0012262786,0.0,0.0,nan,0.0,0.0,0.0,0.044056423,0.0,0.0,0.0,0.0,2.1143625,0.00042386478,0.0,0.0
370796882,370696417,0.010703622,0.0,0.0033562668,0.005329572,0.0,0.0,0.0,0.0,0.0,0.0,0.0,0.0,0.0,0.016557189,0.0,0.0,nan,0.0,0.0,0.0,0.04281777,0.0,0.0,0.0,0.0,2.1143625,0.000949508,0.0,0.0
371296804,371196452,0.0052790293,0.0,0.0012283958,0.005084283,0.0,0.0,0.0,0.0,0.0,0.0,0.0,0.0,0.0,0.00012277122,0.0,0.0,nan,0.0,0.0,0.0,0.018999489,0.0,0.0,0.0,0.0,2.1143625,0.0009508657,0.0,0.0
371806843,371706487,0.010333505,0.0,0.02511129,0.004558335,0.0,0.0,0.0,0.0,0.0,0.0,0.0,0.0,0.0,0.062303975,0.0,0.0,nan,0.0,0.0,0.0,0.035753004,0.0,0.0,0.0,0.0,2.1143625,0.0016005328,0.0,0.0
372307016,372206522,0.0031714025,0.0,0.004447095,0.005895453,0.0,0.0,0.0,0.0,0.0,0.0,0.0,0.0,0.0,0.005546186,0.0,0.0,nan,0.0,0.0,0.0,0.0631879,0.0,0.0,0.0,0.0,2.1143625,0.00281999,0.0,0.0
372806912,372706557,0.01308269,0.0,0.0012457416,0.0030125391,0.0,0.0,0.0,0.0,0.0,0.0,0.0,0.0,0.0,0.0001524623,0.0,0.0,nan,0.0,0.0,0.0,0.034486067,0.0,0.0,0.0,0.0,2.1143625,0.0060928366,0.0,0.0
373307022,373206592,0.0063707717,0.0,0.00040677306,0.007419111,0.0,0.0,0.0,0.0,0.0,0.0,0.0,0.0,0.0,0.0019255672,0.0,0.0,nan,0.0,0.0,0.0,0.0038055417,0.0,0.0,0.0,0.0,2.1143625,0.009338803,0.0,0.0
373806978,373706626,0.0027966234,0.0,0.00032972053,0.00862414,0.0,0.0,0.0,0.0,0.0,0.0,0.0,0.0,0.0,0.02448983,0.0,0.0,nan,0.0,0.0,0.0,0.0030625204,0.0,0.0,0.0,0.0,2.1143625,0.008322253,0.0,0.0
374297010,374196660,0.0011930155,0.0,7.825234e-05,0.004037107,0.0,0.0,0.0,0.0,0.0,0.0,0.0,0.0,0.0,0.001341549,0.0,0.0,nan,0.0,0.0,0.0,0.0052686906,0.0,0.0,0.0,0.0,2.1143625,0.009079602,0.0,0.0
