timestamp,altitude_sp,altitude_filtered,height_rate_setpoint,height_rate,equivalent_airspeed_sp,true_airspeed_sp,true_airspeed_filtered,true_airspeed_derivative_sp,true_airspeed_derivative,true_airspeed_derivative_raw,true_airspeed_innovation,total_energy_error,energy_distribution_error,total_energy_rate_error,energy_distribution_rate_error,total_energy,total_energy_rate,total_energy_balance,total_energy_balance_rate,total_energy_sp,total_energy_rate_sp,total_energy_balance_sp,total_energy_balance_rate_sp,throttle_integ,pitch_integ,throttle_sp,pitch_sp_rad,mode
268798422,61.268772,61.269737,-0.034843024,0.0,15.039514,15.558137,16.374975,-0.16336766,0.0,1.2904307,-1.5724095e-07,721.86926,479.81363,-0.14365879,2.333448,734.9208,0.0,466.781,0.0,721.86926,-3.0168347,479.81363,2.333448,-1.2556388e-05,0.0046668956,0.5078635,0.016013209,0
268818472,61.26505,61.296707,-0.08308664,0.7143876,15.079619,15.599626,16.287865,-0.13764782,-0.05375352,-0.59128875,-1.2904302,-12.441704,12.349762,-0.43747663,-6.454092,733.76263,6.130219,468.46808,7.8812795,722.47906,-3.0567908,479.13077,1.4271874,-5.08893e-05,-0.00827356,0.5061452,0.0073963646,0
268998569,61.10545,61.555878,-0.5450443,0.94387686,15.4398155,15.970356,15.381773,0.1177166,-0.16396527,-1.8036181,-1.6479192,2.8729477,-11.103149,-0.48897913,-18.934095,721.9564,6.734194,485.3575,11.778347,726.76587,-3.534369,471.71362,-7.155749,-0.00037711757,-0.26710245,0.49166408,-0.061761033,0
269198478,60.662403,61.837402,-1.1097696,1.1563193,15.839629,16.380493,14.333428,0.40941295,0.0013009558,0.014310514,0.6783124,20.350464,-42.852173,-0.7796712,-28.072384,709.14136,11.358266,503.6942,11.3209715,729.05524,-5.014831,460.73468,-16.751413,-0.0008802807,-0.78828716,0.46565816,-0.14475326,0
269398492,60.06538,62.052437,-1.2489531,0.7010663,16.214725,16.774319,14.4031105,0.47424164,0.19875692,2.1863263,0.5534917,18.390282,-57.001495,-0.7216819,-23.090996,712.25134,9.73783,504.80176,4.012394,729.72906,-5.417491,448.35126,-19.078602,-0.001563761,-1.3181529,0.49959603,-0.16075367,0
269598702,59.63738,62.230507,-0.94972557,0.13812305,16.214725,16.772974,14.8935175,0.3758913,0.15109448,1.6620394,0.1369741,4.8815536,-55.412415,-0.34857783,-14.016167,721.1813,3.6048527,499.36438,-0.8958038,725.5092,-3.7152824,444.17657,-14.91197,-0.0019894633,-1.6754087,0.6130135,-0.123165466,0
269798506,59.489983,62.40663,-0.59484124,0.37442088,16.078686,16.633804,15.171435,0.2924738,0.014876274,0.16363902,0.75823843,-4.619171,-52.183838,-0.25207913,-13.716767,727.08624,3.897509,496.91376,3.4461203,721.7392,-1.3961525,445.05573,-10.270647,-0.002261988,-1.9303726,0.65493727,-0.091226034,0
269998524,59.51693,62.655304,-0.6343084,1.0001419,16.0,16.55232,15.626277,0.18520871,-0.012019207,-0.13221128,-0.65989757,-16.213486,-44.782745,-0.616502,-19.11042,736.52893,9.620226,492.3484,9.995857,720.65137,-3.3263178,446.67203,-9.114563,-0.0026632485,-2.2391589,0.6222407,-0.08656122,0
270198715,59.51825,62.982635,-0.69287723,1.4861692,16.0,16.551004,15.5816765,0.19386558,-0.00387674,-0.042644143,0.29010737,-17.79821,-49.43863,-0.87085664,-24.450302,739.04297,14.513936,496.25436,14.6347475,720.6425,-3.7740538,446.70673,-9.815556,-0.0033414534,-2.6944387,0.59675163,-0.0978706,0
270398587,59.51825,63.29802,-0.75595397,1.1909018,16.0,16.550564,15.608806,0.18835163,-0.064454265,-0.70899695,-1.1912755,-22.925446,-50.691833,-0.72124445,-23.038132,742.5589,10.672703,498.9241,12.684811,720.6352,-4.4734325,446.71405,-10.35332,-0.0040791146,-3.1680605,0.52588814,-0.10338527,0
270598584,59.51825,63.496338,-0.7956177,0.40097985,16.0,16.55001,15.161192,0.27776375,-0.023636952,-0.2600065,-0.63017035,-17.601318,-60.16394,-0.34119138,-16.304209,737.61725,3.5739048,507.75552,4.2906337,720.62604,-3.5911145,446.7232,-12.013575,-0.0045330417,-3.5552416,0.50456315,-0.11567917,0
270798603,59.51825,63.563232,-0.8089966,-0.19634922,16.0,16.54836,14.523027,0.4050667,-0.059696954,-0.6566665,-0.41031852,-8.977875,-70.32721,0.035321735,-12.757793,728.8016,-2.7925086,517.88324,-1.0585475,720.59875,-2.0507522,446.7505,-13.816341,-0.0046401,-3.8508978,0.53322494,-0.13300602,0
270998661,59.51825,63.478172,-0.79198456,-0.91146725,16.0,16.548414,14.162678,0.4771473,0.046064932,0.5067143,-0.2593185,-2.7212906,-75.2605,0.34652406,-4.9335556,722.79895,-8.286037,522.2175,-9.590843,720.5996,-1.0090318,446.74963,-14.524399,-0.0044504586,-4.032219,0.57003915,-0.13716026,0
271198695,59.51825,63.238434,-0.74403685,-1.5640566,16.0,16.54943,14.030806,0.50372505,0.05047564,0.55523205,0.4602699,1.9430084,-75.48755,0.6857667,1.6821938,718.589,-14.629943,521.72546,-16.046371,720.61646,-0.22884083,446.7328,-14.364178,-0.003977691,-4.048671,0.59754765,-0.1325964,0
271398718,59.51825,62.919,-0.68014985,-1.694691,16.0,16.548168,13.936603,0.5223131,0.09076971,0.99846685,-0.44200292,5.7608643,-73.06149,0.7601666,3.9350004,714.13904,-15.35422,519.91016,-17.884262,720.5956,0.6092787,446.7537,-13.949262,-0.0033319055,-3.9831946,0.60681266,-0.1283294,0
271598714,59.51825,62.561905,-0.6087311,-1.9214777,16.0,16.546331,13.711248,0.5670166,0.086645044,0.95309556,-0.42938873,12.239548,-72.6651,0.9266733,6.2871523,707.52185,-17.655249,519.52356,-20.031271,720.5652,1.8048925,446.78406,-13.744119,-0.002588224,-3.8911602,0.61849976,-0.12647913,0
271798707,59.51825,62.132584,-0.52286685,-2.1392026,16.0,16.54762,13.749908,0.5595425,0.09420058,1.0362065,0.6542198,16.767189,-68.89581,1.0594878,9.452431,703.84247,-19.68316,514.78253,-22.27366,720.5865,2.5660858,446.76276,-12.82123,-0.0017068473,-3.7190156,0.62685716,-0.11565514,0
271998737,59.51825,61.70507,-0.4373642,-1.861033,16.0,16.54727,14.147461,0.47996178,0.16604726,1.82652,0.3911633,15.608055,-59.281403,0.8763102,9.5203285,705.1954,-15.901353,505.04474,-20.599648,720.5807,2.501163,446.76855,-11.079319,-0.0008489506,-3.5322218,0.6273364,-0.098454565,0
272198801,59.51825,61.317764,-0.35990295,-1.6616564,16.0,16.546797,13.822623,0.54483473,0.0787427,0.86616975,0.46226844,23.598969,-59.641968,0.91468835,6.323225,696.8543,-15.206852,505.78937,-17.383713,720.5729,4.001603,446.77637,-11.060488,-6.579302e-05,-3.3825302,0.6385597,-0.10188363,0
272398759,59.51825,60.99337,-0.29502413,-1.4300013,16.0,16.542948,13.804913,0.54760706,0.08437225,0.9280948,0.9041654,27.262245,-56.758087,0.8345352,4.735409,693.4284,-12.85877,502.8528,-15.188274,720.50916,4.666469,446.84006,-10.452866,0.0006822346,-3.2677102,0.64378494,-0.09785079,0
272598783,59.51825,60.690567,-0.2344635,-1.4784968,16.0,16.54657,14.353064,0.43870124,0.029696029,0.32665634,0.8082037,22.693634,-46.286133,0.86048937,6.329321,698.1764,-14.072872,492.16592,-14.925329,720.5691,3.9974053,446.78015,-8.596008,0.0013897072,-3.1503522,0.63744843,-0.07895556,0
272798820,59.51825,60.378754,-0.17210083,-1.5526215,16.0,16.542015,14.671944,0.3740143,0.12645812,1.3910395,-0.29835966,20.570793,-38.00879,0.8176387,9.906153,699.74634,-13.370629,484.48038,-17.081402,720.4938,3.7997837,446.85547,-7.175249,0.0021506122,-2.97579,0.6361391,-0.063665956,0
272998898,59.51825,60.106293,-0.117608644,-1.2501935,16.0,16.544867,14.485967,0.41177997,0.0769239,0.846163,1.2934784,27.088913,-39.13199,0.75988454,6.2561493,694.36304,-11.145893,484.51978,-13.374527,720.5409,4.8116846,446.80832,-7.1183777,0.0028655503,-2.84131,0.6441439,-0.065705694,0
273198874,59.51825,59.86728,-0.06980591,-1.3384308,16.0,16.5432,14.602205,0.38819885,0.1703482,1.8738303,0.9071084,27.729225,-35.068604,0.74390763,9.25986,693.70966,-10.638063,480.4853,-15.612982,720.51337,4.9839973,446.83588,-6.3531218,0.0035416486,-2.7093399,0.64600337,-0.056819472,0
273398879,59.51825,59.611855,-0.018721009,-1.2672999,16.0,16.543001,14.9085045,0.32689935,0.12647083,1.3911793,0.24795319,25.156021,-27.453125,0.72535545,9.256288,695.72437,-10.542476,473.46085,-14.313458,720.5101,4.68999,446.83917,-5.057171,0.004257477,-2.5413532,0.6439405,-0.045641463,0
273598890,59.51825,59.39959,0.023731995,-1.0172985,16.0,16.542492,14.849447,0.33860895,0.1442565,1.5868217,0.6427223,28.504883,-26.540405,0.6235736,7.322995,692.76404,-7.8341603,472.25793,-12.11842,720.50165,5.260887,446.8476,-4.7954245,0.0048961644,-2.4152837,0.6489779,-0.044487435,0
273798969,59.51825,59.19275,0.065100096,-1.0479442,16.0,16.540453,14.81407,0.34527665,0.022031978,0.24235177,0.52324206,30.460144,-24.483704,0.7478002,6.126667,690.21094,-9.9504385,470.75427,-10.603206,720.4679,5.7533665,446.88135,-4.4765387,0.0055123316,-2.2887626,0.65365964,-0.042351235,0
273998950,59.51825,59.000694,0.10351105,-0.76068443,16.0,16.54362,14.904757,0.32777253,-0.05053914,-0.55593055,0.64117265,31.005356,-21.140594,0.6720717,2.8362193,689.67505,-8.213039,467.52332,-6.7064924,720.52026,5.9004664,446.82895,-3.870273,0.006109962,-2.1786153,0.65525126,-0.039443355,0
274198989,59.51825,58.875206,0.1286087,-0.56534743,16.0,16.541294,15.204714,0.26731607,0.14404343,1.5844778,-1.1793672,26.897911,-14.492859,0.41331953,4.9310594,692.9602,-3.3540256,461.77686,-7.7343035,720.4818,5.325685,446.86743,-2.803244,0.006560175,-2.1068978,0.65061206,-0.029623201,0
274399012,59.51825,58.76381,0.15088807,-0.59358,16.0,16.539946,15.099203,0.2881485,0.012430617,0.1367368,-0.32237306,29.825073,-15.232666,0.54589796,3.1376183,690.2691,-5.633339,462.28314,-6.008724,720.45953,5.8305187,446.8897,-2.871106,0.0070354026,-2.0504255,0.65539545,-0.031118313,0
274599127,59.51825,58.69078,0.16549377,-0.4421849,16.0,16.543154,15.050896,0.29845163,0.09305807,1.0236388,1.002363,32.740692,-16.616272,0.43098325,2.8679347,688.82465,-2.935745,462.2952,-5.7369595,720.5126,6.114904,446.83667,-2.8690248,0.00747463,-2.0041506,0.65799326,-0.031073287,0
274799006,59.51825,58.63768,0.17611389,-0.48966464,16.0,16.53944,15.440886,0.21971093,-0.045993634,-0.50593,0.54283595,26.543114,-9.401764,0.50627476,2.4263432,694.24963,-5.5121527,455.8287,-4.0917873,720.4512,5.1196184,446.89807,-1.6654441,0.007890169,-1.9502821,0.65043795,-0.022275902,0
274999078,59.51825,58.585587,0.1865326,-0.22497953,16.0,16.539536,15.782235,0.15146008,-0.08990436,-0.988948,0.20327829,21.45147,-3.2035522,0.3735631,0.22628498,699.0679,-3.6251874,449.9889,-0.7874037,720.45276,4.219639,446.89648,-0.5611187,0.008255195,-1.9016961,0.6432728,-0.015766446,0
275199232,59.51825,58.60195,0.18325959,0.07900732,16.0,16.537397,15.84461,0.13855743,-0.08377517,-0.9215269,-1.555485,18.750214,-0.69195557,0.2164352,-2.5004082,700.21466,-0.5525878,449.16302,2.1021821,720.41736,3.9925513,446.9319,-0.3982259,0.008452105,-1.9086659,0.64145595,-0.016455725,0
275399126,59.51825,58.627876,0.17807464,-0.05298895,16.0,16.537111,15.463915,0.21463929,-0.06346893,-0.69815826,-0.47153476,25.324043,-7.804901,0.3126953,-2.0346823,694.5094,-1.5011222,455.3767,0.46183407,720.41266,5.0654793,446.93658,-1.5728481,0.008643829,-1.9408898,0.6554567,-0.024511876,0
275579117,59.51825,58.619347,0.17978059,-0.20787264,16.214725,16.761585,15.373235,0.27767012,-0.015881421,-0.17469564,0.05097785,31.081604,-13.494324,0.3959246,-0.71125686,693.0276,-2.2826831,456.69125,-1.7943856,724.15,6.031733,443.19925,-2.5056424,0.008911196,-1.954199,0.67441535,-0.030054184,0
275799264,59.51825,58.54477,0.19469605,-0.8158282,16.214725,16.761127,15.429778,0.2662699,0.030567618,0.3362438,-0.9687068,30.115608,-11.272003,0.6450805,6.2730236,693.16705,-7.52889,455.08902,-8.472193,724.14233,6.0178013,443.2069,-2.1991692,0.009415476,-1.8989482,0.7042356,-0.022937765,0
275999126,59.51825,58.38011,0.22762756,-1.0566878,16.214725,16.759356,15.338903,0.28409043,0.009040137,0.09944151,0.55087733,34.205963,-12.247559,0.80065715,8.375862,690.1543,-10.223902,454.8723,-10.501234,724.1126,6.589899,443.23663,-2.1253717,0.010054075,-1.7228916,0.7325424,-0.020014703,0
276199245,59.51825,58.256134,0.2524231,-0.39563474,16.214725,16.758072,15.386685,0.2742773,0.18910606,2.0801668,-0.7256121,34.240738,-9.584625,0.3650371,5.044773,689.6726,-0.97013617,452.9225,-6.789567,724.0911,6.6956434,443.25812,-1.7447937,0.0105475085,-1.5878513,0.736539,-0.018743012,0
276399286,59.51825,58.231026,0.25744477,0.32031408,16.214725,16.760654,15.275547,0.29702148,0.11641806,1.2805988,-0.39542824,36.25338,-10.912933,0.102013275,-3.3753533,687.7224,4.9195576,454.3801,1.3628585,724.1344,7.0618362,443.21484,-2.0124948,0.010752029,-1.5813024,0.7384274,-0.026243536,0
276599196,59.51825,58.352592,0.23313141,1.0142891,16.214725,16.762407,15.171186,0.3182442,0.15505414,1.7055956,-1.9632697,35.45485,-12.27832,-0.24689303,-10.136327,687.3259,12.299133,457.161,7.5944233,724.16376,7.11438,443.1855,-2.5419035,0.0106353955,-1.72064,0.7430724,-0.035463296,0
276799238,59.51825,58.562576,0.19113465,1.4039623,16.214725,16.758406,14.614257,0.42882976,0.16245249,1.7869775,-1.2214739,42.22915,-23.015991,-0.38099378,-15.786682,681.09094,16.142288,467.5144,11.394044,724.0967,8.141418,443.25256,-4.3926377,0.010420561,-2.0145814,0.7524704,-0.05572188,0
276979254,59.51825,58.830826,0.13748474,1.8109409,16.214725,16.760698,14.419558,0.46822816,0.066286504,0.72915155,0.47708994,43.638275,-29.446991,-0.5054847,-22.20682,680.89514,18.715086,472.97153,16.803442,724.13513,8.099908,443.2141,-5.403378,0.010050928,-2.361936,0.7532541,-0.07061855,0
277199243,59.51825,59.220314,0.0595871,2.0101693,16.214725,16.761406,14.153983,0.52148455,0.058726232,0.6459886,0.30123347,43.45246,-36.803406,-0.5989905,-25.67855,680.92053,20.544235,480.58533,18.881817,724.147,7.965433,443.20227,-6.796734,0.009457018,-2.868927,0.74948287,-0.08813571,0
277399308,59.51825,59.613976,-0.019145204,2.1882665,16.214725,16.757147,13.922052,0.5670189,0.2807173,3.0878906,0.011356992,43.1351,-44.27234,-0.84101933,-25.63322,681.52515,25.367725,487.70163,17.551403,724.0756,7.706317,443.27362,-8.081818,0.008823876,-3.3854718,0.7445606,-0.10276675,0
277599281,59.51825,60.008232,-0.097996525,2.1104426,16.214725,16.753479,13.38416,0.6738638,-0.01819681,-0.20016493,-1.1660116,44.691635,-53.529785,-0.5902257,-30.92004,678.0476,20.452824,498.91187,20.939922,724.01416,8.058084,443.33508,-9.980119,0.0082164835,-3.9629304,0.7438913,-0.12978716,0
277799355,59.51825,60.424637,-0.18127747,2.235494,16.214725,16.753143,13.224731,0.7056824,0.22645219,2.4909742,0.47393805,44.716408,-61.626587,-0.8267972,-30.038122,680.0101,24.917477,505.11652,18.927937,724.00854,7.5547357,443.3407,-11.110186,0.007539953,-4.554326,0.74239814,-0.1439454,0
277999329,59.51825,60.84597,-0.26554415,2.0743,16.214725,16.756725,13.338419,0.6836613,0.11701292,1.2871422,0.3392193,38.837677,-63.97171,-0.7327543,-30.504225,685.65186,21.902702,507.7384,18.781166,724.06854,6.514862,443.2807,-11.723059,0.006857555,-5.1646028,0.73147243,-0.15242577,0
278199385,59.51825,61.23374,-0.34309846,2.0577607,16.214725,16.758892,13.400954,0.6715876,0.25337297,2.787103,-0.54752713,33.89653,-66.83661,-0.8542814,-29.14886,690.29065,23.575178,510.70508,16.7843,724.10486,5.6352673,443.2444,-12.364561,0.0061663645,-5.7573714,0.7217951,-0.16007505,0
278379385,59.51825,61.58522,-0.41339418,2.0017755,16.214725,16.75656,13.189612,0.7133894,0.12906556,1.4197212,-0.07185486,33.186928,-72.984406,-0.76084375,-31.391731,690.9276,21.333036,516.9618,17.928389,724.0658,5.355317,443.28348,-13.463342,0.005538629,-6.3066545,0.72166276,-0.17711551,0
278599434,59.51825,61.99311,-0.49497223,1.747933,16.214725,16.759892,13.173549,0.7172686,0.23127069,2.5439777,0.43289834,30.149704,-78.074585,-0.74252707,-28.397703,694.71594,20.188023,521.1736,14.094711,724.1216,4.594953,443.22766,-14.302992,0.004866412,-6.9864006,0.70894414,-0.18677501,0
278799414,59.51825,62.323654,-0.56108093,1.58252,16.214725,16.754656,13.018218,0.7472876,0.26359987,2.8995986,-0.9502949,27.967628,-82.25928,-0.7011806,-27.318296,695.9233,18.95082,526.4493,12.08762,724.0339,4.226028,443.31537,-15.230677,0.0043019596,-7.5690084,0.7050508,-0.1999882,0
278999420,59.51825,62.63376,-0.62310183,1.4515567,16.214725,16.753796,12.522652,0.8462288,0.16807412,1.8488154,0.7137056,31.96399,-92.50903,-0.56443596,-28.837744,692.63574,16.339642,535.819,12.130175,724.0195,4.486486,443.32977,-16.70757,0.0037781633,-8.145998,0.7115362,-0.22586444,0
279199452,59.51825,62.848366,-0.66602325,0.9501127,16.174892,16.714079,12.861776,0.77046055,0.16729848,1.8402834,0.7427786,24.915794,-89.91962,-0.38529253,-23.606617,699.04456,11.469178,533.61926,7.1656675,723.35486,3.3780346,443.9944,-16.440948,0.0033328468,-8.661218,0.69784063,-0.21773267,0
279399477,59.51825,62.967934,-0.6899368,0.55006766,16.0,16.5333,13.068635,0.6929331,0.19277659,2.1205425,0.037844025,17.633003,-85.091034,-0.26780602,-18.696653,702.8991,7.9136477,532.1099,2.874994,720.3496,2.289721,446.9996,-15.821659,0.0030518544,-9.073545,0.6819023,-0.20884027,0
279599537,59.51825,62.99559,-0.6954681,-0.1421295,16.0,16.53215,13.069994,0.6924313,0.1685826,1.8544087,-0.73795533,16.56456,-84.81836,0.06763335,-12.273097,703.18805,0.80955946,532.36334,-3.597188,720.3306,2.2298598,447.01862,-15.870285,0.0029774865,-9.387215,0.64705855,-0.20663354,0
279779524,59.51825,62.89126,-0.67460173,-0.95079184,16.0,16.53585,12.721467,0.7628767,0.061132405,0.6724565,-0.14321569,22.05455,-88.59491,0.5540817,-6.2187166,697.6704,-8.54639,535.8347,-10.101777,720.3918,3.0893269,446.95746,-16.320494,0.0032372125,-9.551496,0.6393783,-0.21236718,0
279999518,59.51825,62.538757,-0.6041016,-2.2336423,16.0,16.533945,12.867852,0.7332186,0.057246666,0.62971336,2.349859,25.244858,-85.36084,1.1751734,7.282028,696.08655,-21.167908,530.5049,-22.64119,720.3603,3.510736,446.98895,-15.359161,0.004058122,-9.515374,0.6353178,-0.19134822,0
280199831,59.51825,62.02558,-0.5014664,-2.8590448,16.0,16.533932,13.577049,0.5913765,0.16132283,1.7745513,1.0689552,20.482018,-70.73117,1.3789908,17.281088,700.43134,-25.847364,516.09503,-30.227942,720.3601,3.1114426,446.98917,-12.946854,0.0051995846,-9.237137,0.63374054,-0.1536357,0
280399551,59.51825,61.456886,-0.38772735,-2.7916572,16.0,16.532322,13.852543,0.53595585,0.019391624,0.21330787,1.0905559,21.876251,-61.076904,1.463344,16.418772,698.6326,-27.108183,506.7397,-27.64543,720.33344,3.6220448,447.0158,-11.226658,0.006450955,-8.894292,0.64835167,-0.13602851,0
280599652,59.51825,60.87989,-0.2723282,-2.7586546,16.0,16.5303,14.440483,0.41796342,0.098516025,1.0836763,0.046144195,18.775024,-46.724976,1.3807383,19.769558,701.29156,-25.63054,492.76398,-28.475779,720.30005,3.3649662,447.0492,-8.706221,0.007684669,-8.531542,0.6633311,-0.10776435,0
280799743,59.51825,60.310463,-0.15844269,-2.5301206,16.0,16.52934,14.68678,0.36851215,0.043827426,0.4821017,0.41407037,21.006401,-37.588562,1.3346089,18.489643,699.2944,-24.168324,483.59283,-25.455692,720.2842,3.8584647,447.06506,-6.9660487,0.00887375,-8.137199,0.67696583,-0.092025675,0
280979621,59.51825,59.8535,-0.067050174,-1.9257656,16.0,16.52767,14.970008,0.3115324,0.15309575,1.6840534,-0.07170037,21.331581,-28.76883,0.9809318,15.855974,699.01294,-16.593464,474.91177,-21.177155,720.2566,4.006105,447.09268,-5.32118,0.009789466,-7.8293214,0.679684,-0.07877697,0
281179800,59.51825,59.45752,0.012145996,-1.2504475,16.0,16.52882,15.3773,0.23030396,0.1417445,1.5591894,0.50127757,19.704666,-19.152527,0.654458,11.020007,701.3098,-10.083054,464.84842,-14.4423485,720.2756,3.6605647,447.07367,-3.4223416,0.01051878,-7.595104,0.67173314,-0.06575237,0
281399796,59.51825,59.090683,0.08551331,-1.0845118,16.0,16.527151,15.45622,0.2141863,0.08545658,0.94002247,0.10343503,21.486336,-13.703003,0.6411286,9.484352,698.929,-9.314591,460.03427,-11.956264,720.248,4.1491094,447.10126,-2.4719114,0.01116907,-7.3960695,0.6671327,-0.058846246,0
281599684,59.51825,58.793076,0.14503479,-0.8268402,16.0,16.528149,15.850974,0.13543491,-0.06621398,-0.7283538,-0.18022741,17.635483,-3.9060059,0.6060556,6.334507,702.1898,-9.158089,450.93643,-7.0589767,720.26447,3.5690808,447.08478,-0.7244698,0.01170843,-7.229827,0.6643448,-0.047096066,0
281799728,59.51825,58.556526,0.19234467,-0.6349561,16.0,16.528332,15.706197,0.164427,0.10240537,1.1264591,0.42363942,23.326736,-4.836151,0.4327225,7.138925,697.58563,-4.6183934,450.90103,-7.8351912,720.2675,4.4687796,447.08173,-0.69626606,0.012174642,-7.1090994,0.6707843,-0.046041,0
281999945,59.51825,58.3851,0.22662964,-0.48525697,16.0,16.52975,15.58494,0.18896218,0.027688514,0.30457368,-1.2730054,25.13556,-3.1869507,0.4521268,4.4677825,694.00745,-4.3272214,451.11707,-5.190269,720.29095,5.167442,447.0583,-0.7224865,0.012599566,-7.0143566,0.6792912,-0.04769859,0
282199746,59.51825,58.244118,0.25482637,-0.43007705,16.0,16.525682,15.478626,0.20941125,-0.059808567,-0.65789425,0.3592326,29.20324,-4.4980164,0.51827425,2.5494552,690.97363,-5.1433697,451.38574,-3.2918606,720.2237,5.7403913,447.12555,-0.7424054,0.01301558,-6.942219,0.68300277,-0.048945967,0
282399813,59.51825,58.117897,0.2800705,-0.39492923,16.0,16.52601,15.962805,0.11264115,0.057267193,0.62993914,0.20226549,23.349274,3.9346619,0.3573052,5.735563,697.3475,-2.958788,442.53632,-4.787078,720.2291,4.5446224,447.12012,0.948485,0.013407541,-6.8537498,0.67496634,-0.03405936,0
282579772,59.51825,58.056084,0.29243317,-0.15735824,16.0,16.524176,16.371338,0.030567551,0.09134327,1.004776,0.5843471,17.944733,10.625732,0.1626651,5.4059267,703.34607,-0.047745705,435.32535,-3.0385687,720.1988,3.3682215,447.15045,2.367358,0.013634163,-6.7701397,0.66140765,-0.024056291,0
282799811,59.51825,58.028374,0.29797515,0.1897086,16.0,16.524834,15.931064,0.11875401,-0.068295226,-0.7512475,-0.09711659,24.011261,5.2410583,0.19245832,-1.9181612,695.9634,0.77239037,442.16458,2.9484215,720.2097,4.8140154,447.13956,1.0302603,0.013844799,-6.759446,0.66968626,-0.037899178,0
282999844,59.51825,58.010895,0.30147097,0.08219603,16.0,16.0,15.978938,0.0042123795,-0.06902031,-0.75922346,-0.12857533,14.865547,14.654724,0.15812062,0.9801719,696.5558,-0.29680347,441.22934,1.9089389,711.6746,3.0237296,455.67462,2.8891108,0.01401155,-6.78563,0.6515654,-0.026494227,0
283199846,59.51825,57.96222,0.31120607,-0.20656234,16.0,16.0,15.942794,0.011441231,-0.037020333,-0.40722367,-0.08452225,16.014877,14.396851,0.27858028,4.304961,695.5016,-2.6158922,441.3289,-1.435477,711.6746,3.2342944,455.67462,2.869484,0.014197447,-6.715259,0.65182775,-0.021844449,0
283399857,59.51825,57.9358,0.31649017,-0.13338077,16.0,16.0,15.889502,0.022099687,-0.023047812,-0.25352594,-0.0256567,17.259872,13.767578,0.24424277,3.6943557,694.3943,-1.6742368,441.918,-0.94180036,711.6746,3.4548616,455.67462,2.7525554,0.014433624,-6.6367087,0.6528573,-0.022555863,0
283599954,59.51825,57.87918,0.3278137,-0.35387316,16.0,16.0,15.897145,0.020570947,0.09022821,0.9925103,-0.0074062347,18.021149,13.949188,0.26560533,7.792416,693.9605,-2.0359392,441.24127,-4.904681,711.6746,3.5417738,455.67462,2.887735,0.014684821,-6.5440164,0.6508053,-0.018454662,0
283779951,59.51825,57.777992,0.34805146,-0.5003264,16.0,16.0,15.929363,0.01412735,0.075807154,0.83387876,-0.04561901,18.390518,15.533081,0.34939164,9.302265,693.4809,-3.6989665,439.73627,-6.1140857,711.6746,3.6382587,455.67462,3.1881793,0.014989427,-6.406345,0.6517651,-0.014646214,0
283980029,59.51825,57.67919,0.3678116,-0.16753982,16.0,16.0,15.940279,0.011944199,0.0,0.0,0.068491936,19.065697,17.972168,0.25906655,5.250004,692.6859,-1.6430044,565.63965,-1.6430044,711.6746,3.7973936,583.6746,3.6069996,0.015196607,-6.277582,0.63549006,-0.013725511,0
284199933,59.51825,57.573257,0.38899842,-0.21479818,16.0,16.0,16.012066,-0.0024131776,0.0,0.0,-0.007205963,18.870453,18.985779,0.28012294,5.9212217,692.7939,-2.1064506,564.60077,-2.1064506,711.6746,3.7761314,583.6746,3.8147714,0.015196607,-6.163565,0.6338228,-0.011187229,0
284399943,59.51825,57.480255,0.40759888,-0.13501294,16.0,16.0,16.046051,-0.009210206,0.0,0.0,-0.043725967,19.220993,19.92157,0.24635316,5.321204,692.42664,-1.3240247,563.6888,-1.3240247,711.6746,3.8493924,583.6746,3.9971797,0.015196607,-6.0454493,0.6332615,-0.009635031,0
284600019,59.51825,57.43151,0.41734773,0.02149772,16.0,16.0,16.059362,-0.0118724825,0.0,0.0,-0.0587368,19.500504,20.442017,0.17577608,3.8819623,692.1623,0.21082063,563.21075,0.21082063,711.6746,3.9021184,583.6746,4.092783,0.015196607,-5.9619803,0.6329143,-0.009403864,0
284799984,59.51825,57.35611,0.43242797,-0.2851321,16.0,16.0,16.059483,-0.011896515,0.0,0.0,-0.059883118,20.155914,21.115845,0.32599086,7.0368605,691.4248,-2.7961907,562.4713,-2.7961907,711.6746,4.049618,583.6746,4.2406697,0.015196607,-5.848455,0.6335462,-0.0057406854,0
285000038,59.51825,57.299095,0.44383088,-0.02137996,16.0,16.0,16.052221,-0.01044426,0.0,0.0,-0.053138733,20.896408,21.748047,0.20926219,4.56216,690.7491,-0.20966579,561.9122,-0.20966579,711.6746,4.1848407,583.6746,4.3524942,0.015196607,-5.7304564,0.6345449,-0.0058553866,0
285180112,59.51825,57.274406,0.44876862,-0.10405678,16.0,16.0,16.042837,-0.008567429,0.0,0.0,-0.04393959,21.27629,21.980286,0.25161523,5.4213657,690.3563,-1.0204484,561.67004,-1.0204484,711.6746,4.263471,583.6746,4.400917,0.015196607,-5.640512,0.6349757,-0.0044331905,0
285380189,59.51825,57.26277,0.45109558,0.010638389,16.0,16.0,16.031797,-0.0063594817,0.0,0.0,-0.032873154,21.579575,22.10608,0.20083122,4.31941,690.06525,0.104326956,561.55597,0.104326956,711.6746,4.3217826,583.6746,4.4237366,0.015196607,-5.5458517,0.63532126,-0.0043899114,0
285600109,59.51825,57.232506,0.45714876,-0.0097234165,16.0,16.0,16.020803,-0.0041606906,0.0,0.0,-0.021709442,22.061172,22.408752,0.21484734,4.578452,689.5922,-0.09535415,561.25916,-0.09535415,711.6746,4.4164405,583.6746,4.483098,0.015196607,-5.4495263,0.63604486,-0.0032371061,0
285800076,59.51825,57.208946,0.46186066,-0.28720167,16.0,16.0,16.012695,-0.0025390626,0.0,0.0,-0.013410568,22.385254,22.599915,0.34786355,7.3457923,689.2313,-2.8164864,561.02814,-2.8164864,711.6746,4.488649,583.6746,4.529306,0.015196607,-5.3287377,0.6366176,-0.00041299334,0
286000103,59.51825,57.15998,0.47165376,-0.24103844,16.0,16.0,16.006603,-0.0013206482,0.0,0.0,-0.007118225,22.96988,23.083801,0.33180875,6.9891233,688.65356,-2.3637798,560.5479,-2.3637798,711.6746,4.604204,583.6746,4.6253433,0.015196607,-5.181871,0.6375725,0.0009070744,0
286200122,59.51825,57.110046,0.48164064,-0.042259272,16.0,16.0,16.002386,-0.00047721862,0.0,0.0,-0.0027256012,23.541351,23.58496,0.24428888,5.1377034,688.09644,-0.4144219,560.0582,-0.4144219,711.6746,4.715645,583.6746,4.7232814,0.015196607,-5.067361,0.6384694,0.0010813184,0
286400308,59.51825,57.067993,0.49005127,-0.25288066,16.0,16.0,15.999732,5.3596497e-05,0.0,0.0,6.389618e-05,23.986862,23.98584,0.34697765,7.2856736,687.6416,-2.4799123,559.6459,-2.4799123,711.6746,4.8066187,583.6746,4.8057613,0.015196607,-4.938478,0.6392145,0.0037975563,0
286580219,59.51825,57.05345,0.4929596,-0.12536882,16.0,16.0,15.998388,0.00032234192,0.0,0.0,0.001502037,24.205612,24.18158,0.28899464,6.0637307,687.4774,-1.2294482,559.50323,-1.2294482,711.6746,4.8394394,583.6746,4.8342824,0.015196607,-4.811939,0.6395185,0.004007359,0
286780372,59.51825,57.092323,0.48518524,-0.0090906415,16.0,16.0,15.997722,0.0004556656,0.0,0.0,0.0022420883,23.86406,23.828186,0.23116569,4.8471904,687.848,-0.08914874,559.88446,-0.08914874,711.6746,4.7653313,583.6746,4.758042,0.015196607,-4.7115703,0.6388933,0.0033858817,0
287000405,59.51825,57.080605,0.487529,-0.20577139,16.0,16.0,15.9976425,0.00047149658,0.0,0.0,0.0023698807,23.898697,23.860779,0.32411885,6.798954,687.7318,-2.017928,559.76953,-2.017928,711.6746,4.788569,583.6746,4.7810264,0.015196607,-4.5756683,0.639076,0.0056427517,0
287200225,59.51825,57.055862,0.49247742,0.09547239,16.0,16.0,15.997904,0.00041923524,0.0,0.0,0.002131462,24.190292,24.156189,0.1857141,3.8932893,687.4933,0.93626434,559.52686,0.93626434,711.6746,4.8362603,583.6746,4.8295536,0.015196607,-4.4672995,0.63945436,0.0047906367,0
287400263,59.51825,57.06382,0.49088594,-0.021922402,16.0,16.0,15.998309,0.00033817292,0.0,0.0,0.0017337799,24.081146,24.053406,0.23973057,5.028932,687.5779,-0.21498533,559.6049,-0.21498533,711.6746,4.819357,583.6746,4.8139467,0.015196607,-4.3892546,0.63932157,0.0059123365,0
287600427,59.51825,57.02398,0.49885407,-0.23016016,16.0,16.0,15.998744,0.0002511978,0.0,0.0,0.0012989044,24.430939,24.410156,0.34062886,7.1491876,687.19415,-2.2571,559.21423,-2.2571,711.6746,4.8961062,583.6746,4.8920875,0.015196607,-4.258039,0.639944,0.008597949,0
287780306,59.51825,56.975426,0.5085648,-0.12634839,16.0,16.0,15.999104,0.00017929077,0.0,0.0,0.00093364716,24.910507,24.895569,0.29663044,6.226371,686.72375,-1.2390544,558.7381,-1.2390544,711.6746,4.9901853,583.6746,4.9873166,0.015196607,-4.136533,0.6407272,0.009390971,0
287980421,59.51825,56.92646,0.5183579,-0.25678158,16.0,16.0,15.999439,0.0001121521,0.0,0.0,0.0005912781,25.369995,25.360535,0.36206263,7.6015215,686.2489,-2.518167,558.2579,-2.518167,711.6746,5.085149,583.6746,5.0833545,0.015196607,-4.005117,0.6414899,0.011716884,0
288180385,59.51825,56.870644,0.52952117,-0.21601075,16.0,16.0,15.999697,6.065369e-05,0.0,0.0,0.00032520294,25.93013,25.924927,0.34819716,7.3111706,685.7057,-2.118342,557.7105,-2.118342,711.6746,5.193799,583.6746,5.1928287,0.015196607,-3.844046,0.6423954,0.013255922,0
288400362,59.51825,56.836533,0.5363434,-0.055003256,16.0,16.0,15.999891,2.1743776e-05,0.0,0.0,0.00012302399,26.279068,26.2771,0.2761656,5.79913,685.37427,-0.53939766,557.376,-0.53939766,711.6746,5.2600803,583.6746,5.2597322,0.015196607,-3.7130692,0.64291316,0.013553242,0
288600379,59.51825,56.819534,0.53974307,-0.10746961,16.0,16.0,16.000002,-3.8146973e-07,0.0,0.0,6.67572e-06,26.440292,26.440186,0.3022372,6.346988,685.20935,-1.0539169,557.2093,-1.0539169,711.6746,5.293065,583.6746,5.2930713,0.015196607,-3.5917754,0.643217,0.014887821,0
288800442,59.51825,56.79229,0.54519194,0.037745602,16.0,16.0,16.000061,-1.2207031e-05,0.0,0.0,-5.722046e-05,26.730469,26.731384,0.23695967,4.976349,684.9431,0.37015793,556.94214,0.37015793,711.6746,5.346311,583.6746,5.3465066,0.015196607,-3.4729617,0.6436695,0.015112008,0
289000490,59.51825,56.815475,0.5405548,0.13179807,16.0,16.0,16.000088,-1.7547607e-05,0.0,0.0,-8.583069e-05,26.527374,26.528748,0.19086921,4.0085344,685.1709,1.2924976,557.1695,1.2924976,711.6746,5.300751,583.6746,5.301032,0.015196607,-3.393607,0.6432515,0.014711102,0
289180532,59.51825,56.799835,0.5436829,-0.16265544,16.0,16.0,16.000092,-1.8310548e-05,0.0,0.0,-9.1552734e-05,26.616943,26.618408,0.32983428,6.926813,685.0176,-1.595105,557.0161,-1.595105,711.6746,5.331415,583.6746,5.331708,0.015196607,-3.2883506,0.6435732,0.017437294,0
289380465,59.51825,56.78016,0.5476181,0.016245412,16.0,16.0,16.000084,-1.6784668e-05,0.0,0.0,-8.583069e-05,26.858917,26.86029,0.24812938,5.2109857,684.8245,0.15931307,556.8232,0.15931307,711.6746,5.3700304,583.6746,5.370299,0.015196607,-3.1607203,0.6438689,0.017403131,0
289580483,59.51825,56.809357,0.54177856,-0.14554292,16.0,16.0,16.000065,-1.2969971e-05,0.0,0.0,-6.67572e-05,26.572845,26.573914,0.32095778,6.740321,685.11053,-1.4272885,557.1095,-1.4272885,711.6746,5.312825,583.6746,5.3130326,0.015196607,-3.0486531,0.6434106,0.018727086,0
289800609,59.51825,56.778374,0.5479752,-0.10752394,16.0,16.0,16.000044,-8.7738035e-06,0.0,0.0,-4.5776367e-05,26.844604,26.845337,0.30610046,6.4282503,684.8064,-1.0544497,556.80566,-1.0544497,711.6746,5.3736606,583.6746,5.3738008,0.015196607,-2.8866997,0.643932,0.019947674,0
290000638,59.51825,56.77562,0.548526,0.17420825,16.0,16.0,16.000032,-6.4849855e-06,0.0,0.0,-3.2424927e-05,26.937408,26.937927,0.1747952,3.670803,684.7792,1.7083994,556.7786,1.7083994,711.6746,5.3790984,583.6746,5.3792024,0.015196607,-2.7914,0.64429575,0.018832097,0
290200663,59.51825,56.79647,0.5443558,0.13365196,16.0,16.0,16.000025,-4.9591067e-06,0.0,0.0,-2.4795532e-05,26.70456,26.704956,0.19178808,4.027629,684.9835,1.310678,556.9831,1.310678,711.6746,5.3382277,583.6746,5.338307,0.015196607,-2.7191467,0.64427507,0.019259369,0
290400673,59.51825,56.805084,0.54263306,0.21042863,16.0,16.0,16.00002,-3.8146973e-06,0.0,0.0,-1.9073486e-05,26.633667,26.633972,0.15513103,3.2578127,685.0679,2.0635998,557.06757,2.0635998,711.6746,5.3213515,583.6746,5.3214126,0.015196607,-2.6369355,0.6449163,0.019185036,0
290580624,59.51825,56.863907,0.53086853,0.46087018,16.0,16.0,16.000013,-2.670288e-06,0.0,0.0,-1.5258789e-05,26.10968,26.109924,0.032686014,0.68644905,685.64465,4.519593,557.6445,4.519593,711.6746,5.205999,583.6746,5.206042,0.015196607,-2.611626,0.6438679,0.016972275,0
290780634,59.51825,56.91893,0.5198639,0.0693593,16.0,16.0,16.00001,-1.9073486e-06,0.0,0.0,-1.1444092e-05,25.502686,25.502869,0.21037668,4.417941,686.1842,0.6801824,558.184,0.6801824,711.6746,5.098093,583.6746,5.0981236,0.015196607,-2.565622,0.64287853,0.018955847,0
290980603,59.51825,56.927986,0.5180527,0.05679266,16.0,16.0,16.000008,-1.5258789e-06,0.0,0.0,-7.6293945e-06,25.425537,25.42566,0.21539956,4.5234156,686.27295,0.55694574,558.2728,0.55694574,711.6746,5.080337,583.6746,5.0803614,0.015196607,-2.4479878,0.6429237,0.019659577,0
291200643,59.51825,57.010643,0.5015213,0.3739643,16.0,16.0,16.000006,-1.1444092e-06,0.0,0.0,-5.722046e-06,24.683624,24.683716,0.059566107,1.2509067,687.0835,3.6673372,559.08344,3.6673372,711.6746,4.918226,583.6746,4.918244,0.015196607,-2.4148543,0.64147574,0.016751893,0
291400700,59.51825,57.07019,0.48961183,0.119563535,16.0,16.0,16.000004,-7.6293946e-07,0.0,0.0,-3.8146973e-06,24.031555,24.031616,0.17280582,3.6289344,687.6675,1.1725178,559.6674,1.1725178,711.6746,4.80144,583.6746,4.801452,0.015196607,-2.3601828,0.6402025,0.017871562,0
291600665,59.51825,57.10843,0.4819641,0.22170772,16.0,16.0,16.000004,-7.6293946e-07,0.0,0.0,-3.8146973e-06,23.687683,23.687744,0.12153481,2.5522432,688.0424,2.17421,560.04236,2.17421,711.6746,4.726441,583.6746,4.7264533,0.015196607,-2.2974067,0.63961345,0.017107463,0
291780741,59.51825,57.1538,0.47288972,0.05546172,16.0,16.0,16.000002,-3.8146973e-07,0.0,0.0,-1.9073486e-06,23.243927,23.243958,0.19493161,4.09357,688.4873,0.5438937,560.4873,0.5438937,711.6746,4.637458,583.6746,4.637464,0.015196607,-2.2400777,0.6385744,0.01788801,0
291980708,59.51825,57.202194,0.46321106,-0.014437309,16.0,16.0,16.000002,-3.8146973e-07,0.0,0.0,-1.9073486e-06,22.753754,22.753784,0.22305351,4.68413,688.9619,-0.14158164,560.9619,-0.14158164,711.6746,4.5425425,583.6746,4.5425487,0.015196607,-2.145296,0.63782644,0.018263532,0
292180698,59.51825,57.271004,0.44944915,0.16303492,16.0,16.0,16.000002,-3.8146973e-07,0.0,0.0,-1.9073486e-06,22.100128,22.100159,0.13375036,2.808764,689.6367,1.5988264,561.6367,1.5988264,711.6746,4.407584,583.6746,4.4075904,0.015196607,-2.0728786,0.63625365,0.016669733,0
292380809,59.51825,57.32621,0.4384079,0.038474474,16.0,16.0,16.0,0.0,0.0,0.0,-1.9073486e-06,21.517975,21.518005,0.18676224,3.9220073,690.1781,0.37730572,562.1781,0.37730572,711.6746,4.299313,583.6746,4.299313,0.015196607,-2.015209,0.6354367,0.017056696,0
292600805,59.51825,57.344116,0.43482667,-0.2068387,16.0,16.0,15.999993,1.335144e-06,0.0,0.0,6.67572e-06,21.330185,21.330078,0.29964805,6.2925878,690.3536,-2.0283947,562.3537,-2.0283947,711.6746,4.2642145,583.6746,4.264193,0.015196607,-1.8909336,0.6349849,0.019135736,0
292800816,59.51825,57.35401,0.4328476,-0.05420285,16.0,16.0,15.999993,1.335144e-06,0.0,0.0,6.67572e-06,21.23375,21.233643,0.22744545,4.7763333,690.4506,-0.5315484,562.45074,-0.5315484,711.6746,4.2448063,583.6746,4.244785,0.015196607,-1.7786522,0.63473034,0.018761294,0
293000859,59.51825,57.33075,0.4375,-0.10234666,16.0,16.0,15.999993,1.335144e-06,0.0,0.0,6.67572e-06,21.392868,21.392761,0.2521004,5.2940874,690.2225,-1.0036778,562.2226,-1.0036778,711.6746,4.290431,583.6746,4.2904096,0.015196607,-1.6848048,0.6350609,0.019980159,0
293180819,59.51825,57.270393,0.44957122,-0.12552258,16.0,16.0,15.999993,1.335144e-06,0.0,0.0,6.67572e-06,22.002487,22.00238,0.26856023,5.639744,689.6306,-1.2309561,561.63074,-1.2309561,711.6746,4.408809,583.6746,4.4087877,0.015196607,-1.5805781,0.63608617,0.021619165,0
293380805,59.51825,57.28061,0.4475281,0.21903077,16.0,16.0,15.999993,1.335144e-06,0.0,0.0,6.67572e-06,21.989243,21.989136,0.106705464,2.2407935,689.7308,2.147958,561.7309,2.147958,711.6746,4.388773,583.6746,4.3887515,0.015196607,-1.5091666,0.6358149,0.019780364,0
293580859,59.51825,57.27778,0.4480942,0.08388577,16.0,16.0,15.999993,1.335144e-06,0.0,0.0,6.67572e-06,21.95079,21.950684,0.17008026,3.5716643,689.703,0.8226384,561.7031,0.8226384,711.6746,4.3943243,583.6746,4.394303,0.015196607,-1.4522824,0.63588446,0.021026472,0
293780868,59.51825,57.285606,0.44652864,0.2931382,16.0,16.0,15.999993,1.335144e-06,0.0,0.0,6.67572e-06,21.94902,21.948914,0.07163178,1.5042462,689.7798,2.874704,561.7799,2.874704,711.6746,4.3789716,583.6746,4.37895,0.015196607,-1.3943937,0.6357402,0.019979952,0
294000891,59.51825,57.350624,0.4335251,0.36932665,16.0,16.0,15.999993,1.335144e-06,0.0,0.0,6.67572e-06,21.287949,21.287842,0.02998063,0.6295719,690.41736,3.6218572,562.4175,3.6218572,711.6746,4.2514505,583.6746,4.251429,0.015196607,-1.3903192,0.63474286,0.018635748,0
294200975,59.51825,57.416786,0.42029268,0.44751468,16.0,16.0,15.999994,1.1444092e-06,0.0,0.0,5.722046e-06,20.669403,20.669312,-0.012711356,-0.2669568,691.0663,4.38862,563.06635,4.38862,711.6746,4.121681,583.6746,4.121663,0.015196607,-1.3828257,0.63369375,0.017285097,0
294400987,59.51825,57.503662,0.40291747,0.6740867,16.0,16.0,15.999995,9.536743e-07,0.0,0.0,4.7683716e-06,19.872574,19.872498,-0.12663077,-2.6592615,691.9182,6.6105323,563.9183,6.6105323,711.6746,3.951286,583.6746,3.9512708,0.015196607,-1.4129688,0.63227636,0.014482371,0
294580900,59.51825,57.61033,0.38158417,0.7963295,16.0,16.0,15.999996,7.6293946e-07,0.0,0.0,3.8146973e-06,18.81958,18.819519,-0.19367857,-4.0672626,692.9643,7.8093247,564.96436,7.8093247,711.6746,3.7420745,583.6746,3.7420623,0.015196607,-1.4811285,0.63052857,0.011817287,0
294780960,59.51825,57.74402,0.3548462,0.3638656,16.0,16.0,15.999997,5.722046e-07,0.0,0.0,2.861023e-06,17.489792,17.489746,-0.0042114775,-0.08845019,694.2753,3.5683029,566.2754,3.5683029,711.6746,3.4798617,583.6746,3.4798527,0.015196607,-1.5276139,0.6283949,0.012385691,0
294980928,59.51825,57.77574,0.3485016,0.10839492,16.0,16.0,15.999998,3.8146973e-07,0.0,0.0,1.9073486e-06,17.096222,17.096191,0.11212612,2.3546424,694.5864,1.062991,566.5865,1.062991,711.6746,3.4176395,583.6746,3.4176333,0.015196607,-1.4912668,0.6279026,0.013777837,0
295181023,59.51825,57.81224,0.34120178,0.10864987,16.0,16.0,15.999998,3.8146973e-07,0.0,0.0,1.9073486e-06,16.786957,16.786926,0.10859816,2.2805552,694.94434,1.0654913,566.9444,1.0654913,711.6746,3.3460526,583.6746,3.3460464,0.015196607,-1.4486663,0.6273014,0.013545883,0
295401071,59.51825,57.885452,0.32655945,-0.10242875,16.0,16.0,15.999999,1.9073487e-07,0.0,0.0,9.536743e-07,16.074417,16.074402,0.20033047,4.2069373,695.66235,-1.0044829,567.66235,-1.0044829,711.6746,3.2024574,583.6746,3.2024543,0.015196607,-1.3732238,0.6262072,0.0143392775,0
295601079,59.51825,57.921127,0.31942445,-0.057543896,16.0,16.0,15.999999,1.9073487e-07,0.0,0.0,9.536743e-07,15.686783,15.686768,0.17603807,3.6967967,696.0122,-0.5643129,568.0122,-0.5643129,711.6746,3.1324868,583.6746,3.1324837,0.015196607,-1.2890335,0.625576,0.01410478,0
295801061,59.51825,57.927834,0.3180832,-0.06900504,16.0,16.0,15.999999,1.9073487e-07,0.0,0.0,9.536743e-07,15.563797,15.563782,0.18076389,3.7960389,696.078,-0.6767083,568.078,-0.6767083,711.6746,3.1193337,583.6746,3.1193306,0.015196607,-1.225816,0.62549204,0.0144871,0
295981020,59.51825,57.862038,0.33124238,-0.2956168,16.0,16.0,16.0,0.0,0.0,0.0,0.0,16.152649,16.152649,0.29273278,6.147389,695.43274,-2.8990107,567.43274,-2.8990107,711.6746,3.2483783,583.6746,3.2483783,0.015196607,-1.1293731,0.6266307,0.01742277,0
296181036,59.51825,57.79389,0.34487152,0.0037246665,16.0,16.0,16.0,0.0,0.0,0.0,0.0,16.866272,16.866272,0.1593099,3.3455079,694.76447,0.0365265,566.76447,0.0365265,711.6746,3.3820343,583.6746,3.3820343,0.015196607,-1.0289865,0.62760925,0.017128674,0
296381055,59.51825,57.752815,0.35308686,0.073576935,16.0,16.0,16.0,0.0,0.0,0.0,0.0,17.253723,17.253723,0.13052647,2.741056,694.36163,0.72154325,566.36163,0.72154325,711.6746,3.4625993,583.6746,3.4625993,0.015196607,-0.9767601,0.6283404,0.017589753,0
296581106,59.51825,57.7035,0.36295015,0.053594295,16.0,16.0,16.0,0.0,0.0,0.0,0.0,17.760437,17.760437,0.14446403,3.0337448,693.87805,0.5255805,565.87805,0.5255805,711.6746,3.5593252,583.6746,3.5593252,0.015196607,-0.91421074,0.62903976,0.018791387,0
296801191,59.51825,57.66758,0.37013397,0.23510978,16.0,16.0,16.0,0.0,0.0,0.0,0.0,18.145203,18.145203,0.06305405,1.3241351,693.52576,2.3056393,565.52576,2.3056393,711.6746,3.6297743,583.6746,3.6297743,0.015196607,-0.863112,0.6296522,0.018476468,0
297001130,59.51825,57.70717,0.3622162,0.32491168,16.0,16.0,16.0,0.0,0.0,0.0,0.0,17.819946,17.819946,0.017420586,0.36583233,693.914,3.1862953,565.914,3.1862953,711.6746,3.5521276,583.6746,3.5521276,0.015196607,-0.8539923,0.6289818,0.01742898,0
297181163,59.51825,57.775375,0.34857485,0.28240967,16.0,16.0,16.0,0.0,0.0,0.0,0.0,17.158691,17.158691,0.030898036,0.6488588,694.5829,2.7694929,566.5829,2.7694929,711.6746,3.4183517,583.6746,3.4183517,0.015196607,-0.84240377,0.62793887,0.016830632,0
297381263,59.51825,57.854782,0.3326935,0.5077943,16.0,16.0,16.0,0.0,0.0,0.0,0.0,16.404419,16.404419,-0.08176917,-1.7171526,695.36163,4.979761,567.36163,4.979761,711.6746,3.2626085,583.6746,3.2626085,0.015196607,-0.8546235,0.62669295,0.014252253,0
297581171,59.51825,57.91649,0.32035217,0.34197137,16.0,16.0,16.0,0.0,0.0,0.0,0.0,15.7387085,15.7387085,-0.010095811,-0.21201205,695.96674,3.3535936,567.96674,3.3535936,711.6746,3.1415815,583.6746,3.1415815,0.015196607,-0.8826799,0.6257982,0.014261371,0
297781208,59.51825,57.912445,0.32116088,0.059759833,16.0,16.0,16.0,0.0,0.0,0.0,0.0,15.726074,15.726074,0.12206993,2.5634687,695.92706,0.5860438,567.92706,0.5860438,711.6746,3.1495125,583.6746,3.1495125,0.015196607,-0.852647,0.6258518,0.0162722,0
297981248,59.51825,57.938065,0.316037,0.28350756,16.0,16.0,16.0,0.0,0.0,0.0,0.0,15.539978,15.539978,0.015190714,0.319005,696.17834,2.7802594,568.17834,2.7802594,711.6746,3.0992644,583.6746,3.0992644,0.015196607,-0.8214602,0.62530375,0.014720271,0
298201312,59.51825,57.99627,0.30439606,0.17818488,16.0,16.0,16.0,0.0,0.0,0.0,0.0,14.9591675,14.9591675,0.05893852,1.2377089,696.74915,1.7473968,568.74915,1.7473968,711.6746,2.9851058,583.6746,2.9851058,0.015196607,-0.8132853,0.62442935,0.014630323,0
298401286,59.51825,58.018456,0.2999588,0.05832162,16.0,16.0,16.0,0.0,0.0,0.0,0.0,14.721985,14.721985,0.11284053,2.3696513,696.9667,0.57193977,568.9667,0.57193977,711.6746,2.941591,583.6746,2.941591,0.015196607,-0.77200377,0.62404925,0.015337503,0
298581305,59.51825,58.041077,0.29543456,0.16707513,16.0,16.0,16.0,0.0,0.0,0.0,0.0,14.523621,14.523621,0.05994172,1.2587762,697.18854,1.6384473,569.18854,1.6384473,711.6746,2.8972235,583.6746,2.8972235,0.015196607,-0.73846674,0.6236752,0.014560492,0
298781269,59.51825,58.076218,0.28840637,0.06805995,16.0,16.0,16.0,0.0,0.0,0.0,0.0,14.189209,14.189209,0.102898106,2.1608603,697.53314,0.6674401,569.53314,0.6674401,711.6746,2.8283005,583.6746,2.8283005,0.015196607,-0.706379,0.6230884,0.014900651,0
298981327,59.51825,58.109024,0.2818451,0.14276357,16.0,16.0,16.0,0.0,0.0,0.0,0.0,13.903015,13.903015,0.06494875,1.3639239,697.85486,1.4000324,569.85486,1.4000324,711.6746,2.7639563,583.6746,2.7639563,0.015196607,-0.655974,0.62270576,0.014303908,0
299181428,59.51825,58.193512,0.2649475,0.31364134,16.0,16.0,16.0,0.0,0.0,0.0,0.0,13.088501,13.088501,-0.022739206,-0.47752333,698.6834,3.0757709,570.6834,3.0757709,711.6746,2.5982475,583.6746,2.5982475,0.015196607,-0.6634059,0.621197,0.012026846,0
299381327,59.51825,58.266434,0.25036317,0.11931785,16.0,16.0,16.0,0.0,0.0,0.0,0.0,12.329285,12.329285,0.061195977,1.2851156,699.39856,1.1701084,571.39856,1.1701084,711.6746,2.455224,583.6746,2.455224,0.015196607,-0.6548326,0.6200396,0.012293335,0
299601346,59.51825,58.304543,0.24274139,-0.062082373,16.0,16.0,16.0,0.0,0.0,0.0,0.0,11.913147,11.913147,0.1423476,2.9892998,699.7723,-0.6088201,571.7723,-0.6088201,711.6746,2.3804798,583.6746,2.3804798,0.015196607,-0.59985304,0.6194306,0.013253486,0
299801396,59.51825,58.325455,0.23855896,0.1998491,16.0,16.0,16.0,0.0,0.0,0.0,0.0,11.725708,11.725708,0.018076856,0.379614,699.97736,1.9598502,571.97736,1.9598502,711.6746,2.3394642,583.6746,2.3394642,0.015196607,-0.56832564,0.61918896,0.011529803,0
299981391,59.51825,58.35865,0.23191987,0.16852628,16.0,16.0,16.0,0.0,0.0,0.0,0.0,11.416321,11.416321,0.029603751,0.6216788,700.30286,1.6526783,572.30286,1.6526783,711.6746,2.274357,583.6746,2.274357,0.015196607,-0.5625905,0.618686,0.011305686,0
300181399,59.51825,58.406,0.22245026,0.14612328,16.0,16.0,16.0,0.0,0.0,0.0,0.0,10.935913,10.935913,0.03564343,0.748512,700.7672,1.4329798,572.7672,1.4329798,711.6746,2.1814919,583.6746,2.1814919,0.015196607,-0.5469662,0.61798835,0.0108942455,0
300381411,59.51825,58.426414,0.21836701,0.08969705,16.0,16.0,16.0,0.0,0.0,0.0,0.0,10.740967,10.740967,0.06008673,1.2618214,700.9674,0.8796276,572.9674,0.8796276,711.6746,2.141449,583.6746,2.141449,0.015196607,-0.527992,0.61764157,0.011087113,0
300581434,59.51825,58.43776,0.21609803,-0.08499388,16.0,16.0,16.0,0.0,0.0,0.0,0.0,10.586975,10.586975,0.1406049,2.952703,701.0787,-0.8335052,573.0787,-0.8335052,711.6746,2.1191978,583.6746,2.1191978,0.015196607,-0.48394728,0.61735284,0.012303647,0
300781522,59.51825,58.415268,0.22059631,-0.08220711,16.0,16.0,16.0,0.0,0.0,0.0,0.0,10.816589,10.816589,0.14140414,2.9694872,700.8581,-0.8061764,572.8581,-0.8061764,711.6746,2.1633108,583.6746,2.1633108,0.015196607,-0.4183097,0.6177716,0.013013808,0
301001463,59.51825,58.43569,0.21651153,0.15353115,16.0,16.0,16.0,0.0,0.0,0.0,0.0,10.630981,10.630981,0.029410787,0.61762655,701.0584,1.5056263,573.0584,1.5056263,711.6746,2.1232529,583.6746,2.1232529,0.015196607,-0.38717175,0.61867195,0.011458065,0
301201492,59.51825,58.45305,0.21304016,0.1318454,16.0,16.0,16.0,0.0,0.0,0.0,0.0,10.47699,10.47699,0.037916597,0.79624856,701.2286,1.2929617,573.2286,1.2929617,711.6746,2.0892103,583.6746,2.0892103,0.015196607,-0.36931926,0.625174,0.011468722,0
301381499,59.51825,58.486443,0.2063614,0.232701,16.0,16.0,16.0,0.0,0.0,0.0,0.0,10.156555,10.156555,-0.01230015,-0.25830317,701.5561,2.2820172,573.5561,2.2820172,711.6746,2.023714,583.6746,2.023714,0.015196607,-0.3660344,0.6349296,0.010400144,0
301581524,59.51825,58.51667,0.20031586,0.30352995,16.0,16.0,16.0,0.0,0.0,0.0,0.0,9.85498,9.85498,-0.04819926,-1.0121845,701.85254,2.976612,573.85254,2.976612,711.6746,1.9644276,583.6746,1.9644276,0.015196607,-0.38569343,0.65757555,0.009416542,0
301781541,59.51825,58.583664,0.18691711,0.46678114,16.0,16.0,16.0,0.0,0.0,0.0,0.0,9.258057,9.258057,-0.13069184,-2.7445288,702.5095,4.5775595,574.5095,4.5775595,711.6746,1.8330307,583.6746,1.8330307,0.015196607,-0.41949803,0.6842724,0.0072596134,0
301981556,59.51825,58.70601,0.16244812,0.8383095,16.0,16.0,16.0,0.0,0.0,0.0,0.0,8.114807,8.114807,-0.315616,-6.6279364,703.7093,8.221008,575.7093,8.221008,711.6746,1.5930719,583.6746,1.5930719,0.015196607,-0.5171465,0.6873481,0.0026329819,0
302181588,59.51825,58.90117,0.12341614,1.1661233,16.0,16.0,16.0,0.0,0.0,0.0,0.0,6.2597046,6.2597046,-0.48692685,-10.225465,705.62317,11.435763,577.62317,11.435763,711.6746,1.2102989,583.6746,1.2102989,0.015196607,-0.68974954,0.68770635,-0.0031993412,0
302401660,59.51825,59.201797,0.06329041,1.6820562,16.0,16.0,16.0,0.0,0.0,0.0,0.0,3.3963623,3.3963623,-0.7559366,-15.87467,708.5713,16.495337,580.5713,16.495337,711.6746,0.6206669,583.6746,0.6206669,0.015196607,-0.97564065,0.6895704,-0.012379615,0
302581651,59.51825,59.531166,-0.002583313,1.9297316,16.0,16.0,16.0,0.0,0.0,0.0,0.0,0.24591064,0.24591064,-0.9023588,-18.949535,711.80133,18.924202,583.80133,18.924202,711.6746,-0.025333647,583.6746,-0.025333647,0.015196607,-1.2996026,0.6605032,-0.020521086,0
302781639,59.51825,59.913277,-0.079005435,1.7715143,16.0,16.0,16.0,0.0,0.0,0.0,0.0,-3.517395,-3.517395,-0.86416185,-18.1474,715.5485,17.372622,587.5485,17.372622,711.6746,-0.77477866,583.6746,-0.77477866,0.015196607,-1.6734298,0.63855535,-0.027168736,0
302981823,59.51825,60.24775,-0.14589997,1.3189797,16.0,16.0,16.0,0.0,0.0,0.0,0.0,-6.88678,-6.88678,-0.68407434,-14.365562,718.8286,12.9347725,590.8286,12.9347725,711.6746,-1.43079,583.6746,-1.43079,0.015196607,-2.0002375,0.6231786,-0.031022212,0
303181667,59.51825,60.48935,-0.19421998,0.63384414,16.0,16.0,16.0,0.0,0.0,0.0,0.0,-9.328491,-9.328491,-0.3866921,-8.120535,721.1979,6.2158875,593.1979,6.2158875,711.6746,-1.9046474,583.6746,-1.9046474,0.015196607,-2.2153056,0.6149177,-0.031432793,0
303381718,59.51825,60.62886,-0.22212219,0.5180764,16.0,16.0,16.0,0.0,0.0,0.0,0.0,-10.780457,-10.780457,-0.3456604,-7.2588687,722.56604,5.080594,594.56604,5.080594,711.6746,-2.1782746,583.6746,-2.1782746,0.015196607,-2.3578525,0.6155282,-0.033536006,0
303581841,59.51825,60.744026,-0.24515533,0.38985744,16.0,16.0,16.0,0.0,0.0,0.0,0.0,-11.933472,-11.933472,-0.29654038,-6.2273483,723.69543,3.8231955,595.69543,3.8231955,711.6746,-2.4041526,583.6746,-2.4041526,0.015196607,-2.5009189,0.6019572,-0.03522996,0
303801716,59.51825,60.763985,-0.24914704,-0.36531925,16.0,16.0,16.0,0.0,0.0,0.0,0.0,-12.29187,-12.29187,0.054250486,1.1392603,723.8911,-3.5825582,595.8911,-3.5825582,711.6746,-2.4432979,583.6746,-2.4432979,0.015196607,-2.5557837,0.5693339,-0.031134203,0
303981745,59.51825,60.675873,-0.23152466,-0.68910736,16.0,16.0,16.0,0.0,0.0,0.0,0.0,-11.471497,-11.471497,0.21368349,4.4873533,723.02704,-6.757835,595.02704,-6.757835,711.6746,-2.2704813,583.6746,-2.2704813,0.015196607,-2.4914262,0.5723933,-0.027488824,0
304181924,59.51825,60.55783,-0.20791626,-0.37628984,16.0,16.0,16.0,0.0,0.0,0.0,0.0,-10.309998,-10.309998,0.07862765,1.6511807,721.86945,-3.6901429,593.86945,-3.6901429,711.6746,-2.0389621,583.6746,-2.0389621,0.015196607,-2.433851,0.57284653,-0.027453918,0
304381800,59.51825,60.4198,-0.18031006,-0.3459299,16.0,16.0,16.0,0.0,0.0,0.0,0.0,-8.98761,-8.98761,0.0773417,1.6241758,720.51587,-3.3924134,592.51587,-3.3924134,711.6746,-1.7682376,583.6746,-1.7682376,0.015196607,-2.4083476,0.5646701,-0.0255832,0
304581784,59.51825,60.249054,-0.14616089,-0.58167994,16.0,16.0,16.0,0.0,0.0,0.0,0.0,-7.346924,-7.346924,0.20338014,4.270983,718.8414,-5.704332,590.8414,-5.704332,711.6746,-1.4333487,583.6746,-1.4333487,0.015196607,-2.3502073,0.5669881,-0.021391464,0
304781943,59.51825,60.051247,-0.10659943,-0.5883164,16.0,16.0,16.0,0.0,0.0,0.0,0.0,-5.4317017,-5.4317017,0.22495377,4.7240295,716.90155,-5.769413,588.90155,-5.769413,711.6746,-1.0453833,583.6746,-1.0453833,0.015196607,-2.2501903,0.5739602,-0.017992705,0
304981905,59.51356,59.883904,-0.15083396,-0.33021998,16.0,16.0,16.0,0.0,0.0,0.0,0.0,-3.7775269,-3.7775269,0.083770275,1.7591759,715.2605,-3.2383518,587.2605,-3.2383518,711.62866,-1.4791759,583.62866,-1.4791759,0.015196607,-2.1847503,0.55813307,-0.022229867,0
305201845,59.287983,59.710236,-0.6230901,-0.49175113,16.0,16.0,16.0,0.0,0.0,0.0,0.0,-4.3171387,-4.3171387,-0.061333086,-1.2879949,713.5574,-4.8224316,585.5574,-4.8224316,709.4165,-6.1104264,581.4165,-6.1104264,0.015196607,-2.1854014,0.41824314,-0.053692054,0
305381895,58.851494,59.53306,-1.0363129,-0.67647433,16.0,16.0,16.0,0.0,0.0,0.0,0.0,-6.899536,-6.899536,-0.16803865,-3.528812,711.8199,-6.633947,583.8199,-6.633947,705.136,-10.162759,577.136,-10.162759,0.015196607,-2.2322764,0.3149969,-0.081245355,0
305581869,58.25157,59.276154,-1.1049165,-1.1347581,16.0,16.0,16.0,0.0,0.0,0.0,0.0,-10.335144,-10.335144,0.013935543,0.2926464,709.3005,-11.128176,581.3005,-11.128176,699.2528,-10.835529,571.2528,-10.835529,0.015196607,-2.2679036,0.33771935,-0.08332463,0
305781892,57.725964,58.91092,-0.8321698,-1.6765975,16.0,16.0,16.0,0.0,0.0,0.0,0.0,-12.023132,-12.023132,0.39433363,8.281007,705.71875,-16.441805,577.71875,-16.441805,694.0983,-8.160798,566.0983,-8.160798,0.015196607,-2.1798756,0.49044722,-0.06062578,0
305981998,57.469116,58.460487,-0.3732303,-1.9679056,16.0,16.0,16.0,0.0,0.0,0.0,0.0,-10.215942,-10.215942,0.7446868,15.638424,701.3016,-19.298563,573.3016,-19.298563,691.5795,-3.660139,563.5795,-3.660139,0.015196607,-1.9292783,0.63404304,-0.025655897,0
306181929,57.47577,57.99134,-0.058115095,-1.7790995,16.0,16.0,16.0,0.0,0.0,0.0,0.0,-5.458008,-5.458008,0.803671,16.877092,696.7008,-17.447006,568.7008,-17.447006,691.6448,-0.5699144,563.6448,-0.5699144,0.015196607,-1.5786654,0.6641563,-0.002937232,0
306381960,57.47343,57.657394,-0.034208775,-1.1934006,16.0,16.0,16.0,0.0,0.0,0.0,0.0,-2.0558472,-2.0558472,0.54132324,11.367789,693.4259,-11.703262,565.4259,-11.703262,691.6218,-0.33547348,563.6218,-0.33547348,0.015196607,-1.3037715,0.66853917,-0.0032023296,0
306601968,57.473385,57.444206,0.005835724,-0.57109594,16.0,16.0,16.0,0.0,0.0,0.0,0.0,0.15423584,0.15423584,0.26941746,5.6577673,691.3352,-5.6005383,563.3352,-5.6005383,691.6214,0.057228904,563.6214,0.057228904,0.015196607,-1.1267288,0.6759973,-0.003210341,0
306797154,57.473385,57.378014,0.01907425,-0.16553046,16.0,16.0,16.0,0.0,0.0,0.0,0.0,0.92907715,0.92907715,0.086207315,1.8103538,690.6861,-1.6232992,562.6861,-1.6232992,691.6214,0.1870545,563.6214,0.1870545,0.015196607,-1.0576379,0.67451066,-0.0043946453,0
306982014,57.473385,57.4,0.014676667,0.27116573,16.0,16.0,16.0,0.0,0.0,0.0,0.0,0.7791748,0.7791748,-0.11977611,-2.5152984,690.90173,2.6592274,562.90173,2.6592274,691.6214,0.14392893,563.6214,0.14392893,0.015196607,-1.0704792,0.67470556,-0.007508171,0
307182012,57.426075,57.478996,-0.25471136,0.582238,16.0,16.0,16.0,0.0,0.0,0.0,0.0,-0.4265747,-0.4265747,-0.39084142,-8.20767,691.6764,5.7098045,563.6764,5.7098045,691.1574,-2.4978652,563.1574,-2.4978652,0.015196607,-1.1775475,0.6561847,-0.02865517,0
307382027,57.123295,57.57132,-0.75376356,0.6642696,16.0,16.0,16.0,0.0,0.0,0.0,0.0,-4.28833,-4.28833,-0.6621978,-13.906155,692.5818,6.51426,564.5818,6.51426,688.1882,-7.3918953,560.1882,-7.3918953,0.015196607,-1.4065994,0.6113694,-0.0649375,0
307582104,56.62828,57.658287,-0.9797294,0.58510935,16.0,16.0,16.0,0.0,0.0,0.0,0.0,-9.998108,-9.998108,-0.7307536,-15.345826,693.43463,5.7379627,565.43463,5.7379627,683.33374,-9.607863,555.33374,-9.607863,0.015196607,-1.7072372,0.5884328,-0.08189394,0
307782055,56.088085,57.735367,-1.1738001,0.3711049,16.0,16.0,16.0,0.0,0.0,0.0,0.0,-16.058289,-16.058289,-0.72144485,-15.150343,694.19055,3.6392958,566.19055,3.6392958,678.03625,-11.511047,550.03625,-11.511047,0.015196607,-2.0147784,0.5031144,-0.095858805,0
308002096,55.444847,57.79785,-1.3706009,0.063313246,16.0,16.0,16.0,0.0,0.0,0.0,0.0,-23.03888,-23.03888,-0.66961396,-14.061894,694.8033,0.62089086,566.8033,0.62089086,671.7282,-13.441004,543.7282,-13.441004,0.015196607,-2.334948,0.46337554,-0.10950567,0
308182093,54.904846,57.75396,-1.4698228,-0.20253429,16.0,16.0,16.0,0.0,0.0,0.0,0.0,-28.039612,-28.039612,-0.59180254,-12.427855,694.37286,-1.9861829,566.37286,-1.9861829,666.4326,-14.414038,538.4326,-14.414038,0.015196607,-2.5717776,0.4159393,-0.116175,0
308382125,54.304756,57.61267,-1.561583,-0.3511919,16.0,16.0,16.0,0.0,0.0,0.0,0.0,-32.584778,-32.584778,-0.56523246,-11.869883,692.9873,-3.4440162,564.9873,-3.4440162,660.5477,-15.313899,532.5477,-15.313899,0.015196607,-2.8127134,0.39574847,-0.12308995,0
308582185,53.704575,57.428795,-1.644844,-0.57044375,16.0,16.0,16.0,0.0,0.0,0.0,0.0,-36.723816,-36.723816,-0.50172704,-10.536268,691.1841,-5.5941424,563.1841,-5.5941424,654.662,-16.130411,526.662,-16.130411,0.015196607,-3.0368066,0.36501867,-0.12887202,0
308782146,53.104694,57.213943,-1.7218499,-0.8763424,16.0,16.0,16.0,0.0,0.0,0.0,0.0,-40.528564,-40.528564,-0.3948379,-8.291596,689.07715,-8.593984,561.07715,-8.593984,648.7792,-16.88558,520.7792,-16.88558,0.015196607,-3.2221935,0.29747164,-0.13343582,0
308982155,52.504665,56.958214,-1.7907097,-1.2175319,16.0,16.0,16.0,0.0,0.0,0.0,0.0,-43.95569,-43.95569,-0.26766443,-5.6209536,686.5693,-11.93991,558.5693,-11.93991,642.8949,-17.560863,514.8949,-17.560863,0.015196607,-3.3619697,0.20462973,-0.1369283,0
309182332,51.904137,56.62188,-1.8435487,-1.4991696,16.0,16.0,16.0,0.0,0.0,0.0,0.0,-46.62137,-46.62137,-0.16081928,-3.377205,683.27094,-14.701832,555.27094,-14.701832,637.00574,-18.079037,509.0057,-18.079037,0.015196607,-3.448556,0.12277905,-0.13935259,0
309382194,51.30455,56.212715,-1.881633,-1.8282478,16.0,16.0,16.0,0.0,0.0,0.0,0.0,-48.552277,-48.552277,-0.024930045,-0.52353096,679.2584,-17.928986,551.2584,-17.928986,631.12573,-18.452517,503.12576,-18.452517,0.015196607,-3.4855356,0.07954424,-0.14014983,0
309582225,50.70446,55.732338,-1.9055756,-2.016742,16.0,16.0,16.0,0.0,0.0,0.0,0.0,-49.82611,-49.82611,0.051912848,1.0901699,674.54755,-19.777483,546.54755,-19.777483,625.2409,-18.687313,497.2409,-18.687313,0.015196607,-3.4761553,0.04822233,-0.140558,0
309782364,50.104042,55.207863,-1.9207642,-2.3052597,16.0,16.0,16.0,0.0,0.0,0.0,0.0,-50.586395,-50.586395,0.17955306,3.7706146,669.4042,-22.606876,541.4042,-22.606876,619.3528,-18.836262,491.3528,-18.836262,0.015196607,-3.42796,0.026448691,-0.13949183,0
309982275,49.504307,54.63797,-1.9267327,-2.609718,16.0,16.0,16.0,0.0,0.0,0.0,0.0,-50.922394,-50.922394,0.31894282,6.6977997,663.8154,-25.592592,535.8154,-25.592592,613.47144,-18.894793,485.4714,-18.894793,0.015196607,-3.3217616,0.022136379,-0.13732247,0
310182293,48.904255,54.001198,-1.9193887,-2.9150624,16.0,16.0,16.0,0.0,0.0,0.0,0.0,-50.60919,-50.60919,0.46496308,9.764225,657.57086,-28.586998,529.57086,-28.586998,607.5869,-18.822773,479.5869,-18.822773,0.015196607,-3.1502964,0.028210761,-0.13381638,0
310382446,48.3038,53.329994,-1.9052391,-3.131047,16.0,16.0,16.0,0.0,0.0,0.0,0.0,-49.951324,-49.951324,0.5724318,12.021069,650.9886,-30.705082,522.9886,-30.705082,601.6985,-18.684013,473.69846,-18.684013,0.015196607,-2.9284112,0.03874419,-0.13007958,0
310582334,47.704136,52.631256,-1.8854241,-3.169501,16.0,16.0,16.0,0.0,0.0,0.0,0.0,-49.054474,-49.054474,0.5996425,12.592493,644.1363,-31.082188,516.1363,-31.082188,595.81775,-18.489695,467.81778,-18.489695,0.015196607,-2.6774454,0.0501282,-0.12687749,0
310782343,47.104107,51.971252,-1.8734292,-2.8652792,16.0,16.0,16.0,0.0,0.0,0.0,0.0,-48.3302,-48.3302,0.4631774,9.726727,637.6639,-28.098791,509.66388,-28.098791,589.9335,-18.372065,461.9335,-18.372065,0.015196607,-2.4528906,0.058291055,-0.12652309,0
310982457,46.50376,51.33564,-1.8663758,-2.9072814,16.0,16.0,16.0,0.0,0.0,0.0,0.0,-48.007416,-48.007416,0.4860855,10.207796,631.43066,-28.51069,503.43066,-28.51069,584.04614,-18.302895,456.0461,-18.302895,0.015196607,-2.2603865,0.06153499,-0.124548785,0
311182355,45.904064,50.671005,-1.8533883,-3.1131184,16.0,16.0,16.0,0.0,0.0,0.0,0.0,-47.47046,-47.47046,0.58827287,12.353731,624.91284,-30.529263,496.9128,-30.529263,578.1651,-18.175531,450.1651,-18.175531,0.015196607,-2.0308788,0.058596507,-0.12090671,0
311382381,45.30399,50.00898,-1.8409982,-2.9679394,16.0,16.0,16.0,0.0,0.0,0.0,0.0,-46.775635,-46.775635,0.5262627,11.0515175,618.42053,-29.105543,490.42056,-29.105543,572.2804,-18.054026,444.28036,-18.054026,0.015196607,-1.7952411,0.063942045,-0.11946049,0
311582399,44.703934,49.37053,-1.8333192,-2.8357978,16.0,16.0,16.0,0.0,0.0,0.0,0.0,-46.363922,-46.363922,0.4681408,9.830957,612.15955,-27.809677,484.15952,-27.809677,566.3959,-17.97872,438.39584,-17.97872,0.015196607,-1.5861616,0.064631335,-0.11842592,0
311782391,44.10396,48.75714,-1.8306366,-2.804214,16.0,16.0,16.0,0.0,0.0,0.0,0.0,-46.222015,-46.222015,0.4546444,9.547533,606.1442,-27.499947,478.14423,-27.499947,560.5121,-17.952414,432.5121,-17.952414,0.015196607,-1.3980037,0.062730506,-0.11723973,0
311982461,43.503746,48.13617,-1.8264847,-2.9567554,16.0,16.0,16.0,0.0,0.0,0.0,0.0,-46.032196,-46.032196,0.52781755,11.084169,600.05457,-28.995865,472.05457,-28.995865,554.626,-17.911695,426.626,-17.911695,0.015196607,-1.1908323,0.059768703,-0.114680536,0
312182420,42.90387,47.49662,-1.8185501,-3.072142,16.0,16.0,16.0,0.0,0.0,0.0,0.0,-45.64981,-45.64981,0.5854064,12.293535,593.7827,-30.12742,465.78275,-30.12742,548.7432,-17.833885,420.74323,-17.833885,0.015196607,-0.95401263,0.06123898,-0.11190458,0
