timestamp,timestamp_sample,lat,lon,alt,alt_ellipsoid,delta_alt,eph,epv,terrain_alt,lat_lon_reset_counter,alt_reset_counter,terrain_alt_valid,dead_reckoning
217458737,217458259,36.66072266644609,126.34204036983421,9.562199,22.810154,0.0,1.7835308,2.9329758,9.468584,2,62,1,0
217468933,217468259,36.66072267116322,126.34204036966248,9.561901,22.829693,0.0,1.780365,2.932477,9.466509,2,62,1,0
217658938,217658275,36.66072274740919,126.34204035777485,9.557201,22.844357,0.0,1.7801375,2.932256,9.46855,2,62,1,0
217858804,217858291,36.660722830928115,126.34204036323555,9.555399,22.842554,0.0,1.7833638,2.932701,9.464853,2,62,1,0
218058788,218058307,36.660722886761775,126.34204035747214,9.552038,22.859493,0.0,1.7832758,2.9329085,9.460098,2,62,1,0
218258799,218258323,36.6607229555461,126.34204033938205,9.547191,22.874645,0.0,1.7831862,2.9327748,9.454863,2,62,1,0
218458818,218458340,36.66072303288987,126.3420403345876,9.540833,22.88839,0.0,1.783095,2.9329855,9.444387,2,62,1,0
218658821,218658356,36.66072309264304,126.34204033921235,9.534565,22.903019,0.0,1.7829875,2.9328547,9.439501,2,62,1,0
218858837,218858373,36.66072315685603,126.34204035757976,9.5247345,22.912388,0.0,1.782894,2.9327247,9.428219,2,62,1,0
219058987,219058389,36.66072316463501,126.34204036561846,9.51795,22.944805,0.0,1.7794982,2.9323504,9.42318,2,62,1,0
219258932,219258406,36.66072318559622,126.34204039343652,9.512745,22.9396,0.0,1.7827177,2.9328146,9.41935,2,62,1,0
219458878,219458422,36.66072321344443,126.34204039705294,9.506627,22.954433,0.0,1.7826239,2.9326894,9.411953,2,62,1,0
219659120,219658439,36.6607232525623,126.3420404011398,9.499275,22.986431,0.0,1.7792327,2.9319944,9.401592,2,62,1,0
219858955,219858455,36.66072328225449,126.3420403413353,9.491476,22.97863,0.0,1.7824492,2.9327888,9.395695,2,62,1,0
220058926,220058472,36.660723300548376,126.34204031775911,9.494135,23.001991,0.0,1.7823538,2.9326692,9.395695,2,62,1,0
220259117,220258488,36.66072334060968,126.34204025155906,9.492823,23.039978,0.0,1.7789654,2.9322996,9.395695,2,62,1,0
220459011,220458505,36.66072334270237,126.34204019891523,9.492344,23.0395,0.0,1.782178,2.9327703,9.395695,2,62,1,0
220659115,220658522,36.66072338171732,126.3420401761937,9.488455,23.075409,0.0,1.7787877,2.9320712,9.392843,2,62,1,0
220859181,220858538,36.66072341618667,126.34204019265333,9.485563,23.092518,0.0,1.7787058,2.9319582,9.390934,2,62,1,0
221059356,221058555,36.66072346879554,126.34204020439799,9.4857235,23.11308,0.0,1.7786219,2.9318538,9.390934,2,62,1,0
221258990,221258572,36.66072353143901,126.34204025230615,9.4896145,23.11697,0.0,1.7818316,2.9326537,9.390934,2,62,1,0
221459049,221458588,36.660723600163294,126.34204032214335,9.498781,23.146088,0.0,1.7817346,2.9325414,9.390934,2,62,1,0
221659283,221658605,36.66072362699948,126.34204034208041,9.509415,23.194153,0.0,1.778356,2.9321768,9.390934,2,62,1,0
221859041,221858622,36.660723659830694,126.3420403958836,9.516312,23.20105,0.0,1.7815585,2.9326541,9.390934,2,62,1,0
222059098,222058639,36.66072366281534,126.34204036937057,9.525954,23.230228,0.0,1.7814646,2.9325423,9.390934,2,62,1,0
222259257,222258655,36.66072367366474,126.34204033454688,9.531874,23.270807,0.0,1.7780513,2.9321759,9.390934,2,62,1,0
222459019,222458672,36.66072366171755,126.34204032052625,9.536644,23.275578,0.0,1.7812333,2.9326537,9.390934,2,62,1,0
222659129,222658689,36.66072369957466,126.34204026221857,9.53858,23.2967,0.0,1.7811117,2.9325411,9.390934,2,62,1,0
222859382,222858706,36.66072376678947,126.34204019560556,9.536426,23.323967,0.0,1.7777787,2.9321802,9.390934,2,62,1,0
223049162,223048722,36.66072378877988,126.34204004291627,9.535915,23.323458,0.0,1.7807794,2.932567,9.390934,2,62,1,0
223259249,223258739,36.66072389001807,126.3420397889887,9.561773,23.3648,0.0,1.7808802,2.9325483,9.390934,2,62,1,0
223459225,223458756,36.66072416055834,126.34203932966722,9.612904,23.430336,0.0,1.7807963,2.9324403,9.390934,2,62,1,0
223659190,223658773,36.66072437976766,126.34203890732579,9.672451,23.502848,0.0,1.7807118,2.932667,9.390934,2,62,1,0
223859222,223858790,36.660724412401635,126.342038683241,9.738604,23.581104,0.0,1.7806246,2.932558,9.390934,2,62,1,0
224059271,224058807,36.660724333265364,126.3420384457597,9.812703,23.66645,0.0,1.7805388,2.9324508,9.390934,2,62,1,0
224259410,224258824,36.66072428543368,126.3420381620632,9.887176,23.762062,0.0,1.7772024,2.9320934,nan,2,62,0,0
224459270,224458841,36.66072411103712,126.34203807710949,9.970266,23.845152,0.0,1.7803788,2.9325743,nan,2,62,0,0
224659352,224658858,36.66072396637561,126.34203815453768,10.061117,23.947712,0.0,1.7802787,2.932466,nan,2,62,0,0
224859316,224858878,36.66072369509778,126.34203825108833,10.176445,24.073029,0.0,1.7802,2.9326978,nan,2,62,0,0
225059474,225058892,36.66072354140512,126.34203833484187,10.295865,24.211788,0.0,1.776874,2.9320078,nan,2,62,0,0
225259318,225258909,36.66072339385329,126.3420385015695,10.418377,24.3343,0.0,1.7800418,2.9324865,nan,2,62,0,0
225459587,225458926,36.6607231331504,126.34203875013792,10.543447,24.477962,0.0,1.7767308,2.93181,nan,2,62,0,0
225659367,225658944,36.6607229354083,126.34203918331188,10.671817,24.60633,0.0,1.7798966,2.9326153,nan,2,62,0,0
225859380,225858961,36.66072275449351,126.34203956566094,10.810486,24.753769,0.0,1.779817,2.932512,nan,2,62,0,0
226059466,226058978,36.66072243024657,126.34203997000246,10.952724,24.904964,0.0,1.779737,2.9324102,nan,2,62,0,0
226259401,226258995,36.660722083100126,126.34204027081778,11.111248,25.07273,0.0,1.7796625,2.932643,nan,2,62,0,0
226459461,226459012,36.66072179090394,126.34204067070894,11.279833,25.250317,0.0,1.7795883,2.9325402,nan,2,62,0,0
226659474,226659029,36.66072161909749,126.34204100711506,11.452815,25.431747,0.0,1.7795137,2.9324384,nan,2,62,0,0
226859591,226859046,36.6607214968895,126.34204133827431,11.624949,25.619799,0.0,1.7762306,2.9320836,nan,2,62,0,0
227059620,227059064,36.66072148231785,126.34204166510017,11.796471,25.800404,0.0,1.7761697,2.9319875,nan,2,62,0,0
227259484,227259081,36.66072149144331,126.34204204287256,11.979979,25.98391,0.0,1.7793165,2.9324703,nan,2,62,0,0
227459501,227459098,36.66072147144266,126.34204224620771,12.174389,26.186684,0.0,1.7792389,2.9327025,nan,2,62,0,0
227659672,227659116,36.660721479813425,126.34204229929125,12.370447,26.39697,0.0,1.7759687,2.9320166,nan,2,62,0,0
227859539,227859133,36.66072156417285,126.34204238378388,12.5634985,26.590023,0.0,1.779107,2.9324992,nan,2,62,0,0
228059802,228059150,36.66072184677177,126.34204256563507,12.752883,26.792728,0.0,1.7758423,2.9318192,nan,2,62,0,0
228259762,228259167,36.660722207434915,126.34204272257766,12.936123,26.983334,0.0,1.7757859,2.9320428,nan,2,62,0,0
228459636,228459185,36.660722516149576,126.34204298952822,13.126291,27.1735,0.0,1.7789192,2.9325225,nan,2,62,0,0
228659808,228659202,36.66072278517176,126.34204306447197,13.326944,27.389215,0.0,1.7756371,2.9321578,nan,2,62,0,0
228859851,228859220,36.66072299219372,126.34204297446925,13.548232,27.617035,0.0,1.7755787,2.9320493,nan,2,62,0,0
229059693,229059237,36.66072324899425,126.34204289012834,13.766548,27.83535,0.0,1.7787002,2.9328542,nan,2,62,0,0
229259806,229259254,36.660723553043276,126.34204282275829,13.984344,28.066483,0.0,1.7754493,2.9324632,nan,2,62,0,0
229459683,229459272,36.66072384999946,126.34204275763277,14.1996765,28.28771,0.0,1.7754,2.9323335,nan,2,62,0,0
229660105,229659290,36.66072403927644,126.34204250913119,14.412707,28.506577,0.0,1.7753382,2.9322057,nan,2,62,0,0
229859776,229859307,36.66072422123761,126.34204210739371,14.628746,28.722614,0.0,1.7784559,2.9330084,nan,2,62,0,0
230059903,230059324,36.66072451216445,126.34204173627214,14.829368,28.93193,0.0,1.7752018,2.9322758,nan,2,62,0,0
230259803,230259342,36.66072478991763,126.34204148502884,15.026213,29.128777,0.0,1.7783138,2.933079,nan,2,62,0,0
230459773,230459360,36.66072502647742,126.34204108951718,15.22483,29.331602,0.0,1.7782346,2.932944,nan,2,62,0,0
230659966,230659377,36.660725124302125,126.34204071899231,15.423767,29.539165,0.0,1.774983,2.9322228,nan,2,62,0,0
230859975,230859395,36.660725216946574,126.34204053323072,15.6263895,29.746775,0.0,1.7749264,2.9321008,nan,2,62,0,0
231059815,231059412,36.660725278620895,126.34204050468762,15.831461,29.951847,0.0,1.7780262,2.932897,nan,2,64,0,0
231259882,231259430,36.660725156876076,126.34204044029376,16.038982,30.164394,0.0,1.7779579,2.9327662,nan,2,64,0,0
231459883,231459447,36.66072482979032,126.34204031711242,16.24808,30.379318,0.0,1.7778932,2.9329743,nan,2,64,0,0
231660025,231659465,36.660724427007494,126.3420401687939,16.463251,30.604984,0.0,1.774682,2.9322526,nan,2,64,0,0
231859892,231859483,36.66072416794275,126.34204001012465,16.668468,30.810202,0.0,1.7777715,2.9330564,nan,2,64,0,0
232060079,232059500,36.66072395471136,126.34203974124028,16.869873,31.022259,0.0,1.7745779,2.9323254,nan,2,64,0,0
232259955,232259518,36.66072366700078,126.34203943001735,17.075365,31.227753,0.0,1.7776641,2.932783,nan,2,64,0,0
232459947,232459536,36.66072342107538,126.34203918269581,17.285686,31.443703,0.0,1.7776008,2.9329941,nan,2,64,0,0
232659957,232659554,36.66072323989475,126.34203896361001,17.496792,31.660505,0.0,1.7775244,2.9328587,nan,2,64,0,0
232859999,232859571,36.660723011697186,126.3420387739707,17.704224,31.873547,0.0,1.7774625,2.932725,nan,2,64,0,0
233060111,233059589,36.66072273433855,126.34203865063098,17.916195,32.09111,0.0,1.7773997,2.9329357,nan,2,64,0,0
233260161,233259607,36.660722443386,126.34203847582351,18.133339,32.320766,0.0,1.7742257,2.93222,nan,2,64,0,0
233460056,233459625,36.66072226236831,126.34203835467027,18.341604,32.52903,0.0,1.7772965,2.93268,nan,2,64,0,0
233660098,233659643,36.66072208183088,126.34203844461821,18.52939,32.722374,0.0,1.7772452,2.9328954,nan,2,64,0,0
233860067,233859660,36.660721858582,126.34203856936216,18.698618,32.89692,0.0,1.7771952,2.9327717,nan,2,64,0,0
234060097,234059678,36.660721748269786,126.34203868290936,18.864412,33.069065,0.0,1.7771509,2.9326503,nan,2,64,0,0
234260295,234259696,36.66072175646042,126.3420388995575,19.02943,33.24779,0.0,1.774012,2.9322758,nan,2,64,0,0
234460136,234459714,36.660721779823064,126.34203919508184,19.188622,33.406982,0.0,1.7770808,2.9327404,nan,2,64,0,0
234660316,234659732,36.660721886798974,126.34203946085898,19.349325,33.581406,0.0,1.7739214,2.9320354,nan,2,64,0,0
234860340,234859750,36.66072204291879,126.34203970536663,19.511105,33.752586,0.0,1.773894,2.9322436,nan,2,64,0,0
235060334,235059768,36.660722166970714,126.34203998159006,19.68138,33.930794,0.0,1.773866,2.9321284,nan,2,64,0,0
235260359,235259786,36.66072230598021,126.3420403579579,19.882183,34.139484,0.0,1.7738317,2.932015,nan,2,64,0,0
235460404,235459804,36.6607223940104,126.34204061864853,20.165508,34.430912,0.0,1.7737974,2.9322267,nan,2,64,0,0
235660232,235659822,36.66072247356693,126.34204077315741,20.557081,34.822483,0.0,1.7769092,2.9326982,nan,2,64,0,0
235860389,235859840,36.66072266030521,126.34204094350984,21.03287,35.31077,0.0,1.773727,2.932325,nan,2,64,0,0
236060428,236059858,36.66072288623856,126.34204101478839,21.556334,35.841076,0.0,1.7737079,2.9322102,nan,2,64,0,0
236260494,236259876,36.660723157284814,126.34204105763948,22.111248,36.403843,0.0,1.7736905,2.9320962,nan,2,64,0,0
236460344,236459894,36.66072336608213,126.34204104151195,22.675976,36.96857,0.0,1.7768321,2.9329,nan,2,64,0,0
236660532,236659912,36.66072356887582,126.34204108142887,23.217556,37.526756,0.0,1.773639,2.9321926,nan,2,64,0,0
236860492,236859930,36.66072378377107,126.34204116860106,23.771076,38.089226,0.0,1.773613,2.9320812,nan,2,64,0,0
237060635,237059948,36.660723877641956,126.34204116257973,24.324173,38.652206,0.0,1.7735864,2.931972,nan,2,64,0,0
237260393,237259967,36.660723911450916,126.34204110687278,24.890825,39.22922,0.0,1.7735695,2.9321868,nan,2,64,0,0
237460546,237459985,36.66072395080894,126.34204096547977,25.481798,39.831017,0.0,1.7735385,2.9320774,nan,2,64,0,0
237660417,237660003,36.66072391865528,126.34204083362893,26.06581,40.415028,0.0,1.7766398,2.9325519,nan,2,64,0,0
237860613,237860021,36.660723822039884,126.34204068665291,26.648216,41.018097,0.0,1.773463,2.9321866,nan,2,64,0,0
238060473,238060039,36.66072379267363,126.34204054197825,27.242342,41.61222,0.0,1.7765471,2.9326625,nan,2,64,0,0
238260756,238260057,36.6607237625955,126.34204042186275,27.8303,42.220535,0.0,1.7733842,2.9319663,nan,2,64,0,0
238460491,238460076,36.66072370218194,126.34204031924529,28.4021,42.792336,0.0,1.7764531,2.9327686,nan,2,64,0,0
238660514,238660094,36.6607236703113,126.34204029064405,28.96744,43.367966,0.0,1.7764039,2.9326532,nan,2,64,0,0
238860583,238860112,36.66072364814936,126.34204029927412,29.528101,43.939407,0.0,1.7763547,2.93254,nan,2,64,0,0
239060542,239060131,36.66072356894447,126.34204028162438,30.11953,44.542126,0.0,1.7763104,2.9327638,nan,2,64,0,0
239260564,239260149,36.66072350647253,126.3420402898014,30.703754,45.138023,0.0,1.7762653,2.9326513,nan,2,64,0,0
239460613,239460167,36.66072344460095,126.3420402149706,31.290817,45.73675,0.0,1.776221,2.9325404,nan,2,64,0,0
239660745,239660185,36.66072336866374,126.34204005189645,31.880524,46.351086,0.0,1.7731181,2.932177,nan,2,64,0,0
239850727,239850203,36.66072327030731,126.34203997691397,32.46013,46.93069,0.0,1.7759929,2.9325643,nan,2,64,0,0
240060781,240060222,36.660723121203134,126.34203996026187,33.0973,47.592606,0.0,1.7730626,2.9319658,nan,2,64,0,0
240260655,240260241,36.66072299729701,126.3420400010501,33.679356,48.17466,0.0,1.7761002,2.9327738,nan,2,64,0,0
240460666,240460259,36.66072288237058,126.34204003699172,34.265324,48.773155,0.0,1.7760665,2.9326642,nan,2,64,0,0
240660721,240660277,36.66072274685172,126.34204015807947,34.860695,49.3812,0.0,1.776003,2.9325526,nan,2,64,0,0
240860695,240860296,36.66072268399381,126.34204031584392,35.45743,49.989075,0.0,1.7759558,2.932781,nan,2,64,0,0
241060924,241060314,36.66072263092181,126.342040450536,36.03499,50.59152,0.0,1.7728919,2.932086,nan,2,64,0,0
241250744,241250332,36.66072264332357,126.34204064175698,36.58719,51.14372,0.0,1.7757505,2.9324722,nan,2,64,0,0
241460856,241460351,36.66072269084648,126.34204085444658,37.201973,51.77246,0.0,1.7758842,2.9324577,nan,2,64,0,0
241660919,241660370,36.66072288416301,126.34204111142458,37.798553,52.39906,0.0,1.7728176,2.9320996,nan,2,64,0,0
241860958,241860388,36.66072311109123,126.34204142652051,38.395664,53.011887,0.0,1.7728008,2.9319944,nan,2,64,0,0
242060867,242060407,36.660723284098374,126.34204168022491,38.995033,53.611256,0.0,1.7758274,2.9328005,nan,2,64,0,0
242260857,242260425,36.660723418896765,126.34204183606488,39.583775,54.215275,0.0,1.7757962,2.9326878,nan,2,64,0,0
242460851,242460444,36.66072351570941,126.34204192416391,40.175938,54.82258,0.0,1.7757652,2.9325745,nan,2,64,0,0
242650932,242650461,36.66072364661404,126.34204198532758,40.72963,55.390995,0.0,1.775574,2.9327068,nan,2,64,0,0
242861060,242860481,36.660723829767306,126.34204202439385,41.332638,56.025444,0.0,1.7726697,2.9321034,nan,2,64,0,0
243060965,243060500,36.66072396345934,126.34204201609856,41.907005,56.59981,0.0,1.7756944,2.9325848,nan,2,64,0,0
243260923,243260518,36.66072405080343,126.34204196280857,42.507942,57.217846,0.0,1.7756635,2.9324803,nan,2,64,0,0
243460946,243460537,36.660724044276655,126.34204177170653,43.102695,57.83014,0.0,1.7756356,2.9327116,nan,2,64,0,0
243661129,243660555,36.660723900481415,126.34204148804979,43.697098,58.45869,0.0,1.7725729,2.932023,nan,2,64,0,0
243861128,243860574,36.66072368092908,126.34204113858522,44.27543,59.055252,0.0,1.7725587,2.9319239,nan,2,64,0,0
244051036,244050592,36.66072345779172,126.34204074907747,44.819824,59.599648,0.0,1.7754202,2.9326434,nan,2,64,0,0
244261020,244260611,36.66072324884006,126.34204035972944,45.422478,60.220493,0.0,1.7755537,2.9326322,nan,2,64,0,0
244461083,244460630,36.66072303741833,126.34204008672414,46.01194,60.828056,0.0,1.7755274,2.932528,nan,2,64,0,0
244661111,244660648,36.66072282516467,126.34203983087075,46.602753,61.43798,0.0,1.7754999,2.932424,nan,2,64,0,0
244861259,244860667,36.660722644001176,126.3420396658407,47.185318,62.05865,0.0,1.7724389,2.9320693,nan,2,64,0,0
245061166,245060686,36.66072247606279,126.34203960104257,47.77897,62.670803,0.0,1.7724358,2.931972,nan,2,64,0,0
245251152,245250704,36.6607223018549,126.34203966208261,48.33834,63.230175,0.0,1.7753,2.932362,nan,2,64,0,0
245451136,245450722,36.66072208736273,126.3420398006871,48.9169,63.830235,0.0,1.7752879,2.932597,nan,2,64,0,0
245661267,245660742,36.66072180054409,126.34203996432989,49.517868,64.470406,0.0,1.7724137,2.9320052,nan,2,64,0,0
245861317,245860761,36.66072154324609,126.34204023765321,50.092094,65.064926,0.0,1.7724042,2.9319103,nan,2,64,0,0
246061359,246060779,36.66072137870401,126.34204060095993,50.660805,65.65394,0.0,1.7723966,2.9318151,nan,2,64,0,0
246261335,246260798,36.66072127968716,126.34204096685333,51.23265,66.24548,0.0,1.7723862,2.9320405,nan,2,64,0,0
246461242,246460816,36.66072124389698,126.34204131598776,51.791576,66.80441,0.0,1.7754244,2.9325275,nan,2,64,0,0
246661428,246660835,36.660721204916314,126.3420416791368,52.366787,67.41982,0.0,1.7723367,2.9318461,nan,2,64,0,0
246851268,246850853,36.660721241598395,126.34204204281775,52.902515,67.95555,0.0,1.7752013,2.9325676,nan,2,64,0,0
247061414,247060873,36.66072135775125,126.34204248382932,53.482597,68.57563,0.0,1.7723225,2.931976,nan,2,64,0,0
247261468,247260891,36.660721575939895,126.34204290121191,54.044918,69.15805,0.0,1.7723141,2.9318805,nan,2,64,0,0
247461487,247460910,36.660721904217766,126.34204331861125,54.592537,69.72547,0.0,1.7723078,2.932106,nan,2,64,0,0
247661342,247660929,36.66072228713717,126.34204368344695,55.108448,70.26048,0.0,1.7723124,2.9320114,nan,2,64,0,0
247861577,247860948,36.66072268846196,126.3420438612514,55.568996,70.742134,0.0,1.7723042,2.9319158,nan,2,64,0,0
248051384,248050966,36.66072308861176,126.34204390939149,55.965923,71.13906,0.0,1.7751478,2.9326398,nan,2,64,0,0
248251459,248250985,36.66072355655958,126.34204393306797,56.341843,71.53518,0.0,1.7751311,2.9325378,nan,2,64,0,0
248461457,248461004,36.66072400117908,126.34204375047716,56.707756,71.92149,0.0,1.775262,2.932528,nan,2,64,0,0
248661637,248661023,36.660724356893546,126.34204347975123,57.022175,72.27541,0.0,1.7722377,2.932167,nan,2,64,0,0
248861595,248861042,36.66072465923586,126.34204309423014,57.295887,72.56902,0.0,1.7722251,2.932068,nan,2,64,0,0
249061825,249061061,36.66072493187742,126.34204260716811,57.536713,72.83005,0.0,1.7722094,2.9319701,nan,2,64,0,0
249261482,249261080,36.66072510647987,126.34204198477714,57.74078,73.03412,0.0,1.7751845,2.932785,nan,2,64,0,0
249451503,249451097,36.66072518420105,126.34204138766164,57.91974,73.233475,0.0,1.7749906,2.9325864,nan,2,64,0,0
249651532,249651116,36.66072507653903,126.34204092078053,58.098476,73.43211,0.0,1.774962,2.932814,nan,2,64,0,0
249861739,249861136,36.66072483847841,126.34204039054798,58.27656,73.6499,0.0,1.7721204,2.9322002,nan,2,64,0,0
250061737,250061155,36.66072454997022,126.34203984997202,58.432434,73.8257,0.0,1.7721119,2.9320931,nan,2,64,0,0
250261624,250261174,36.66072423725887,126.34203925615482,58.56006,73.9722,0.0,1.7721158,2.9319875,nan,2,64,0,0
250461599,250461192,36.66072386778758,126.34203863185472,58.669624,74.081764,0.0,1.7751001,2.9327996,nan,2,64,0,0
250661786,250661211,36.66072344147059,126.34203810999632,58.775524,74.22886,0.0,1.7720977,2.932099,nan,2,64,0,0
250851728,250851229,36.660723097377456,126.34203767312536,58.848137,74.301476,0.0,1.7749258,2.932486,nan,2,64,0,0
251051654,251051248,36.6607227139949,126.34203742385294,58.916573,74.38991,0.0,1.7749312,2.9327145,nan,2,64,0,0
251261679,251261268,36.66072222424537,126.34203709367527,58.987648,74.4812,0.0,1.7751024,2.9326987,nan,2,64,0,0
251461762,251461287,36.660721410369014,126.3420366230668,59.032555,74.546196,0.0,1.7750937,2.9325852,nan,2,64,0,0
251661880,251661306,36.66072001993077,126.34203582302474,59.063393,74.61667,0.0,1.7720886,2.9322171,nan,2,64,0,0
251861925,251861325,36.660718163757466,126.34203472146189,59.08738,74.66072,0.0,1.7720959,2.9321082,nan,2,64,0,0
252051703,252051343,36.66071645977591,126.34203315218532,59.116344,74.68968,0.0,1.7749512,2.9328287,nan,2,64,0,0
252251764,252251362,36.66071483914172,126.34203117022363,59.16225,74.75509,0.0,1.7749689,2.9327154,nan,2,66,0,0
252451818,252451381,36.66071343414035,126.34202928915599,59.200447,74.813385,0.0,1.7749895,2.9326038,nan,2,66,0,0
252661817,252661400,36.66071231339318,126.34202745120305,59.22873,74.86507,0.0,1.7751292,2.9325812,nan,2,66,0,0
252861976,252861419,36.66071134052373,126.34202602221511,59.25724,74.93008,0.0,1.7721219,2.9322155,nan,2,66,0,0
253061920,253061439,36.66071013948247,126.3420252331759,59.259148,74.931984,0.0,1.775148,2.9326963,nan,2,66,0,0
253261910,253261457,36.6607091784402,126.34202496237054,59.274544,74.96838,0.0,1.7751625,2.9325852,nan,2,66,0,0
253451877,253451475,36.660709048444694,126.3420251164531,59.316586,75.03082,0.0,1.775019,2.9327147,nan,2,66,0,0
253651949,253651494,36.660709460198696,126.34202586390758,59.34075,75.07559,0.0,1.7750249,2.9325912,nan,2,66,0,0
253851925,253851513,36.660710415700535,126.34202750518213,59.357693,75.11183,0.0,1.775051,2.9328072,nan,2,66,0,0
254057094,254056533,36.660709806925084,126.34203392913328,59.372772,75.14967,0.0,1.7751951,2.9327319,nan,3,67,0,0
254257003,254256552,36.66071232384805,126.34203847251645,59.40168,75.19832,0.0,1.7752404,2.932951,nan,3,67,0,0
254457012,254456571,36.66071540246953,126.3420427271755,59.398277,75.21492,0.0,1.7752782,2.932822,nan,3,67,0,0
254657198,254656590,36.66071920539325,126.34204665516822,59.425293,75.263695,0.0,1.775283,2.9326868,nan,3,69,0,0
254857082,254856609,36.660724000200524,126.34205067996146,59.467804,75.32452,0.0,1.7753292,2.9328918,nan,3,69,0,0
255057117,255056628,36.6607293443732,126.3420544543166,59.4878,75.365906,0.0,1.7753452,2.9327533,nan,3,69,0,0
255257222,255256647,36.66073490220613,126.3420575600777,59.500122,75.39662,0.0,1.7753645,2.932959,nan,3,69,0,0
255457271,255456666,36.66074073813532,126.34206017690553,59.52163,75.45743,0.0,1.7723296,2.932238,nan,3,69,0,0
255657130,255656685,36.66074666456493,126.34206198337581,59.55728,75.49309,0.0,1.7754018,2.9330258,nan,3,69,0,0
255857303,255856705,36.660752137172516,126.34206310001403,59.59272,75.549324,0.0,1.7753952,2.93289,nan,3,69,0,0
256057152,256056723,36.66075711830687,126.34206336011468,59.639534,75.61594,0.0,1.7753823,2.932756,nan,3,69,0,0
256257166,256256743,36.66076130800997,126.34206301205556,59.69568,75.69258,0.0,1.7753682,2.932966,nan,3,69,0,0
256457185,256456762,36.660764529003536,126.34206185068702,59.70894,75.725655,0.0,1.775351,2.9328322,nan,3,69,0,0
256657366,256656781,36.6607667445454,126.34205988834704,59.69964,75.755844,0.0,1.7723162,2.93213,nan,3,69,0,0
256857307,256856800,36.66076812928937,126.34205715646084,59.676407,75.73261,0.0,1.775317,2.9325755,nan,3,69,0,0
257057268,257056819,36.660768920669994,126.34205365156177,59.64701,75.72341,0.0,1.7753242,2.9327872,nan,3,69,0,0
257257281,257256838,36.660769263254295,126.34204964787222,59.628006,75.72441,0.0,1.7753365,2.932664,nan,3,69,0,0
257457341,257456859,36.66076931251881,126.34204526485433,59.629585,75.74659,0.0,1.7753496,2.9325428,nan,3,69,0,0
257657330,257656877,36.66076945777246,126.34204091092548,59.653214,75.79062,0.0,1.7753499,2.9327605,nan,3,69,0,0
257857468,257856896,36.66076985413161,126.34203698810207,59.660538,75.81714,0.0,1.7753626,2.932643,nan,3,69,0,0
258057470,258056915,36.660770613932584,126.34203385379423,59.638306,75.833405,0.0,1.7723577,2.9319568,nan,3,69,0,0
258257594,258256934,36.66077205737424,126.34203195349161,59.626442,75.842445,0.0,1.7723827,2.9321663,nan,3,69,0,0
258457471,258456954,36.66077400405641,126.34203133667,59.621788,75.83779,0.0,1.7754271,2.9326246,nan,3,69,0,0
258657731,258656973,36.660776320990365,126.34203144172832,59.580162,75.836075,0.0,1.7724054,2.931938,nan,3,69,0,0
258857708,258856992,36.660779221458995,126.34203227509246,59.559326,75.83533,0.0,1.7724297,2.9321485,nan,3,69,0,0
259057559,259057011,36.660782352003444,126.3420337564085,59.550552,75.82655,0.0,1.7754723,2.9326086,nan,3,69,0,0
259257764,259257031,36.66078529926597,126.34203553422101,59.51367,75.82938,0.0,1.7724773,2.9319267,nan,3,69,0,0
259457843,259457050,36.66078804492692,126.34203744680846,59.49057,75.826485,0.0,1.7725081,2.9321399,nan,3,69,0,0
259657960,259657069,36.66079070157987,126.3420395793185,59.466606,75.82251,0.0,1.772542,2.9320335,nan,3,69,0,0
259857854,259857089,36.66079336198935,126.34204153413671,59.451927,75.827835,0.0,1.7725832,2.9319284,nan,3,69,0,0
260057875,260057109,36.66079628619785,126.3420433302523,59.440704,75.83671,0.0,1.7726187,2.9321454,nan,3,69,0,0
260257940,260257127,36.66079928094029,126.34204506626612,59.439224,75.85513,0.0,1.7726555,2.9320412,nan,3,69,0,0
260457632,260457146,36.66080225751749,126.34204655262151,59.433823,75.84973,0.0,1.7757393,2.9325116,nan,3,69,0,0
260657842,260657166,36.66080498669413,126.3420476954479,59.436752,75.891556,0.0,1.7727016,2.9318352,nan,3,69,0,0
260857818,260857185,36.66080699698025,126.34204864141458,59.45623,75.91103,0.0,1.7757815,2.9326344,nan,3,69,0,0
261057816,261057205,36.66080827880435,126.34204932933905,59.459328,75.950455,0.0,1.772756,2.9319532,nan,3,69,0,0
261257757,261257224,36.66080891340405,126.34204961649705,59.448532,75.93966,0.0,1.7758297,2.9324229,nan,3,69,0,0
261457871,261457243,36.66080911756142,126.3420495667199,59.455963,75.96561,0.0,1.7758511,2.9326527,nan,3,69,0,0
261657734,261657263,36.660809119705625,126.34204917218003,59.463493,75.98993,0.0,1.775873,2.9325473,nan,3,69,0,0
261857963,261857282,36.66080909188321,126.34204855882672,59.475357,76.03478,0.0,1.7728481,2.9318666,nan,3,69,0,0
262057766,262057302,36.66080912668713,126.34204798713041,59.499832,76.05926,0.0,1.7759234,2.9326687,nan,3,69,0,0
262257833,262257321,36.66080890501642,126.34204738307207,59.497,76.07211,0.0,1.7759362,2.9325607,nan,3,69,0,0
262457839,262457340,36.66080854925917,126.34204665971862,59.491096,76.08204,0.0,1.7759438,2.9324543,nan,3,69,0,0
262657851,262657360,36.66080832535854,126.34204606706416,59.500412,76.107956,0.0,1.7759284,2.9326818,nan,3,69,0,0
262858077,262857380,36.660808063549325,126.34204556402096,59.495956,76.129105,0.0,1.7729119,2.931997,nan,3,69,0,0
263058050,263057399,36.660807741412306,126.34204509264752,59.480408,76.12734,0.0,1.772933,2.931897,nan,3,69,0,0
263257889,263257418,36.660807434696004,126.34204476431776,59.493134,76.15313,0.0,1.7729614,2.9318004,nan,3,71,0,0
263458084,263457438,36.6608071707426,126.34204462199438,59.50564,76.179276,0.0,1.7729784,2.932019,nan,3,71,0,0
263657965,263657458,36.66080679999338,126.3420444701822,59.50197,76.175606,0.0,1.7760332,2.9324932,nan,3,71,0,0
263858177,263857477,36.66080644075395,126.3420445080276,59.494606,76.195114,0.0,1.7729943,2.932134,nan,3,71,0,0
264057972,264057497,36.66080652933292,126.34204585454242,59.520706,76.221214,0.0,1.7760407,2.932616,nan,3,71,0,0
264258275,264257516,36.6608071721315,126.34204903588365,59.567215,76.292465,0.0,1.7730134,2.931929,nan,3,71,0,0
264458038,264457536,36.660808525620936,126.34205438304335,59.64102,76.36627,0.0,1.7760605,2.9324043,nan,3,71,0,0
264658060,264657556,36.66081047339943,126.34206151807919,59.728867,76.46447,0.0,1.7760258,2.932631,nan,3,71,0,0
264858057,264857575,36.66081304822917,126.34207073305949,59.825157,76.56685,0.0,1.7760459,2.9325254,nan,3,71,0,0
265058118,265057595,36.66081624561568,126.34208170420413,59.908188,76.65514,0.0,1.776071,2.932423,nan,3,71,0,0
265258093,265257614,36.66082014583548,126.34209437422832,59.973824,76.72463,0.0,1.7760973,2.9326563,nan,3,71,0,0
265458332,265457634,36.6608247903302,126.34210867069206,60.091866,76.84947,0.0,1.7729894,2.9319668,nan,3,71,0,0
265658188,265657654,36.660830279805516,126.34212481418444,60.17327,76.93088,0.0,1.7761625,2.9324539,nan,3,71,0,0
265858335,265857673,36.660836604775064,126.34214267008356,60.234673,76.99762,0.0,1.7730178,2.9320936,nan,3,71,0,0
266058135,266057693,36.66084391076614,126.34216196738097,60.267265,77.03021,0.0,1.7762145,2.9325922,nan,3,71,0,0
266258410,266257713,36.660852323631026,126.34218270519062,60.2539,77.0175,0.0,1.773014,2.9319017,nan,3,71,0,0
266458381,266457732,36.660861953869386,126.34220525599763,60.19803,76.96164,0.0,1.7762247,2.9327347,nan,3,71,0,0
266658194,266657752,36.66087229062489,126.34222883451748,60.11853,76.88139,0.0,1.7761792,2.9326313,nan,3,71,0,0
266858251,266857772,36.660883616563886,126.34225376940023,60.071007,76.83296,0.0,1.7761729,2.932527,nan,3,71,0,0
267058637,267057792,36.66089581807982,126.34228010298565,60.058372,76.81419,0.0,1.7729591,2.9318318,nan,3,71,0,0
267258467,267257811,36.66090903253452,126.34230786251797,60.093834,76.84386,0.0,1.7729667,2.9320633,nan,3,71,0,0
267458489,267457831,36.66092315452025,126.34233717445846,60.147194,76.889984,0.0,1.7729774,2.931973,nan,3,71,0,0
267658631,267657851,36.66093776302973,126.34236734210143,60.24726,76.98012,0.0,1.7729883,2.9318833,nan,3,71,0,0
267858294,267857871,36.66095294787477,126.34239891822425,60.34584,77.0787,0.0,1.7761939,2.9327314,nan,3,71,0,0
268058369,268057890,36.66096848030053,126.3424315000327,60.46785,77.18858,0.0,1.776173,2.932635,nan,3,71,0,0
268258402,268257910,36.660984382399384,126.34246512544034,60.65069,77.357475,0.0,1.776157,2.9325402,nan,3,71,0,0
268458591,268457930,36.66100087184275,126.34250025470095,60.85932,77.531105,0.0,1.772979,2.9318411,nan,3,71,0,0
268658392,268657950,36.661017498705604,126.34253576938781,61.097275,77.76906,0.0,1.7761327,2.932682,nan,3,71,0,0
268858523,268857970,36.66103438017747,126.34257184099526,61.35309,77.98476,0.0,1.7729889,2.9319763,nan,3,71,0,0
269058596,269057990,36.66105108732866,126.34260770601294,61.63839,78.25008,0.0,1.7730007,2.9318845,nan,3,71,0,0
269258550,269258009,36.66106719973347,126.34264355671475,61.91327,78.50495,0.0,1.7730048,2.9321115,nan,3,71,0,0
269458573,269458029,36.66108248962849,126.34267999978184,62.106033,78.678116,0.0,1.7730047,2.9320161,nan,3,71,0,0
269658631,269658049,36.66109673604177,126.34271771331527,62.277267,78.82965,0.0,1.7730126,2.9319234,nan,3,71,0,0
269858495,269858069,36.661107945009846,126.34275766873428,62.474503,79.026886,0.0,1.7760181,2.9327414,nan,3,71,0,0
270058695,270058089,36.66111518508084,126.34279934406187,62.75,79.26178,0.0,1.7730209,2.9320476,nan,3,71,0,0
270258484,270258109,36.66111843904143,126.34284121856135,63.092644,79.60443,0.0,1.7760689,2.9325125,nan,3,71,0,0
270458508,270458129,36.66111921723164,126.34288313563236,63.374664,79.86625,0.0,1.7761004,2.9327326,nan,3,71,0,0
270658538,270658148,36.66111818266077,126.34292456779775,63.524765,79.99344,0.0,1.7760872,2.9326148,nan,3,71,0,0
270858540,270858168,36.661116050645276,126.34296637791819,63.557785,80.00927,0.0,1.7761033,2.9325051,nan,3,71,0,0
271058733,271058188,36.66111356221274,126.34300736272579,63.41848,79.830765,0.0,1.7731004,2.9318285,nan,3,71,0,0
271258754,271258208,36.66111115716223,126.34304867512245,63.143494,79.53517,0.0,1.7731379,2.9320457,nan,3,71,0,0
271458770,271458229,36.66110909399258,126.34309026276576,62.820465,79.192245,0.0,1.7731692,2.931947,nan,3,71,0,0
271658692,271658248,36.66110762156247,126.3431320834066,62.445396,78.81718,0.0,1.7761846,2.9324143,nan,3,71,0,0
271858647,271858268,36.66110703335887,126.34317455975338,62.00087,78.35245,0.0,1.7761955,2.9326406,nan,3,71,0,0
272058802,272058288,36.66110771029291,126.34321689122638,61.587494,77.918976,0.0,1.7762123,2.932532,nan,3,71,0,0
272258685,272258308,36.6611097071822,126.34325948539241,61.220375,77.531006,0.0,1.7762314,2.9324212,nan,3,71,0,0
272458759,272458328,36.661113047799816,126.34330243437282,60.90822,77.19937,0.0,1.7762537,2.93231,nan,3,71,0,0
272659045,272658347,36.66111743278798,126.343345716354,60.59754,76.8492,0.0,1.7732731,2.9319677,nan,3,71,0,0
272858750,272858368,36.661122707944926,126.34338881788153,60.292152,76.54381,0.0,1.7762662,2.9324186,nan,3,71,0,0
273058951,273058388,36.66112886180954,126.3434319923049,60.03836,76.250244,0.0,1.773302,2.9317565,nan,3,71,0,0
273259163,273258407,36.661135611489655,126.34347536603785,59.791122,75.9829,0.0,1.7733264,2.9319715,nan,3,71,0,0
273458963,273458427,36.66114306181986,126.34351938650566,59.541786,75.71344,0.0,1.7733477,2.9318676,nan,3,71,0,0
273658835,273658447,36.66115094669812,126.34356300567055,59.338722,75.492004,0.0,1.773375,2.931769,nan,3,71,0,0
273859159,273858467,36.6611592509223,126.34360659235045,59.131783,75.26392,0.0,1.7733967,2.9319856,nan,3,71,0,0
274059085,274058487,36.661167909103725,126.34365019940402,58.962357,75.07443,0.0,1.7734139,2.9318845,nan,3,71,0,0
274259111,274258507,36.6611769241509,126.34369436791287,58.842278,74.93416,0.0,1.7734338,2.931785,nan,3,71,0,0
274458913,274458527,36.66118609734146,126.34373803162052,58.736122,74.828,0.0,1.776562,2.9325755,nan,3,71,0,0
274659109,274658547,36.66119524979506,126.34378169260101,58.674667,74.72631,0.0,1.7734497,2.9319067,nan,3,71,0,0
274859154,274858567,36.661204528063784,126.34382567280363,58.622055,74.654236,0.0,1.7734662,2.9318125,nan,3,71,0,0
275059150,275058586,36.6612138357424,126.343870228483,58.58352,74.5951,0.0,1.7734722,2.9317186,nan,3,71,0,0
275259162,275258606,36.66122298011805,126.34391401676774,58.611618,74.6035,0.0,1.7734799,2.931944,nan,3,71,0,0
275459172,275458626,36.6612325666229,126.34395753239498,58.62992,74.60181,0.0,1.77349,2.9318504,nan,3,71,0,0
275659269,275658646,36.661243221144986,126.34400066247782,58.609787,74.56177,0.0,1.7734963,2.93176,nan,3,71,0,0
275859075,275858666,36.66125544366014,126.34404376712476,58.496292,74.44827,0.0,1.7766299,2.9325593,nan,3,71,0,0
276059270,276058686,36.66127027739282,126.34408477441545,58.32592,74.23769,0.0,1.7734802,2.9318886,nan,3,71,0,0
276259095,276258705,36.661289228078715,126.344122210147,58.241295,74.134575,0.0,1.7734703,2.931792,nan,3,71,0,0
276459158,276458725,36.661312714967075,126.34415484796187,58.262527,74.15581,0.0,1.7767365,2.932567,nan,3,71,0,0
276659249,276658745,36.66134012138188,126.34418203095044,58.41381,74.26609,0.0,1.7734215,2.931906,nan,3,71,0,0
276859305,276858766,36.6613703975036,126.3442025941207,58.64469,74.47707,0.0,1.773442,2.931798,nan,3,71,0,0
277059296,277058785,36.661403227052695,126.34421533178333,58.97966,74.792046,0.0,1.773469,2.9320052,nan,3,71,0,0
277259188,277258805,36.66143738439364,126.34422066334936,59.32956,75.122246,0.0,1.7736852,2.9319637,nan,3,71,0,0
277459209,277458824,36.661472076238475,126.34421792453584,59.731667,75.50455,0.0,1.774005,2.9319625,nan,3,71,0,0
277659562,277658844,36.66150534792798,126.34420807222249,60.125008,75.87739,0.0,1.7740359,2.9318492,nan,3,71,0,0
277859397,277858864,36.66153630831434,126.34419127709998,60.55227,76.28465,0.0,1.774074,2.9320543,nan,3,71,0,0
278059320,278058884,36.66156482632632,126.34416854092396,60.96524,76.677826,0.0,1.7742236,2.931976,nan,3,71,0,0
278259659,278258903,36.66158976120761,126.34413967343251,61.34491,77.03739,0.0,1.7742908,2.9318595,nan,3,71,0,0
278459308,278458923,36.66161021115975,126.34410560109683,61.737083,77.40987,0.0,1.7743816,2.9320607,nan,3,71,0,0
278659360,278658943,36.661625564677095,126.34406773383458,62.091705,77.744385,0.0,1.7744863,2.9319403,nan,3,71,0,0
278859489,278858963,36.66163594956642,126.3440269894275,62.41948,78.052864,0.0,1.7745974,2.931819,nan,3,71,0,0
279059553,279058982,36.661640956540964,126.34398388757282,62.71279,78.324974,0.0,1.7746984,2.9316971,nan,3,71,0,0
279259542,279259002,36.661640794358014,126.34394024176316,62.890656,78.48294,0.0,1.7751501,2.9320624,nan,3,71,0,0
279459548,279459022,36.661635443865535,126.34389659702552,62.99138,78.563965,0.0,1.7755699,2.9320953,nan,3,71,0,0
279659480,279659041,36.66162606001273,126.34385360601568,62.97798,78.53085,0.0,1.7759501,2.9321132,nan,3,71,0,0
279859524,279859061,36.66161399625741,126.34381119281781,62.79986,78.33264,0.0,1.7760379,2.9320016,nan,3,71,0,0
280059770,280059081,36.66160021263743,126.34376887128617,62.38983,77.902214,0.0,1.7762083,2.9322646,nan,3,71,0,0
280259626,280259100,36.66158588104951,126.3437273416252,61.8507,77.34288,0.0,1.7762209,2.932134,nan,3,71,0,0
280459711,280459122,36.6615714909251,126.34368547531929,61.29222,76.76411,0.0,1.7762097,2.9319966,nan,3,71,0,0
280659521,280659139,36.6615577980366,126.3436430624859,60.710075,76.16296,0.0,1.7763926,2.9322743,nan,3,71,0,0
280859549,280859159,36.66154572071,126.34359911506235,60.146805,75.57969,0.0,1.7763845,2.932128,nan,3,71,0,0
281059732,281059178,36.661536482435274,126.34355455067171,59.685287,75.09767,0.0,1.7763652,2.9319801,nan,3,71,0,0
281259746,281259198,36.66153021378314,126.34350926667189,59.330025,74.7221,0.0,1.7763532,2.9318283,nan,3,71,0,0
281459710,281459218,36.661526455044616,126.34346346773032,58.99852,74.3718,0.0,1.7763541,2.9319897,nan,3,71,0,0
281659800,281659237,36.66152545508419,126.34341659386085,58.719505,74.071785,0.0,1.7763419,2.931827,nan,3,71,0,0
281859647,281859257,36.66152699198793,126.34337033707362,58.50213,73.834694,0.0,1.776337,2.9316654,nan,3,71,0,0
282059799,282059276,36.661531007231765,126.3433245179143,58.346794,73.65908,0.0,1.7763218,2.9318163,nan,3,71,0,0
282259708,282259296,36.661537151027304,126.34327922122185,58.20334,73.4959,0.0,1.77632,2.9316545,nan,3,71,0,0
282459724,282459315,36.66154575004512,126.34323400119827,58.095764,73.38833,0.0,1.7793957,2.9319484,nan,3,71,0,0
282659719,282659334,36.66155651369502,126.3431904196729,58.0412,73.30988,0.0,1.7793564,2.932107,nan,3,71,0,0
282859897,282859354,36.66156940136778,126.34314764457406,58.0327,73.26508,0.0,1.7762773,2.931504,nan,3,71,0,0
283059934,283059373,36.66158408159703,126.34310554374507,58.0,73.21239,0.0,1.7763082,2.9313614,nan,3,71,0,0
283259971,283259392,36.661600412289545,126.34306375272386,57.95038,73.142265,0.0,1.7763498,2.9315348,nan,3,71,0,0
283459937,283459412,36.66161811857267,126.343023495829,57.93007,73.102455,0.0,1.776391,2.9314067,nan,3,71,0,0
283659967,283659431,36.661636839343466,126.3429841881776,57.848923,73.00081,0.0,1.7764405,2.9312856,nan,3,71,0,0
283860166,283859451,36.66165665906672,126.34294563218765,57.73394,72.86582,0.0,1.7764884,2.931173,nan,3,71,0,0
284059896,284059470,36.66167752806511,126.34290815562164,57.64715,72.76003,0.0,1.7765453,2.931368,nan,3,71,0,0
284259866,284259489,36.66169937128087,126.34287124219816,57.54293,72.655815,0.0,1.7797117,2.9317336,nan,3,71,0,0
284460048,284459508,36.661721515961375,126.34283559191522,57.4638,72.55518,0.0,1.7797579,2.9316366,nan,3,71,0,0
284660080,284659528,36.66174402502911,126.34280067463753,57.421463,72.47334,0.0,1.7766638,2.9313731,nan,3,71,0,0
284859976,284859547,36.661766811623025,126.34276614472338,57.329834,72.381714,0.0,1.7798306,2.9317667,nan,3,71,0,0
285060269,285059566,36.66179006196066,126.3427316453285,57.294518,72.30923,0.0,1.7767363,2.9311929,nan,3,71,0,0
285260117,285259585,36.66181311783407,126.34269815768779,57.268997,72.26762,0.0,1.7767751,2.931411,nan,3,73,0,0
285460137,285459605,36.661836209787346,126.34266487761738,57.25289,72.236015,0.0,1.7768077,2.931328,nan,3,73,0,0
285660176,285659624,36.661859209926234,126.34263183868835,57.232155,72.21528,0.0,1.7799699,2.931748,nan,3,73,0,0
285860175,285859643,36.6618824157586,126.34259849254695,57.193466,72.14708,0.0,1.7768657,2.9314694,nan,3,73,0,0
286060211,286059662,36.66190524215085,126.34256561339673,57.142075,72.08218,0.0,1.7768873,2.9313905,nan,3,73,0,0
286260229,286259683,36.661928048224176,126.34253285337536,57.10131,72.02786,0.0,1.7769048,2.9313135,nan,3,73,0,0
286460103,286459700,36.66195074368387,126.3425003070399,57.058167,71.98472,0.0,1.7800545,2.932071,nan,3,73,0,0
286660147,286659719,36.66197323110025,126.34246789471547,57.065796,71.966,0.0,1.776928,2.9314635,nan,3,73,0,0
286860112,286859738,36.6619957716161,126.34243489569619,57.10691,72.00712,0.0,1.7800761,2.9319127,nan,3,73,0,0
287060326,287059757,36.66201797523262,126.34240235695613,57.066803,71.93733,0.0,1.7769387,2.9313092,nan,3,73,0,0
287260161,287259777,36.66204005849382,126.34236968835641,57.062843,71.93338,0.0,1.7800812,2.93208,nan,3,73,0,0
287460184,287459795,36.662062155880655,126.34233689177937,57.055336,71.91241,0.0,1.7800759,2.932001,nan,3,73,0,0
287660410,287659814,36.66208404481244,126.34230426909453,57.009247,71.84559,0.0,1.776906,2.9313848,nan,3,73,0,0
287860352,287859833,36.66210620338453,126.34227117807247,56.959244,71.787506,0.0,1.7768939,2.931619,nan,3,73,0,0
288060386,288059852,36.66212816187207,126.3422383767556,56.90069,71.722176,0.0,1.7768881,2.9315422,nan,3,73,0,0
288260412,288259871,36.66215002854692,126.34220543073916,56.854454,71.669495,0.0,1.7768759,2.9314675,nan,3,75,0,0
288460290,288459890,36.662171929382026,126.3421723281341,56.83268,71.64772,0.0,1.7800215,2.9322627,nan,3,75,0,0
288660435,288659909,36.6621938952531,126.34213901884945,56.80874,71.61117,0.0,1.776816,2.9316227,nan,3,75,0,0
288860460,288859928,36.66221563839763,126.34210592982242,56.796974,71.594315,0.0,1.7768041,2.9315476,nan,3,75,0,0
289060509,289059946,36.66223745851663,126.34207267897307,56.81745,71.610794,0.0,1.7767926,2.9314716,nan,3,75,0,0
289260384,289259965,36.66225925461189,126.3420393069906,56.787468,71.5787,0.0,1.7767957,2.9317064,nan,3,75,0,0
289460514,289459984,36.662281398976305,126.34200553004798,56.795845,71.584076,0.0,1.7767764,2.931628,nan,3,75,0,0
289660587,289660003,36.66230328383785,126.34197227045198,56.80005,71.58552,0.0,1.7767669,2.9315503,nan,3,75,0,0
289860566,289860022,36.66232501966321,126.34193904242872,56.770584,71.553345,0.0,1.7767538,2.9317842,nan,3,75,0,0
290060764,290060040,36.6623467767493,126.3419058331721,56.784523,71.5641,0.0,1.7767372,2.9317012,nan,3,75,0,0
290260629,290260061,36.662368790025745,126.34187217244673,56.798286,71.576256,0.0,1.7767248,2.9316208,nan,3,75,0,0
290460459,290460078,36.66239066853844,126.34183927814249,56.820023,71.59799,0.0,1.7799056,2.9324317,nan,3,75,0,0
290660677,290660096,36.66241257915421,126.34180708770214,56.896942,71.67179,0.0,1.7766798,2.9317663,nan,3,75,0,0
290860628,290860115,36.662434789188005,126.34177511323787,56.92141,71.69507,0.0,1.7766806,2.9316835,nan,3,75,0,0
291060640,291060133,36.66245746811377,126.3417434189851,56.955116,71.727325,0.0,1.776672,2.9319177,nan,3,75,0,0
291260719,291260152,36.662480163912214,126.3417125971423,57.035057,71.80573,0.0,1.7766613,2.931834,nan,3,77,0,0
291460550,291460171,36.66250312386284,126.34168207045911,57.07334,71.84402,0.0,1.7798525,2.932324,nan,3,77,0,0
291650567,291650188,36.662525031017374,126.34165355221685,57.121216,71.89165,0.0,1.7796425,2.9324744,nan,3,77,0,0
291860639,291860208,36.66254975237745,126.34162211769093,57.16964,71.94126,0.0,1.776631,2.9318974,nan,3,77,0,0
292060749,292060226,36.662573368110266,126.34159272866418,57.22847,72.000336,0.0,1.7766237,2.9318118,nan,3,77,0,0
292260803,292260245,36.66259709855857,126.34156387754481,57.295868,72.06692,0.0,1.7766148,2.9317272,nan,3,77,0,0
292460631,292460263,36.66262095593524,126.34153542846163,57.332962,72.10401,0.0,1.7798077,2.9325454,nan,3,77,0,0
292660662,292660282,36.66264520659369,126.34150698004241,57.348038,72.11854,0.0,1.779751,2.9324505,nan,3,77,0,0
292860684,292860300,36.66266914066788,126.34147894982863,57.355415,72.12576,0.0,1.7797182,2.9323583,nan,3,77,0,0
293050743,293050317,36.66269203882666,126.3414523851971,57.312675,72.08192,0.0,1.779529,2.932506,nan,3,77,0,0
293260730,293260337,36.66271744503744,126.34142303531009,57.264374,72.033936,0.0,1.7796944,2.932506,nan,3,77,0,0
293460927,293460355,36.66274181588105,126.34139501449188,57.28837,72.06012,0.0,1.776493,2.93183,nan,3,77,0,0
293660932,293660374,36.66276654020919,126.34136663192686,57.27012,72.043274,0.0,1.7764891,2.9320579,nan,3,77,0,0
293860766,293860392,36.66279107818052,126.341338637245,57.31739,72.090546,0.0,1.7796779,2.9325526,nan,3,77,0,0
294060960,294060410,36.66281553545653,126.34131062402777,57.36241,72.13904,0.0,1.7764622,2.9318724,nan,3,77,0,0
294261028,294260428,36.6628401100537,126.34128258654253,57.435654,72.214165,0.0,1.7764564,2.9317799,nan,3,77,0,0
294450824,294450446,36.662863837421085,126.34125571069534,57.536217,72.31473,0.0,1.7794901,2.9325018,nan,3,77,0,0
294661010,294660465,36.66288957718124,126.34122669250657,57.669556,72.45307,0.0,1.7764117,2.9319108,nan,3,77,0,0
294861024,294860483,36.66291409783062,126.34119887470702,57.762016,72.549706,0.0,1.7764174,2.9318173,nan,3,77,0,0
295061070,295060501,36.66293856632707,126.34117095441965,57.78292,72.576355,0.0,1.7764155,2.9320433,nan,3,77,0,0
295261054,295260520,36.66296319591815,126.34114280607672,57.83721,72.636215,0.0,1.7764127,2.9319496,nan,3,77,0,0
295461068,295460537,36.662987478049075,126.34111487480745,57.900658,72.70407,0.0,1.7764125,2.9318564,nan,3,77,0,0
295661145,295660556,36.663011662743266,126.3410869367645,57.928062,72.7348,0.0,1.7764084,2.9320824,nan,3,77,0,0
295850967,295850573,36.663034649188354,126.3410603819046,57.915733,72.72247,0.0,1.779416,2.9324825,nan,3,77,0,0
296061105,296060592,36.663060288996256,126.3410308079523,57.827324,72.64307,0.0,1.7764038,2.9318953,nan,3,77,0,0
296261267,296260610,36.66308456314293,126.34100298994642,57.77913,72.60004,0.0,1.7763922,2.931802,nan,3,77,0,0
296461007,296460628,36.66310880215372,126.34097521084193,57.728836,72.54974,0.0,1.7795826,2.932616,nan,3,77,0,0
296661266,296660646,36.66313297666148,126.34094736919475,57.683334,72.51669,0.0,1.77635,2.9319303,nan,3,77,0,0
296861273,296860664,36.66315731637913,126.34091918093957,57.67357,72.513535,0.0,1.7763462,2.9318361,nan,3,77,0,0
297061149,297060682,36.663181395913575,126.34089132206606,57.730057,72.57603,0.0,1.7763565,2.932063,nan,3,77,0,0
297251089,297250699,36.6632043842363,126.34086475665389,57.799942,72.64591,0.0,1.7793858,2.93246,nan,3,77,0,0
297461211,297460718,36.66322978659887,126.34083551197078,57.8879,72.740875,0.0,1.7795644,2.9324543,nan,3,77,0,0
297661299,297660736,36.66325391524045,126.34080764055597,57.92131,72.78633,0.0,1.7763284,2.9320967,nan,3,77,0,0
297861309,297860754,36.66327838254613,126.34077956212298,57.911743,72.78429,0.0,1.7763233,2.932002,nan,3,77,0,0
298061348,298060772,36.66330254273824,126.34075184591894,57.962914,72.84206,0.0,1.7763066,2.9319062,nan,3,77,0,0
298261401,298260789,36.663326697710474,126.34072423319529,58.002975,72.88802,0.0,1.7762989,2.9318128,nan,3,77,0,0
298461185,298460807,36.66335124349128,126.34069630396694,58.023468,72.908516,0.0,1.7794845,2.9326262,nan,3,77,0,0
298651258,298650824,36.66337412007412,126.34067018134172,58.047806,72.93903,0.0,1.7792695,2.9324312,nan,3,77,0,0
298861386,298860843,36.66339950016242,126.34064126789423,58.07744,72.97784,0.0,1.7762395,2.9318461,nan,3,77,0,0
299061380,299060860,36.663423679263715,126.34061389844875,58.138435,73.04221,0.0,1.7762208,2.9320705,nan,3,77,0,0
299261438,299260879,36.66344784491219,126.34058665583532,58.22753,73.133194,0.0,1.7762034,2.9319756,nan,3,77,0,0
299461295,299460896,36.663472217759704,126.34055897594374,58.28476,73.19042,0.0,1.7793869,2.9324625,nan,3,77,0,0
299661324,299660914,36.663496222017024,126.34053162484008,58.309288,73.21722,0.0,1.7761595,2.931787,nan,3,77,0,0
299851412,299850931,36.66351897835501,126.34050555882912,58.334747,73.242676,0.0,1.7791578,2.9325058,nan,3,77,0,0
300051424,300050948,36.66354289422592,126.3404781380681,58.37542,73.284615,0.0,1.7791235,2.9324052,nan,3,77,0,0
300261642,300260967,36.66356793175559,126.34044943936617,58.41462,73.3244,0.0,1.7760772,2.9318194,nan,3,77,0,0
300461355,300460984,36.66359217366029,126.34042191882898,58.436325,73.346115,0.0,1.7792475,2.9326324,nan,3,77,0,0
300661385,300661002,36.66361595393919,126.34039493938235,58.42228,73.33237,0.0,1.7791601,2.932528,nan,3,77,0,0
300861618,300861022,36.663639693593645,126.34036798934422,58.422348,73.3332,0.0,1.7759404,2.9318485,nan,3,77,0,0
301061643,301061037,36.663663677229465,126.34034106272082,58.43965,73.34986,0.0,1.775916,2.9320734,nan,3,77,0,0
301251622,301251054,36.66368712323128,126.3403156611935,58.461464,73.37167,0.0,1.7789001,2.9324694,nan,3,77,0,0
301451603,301451071,36.663712228289754,126.34029058379342,58.498146,73.407776,0.0,1.778884,2.93237,nan,3,77,0,0
301661652,301661090,36.66373948724712,126.3402662746093,58.53739,73.44577,0.0,1.7758495,2.932107,nan,3,77,0,0
301861903,301861108,36.66376693536318,126.3402464293433,58.626396,73.53345,0.0,1.7758232,2.9320111,nan,3,77,0,0
302061707,302061125,36.6637962133099,126.34023109244015,58.782463,73.68716,0.0,1.7757953,2.9319122,nan,3,77,0,0
302261607,302261142,36.6638264821084,126.34022135980861,59.000336,73.902985,0.0,1.7757837,2.9318104,nan,3,77,0,0
302461759,302461159,36.6638575299012,126.34021838243028,59.306366,74.209015,0.0,1.7791042,2.9326036,nan,3,77,0,0
302651624,302651176,36.66388696729762,126.34022088776658,59.664986,74.56308,0.0,1.7789223,2.9323971,nan,3,77,0,0
302851619,302851193,36.663918123374806,126.34022786590857,60.038353,74.933,0.0,1.7789433,2.9326138,nan,3,77,0,0
303061827,303061212,36.66394984213716,126.34023888373505,60.347923,75.23828,0.0,1.7791247,2.932584,nan,3,77,0,0
303261714,303261229,36.66397934282222,126.34025246102975,60.546677,75.43533,0.0,1.7791089,2.932458,nan,3,77,0,0
303461783,303461246,36.66400762362098,126.34026947417361,60.677498,75.56522,0.0,1.7791033,2.9323282,nan,3,77,0,0
303662091,303661264,36.66403501606108,126.34028938069243,60.773323,75.65857,0.0,1.7758017,2.9319994,nan,3,77,0,0
303851695,303851280,36.664060178867835,126.34031007266762,60.74267,75.627914,0.0,1.7789019,2.9323092,nan,3,77,0,0
304051748,304051298,36.66408591037087,126.3403333673363,60.635506,75.52041,0.0,1.7788949,2.932173,nan,3,77,0,0
304251952,304251314,36.66411064152336,126.34035869899981,60.51982,75.403534,0.0,1.7789062,2.9323642,nan,3,77,0,0
304461757,304461333,36.66413590459664,126.34038691939536,60.358803,75.241066,0.0,1.7790753,2.9323075,nan,3,77,0,0
304661808,304661350,36.664158973417436,126.34041449679451,60.17372,75.05535,0.0,1.7790477,2.9321578,nan,3,77,0,0
304861924,304861367,36.66418142609711,126.34044268529361,59.975075,74.85701,0.0,1.7758584,2.931843,nan,3,77,0,0
305061874,305061384,36.664203275809584,126.3404715380958,59.828003,74.70993,0.0,1.7790194,2.932184,nan,3,77,0,0
305251867,305251400,36.66422374638396,126.34049929813061,59.664658,74.547195,0.0,1.7788318,2.9322703,nan,3,77,0,0
305451977,305451418,36.66424472498586,126.3405290340583,59.45192,74.337204,0.0,1.778795,2.9321108,nan,3,77,0,0
305651880,305651435,36.66426445455326,126.3405587847384,59.158905,74.0487,0.0,1.7787589,2.931956,nan,3,77,0,0
305851874,305851452,36.664282946347605,126.34058929125591,58.75663,73.65235,0.0,1.7787453,2.9321275,nan,3,77,0,0
306062065,306061470,36.66430018612788,126.34062318556343,58.269043,73.18465,0.0,1.7758327,2.9315941,nan,3,77,0,0
306262066,306261487,36.664313508401555,126.34065873790738,57.836647,72.7643,0.0,1.7758234,2.9314587,nan,3,77,0,0
306461956,306461504,36.664322766339154,126.3406962503146,57.565903,72.49355,0.0,1.7789453,2.931808,nan,3,77,0,0
306651958,306651520,36.66432762975033,126.3407335362192,57.41822,72.35803,0.0,1.7787629,2.9319239,nan,3,77,0,0
306851927,306851537,36.66432794552982,126.34077422706396,57.379463,72.32532,0.0,1.7788053,2.93181,nan,3,77,0,0
307051960,307051554,36.66432290620661,126.34081515732453,57.427658,72.378456,0.0,1.7788528,2.9320168,nan,3,77,0,0
307262190,307261572,36.66431203370235,126.3408579399587,57.51745,72.471855,0.0,1.7758826,2.9314847,nan,3,77,0,0
307462026,307461588,36.66429707044943,126.34089664999928,57.60824,72.564735,0.0,1.7759317,2.9313784,nan,3,77,0,0
307662059,307661605,36.664277787300065,126.34093291588616,57.69536,72.654816,0.0,1.7759709,2.9312718,nan,3,77,0,0
307862082,307861622,36.66425487641826,126.34096628118381,57.759857,72.72285,0.0,1.7760175,2.9314709,nan,3,77,0,0
308052287,308051638,36.66423035418498,126.34099510407991,57.800568,72.768585,0.0,1.7759262,2.9312847,nan,3,77,0,0
308252140,308251655,36.664201984121625,126.34102183282452,57.70571,72.67373,0.0,1.7791098,2.93168,nan,3,77,0,0
308452078,308451672,36.6641720381154,126.34104392465218,57.55562,72.531204,0.0,1.7791367,2.9318874,nan,3,77,0,0
308662324,308661690,36.664139084091765,126.34106250053647,57.345108,72.34202,0.0,1.7761904,2.9313526,nan,3,77,0,0
308862139,308861706,36.66410633970168,126.34107552895678,57.118713,72.13048,0.0,1.7762376,2.93125,nan,3,77,0,0
309062336,309061723,36.664073848871844,126.34108461372142,56.830925,71.85789,0.0,1.7762736,2.9311497,nan,3,77,0,0
309252112,309251739,36.664042812608926,126.34109069443439,56.4868,71.51376,0.0,1.7792506,2.931779,nan,3,77,0,0
309452347,309451755,36.66401051659961,126.34109483605616,56.048927,71.11017,0.0,1.7762005,2.9311745,nan,3,77,0,0
309652438,309651772,36.66397847938124,126.34109688332276,55.56108,70.64232,0.0,1.7762268,2.9313798,nan,3,77,0,0
309852354,309851789,36.663946368050425,126.3410975737318,55.010757,70.11199,0.0,1.7762514,2.9312828,nan,3,77,0,0
310062205,310061806,36.66391343939785,126.34109747756193,54.387848,69.508286,0.0,1.776409,2.9312665,nan,3,77,0,0
310262432,310261823,36.66388221810471,126.34109721269465,53.732574,68.874214,0.0,1.7764097,2.9311714,nan,3,77,0,0
310462488,310461840,36.66385139586551,126.34109719416594,53.05079,68.21303,0.0,1.7764007,2.9313786,nan,3,77,0,0
310652272,310651855,36.66382233094254,126.34109786204078,52.396713,67.55895,0.0,1.7792523,2.931689,nan,3,77,0,0
310852295,310851872,36.663791520793154,126.34109963377549,51.749672,66.93151,0.0,1.7792255,2.9315825,nan,3,77,0,0
311052428,311051888,36.66376140117202,126.34110257485958,51.103607,66.305244,0.0,1.7791935,2.9317873,nan,3,77,0,0
311252282,311251905,36.663731496181086,126.34110673892837,50.439476,65.66112,0.0,1.7791538,2.9316769,nan,3,77,0,0
311462542,311461922,36.66369989289984,126.34111267924808,49.75035,65.01259,0.0,1.776268,2.9311767,nan,3,77,0,0
311662556,311661939,36.663670483038516,126.34111946360257,49.12236,64.4041,0.0,1.7762331,2.9310718,nan,3,77,0,0
311862335,311861955,36.66364138441261,126.34112732612459,48.508194,63.789932,0.0,1.7792189,2.9317422,nan,3,77,0,0
312052346,312051971,36.6636140093426,126.34113559371706,47.911552,63.21419,0.0,1.7790163,2.9315538,nan,3,77,0,0
312252530,312251987,36.663585068537536,126.34114513580137,47.270073,62.591713,0.0,1.7789904,2.9314492,nan,3,77,0,0
312452381,312452004,36.663556724394475,126.3411554841295,46.640907,61.982643,0.0,1.7789689,2.9316604,nan,3,77,0,0
312652391,312652020,36.66352864098431,126.34116654495762,46.06655,61.430443,0.0,1.7789282,2.9315643,nan,3,77,0,0
312862444,312862038,36.663499600844794,126.34117879216507,45.50814,60.889877,0.0,1.7790856,2.931554,nan,3,77,0,0
313062620,313062054,36.663471877520365,126.34119098263886,44.956776,60.378613,0.0,1.7759945,2.9309933,nan,3,77,0,0
313262611,313262070,36.66344471352774,126.34120339668736,44.35566,59.797398,0.0,1.7759771,2.931208,nan,3,77,0,0
313452460,313452086,36.66341891135848,126.34121550911492,43.753647,59.195385,0.0,1.7788626,2.9315252,nan,3,77,0,0
313652477,313652102,36.663392027308504,126.34122866721516,43.1083,58.570038,0.0,1.7788475,2.9317596,nan,3,77,0,0
313852567,313852119,36.66336531753534,126.34124209183241,42.473934,57.955673,0.0,1.778838,2.9316838,nan,3,77,0,0
314052511,314052135,36.6633385070401,126.34125598047024,41.85112,57.35256,0.0,1.7788302,2.9316096,nan,3,77,0,0
314262898,314262152,36.66331083312353,126.34127044458802,41.206482,56.748222,0.0,1.7758925,2.9311259,nan,3,77,0,0
314462544,314462168,36.66328445817829,126.3412842171306,40.5981,56.13984,0.0,1.7789845,2.9318695,nan,3,77,0,0
314652607,314652184,36.66325915441146,126.34129751253826,40.037907,55.60131,0.0,1.7788029,2.9317162,nan,3,77,0,0
314852588,314852200,36.66323285521206,126.3413113560558,39.463318,55.04506,0.0,1.7788055,2.9316502,nan,3,77,0,0
315052596,315052216,36.663206702018535,126.3413251088953,38.89253,54.495667,0.0,1.7787944,2.9318979,nan,3,77,0,0
315252767,315252232,36.66318055294029,126.34133887716449,38.315266,53.956104,0.0,1.7757176,2.9313116,nan,3,77,0,0
315452669,315452249,36.663154372846826,126.34135253157743,37.715755,53.356594,0.0,1.7788092,2.9317696,nan,3,77,0,0
315662816,315662266,36.66312651531,126.34136686108089,37.073997,52.755856,0.0,1.775862,2.9312606,nan,3,77,0,0
315862683,315862282,36.66310019002734,126.3413802717867,36.48402,52.185383,0.0,1.7758695,2.931501,nan,3,77,0,0
316052679,316052297,36.66307512254874,126.34139290179515,35.930378,51.63174,0.0,1.7788308,2.9318871,nan,3,77,0,0
316252761,316252313,36.66304891856906,126.3414060195677,35.34939,51.07084,0.0,1.7788283,2.9318194,nan,3,77,0,0
316452707,316452330,36.663022440686284,126.34141925879308,34.77475,50.51689,0.0,1.7788267,2.9320729,nan,3,77,0,0
316652968,316652346,36.66299642470342,126.34143250912527,34.23507,50.016308,0.0,1.7757374,2.931455,nan,3,77,0,0
316852771,316852362,36.66297049736648,126.34144569119101,33.69421,49.47545,0.0,1.778859,2.9319346,nan,3,77,0,0
317062901,317062379,36.6629431670366,126.34145947965756,33.122772,48.94451,0.0,1.7758892,2.931713,nan,3,77,0,0
317262919,317262394,36.66291752951425,126.34147204533919,32.597412,48.439148,0.0,1.7758946,2.931642,nan,3,77,0,0
317452805,317452410,36.662893120980044,126.34148398108282,32.068443,47.91018,0.0,1.7788714,2.932043,nan,3,77,0,0
317652800,317652426,36.66286754493172,126.3414964441915,31.512217,47.373955,0.0,1.7788763,2.9322906,nan,3,77,0,0
317853027,317852442,36.662841561046406,126.34150862494458,30.961477,46.862015,0.0,1.7757728,2.9316456,nan,3,77,0,0
318052871,318052458,36.66281585174387,126.34151977854427,30.375463,46.276,0.0,1.7789025,2.9321322,nan,3,77,0,0
318252858,318252474,36.662789868395784,126.34152974218004,29.774326,45.695965,0.0,1.7789017,2.9323776,nan,3,77,0,0
318462931,318462491,36.66276215874337,126.34153834795785,29.140907,45.082344,0.0,1.7790716,2.9323843,nan,3,77,0,0
318662928,318662509,36.66273541171639,126.34154414348399,28.555904,44.53694,0.0,1.7759143,2.9317272,nan,3,77,0,0
318853128,318852525,36.662709488718306,126.34154735329076,28.05532,44.05596,0.0,1.7757741,2.9315586,nan,3,77,0,0
319053068,319052539,36.66268172744074,126.34154921944476,27.526928,43.547867,0.0,1.7757876,2.9317877,nan,3,77,0,0
319253120,319252554,36.66265421508442,126.34154961128019,27.020079,43.061317,0.0,1.7758017,2.931702,nan,3,77,0,0
319452947,319452570,36.66262665565623,126.34154913985891,26.544952,42.58619,0.0,1.7789663,2.932507,nan,3,77,0,0
319652998,319652586,36.66259933431267,126.3415482307139,26.092745,42.153072,0.0,1.7789737,2.9324133,nan,3,77,0,0
319863260,319862603,36.66257017469455,126.34154717848203,25.611092,41.70856,0.0,1.7759428,2.9318354,nan,3,77,0,0
320063198,320062618,36.66254283551592,126.34154732444794,25.13459,41.25054,0.0,1.7759356,2.9317453,nan,3,77,0,0
320253040,320252634,36.66251715279573,126.34154953674239,24.640343,40.756294,0.0,1.7789207,2.9324598,nan,3,77,0,0
320453222,320452650,36.66249044748402,126.34155514133333,24.090382,40.236565,0.0,1.7757692,2.931799,nan,3,77,0,0
320653075,320652666,36.66246378129711,126.34156475739333,23.512012,39.658195,0.0,1.7788645,2.9322538,nan,3,77,0,0
320853066,320852681,36.66243807762261,126.34157775692015,22.95398,39.115578,0.0,1.7788233,2.9324758,nan,3,77,0,0
321053071,321052697,36.66241311291859,126.34159404184716,22.432163,38.60553,0.0,1.7787927,2.932367,nan,3,77,0,0
321263247,321262714,36.662387318833865,126.34161401021365,21.903921,38.09101,0.0,1.7757795,2.931798,nan,3,79,0,0
321453103,321452729,36.6623646886179,126.34163366750529,21.47388,37.66097,0.0,1.778758,2.9324849,nan,3,79,0,0
321653298,321652745,36.66234115107074,126.34165573377405,21.122293,37.308544,0.0,1.7756072,2.9318283,nan,3,79,0,0
321853144,321852761,36.662317442264666,126.3416787056656,20.973803,37.160053,0.0,1.7788012,2.9322853,nan,3,79,0,0
322053226,322052777,36.66229347547052,126.34170183721487,20.821888,36.998936,0.0,1.7788163,2.932188,nan,3,79,0,0
