timestamp,roll_body,pitch_body,yaw_body,yaw_sp_move_rate,q_d[0],q_d[1],q_d[2],q_d[3],thrust_body[0],thrust_body[1],thrust_body[2],roll_reset_integral,pitch_reset_integral,yaw_reset_integral,fw_control_yaw,apply_flaps
217448828,0.0,0.0,1.0523306,0.0,0.8647393,0.0,0.0,0.502221,0.0,0.0,-0.001,0,0,0,0,0
217458788,0.0,0.0,1.0523379,0.0,0.86473745,0.0,0.0,0.5022242,0.0,0.0,-0.001,0,0,0,0,0
217508698,0.0,0.0,1.0523064,0.0,0.8647454,0.0,0.0,0.50221056,0.0,0.0,-0.001,0,0,0,0,0
217558817,0.0,0.0,1.0524944,0.0,0.8646982,0.0,0.0,0.5022919,0.0,0.0,-0.001,0,0,0,0,0
217598785,0.0,0.0,1.0526836,0.0,0.8646506,0.0,0.0,0.50237364,0.0,0.0,-0.001,0,0,0,0,0
217658988,0.0,0.0,1.0530941,0.0,0.8645475,0.0,0.0,0.50255114,0.0,0.0,-0.001,0,0,0,0,0
217708774,0.0,0.0,1.0534312,0.0,0.8644628,0.0,0.0,0.5026968,0.0,0.0,-0.001,0,0,0,0,0
217758823,0.0,0.0,1.0537792,0.0,0.8643753,0.0,0.0,0.50284725,0.0,0.0,-0.001,0,0,0,0,0
217798776,0.0,0.0,1.0541382,0.0,0.86428505,0.0,0.0,0.50300235,0.0,0.0,-0.001,0,0,0,0,0
217858854,0.0,0.0,1.0545813,0.0,0.8641736,0.0,0.0,0.50319386,0.0,0.0,-0.001,0,0,0,0,0
217908741,0.0,0.0,1.0549939,0.0,0.86406976,0.0,0.0,0.5033721,0.0,0.0,-0.001,0,0,0,0,0
217948749,0.0,0.0,1.0553064,0.0,0.8639911,0.0,0.0,0.50350714,0.0,0.0,-0.001,0,0,0,0,0
218008790,0.0,0.0,1.0557401,0.0,0.8638819,0.0,0.0,0.50369453,0.0,0.0,-0.001,0,0,0,0,0
218058860,0.0,0.0,1.0560784,0.0,0.86379665,0.0,0.0,0.5038406,0.0,0.0,-0.001,0,0,0,0,0
218108748,0.0,0.0,1.0564889,0.0,0.86369324,0.0,0.0,0.50401783,0.0,0.0,-0.001,0,0,0,0,0
218148772,0.0,0.0,1.0567915,0.0,0.86361694,0.0,0.0,0.50414854,0.0,0.0,-0.001,0,0,0,0,0
218208753,0.0,0.0,1.057178,0.0,0.86351955,0.0,0.0,0.50431544,0.0,0.0,-0.001,0,0,0,0,0
218258868,0.0,0.0,1.0575303,0.0,0.8634307,0.0,0.0,0.5044675,0.0,0.0,-0.001,0,0,0,0,0
218298836,0.0,0.0,1.0577847,0.0,0.86336654,0.0,0.0,0.50457734,0.0,0.0,-0.001,0,0,0,0,0
218358935,-0.0073850653,0.0024534778,1.0581777,0.0,0.86325854,-0.0038068213,-0.000804793,0.5047471,0.0,0.0,-0.021422913,0,0,0,0,0
218408808,0.003912163,-0.00027018596,1.0585561,0.0,0.86317,0.0017566431,0.0008710368,0.5049096,0.0,0.0,-0.02832887,0,0,0,0,0
218458887,0.0042002425,-3.110746e-05,1.0589094,0.0,0.86308074,0.0018204323,0.001047268,0.5050617,0.0,0.0,-0.035692222,0,0,0,0,0
218498874,0.0043356773,0.0003952483,1.0592443,0.0,0.8629962,0.0017709979,0.0012657556,0.50520575,0.0,0.0,-0.041883383,0,0,0,0,0
218558862,0.0044603883,0.00036350463,1.0596993,0.0,0.8628811,0.0018325372,0.0012839778,0.505402,0.0,0.0,-0.051836226,0,0,0,0,0
218608783,0.0045624366,0.0005331573,1.0601102,0.0,0.86277723,0.0018334093,0.0013833373,0.50557905,0.0,0.0,-0.06056175,0,0,0,0,0
218648943,0.0047769602,0.00043370252,1.0603873,0.0,0.86270696,0.0019509002,0.0013949331,0.5056985,0.0,0.0,-0.06784964,0,0,0,0,0
218708790,0.0050575156,0.0011674364,1.0608648,0.0,0.86258626,0.0018859687,0.00178282,0.5059035,0.0,0.0,-0.07946301,0,0,0,0,0
218758836,0.0050261654,0.0015083421,1.0611699,0.0,0.86250925,0.0017859212,0.0019221923,0.50603455,0.0,0.0,-0.08959341,0,0,0,0,0
218808803,0.0053810035,0.0016596927,1.061498,0.0,0.8624259,0.0019003113,0.0020775548,0.5061756,0.0,0.0,-0.10023532,0,0,0,0,0
218848890,0.00542426,0.0020480622,1.0617547,0.0,0.862361,0.0018203821,0.0022562055,0.5062856,0.0,0.0,-0.10914438,0,0,0,0,0
218908849,0.0050223065,0.0019039949,1.062145,0.0,0.8622625,0.0016831291,0.0020926634,0.5064545,0.0,0.0,-0.122887924,0,0,0,0,0
218958883,0.0047987117,0.0018214567,1.0624398,0.0,0.862188,0.0016073367,0.0020006953,0.50658196,0.0,0.0,-0.13487403,0,0,0,0,0
218998924,0.004664617,0.0018424412,1.0626298,0.0,0.86214,0.0015440265,0.0019759233,0.50666404,0.0,0.0,-0.14475274,0,0,0,0,0
219059055,0.0048172474,0.001963347,1.063009,0.0,0.8620438,0.001578799,0.0020670076,0.5068271,0.0,0.0,-0.16014865,0,0,0,0,0
219108820,0.004387816,0.002453475,1.0633051,0.0,0.8619691,0.0012691775,0.0021696272,0.50695467,0.0,0.0,-0.17352484,0,0,0,0,0
219158871,0.004388167,0.0024528475,1.0636712,0.0,0.86187625,0.0012690906,0.002169678,0.5071124,0.0,0.0,-0.18740232,0,0,0,0,0
219198868,0.0037254407,0.0023563236,1.0640788,0.0,0.8617733,0.0010075717,0.0019602494,0.5072888,0.0,0.0,-0.1988687,0,0,0,0,0
219258999,0.0040661646,0.00232398,1.064702,0.0,0.861615,0.0011619553,0.0020330977,0.5075569,0.0,0.0,-0.21644317,0,0,0,0,0
219308849,0.003712869,0.0022204758,1.0647745,0.0,0.86159676,0.0010359515,0.001898886,0.5075887,0.0,0.0,-0.23158997,0,0,0,0,0
219348882,0.0035592185,0.0025775824,1.0648537,0.0,0.8615768,0.0008790472,0.0020137657,0.50762254,0.0,0.0,-0.24411969,0,0,0,0,0
219408851,0.0035917696,0.0027574012,1.0654141,0.0,0.86143446,0.00084684114,0.0020997287,0.5078637,0.0,0.0,-0.26354223,0,0,0,0,0
219458945,0.0032020598,0.0027619307,1.0658363,0.0,0.8613274,0.00067741337,0.002002863,0.508046,0.0,0.0,-0.28028858,0,0,0,0,0
219508889,0.0036205875,0.0032579273,1.0659243,0.0,0.8613048,0.0007315603,0.0023228175,0.5080828,0.0,0.0,-0.29221267,0,0,0,0,0
219548891,0.003824761,0.00377094,1.0660441,0.0,0.8612741,0.00068900466,0.0025956568,0.5081336,0.0,0.0,-0.29388538,0,0,0,0,0
219608895,0.003940584,0.0034654397,1.0666301,0.0,0.86112523,0.00081577024,0.0024937633,0.50838625,0.0,0.0,-0.29696754,0,0,0,0,0
219659204,0.0027427052,0.0032185423,1.0665921,0.0,0.8611353,0.00036280826,0.002082959,0.5083715,0.0,0.0,-0.299878,0,0,0,0,0
219698914,0.0039388845,0.00296715,1.0663825,0.0,0.8611883,0.000941984,0.0022786704,0.50828016,0.0,0.0,-0.30202836,0,0,0,0,0
219758915,0.0029753556,0.0030441957,1.066343,0.0,0.86119866,0.00050755404,0.0020669643,0.5082641,0.0,0.0,-0.30507958,0,0,0,0,0
219808934,0.0031002446,0.0024013584,1.0664134,0.0,0.86118084,0.0007246339,0.0018219237,0.508295,0.0,0.0,-0.30722064,0,0,0,0,0
219859022,0.0034765785,0.0018467932,1.0663633,0.0,0.8611934,0.0010276637,0.0016787521,0.50827354,0.0,0.0,-0.3104016,0,0,0,0,0
219898967,0.0015853754,0.0014200497,1.0663973,0.0,0.86118543,0.00032175222,0.0010143785,0.5082899,0.0,0.0,-0.31218585,0,0,0,0,0
219958964,0.003723104,0.0022301623,1.0672873,0.0,0.8609584,0.0010355072,0.001906959,0.5086708,0.0,0.0,-0.3156219,0,0,0,0,0
220008954,0.0020996435,0.0012457798,1.0680612,0.0,0.8607622,0.00058659166,0.0010705261,0.50900584,0.0,0.0,-0.31783426,0,0,0,0,0
220048925,0.0031012879,0.001306489,1.0683554,0.0,0.8606869,0.001002031,0.001351723,0.5091319,0.0,0.0,-0.31981513,0,0,0,0,0
220108912,0.0062147896,0.002392172,1.0683539,0.0,0.86068505,0.0020655275,0.0026115244,0.50912684,0.0,0.0,-0.32373518,0,0,0,0,0
220159043,0.003098599,0.0014833831,1.0681181,0.0,0.86074734,0.00095601165,0.00142705,0.50902957,0.0,0.0,-0.32771495,0,0,0,0,0
220208953,0.005133612,0.00047934218,1.0679153,0.0,0.86079705,0.0020875242,0.0015126672,0.50894195,0.0,0.0,-0.33008984,0,0,0,0,0
220248941,0.0046057827,-7.7793986e-05,1.0678,0.0,0.8608266,0.002002188,0.0011384441,0.5088932,0.0,0.0,-0.33282608,0,0,0,0,0
220308978,0.0027585854,-0.00037258494,1.0681809,0.0,0.86073107,0.0012820344,0.0005417924,0.5090582,0.0,0.0,-0.3371242,0,0,0,0,0
220359024,0.0040412494,-4.2350885e-07,1.068954,0.0,0.8605334,0.0017389253,0.0010291053,0.50939006,0.0,0.0,-0.34101048,0,0,0,0,0
220398979,0.0019374369,-0.00042455448,1.0695271,0.0,0.86038864,0.00094165903,0.0003110543,0.50963753,0.0,0.0,-0.34419566,0,0,0,0,0
220459083,0.0053258175,8.691923e-05,1.0701671,0.0,0.86022305,0.00226854,0.0013952348,0.509911,0.0,0.0,-0.3477833,0,0,0,0,0
220508943,0.0064551663,-0.0020558797,1.070221,0.0,0.8602057,0.0033005814,0.00076161564,0.509936,0.0,0.0,-0.35137913,0,0,0,0,0
220558986,0.0030592943,0.00042127355,1.0700809,0.0,0.86024714,0.001208477,0.00096112944,0.50987494,0.0,0.0,-0.3566959,0,0,0,0,0
220598991,0.00621031,-0.00041857138,1.0700281,0.0,0.86025697,0.0027779453,0.0014031306,0.5098513,0.0,0.0,-0.35911137,0,0,0,0,0
220659187,0.0034486414,-0.00038344043,1.0700026,0.0,0.86026657,0.0015811239,0.0007142003,0.5098417,0.0,0.0,-0.3643818,0,0,0,0,0
220708997,0.00594588,-0.00022755106,1.0699553,0.0,0.86027604,0.0026155617,0.0014177889,0.50981987,0.0,0.0,-0.36688986,0,0,0,0,0
220748960,0.006090003,0.00047379374,1.0696973,0.0,0.8603422,0.002499002,0.00175588,0.50970787,0.0,0.0,-0.37131435,0,0,0,0,0
220799057,0.0064930157,0.001933016,1.0695697,0.0,0.860375,0.0023006345,0.002486156,0.50965035,0.0,0.0,-0.3759567,0,0,0,0,0
220849029,0.0068861167,0.001898228,1.0695771,0.0,0.8603726,0.0024785975,0.0025713718,0.5096531,0.0,0.0,-0.37931156,0,0,0,0,0
220909078,0.005998044,0.0018976679,1.0694191,0.0,0.86041385,0.0020968881,0.002344661,0.5095862,0.0,0.0,-0.3851786,0,0,0,0,0
220948981,0.005953969,0.0027104693,1.0693365,0.0,0.8604352,0.0018709394,0.002683025,0.50954944,0.0,0.0,-0.38938358,0,0,0,0,0
221009010,0.00818988,0.0016682199,1.0691342,0.0,0.86048347,0.003098692,0.0028039736,0.5094613,0.0,0.0,-0.3950221,0,0,0,0,0
221059423,0.006227697,0.0020616897,1.0686688,0.0,0.8606048,0.002154822,0.0024729294,0.50926286,0.0,0.0,-0.39953256,0,0,0,0,0
221099044,0.008735581,0.0020093126,1.0681714,0.0,0.860728,0.0032480743,0.003088168,0.5090454,0.0,0.0,-0.40303427,0,0,0,0,0
221159084,0.007522929,0.0025664964,1.067602,0.0,0.86087495,0.0025852332,0.0030185753,0.50880116,0.0,0.0,-0.40886506,0,0,0,0,0
221209074,0.008162692,0.0037991644,1.0674455,0.0,0.86091435,0.0025473046,0.0037117142,0.5087301,0.0,0.0,-0.41261423,0,0,0,0,0
221259092,0.0076995553,0.0024584578,1.0674946,0.0,0.860902,0.0026889069,0.0030168612,0.50875473,0.0,0.0,-0.41799513,0,0,0,0,0
221299068,0.009452811,0.0058026393,1.067693,0.0,0.86084986,0.00259241,0.004902592,0.5088288,0.0,0.0,-0.4231093,0,0,0,0,0
221359127,0.012401815,0.005978507,1.0678225,0.0,0.86081225,0.0038166149,0.0057287985,0.508876,0.0,0.0,-0.44536492,0,0,0,0,0
221409012,0.009465341,0.0021685872,1.0674417,0.0,0.86091256,0.003522816,0.0033411686,0.5087298,0.0,0.0,-0.4486638,0,0,0,0,0
221449034,0.009709876,0.003367351,1.0671209,0.0,0.86099446,0.0033237769,0.003918848,0.50858843,0.0,0.0,-0.45186964,0,0,0,0,0
221509163,0.012884819,0.0051947925,1.0666206,0.0,0.86111665,0.0042272354,0.005511846,0.5083601,0.0,0.0,-0.45888102,0,0,0,0,0
221559082,0.010493981,0.0018665525,1.0659852,0.0,0.86128056,0.0040449565,0.0034698618,0.50810176,0.0,0.0,-0.4642355,0,0,0,0,0
221599134,0.01039855,0.002488614,1.0656588,0.0,0.86136425,0.0038464272,0.0037128723,0.5079597,0.0,0.0,-0.46894246,0,0,0,0,0
221649064,0.011436715,0.0064576874,1.0652322,0.0,0.86147237,0.0032866665,0.005685226,0.507762,0.0,0.0,-0.47315797,0,0,0,0,0
221709053,0.009556756,0.007531927,1.0650219,0.0,0.8615282,0.0022047486,0.005670412,0.5076733,0.0,0.0,-0.48046586,0,0,0,0,0
221759103,0.010455967,0.00479556,1.0654505,0.0,0.8614183,0.003285714,0.0047206627,0.50786364,0.0,0.0,-0.4877041,0,0,0,0,0
221799090,0.009167165,0.0067664403,1.0662376,0.0,0.8612202,0.00222806,0.0052431365,0.5082002,0.0,0.0,-0.49211523,0,0,0,0,0
221859128,0.015910532,0.0067177257,1.0675596,0.0,0.8608716,0.0051395968,0.006939016,0.50874895,0.0,0.0,-0.4993251,0,0,0,0,0
221909096,0.012532917,0.0067518624,1.0693159,0.0,0.86043197,0.0036717064,0.006097748,0.50951564,0.0,0.0,-0.5048597,0,0,0,0,0
221959119,0.0075196046,0.007474762,1.0717318,0.0,0.8598219,0.001324513,0.005133154,0.51056653,0.0,0.0,-0.51199555,0,0,0,0,0
221999150,0.0045218496,0.0062861526,1.0741197,0.0,0.8592138,0.00033458418,0.0038572815,0.51160204,0.0,0.0,-0.51829785,0,0,0,0,0
222059166,0.0042139376,0.008877132,1.0783249,0.0,0.85813344,-0.00047077166,0.004890629,0.5134032,0.0,0.0,-0.52759385,0,0,0,0,0
222109263,0.01174867,0.007767824,1.0822352,0.0,0.85712403,0.003034481,0.0063547604,0.515062,0.0,0.0,-0.5316074,0,0,0,0,0
222149142,0.010807399,0.007301801,1.0851291,0.0,0.8563793,0.0027425543,0.0059166136,0.51630616,0.0,0.0,-0.5382796,0,0,0,0,0
222209096,0.014928103,0.0049153143,1.0888684,0.00025275163,0.85540354,0.0051119565,0.0059681092,0.5179025,0.0,0.0,-0.54544127,0,0,0,0,0
222259325,0.017888574,0.0074194907,1.0919542,9.557977e-05,0.85459745,0.0057175984,0.007814547,0.5192007,0.0,0.0,-0.5545876,0,0,0,0,0
222309172,0.010561531,0.008543746,1.0954703,0.0,0.8536982,0.002283599,0.00639681,0.5207238,0.0,0.0,-0.5601982,0,0,0,0,0
222349166,0.009006041,0.007272236,1.0986763,0.0,0.85286456,0.001941977,0.0054522045,0.52210015,0.0,0.0,-0.56594056,0,0,0,0,0
222409122,0.012110625,0.0064381636,1.1030893,0.0,0.8517063,0.0034705736,0.0059146583,0.52397454,0.0,0.0,-0.574309,0,0,0,0,0
222459104,0.011249079,0.0027514454,1.1064756,0.0,0.8508175,0.00406263,0.0041258507,0.52542937,0.0,0.0,-0.5815178,0,0,0,0,0
222499344,0.012434979,0.0045401105,1.1090019,0.0,0.85015213,0.0040906304,0.0052034757,0.52649564,0.0,0.0,-0.5877933,0,0,0,0,0
222559169,0.014050483,0.0031642283,1.1124794,0.0,0.84923035,0.0051307753,0.005052839,0.5279735,0.0,0.0,-0.59626126,0,0,0,0,0
222609132,0.026622651,-0.0037320396,1.1152824,0.0030119512,0.8484159,0.012281766,0.005460762,0.5291595,0.0,0.0,-0.59955955,0,0,0,0,0
222649244,0.031343784,-0.0047907406,1.1174748,0.01727452,0.84779865,0.014557676,0.0062767146,0.53008133,0.0,0.0,-0.6028249,0,0,0,0,0
222699287,0.029241854,0.0025266684,1.1201316,0.013089564,0.84713876,0.011715628,0.008837173,0.53116906,0.0,0.0,-0.6099588,0,0,0,0,0
222759239,0.023991583,-0.001023297,1.1234919,0.009528976,0.8462621,0.010424627,0.0059565892,0.5326314,0.0,0.0,-0.6280722,0,0,0,0,0
222809235,0.019558571,-0.005064789,1.1262128,0.0,0.8455446,0.00962098,0.0030789443,0.53380924,0.0,0.0,-0.634087,0,0,0,0,0
222849169,0.025893807,-0.00661406,1.1276674,0.0030819941,0.8451142,0.012709747,0.0041240845,0.5344189,0.0,0.0,-0.63919824,0,0,0,0,0
222909156,0.028229589,-0.014084902,1.1291544,0.009003973,0.8446566,0.015691416,0.0016028801,0.5350761,0.0,0.0,-0.65190977,0,0,0,0,0
222959202,0.03208131,-0.019386731,1.129342,0.015027666,0.84453315,0.0187359,0.0003957591,0.5351753,0.0,0.0,-0.6662656,0,0,0,0,0
222999223,0.031698365,-0.018909616,1.1287661,0.015407486,0.84469473,0.018446727,0.000489486,0.5349301,0.0,0.0,-0.67014414,0,0,0,0,0
223049192,0.035080224,-0.022049895,1.1275833,0.016641093,0.84495026,0.020714503,5.5246663e-05,0.5344436,0.0,0.0,-0.6716877,0,0,0,0,0
223109175,0.04691499,-0.018855132,1.1253551,0.02332045,0.8454416,0.024866054,0.004539961,0.5334695,0.0,0.0,-0.6801912,0,0,0,0,0
223159221,0.056859132,-0.020762695,1.1229625,0.0375674,0.8459226,0.029585283,0.0063504386,0.53244656,0.0,0.0,-0.6884517,0,0,0,0,0
223199260,0.06907587,-0.026260737,1.1211284,0.044828773,0.84613615,0.03622033,0.007243464,0.5316853,0.0,0.0,-0.69331706,0,0,0,0,0
223259317,0.07875013,-0.026307315,1.1183817,0.0636051,0.8466796,0.040338542,0.009740102,0.53048235,0.0,0.0,-0.6996723,0,0,0,0,0
223309228,0.09029319,-0.030894289,1.1159303,0.07140745,0.84699965,0.04645183,0.010801923,0.5294499,0.0,0.0,-0.70109624,0,0,0,0,0
223349193,0.08609372,-0.03303339,1.1145582,0.06970585,0.8474195,0.045244332,0.008752394,0.5289202,0.0,0.0,-0.6982298,0,0,0,0,0
223399302,0.095001586,-0.032807186,1.1129411,0.07855368,0.84764135,0.048967592,0.011164396,0.5281872,0.0,0.0,-0.6986038,0,0,0,0,0
223459293,0.0984329,-0.034987714,1.1114497,0.07861937,0.84790576,0.051004402,0.011107541,0.5275709,0.0,0.0,-0.7038312,0,0,0,0,0
223509209,0.08989808,-0.03608496,1.1099567,0.08130019,0.84848803,0.04768056,0.008354745,0.526996,0.0,0.0,-0.6933751,0,0,0,0,0
223549223,0.086971626,-0.037990734,1.1085017,0.074945085,0.8489033,0.04694477,0.006740094,0.5264161,0.0,0.0,-0.6829086,0,0,0,0,0
223609213,0.07008021,-0.038248397,1.106089,0.056775257,0.8498995,0.039843887,0.0021363879,0.52543193,0.0,0.0,-0.68160975,0,0,0,0,0
223659276,0.06343723,-0.042157087,1.1036775,0.042535834,0.85059416,0.038043972,-0.0013172032,0.52444303,0.0,0.0,-0.68457067,0,0,0,0,0
223699401,0.05115125,-0.03810284,1.1013643,0.031984925,0.85147953,0.03175354,-0.0028496792,0.5234177,0.0,0.0,-0.6869041,0,0,0,0,0
223749291,0.04471108,-0.04180735,1.0983449,0.031623796,0.85231346,0.029970368,-0.006158519,0.5221357,0.0,0.0,-0.68443,0,0,0,0,0
223809272,0.044295628,-0.04570142,1.0947137,0.03031827,0.85320747,0.030793896,-0.007983328,0.5206007,0.0,0.0,-0.6880468,0,0,0,0,0
223859306,0.044768672,-0.04521835,1.0915599,0.030034835,0.8540275,0.030858057,-0.0077026575,0.5192547,0.0,0.0,-0.68938744,0,0,0,0,0
223899470,0.044434145,-0.04601383,1.0887542,0.0225405,0.85474795,0.030909956,-0.00817277,0.51805764,0.0,0.0,-0.6935894,0,0,0,0,0
223959279,0.047752086,-0.049423784,1.084496,0.026159083,0.8557407,0.03319081,-0.008842196,0.51626354,0.0,0.0,-0.6957235,0,0,0,0,0
224009278,0.05261589,-0.054480772,1.0811324,0.02912685,0.85643405,0.036557823,-0.009813362,0.51486695,0.0,0.0,-0.6968426,0,0,0,0,0
224049256,0.05786642,-0.058754433,1.0784775,0.040131487,0.85693425,0.039889622,-0.010346182,0.5137757,0.0,0.0,-0.6986658,0,0,0,0,0
224099520,0.06273643,-0.05652401,1.0757581,0.041985273,0.85757786,0.041393787,-0.008194785,0.5126203,0.0,0.0,-0.70506626,0,0,0,0,0
224159309,0.05957091,-0.05576059,1.0725652,0.042909473,0.8584746,0.039827365,-0.008742022,0.5112325,0.0,0.0,-0.70628977,0,0,0,0,0
224209361,0.06314341,-0.05555497,1.0699021,0.03656096,0.8590862,0.041298002,-0.0077954736,0.51010257,0.0,0.0,-0.7068795,0,0,0,0,0
224249315,0.058539033,-0.058161415,1.067873,0.041038997,0.8596448,0.039972752,-0.010131136,0.50922537,0.0,0.0,-0.70545834,0,0,0,0,0
224309346,0.052094754,-0.054340135,1.064611,0.034445703,0.86067003,0.036215633,-0.010186754,0.5077714,0.0,0.0,-0.7043235,0,0,0,0,0
224359337,0.043709993,-0.05103671,1.0620358,0.03201489,0.8615231,0.03175605,-0.010933499,0.5066064,0.0,0.0,-0.7029229,0,0,0,0,0
224399417,0.035979945,-0.050152592,1.0604137,0.020819953,0.8620636,0.028192276,-0.012533225,0.50586015,0.0,0.0,-0.7022666,0,0,0,0,0
224449286,0.040250994,-0.050965745,1.0581615,0.022302644,0.8625576,0.030225178,-0.011837641,0.5049166,0.0,0.0,-0.69995564,0,0,0,0,0
224509279,0.037277207,-0.048642643,1.0561006,0.020157656,0.8631572,0.028345129,-0.011615078,0.50400525,0.0,0.0,-0.70280856,0,0,0,0,0
224559444,0.04193892,-0.049398318,1.0547107,0.02443082,0.86342686,0.030539569,-0.010787811,0.50343317,0.0,0.0,-0.70759577,0,0,0,0,0
224599386,0.039564397,-0.042681962,1.0538292,0.023300787,0.86378455,0.027822787,-0.008496404,0.5030208,0.0,0.0,-0.7127644,0,0,0,0,0
224659434,0.042904958,-0.04339848,1.0527759,0.023014823,0.8639912,0.02944124,-0.007981318,0.5025821,0.0,0.0,-0.71211886,0,0,0,0,0
224709392,0.038789507,-0.043902732,1.0523275,0.022065533,0.86415535,0.027787779,-0.009239663,0.50237244,0.0,0.0,-0.71074426,0,0,0,0,0
224749359,0.037635732,-0.04740511,1.0518472,0.02253622,0.86424077,0.028165046,-0.011050273,0.5021678,0.0,0.0,-0.7088514,0,0,0,0,0
224799351,0.038690012,-0.04584749,1.0514768,0.021356704,0.86434203,0.028228259,-0.010117359,0.50200963,0.0,0.0,-0.70749044,0,0,0,0,0
224859386,0.03364857,-0.043911193,1.0508473,0.024285039,0.86459535,0.025560718,-0.010553541,0.5017072,0.0,0.0,-0.7050894,0,0,0,0,0
224909391,0.03824415,-0.04476274,1.0502865,0.01882123,0.8646627,0.027757887,-0.009776755,0.50149,0.0,0.0,-0.7018682,0,0,0,0,0
224949327,0.043202844,-0.04267614,1.0496038,0.02202619,0.8647934,0.02937662,-0.007640846,0.5012095,0.0,0.0,-0.702985,0,0,0,0,0
225009400,0.043371927,-0.045496408,1.0484647,0.02462891,0.86503404,0.030150317,-0.008835764,0.50072837,0.0,0.0,-0.70353615,0,0,0,0,0
225059541,0.04323102,-0.043400805,1.0474553,0.0271021,0.86532027,0.029561557,-0.007979057,0.5002832,0.0,0.0,-0.7081752,0,0,0,0,0
225099463,0.04385059,-0.044059955,1.0466485,0.022695856,0.865503,0.029990954,-0.0081215175,0.4999392,0.0,0.0,-0.7097387,0,0,0,0,0
225149422,0.037429947,-0.047550138,1.04593,0.023611115,0.86572343,0.028079327,-0.011247771,0.49960786,0.0,0.0,-0.7080906,0,0,0,0,0
225209352,0.03396958,-0.04834375,1.0448707,0.018720767,0.8660236,0.026772784,-0.012470051,0.49913007,0.0,0.0,-0.70906126,0,0,0,0,0
225259386,0.029871149,-0.049838338,1.0438132,0.014286486,0.86631894,0.025363082,-0.01415374,0.498646,0.0,0.0,-0.7115654,0,0,0,0,0
225299506,0.02756219,-0.050258946,1.0428164,0.008891288,0.8665901,0.024460217,-0.014923869,0.4981974,0.0,0.0,-0.71217006,0,0,0,0,0
225359438,0.021497274,-0.05468918,1.0407695,0.00563341,0.86710733,0.022915786,-0.018378332,0.49725437,0.0,0.0,-0.7118504,0,0,0,0,0
225409442,0.014991381,-0.050651714,1.0388029,0.001305636,0.8677195,0.019074045,-0.018263487,0.49635226,0.0,0.0,-0.7100184,0,0,0,0,0
225449368,0.011289662,-0.04794334,1.0371003,0.0,0.8682082,0.016780864,-0.018021116,0.49558863,0.0,0.0,-0.7114211,0,0,0,0,0
225499453,0.011294643,-0.044573832,1.0347466,0.0,0.86882937,0.01592896,-0.016575672,0.49457765,0.0,0.0,-0.71143585,0,0,0,0,0
225559424,0.006819779,-0.043737,1.0316975,0.0,0.8696245,0.0137516875,-0.01733962,0.4932174,0.0,0.0,-0.70955926,0,0,0,0,0
225609418,0.0070025334,-0.041183885,1.029158,0.0,0.87027466,0.013181126,-0.016201064,0.4921238,0.0,0.0,-0.70816046,0,0,0,0,0
225649383,0.008523274,-0.0407635,1.0269432,0.0,0.870813,0.013722109,-0.015659127,0.49117327,0.0,0.0,-0.7079293,0,0,0,0,0
225699462,0.010004959,-0.039530694,1.0243775,0.0,0.8714443,0.014045636,-0.014776444,0.49007064,0.0,0.0,-0.7089766,0,0,0,0,0
225759512,0.00922613,-0.038433366,1.0214803,0.0,0.87216926,0.013416479,-0.014508546,0.48880497,0.0,0.0,-0.71098024,0,0,0,0,0
225799428,0.011513731,-0.038123876,1.0195653,0.0,0.87262404,0.014325214,-0.013828186,0.48798662,0.0,0.0,-0.71136856,0,0,0,0,0
225849424,0.009729066,-0.038264032,1.0174485,0.0,0.87315106,0.013565554,-0.014339154,0.48704982,0.0,0.0,-0.7114923,0,0,0,0,0
225909566,0.004492737,-0.040090572,1.0151896,0.0,0.8737165,0.011705611,-0.016424993,0.4860172,0.0,0.0,-0.71282214,0,0,0,0,0
225959451,0.0024155653,-0.042773332,1.0134094,0.0,0.8741353,0.0114339,-0.018111957,0.48520988,0.0,0.0,-0.7140784,0,0,0,0,0
225999436,-0.0016791789,-0.04177231,1.0121076,0.0,0.8744816,0.009389195,-0.018673921,0.48460823,0.0,0.0,-0.71387416,0,0,0,0,0
226059533,-0.0075929738,-0.041205265,1.0100466,0.0,0.875009,0.0066455174,-0.01986571,0.48365325,0.0,0.0,-0.7125375,0,0,0,0,0
226109625,-0.008326693,-0.042375334,1.0081762,0.0,0.87545377,0.006588321,-0.020561174,0.48281938,0.0,0.0,-0.7094537,0,0,0,0,0
226149412,-0.009633711,-0.04057292,1.0069072,0.0,0.8757783,0.0055681854,-0.020091342,0.48226303,0.0,0.0,-0.70908535,0,0,0,0,0
226199514,-0.010732522,-0.04183111,1.0052241,0.0,0.8761771,0.0053729312,-0.020911708,0.4815055,0.0,0.0,-0.7082187,0,0,0,0,0
226259469,-0.010130218,-0.04095723,1.0033625,0.0,0.87663007,0.005407346,-0.02038895,0.48070237,0.0,0.0,-0.7056362,0,0,0,0,0
226309621,-0.0062213675,-0.039492372,1.0019706,0.0,0.876964,0.0067553595,-0.0188121,0.4801402,0.0,0.0,-0.70249766,0,0,0,0,0
226349467,-0.011076108,-0.038525052,1.0009801,0.0,0.8772225,0.0043846453,-0.019555584,0.4796656,0.0,0.0,-0.7015908,0,0,0,0,0
226409454,-0.010314466,-0.038155813,0.9996831,0.0,0.8775343,0.00461766,-0.01921398,0.47910655,0.0,0.0,-0.7013313,0,0,0,0,0
226459527,-0.010344433,-0.038717054,0.9988243,0.0,0.87773603,0.004730648,-0.019469418,0.47872552,0.0,0.0,-0.7033017,0,0,0,0,0
226499528,-0.006499235,-0.04187724,0.9982252,0.0,0.87784314,0.007168854,-0.0199379,0.47847944,0.0,0.0,-0.7046203,0,0,0,0,0
226549486,-0.006179801,-0.039977513,0.9976596,0.0,0.8779929,0.0068490757,-0.019029638,0.47824618,0.0,0.0,-0.70322114,0,0,0,0,0
226609466,-0.005986732,-0.0391421,0.9969208,0.0,0.8781755,0.0067271427,-0.018619236,0.47792876,0.0,0.0,-0.7029347,0,0,0,0,0
226659542,-0.005480668,-0.03839103,0.9962213,0.0,0.8783468,0.0067634783,-0.018170904,0.47763062,0.0,0.0,-0.70431495,0,0,0,0,0
226699553,-0.009282835,-0.036891796,0.99557424,0.0,0.8785233,0.0047295643,-0.018422045,0.4773208,0.0,0.0,-0.7043023,0,0,0,0,0
226759553,-0.0078039435,-0.036311638,0.9943253,0.0,0.8788216,0.0052295555,-0.017817535,0.4767891,0.0,0.0,-0.704499,0,0,0,0,0
226809476,-0.0069797197,-0.03464663,0.9931075,0.0,0.8791211,0.005184413,-0.016892625,0.47627082,0.0,0.0,-0.7021282,0,0,0,0,0
226849481,-0.0067211254,-0.035212774,0.99186456,0.0,0.87941235,0.005422315,-0.017083257,0.4757234,0.0,0.0,-0.70005685,0,0,0,0,0
226899582,-0.0077416957,-0.034694705,0.9902408,0.0,0.8798044,0.0048364224,-0.017102161,0.4750035,0.0,0.0,-0.7019973,0,0,0,0,0
226959522,-0.0057864906,-0.034166146,0.98816293,0.0,0.880296,0.0055539086,-0.016411064,0.47410846,0.0,0.0,-0.7020979,0,0,0,0,0
227009531,-0.0053245113,-0.03523145,0.98630697,0.0,0.88072675,0.0059942617,-0.016775986,0.47328946,0.0,0.0,-0.7010736,0,0,0,0,0
227049496,0.001011674,-0.032543506,0.98487335,0.0,0.8810628,0.008138204,-0.01409865,0.47271907,0.0,0.0,-0.702516,0,0,0,0,0
227109538,-0.0007090622,-0.03203088,0.9828426,0.0,0.88155264,0.0072444975,-0.0142868925,0.47181398,0.0,0.0,-0.7025442,0,0,0,0,0
227159564,-0.0019629502,-0.031093871,0.98126477,0.0,0.88193524,0.0064595737,-0.014174783,0.47111315,0.0,0.0,-0.7047034,0,0,0,0,0
227199607,-0.006035871,-0.030649427,0.980227,0.0,0.88219357,0.0045510805,-0.014940542,0.47062787,0.0,0.0,-0.706279,0,0,0,0,0
227249549,-0.005504062,-0.02929585,0.9789582,0.0,0.8824988,0.0044580684,-0.014221194,0.47007847,0.0,0.0,-0.70384926,0,0,0,0,0
227299598,-0.00476332,-0.030521223,0.9779587,0.0,0.8827246,0.00506568,-0.014590294,0.469637,0.0,0.0,-0.7038498,0,0,0,0,0
227359650,-0.0070209852,-0.030601054,0.97731036,0.0,0.8828814,0.0040830644,-0.015156984,0.46933356,0.0,0.0,-0.703782,0,0,0,0,0
227399561,-0.00798449,-0.031152824,0.9770886,0.0,0.882932,0.0037855117,-0.015627064,0.4692254,0.0,0.0,-0.7013164,0,0,0,0,0
227459568,-0.006088984,-0.030108992,0.976997,0.0,0.88295585,0.0043766876,-0.014721753,0.46920472,0.0,0.0,-0.6996179,0,0,0,0,0
227509576,-0.0057964223,-0.031240389,0.9773752,0.0,0.8828596,0.004774185,-0.015151676,0.46936825,0.0,0.0,-0.6966153,0,0,0,0,0
227549558,-0.0046255835,-0.028305653,0.9778767,0.0,0.8827566,0.004605586,-0.013580302,0.46961173,0.0,0.0,-0.69771194,0,0,0,0,0
227599578,-0.0025221694,-0.028039185,0.97888523,0.0,0.8825159,0.0054779486,-0.0129660275,0.47007182,0.0,0.0,-0.7005466,0,0,0,0,0
227659738,-0.006108306,-0.028577186,0.98068845,0.0,0.8820972,0.0040346556,-0.014042635,0.47084084,0.0,0.0,-0.6987533,0,0,0,0,0
227709613,-0.0037681656,-0.028340068,0.98248225,0.0,0.8816706,0.005022942,-0.0133826295,0.47164893,0.0,0.0,-0.6968032,0,0,0,0,0
227749554,-0.0076805083,-0.029004194,0.9841237,0.0,0.8812878,0.0034668546,-0.014595143,0.47234187,0.0,0.0,-0.6965397,0,0,0,0,0
227809590,-0.009072531,-0.026809134,0.98694927,0.0,0.88063294,0.0023546563,-0.013953401,0.47358787,0.0,0.0,-0.6971679,0,0,0,0,0
227859610,-0.010199811,-0.026759775,0.98946804,0.0,0.8800372,0.0018644847,-0.014196263,0.47468886,0.0,0.0,-0.69629216,0,0,0,0,0
227899741,-0.006630011,-0.027640369,0.99162346,0.0,0.87951577,0.003659111,-0.013732488,0.4756575,0.0,0.0,-0.6930803,0,0,0,0,0
227949626,-0.0013799506,-0.022850888,0.9945146,0.0,0.8788404,0.004843632,-0.010370643,0.47697863,0.0,0.0,-0.6895003,0,0,0,0,0
228009632,-0.0022439524,-0.020458031,0.9979399,0.0,0.87803495,0.0039095846,-0.009518551,0.47848597,0.0,0.0,-0.6877075,0,0,0,0,0
228059903,-0.0049412264,-0.016915519,1.0006669,0.0,0.87739867,0.0018895877,-0.0086060725,0.47968116,0.0,0.0,-0.6900181,0,0,0,0,0
228099720,-0.002208919,-0.015074021,1.0030258,0.0,0.8768348,0.0026549764,-0.0071397643,0.48073137,0.0,0.0,-0.6910733,0,0,0,0,0
228159670,0.001141438,-0.012807921,1.0065914,0.0,0.8759779,0.0035886436,-0.0053345542,0.48230845,0.0,0.0,-0.6918848,0,0,0,0,0
228209579,0.0041508046,-0.014743833,1.0096643,0.0,0.8752226,0.005381921,-0.0054484773,0.48365977,0.0,0.0,-0.6888875,0,0,0,0,0
228249695,0.0045899106,-0.015372468,1.0122596,0.0,0.87459064,0.0057333778,-0.005609955,0.48479575,0.0,0.0,-0.68974566,0,0,0,0,0
228299730,0.00634958,-0.010607195,1.0153922,0.0,0.873842,0.0053526997,-0.003091145,0.48617065,0.0,0.0,-0.6928688,0,0,0,0,0
228359650,0.0024496051,-0.008219011,1.0192269,0.0,0.87292266,0.0030739352,-0.0029898086,0.48783976,0.0,0.0,-0.6958936,0,0,0,0,0
228399737,0.00254686,-0.0077480827,1.021884,0.0,0.87227464,0.0030051807,-0.0027565528,0.48899934,0.0,0.0,-0.69721144,0,0,0,0,0
228449612,0.00425969,-0.007248925,1.0249901,0.0,0.8715123,0.0036334558,-0.0021144226,0.49035564,0.0,0.0,-0.6948187,0,0,0,0,0
228509736,0.0010329628,-0.004271409,1.028681,0.0,0.8706147,0.0015003385,-0.0016052916,0.4919606,0.0,0.0,-0.6958094,0,0,0,0,0
228559702,-0.00042889453,-0.004851674,1.0317788,0.0,0.86985195,0.001010148,-0.002215911,0.49330682,0.0,0.0,-0.6979759,0,0,0,0,0
228599707,0.00582132,-0.0036982538,1.0340358,0.0,0.8692892,0.0034442209,-0.00016872717,0.4942918,0.0,0.0,-0.69430554,0,0,0,0,0
228649654,0.007875272,-0.005024186,1.0368572,0.0,0.8685845,0.0046649775,-0.00023083213,0.49551904,0.0,0.0,-0.69008684,0,0,0,0,0
228709733,0.010724477,-0.005972388,1.0401272,0.0,0.8677633,0.0061371624,7.3319534e-05,0.4969398,0.0,0.0,-0.68717253,0,0,0,0,0
228749664,0.011002311,-0.004020106,1.0420945,0.0,0.8672779,0.005771675,0.0009951051,0.49778974,0.0,0.0,-0.6885177,0,0,0,0,0
228799734,0.013393568,-0.007935582,1.0445067,0.0,0.8666578,0.0077832174,-9.8253025e-05,0.4988423,0.0,0.0,-0.6901518,0,0,0,0,0
228849679,0.014250183,-0.0053332113,1.046833,0.0005328506,0.86608195,0.007503932,0.0012518485,0.4998442,0.0,0.0,-0.68719643,0,0,0,0,0
228909728,0.015666476,-0.0058205053,1.0492957,0.00060259365,0.8654587,0.008237295,0.0014049322,0.5009105,0.0,0.0,-0.68947303,0,0,0,0,0
228949715,0.017266454,-0.002953469,1.0508525,3.9234757e-05,0.86507064,0.008209268,0.0030527208,0.5015736,0.0,0.0,-0.68804604,0,0,0,0,0
228999711,0.020373605,-0.001044165,1.0525042,0.0013928488,0.86464804,0.0090705585,0.0046652835,0.5022745,0.0,0.0,-0.69116014,0,0,0,0,0
229059759,0.02066452,-1.9687863e-05,1.0539011,0.0010164268,0.86429846,0.0089354245,0.005187492,0.5028731,0.0,0.0,-0.6924012,0,0,0,0,0
229099809,0.02207393,-0.0025315464,1.0547072,0.0050280653,0.86408156,0.010174262,0.0044604754,0.5032293,0.0,0.0,-0.68851095,0,0,0,0,0
229149796,0.021516955,0.00053468626,1.0552312,0.003224954,0.8639614,0.009160659,0.00564749,0.50344294,0.0,0.0,-0.6864687,0,0,0,0,0
229209701,0.025756594,0.0040901187,1.0554719,0.009500012,0.8638892,0.010096105,0.008251723,0.50351304,0.0,0.0,-0.6866109,0,0,0,0,0
229259873,0.023531726,0.0009820928,1.0555667,0.012647014,0.86386853,0.00991731,0.0063495794,0.5035797,0.0,0.0,-0.6902745,0,0,0,0,0
229299777,0.033924855,0.0038691931,1.0554993,0.011215633,0.8638331,0.013679729,0.010212831,0.5034887,0.0,0.0,-0.6881227,0,0,0,0,0
229349703,0.034579415,0.0034439918,1.0555114,0.014020206,0.86382407,0.014069435,0.010194054,0.50349385,0.0,0.0,-0.6856073,0,0,0,0,0
229409753,0.03183306,0.0068826526,1.0552708,0.017287651,0.86391306,0.012018765,0.010986379,0.5033776,0.0,0.0,-0.68805707,0,0,0,0,0
229449894,0.034604102,0.003368301,1.055087,0.0197594,0.86393046,0.014101312,0.010164584,0.50331104,0.0,0.0,-0.68658936,0,0,0,0,0
229499913,0.03269667,-0.0006704727,1.0549736,0.021848364,0.8639566,0.014294279,0.007939156,0.5033007,0.0,0.0,-0.69087905,0,0,0,0,0
229549743,0.040035527,-0.0012048214,1.0545636,0.018351065,0.86399865,0.017600818,0.009551503,0.5030957,0.0,0.0,-0.68672353,0,0,0,0,0
229599760,0.040768053,-0.0028436573,1.0542976,0.025100319,0.86405,0.018330688,0.009025345,0.5029913,0.0,0.0,-0.6877703,0,0,0,0,0
229649740,0.03715328,-0.005727363,1.0539658,0.02044168,0.8641489,0.017495304,0.006867404,0.50288504,0.0,0.0,-0.68523216,0,0,0,0,0
229699814,0.04263796,-0.007194893,1.0533695,0.02628033,0.8642377,0.020236194,0.0076063336,0.5026189,0.0,0.0,-0.6880563,0,0,0,0,0
229759815,0.049574893,-0.006598498,1.0527571,0.02427815,0.86432076,0.02308676,0.009600249,0.5023191,0.0,0.0,-0.6892519,0,0,0,0,0
229799778,0.047088496,-0.007931677,1.0523783,0.030756881,0.86443394,0.022348566,0.008395308,0.5021792,0.0,0.0,-0.68886733,0,0,0,0,0
229849810,0.05001067,-0.008398181,1.0517101,0.03368137,0.86456436,0.023731627,0.00891945,0.5018822,0.0,0.0,-0.68750215,0,0,0,0,0
229909798,0.05372426,-0.010283535,1.0509845,0.03702057,0.86468434,0.02581308,0.00902689,0.5015707,0.0,0.0,-0.687395,0,0,0,0,0
229959896,0.055896305,-0.010449245,1.0504847,0.03607875,0.86477953,0.02679604,0.009493251,0.50134635,0.0,0.0,-0.68969977,0,0,0,0,0
229999846,0.051644586,-0.011742845,1.0498618,0.041535944,0.86497915,0.02528416,0.007860102,0.5011087,0.0,0.0,-0.69035476,0,0,0,0,0
230049811,0.054920707,-0.010202982,1.0493817,0.040261716,0.8650711,0.026317652,0.009340681,0.50087136,0.0,0.0,-0.6886155,0,0,0,0,0
230109905,0.059697863,-0.011000305,1.0487665,0.04063092,0.86515206,0.028586559,0.010183326,0.5005907,0.0,0.0,-0.6881619,0,0,0,0,0
230149800,0.05229352,-0.012061217,1.048285,0.04197511,0.8653628,0.02565075,0.007864757,0.5004272,0.0,0.0,-0.68688905,0,0,0,0,0
230199833,0.05657131,-0.011738314,1.0478554,0.04053016,0.8654166,0.027422812,0.009068941,0.50021976,0.0,0.0,-0.6887453,0,0,0,0,0
230249796,0.05629745,-0.013212892,1.0472158,0.0380141,0.8655659,0.027675577,0.008353408,0.49995998,0.0,0.0,-0.6846385,0,0,0,0,0
230309858,0.060866397,-0.011648743,1.0463511,0.043354906,0.8657326,0.029266533,0.010159918,0.49954706,0.0,0.0,-0.6866379,0,0,0,0,0
230349786,0.055146273,-0.014132149,1.0458698,0.03873886,0.8659089,0.027412161,0.0076492582,0.49939138,0.0,0.0,-0.68607694,0,0,0,0,0
230399921,0.05966379,-0.014953429,1.0451791,0.04277344,0.8660085,0.029575787,0.008411391,0.49908295,0.0,0.0,-0.68911654,0,0,0,0,0
230459842,0.05650525,-0.015731346,1.0442607,0.04024151,0.86627513,0.028405419,0.00727321,0.49870595,0.0,0.0,-0.6917588,0,0,0,0,0
230499903,0.06008246,-0.018747902,1.0437727,0.044427596,0.8663108,0.030707978,0.006850823,0.49851346,0.0,0.0,-0.6910055,0,0,0,0,0
230549817,0.05514313,-0.02138889,1.0430053,0.03953699,0.86654556,0.029227797,0.00446403,0.4982214,0.0,0.0,-0.6890369,0,0,0,0,0
230609809,0.06034897,-0.020286812,1.0422008,0.043576032,0.86668015,0.031211523,0.0062259207,0.497848,0.0,0.0,-0.6908344,0,0,0,0,0
230660032,0.058215942,-0.019551877,1.0415038,0.040590145,0.8668949,0.030106511,0.0060030604,0.49754477,0.0,0.0,-0.6919695,0,0,0,0,0
230699992,0.06051596,-0.021170795,1.0410013,0.041973233,0.86696535,0.03150721,0.0058653927,0.49733686,0.0,0.0,-0.6899345,0,0,0,0,0
230749897,0.056525078,-0.019229472,1.0403379,0.039352745,0.86721355,0.029296802,0.0057051335,0.49704108,0.0,0.0,-0.68596745,0,0,0,0,0
230809853,0.055171072,-0.017140873,1.0396245,0.04128004,0.86743295,0.028193327,0.0062645017,0.49671516,0.0,0.0,-0.6851748,0,0,0,0,0
230849857,0.054560274,-0.01668149,1.0392228,0.04039897,0.8675461,0.027815681,0.0063065155,0.49653834,0.0,0.0,-0.6814354,0,0,0,0,0
230899926,0.057404257,-0.015676314,1.0387295,0.03747841,0.86763877,0.02880179,0.0074415966,0.4963044,0.0,0.0,-0.6840032,0,0,0,0,0
230949885,0.054576702,-0.015354662,1.0382512,0.0357892,0.86780053,0.027496995,0.0068729264,0.4961037,0.0,0.0,-0.6821606,0,0,0,0,0
231009871,0.05021923,-0.016871102,1.0376319,0.035067692,0.8679972,0.025983715,0.005125813,0.4958622,0.0,0.0,-0.68286043,0,0,0,0,0
231049870,0.052014187,-0.015354288,1.0371053,0.03570728,0.8681192,0.026388573,0.006222331,0.49561474,0.0,0.0,-0.6845885,0,0,0,0,0
231099912,0.054349404,-0.016733373,1.0365564,0.033891007,0.86820966,0.027745364,0.006194668,0.49538243,0.0,0.0,-0.68791115,0,0,0,0,0
231159893,0.047898777,-0.020862458,1.0357001,0.033041097,0.86846536,0.025968174,0.0027927049,0.4950614,0.0,0.0,-0.6892752,0,0,0,0,0
231199977,0.04675652,-0.020800723,1.0350575,0.031774424,0.8686397,0.02545771,0.002528597,0.49478337,0.0,0.0,-0.6915282,0,0,0,0,0
231249898,0.046975065,-0.022494053,1.0342135,0.028498372,0.8688278,0.025971955,0.0018360543,0.4944292,0.0,0.0,-0.68962145,0,0,0,0,0
231299993,0.044959363,-0.025896396,1.0332758,0.029137684,0.86904854,0.025936553,-0.0001529127,0.4940465,0.0,0.0,-0.6921771,0,0,0,0,0
231359936,0.03923553,-0.02715157,1.0322175,0.025650749,0.8693671,0.023757957,-0.0021250062,0.49359062,0.0,0.0,-0.6925808,0,0,0,0,0
231399915,0.03901571,-0.02871743,1.0315528,0.021748329,0.8695168,0.024047527,-0.0028681112,0.49330926,0.0,0.0,-0.68928134,0,0,0,0,0
231449898,0.036941316,-0.029691527,1.0307174,0.021233963,0.86973655,0.023384105,-0.003813171,0.49294722,0.0,0.0,-0.68438286,0,0,0,0,0
231509986,0.032052513,-0.031473387,1.0297647,0.017127013,0.870007,0.021694085,-0.005803583,0.49252772,0.0,0.0,-0.68236125,0,0,0,0,0
231549983,0.03168885,-0.033828672,1.0292416,0.014352592,0.8701138,0.022113567,-0.0069237724,0.49230587,0.0,0.0,-0.67939866,0,0,0,0,0
231599931,0.031439703,-0.03262934,1.0282811,0.014381478,0.8703662,0.021707125,-0.0064735883,0.4918838,0.0,0.0,-0.680632,0,0,0,0,0
231649962,0.03072534,-0.03080194,1.0273743,0.013162412,0.8706163,0.020944549,-0.0058632866,0.49148163,0.0,0.0,-0.6778347,0,0,0,0,0
231709951,0.031145807,-0.032882776,1.026133,0.014314158,0.8708943,0.021634342,-0.0066794315,0.4909484,0.0,0.0,-0.6793718,0,0,0,0,0
231749964,0.031849656,-0.0336844,1.0253373,0.015041897,0.871073,0.022134693,-0.006864625,0.49060652,0.0,0.0,-0.680683,0,0,0,0,0
231799949,0.02966537,-0.03469329,1.0242579,0.018013405,0.8713501,0.021426369,-0.007851542,0.49013084,0.0,0.0,-0.68736315,0,0,0,0,0
231859959,0.03403775,-0.034493763,1.0229596,0.014426479,0.87162155,0.023278056,-0.0067081647,0.48958042,0.0,0.0,-0.6904785,0,0,0,0,0
231900079,0.035234887,-0.036906492,1.0221697,0.015125709,0.8717716,0.024386784,-0.0074765785,0.48924813,0.0,0.0,-0.69201267,0,0,0,0,0
231949930,0.036612604,-0.039068107,1.0211904,0.01896198,0.8719664,0.025511485,-0.008094597,0.48883346,0.0,0.0,-0.6893959,0,0,0,0,0
232000066,0.03547308,-0.040296953,1.0203078,0.018084152,0.8721805,0.025310704,-0.008920259,0.48844743,0.0,0.0,-0.6908092,0,0,0,0,0
232060146,0.035065208,-0.039007757,1.0190088,0.016645325,0.8725194,0.024812875,-0.008473556,0.48787543,0.0,0.0,-0.69028944,0,0,0,0,0
232100036,0.032826185,-0.04489472,1.0181183,0.015427841,0.87268627,0.025265178,-0.011600182,0.48748916,0.0,0.0,-0.68750644,0,0,0,0,0
232150026,0.032757394,-0.044670664,1.0168198,0.013034368,0.8730066,0.025173137,-0.011535487,0.48692173,0.0,0.0,-0.68289626,0,0,0,0,0
232209953,0.02708831,-0.045014814,1.0146724,0.009489054,0.8735922,0.02276811,-0.013090381,0.48594955,0.0,0.0,-0.6809195,0,0,0,0,0
232249979,0.02874776,-0.045717757,1.0129279,0.009129727,0.87398714,0.023652203,-0.013014952,0.48519856,0.0,0.0,-0.6801142,0,0,0,0,0
232300067,0.029413933,-0.046292633,1.0104874,0.008589547,0.8745628,0.024066601,-0.013134023,0.48413658,0.0,0.0,-0.6833904,0,0,0,0,0
232349980,0.028722342,-0.04641857,1.0075315,0.010677328,0.8752839,0.023774862,-0.013391678,0.482839,0.0,0.0,-0.68072927,0,0,0,0,0
232409966,0.029424252,-0.04766766,1.003778,0.011730811,0.8761628,0.024357341,-0.013814813,0.4812012,0.0,0.0,-0.6805488,0,0,0,0,0
232450079,0.030844392,-0.04631558,1.0012131,0.012453638,0.8767807,0.024638046,-0.012912178,0.48008522,0.0,0.0,-0.6815945,0,0,0,0,0
232500028,0.031868886,-0.045973897,0.99770284,0.014646964,0.877614,0.02498325,-0.0125602735,0.4785517,0.0,0.0,-0.68555325,0,0,0,0,0
232560020,0.034767296,-0.049587414,0.9935657,0.013518184,0.878512,0.02709053,-0.013509051,0.47676018,0.0,0.0,-0.6847129,0,0,0,0,0
232600038,0.033247072,-0.04800298,0.9907814,0.014682936,0.8792185,0.026027266,-0.013211379,0.47552383,0.0,0.0,-0.68647367,0,0,0,0,0
232650018,0.031648546,-0.046847027,0.98713285,0.015037766,0.8801214,0.025026169,-0.01312873,0.47390676,0.0,0.0,-0.6839164,0,0,0,0,0
232700100,0.033709113,-0.050954632,0.98337734,0.01459205,0.8809229,0.026877606,-0.0144992415,0.4722734,0.0,0.0,-0.6861617,0,0,0,0,0
232760107,0.028537704,-0.05309478,0.9787903,0.011726452,0.8820385,0.025066057,-0.016720967,0.4702129,0.0,0.0,-0.6855985,0,0,0,0,0
232800062,0.030143604,-0.052123748,0.9756166,0.010536244,0.88277787,0.02552103,-0.015955504,0.46882555,0.0,0.0,-0.685865,0,0,0,0,0
232850019,0.028075906,-0.050876588,0.9717079,0.012969162,0.8837366,0.024285316,-0.015936965,0.4670823,0.0,0.0,-0.6834745,0,0,0,0,0
232910103,0.024734206,-0.05470407,0.9670032,0.0076708198,0.88481647,0.023658035,-0.018464917,0.46497226,0.0,0.0,-0.68079656,0,0,0,0,0
232950009,0.02399878,-0.054170612,0.96381664,0.00786189,0.8855727,0.023179468,-0.01843676,0.46355566,0.0,0.0,-0.6809436,0,0,0,0,0
233000057,0.022693068,-0.05330439,0.9599879,0.004442632,0.886486,0.022365596,-0.018398555,0.46184835,0.0,0.0,-0.6846854,0,0,0,0,0
233050028,0.02124429,-0.0555984,0.95618135,0.0048955046,0.887346,0.022214938,-0.019792538,0.4601432,0.0,0.0,-0.6819237,0,0,0,0,0
233110131,0.021221325,-0.058022995,0.95172656,0.0046418905,0.88833255,0.022715373,-0.020924509,0.45816094,0.0,0.0,-0.68365353,0,0,0,0,0
233150074,0.02125116,-0.058344275,0.9487934,0.0039056987,0.8889982,0.022771228,-0.02109384,0.45685735,0.0,0.0,-0.6837936,0,0,0,0,0
233200094,0.021481562,-0.05719352,0.9452139,0.004288798,0.8898294,0.022574311,-0.020569969,0.45527005,0.0,0.0,-0.68732923,0,0,0,0,0
233260228,0.02020583,-0.05798934,0.94103736,0.004172055,0.8907803,0.022143312,-0.021260835,0.4533961,0.0,0.0,-0.6884443,0,0,0,0,0
233300144,0.022277495,-0.058239818,0.938342,0.005123729,0.8913633,0.023094516,-0.020933917,0.45221657,0.0,0.0,-0.6879203,0,0,0,0,0
233350094,0.02308167,-0.05655465,0.9349564,0.002974743,0.8921442,0.023038488,-0.02003981,0.45071766,0.0,0.0,-0.6855442,0,0,0,0,0
233400121,0.024279345,-0.055643324,0.9317044,0.005754497,0.89287585,0.023336114,-0.019401213,0.44927916,0.0,0.0,-0.6872958,0,0,0,0,0
233460122,0.020958504,-0.052409776,0.92791206,0.0062211026,0.8938102,0.02109252,-0.01874312,0.44755676,0.0,0.0,-0.6885499,0,0,0,0,0
233500124,0.020903485,-0.05207789,0.92546713,0.0028710365,0.8943619,0.020970978,-0.018632721,0.44646358,0.0,0.0,-0.6885442,0,0,0,0,0
233550088,0.020057399,-0.049015112,0.9224124,0.001014322,0.895093,0.01988294,-0.017481973,0.44509268,0.0,0.0,-0.6868487,0,0,0,0,0
233610115,0.016871043,-0.051208246,0.9188841,0.00070378,0.8958786,0.018910646,-0.01920621,0.44348052,0.0,0.0,-0.6851116,0,0,0,0,0
233650098,0.014874436,-0.046488546,0.916554,0.0,0.8964726,0.016950091,-0.017554052,0.4424268,0.0,0.0,-0.68848264,0,0,0,0,0
233700163,0.014376576,-0.04790372,0.913586,0.0,0.8971151,0.017012594,-0.018323885,0.44108883,0.0,0.0,-0.6897435,0,0,0,0,0
233750123,0.011883321,-0.0473019,0.9107623,0.0,0.8977646,0.015735285,-0.018625984,0.43980008,0.0,0.0,-0.6897813,0,0,0,0,0
233800142,0.0128655955,-0.04712039,0.9078878,0.0,0.8983902,0.016109964,-0.018351665,0.43851888,0.0,0.0,-0.69395685,0,0,0,0,0
233850098,0.013218799,-0.04652155,0.90513164,0.0,0.89899796,0.016112572,-0.018027404,0.43728495,0.0,0.0,-0.69169724,0,0,0,0,0
233900143,0.015758952,-0.047221586,0.90232736,0.0,0.8995805,0.017382346,-0.01781111,0.4360454,0.0,0.0,-0.6947119,0,0,0,0,0
233960180,0.0135677345,-0.04849066,0.8990037,0.0,0.9003068,0.01664187,-0.01888743,0.43452734,0.0,0.0,-0.692194,0,0,0,0,0
234000170,0.016172629,-0.046716675,0.89672804,0.0,0.90080035,0.017409373,-0.017542582,0.4335296,0.0,0.0,-0.693781,0,0,0,0,0
234050178,0.01652321,-0.045327555,0.8940167,0.0,0.9014011,0.01724355,-0.016864201,0.43231288,0.0,0.0,-0.68955153,0,0,0,0,0
234110158,0.015149591,-0.043310065,0.89085394,0.0,0.9021187,0.016162956,-0.01627724,0.4308778,0.0,0.0,-0.68943995,0,0,0,0,0
234150175,0.015271373,-0.040978268,0.8886787,0.0,0.9026118,0.015699325,-0.015216133,0.4299,0.0,0.0,-0.68879473,0,0,0,0,0
234200167,0.015829034,-0.039426308,0.8861525,0.0,0.90316635,0.01559943,-0.01441546,0.42876497,0.0,0.0,-0.6909257,0,0,0,0,0
234250132,0.014834192,-0.038137414,0.88361526,0.0,0.9037306,0.014856198,-0.014065463,0.42761254,0.0,0.0,-0.6879278,0,0,0,0,0
234310189,0.013622774,-0.037140947,0.8806799,0.0,0.9043759,0.01407549,-0.013894813,0.4262781,0.0,0.0,-0.68962044,0,0,0,0,0
234350222,0.014319197,-0.036219098,0.8788301,0.0,0.90477395,0.014181688,-0.013342596,0.42544684,0.0,0.0,-0.68868977,0,0,0,0,0
234400214,0.013981005,-0.037030194,0.87645423,0.0,0.90527314,0.01418476,-0.01379837,0.42436886,0.0,0.0,-0.691199,0,0,0,0,0
234460203,0.013953943,-0.03332216,0.8738667,0.0,0.9058566,0.013370435,-0.012142804,0.42319918,0.0,0.0,-0.69279695,0,0,0,0,0
234500263,0.013306427,-0.03169728,0.87214535,0.0,0.90623903,0.012723554,-0.011554735,0.42241615,0.0,0.0,-0.69400716,0,0,0,0,0
234550233,0.015597813,-0.031468317,0.8701201,0.0,0.9066532,0.013702369,-0.010980891,0.42151117,0.0,0.0,-0.6913223,0,0,0,0,0
234600200,0.015922602,-0.031077802,0.86815536,0.0,0.907068,0.013756791,-0.010748907,0.42062193,0.0,0.0,-0.694521,0,0,0,0,0
234660382,0.019965054,-0.028684678,0.86603034,0.0,0.907506,0.01507778,-0.008829249,0.41967547,0.0,0.0,-0.69500786,0,0,0,0,0
234700209,0.017922854,-0.029524101,0.86468387,0.0012976266,0.90779614,0.014320665,-0.009648361,0.41905606,0.0,0.0,-0.69496495,0,0,0,0,0
234750264,0.01767485,-0.027045228,0.86313313,0.00050707906,0.9081431,0.013682334,-0.008585634,0.41834822,0.0,0.0,-0.69247216,0,0,0,0,0
234810173,0.02061783,-0.024600133,0.86152005,0.0024792068,0.9084787,0.0145019395,-0.006871359,0.41762295,0.0,0.0,-0.69224876,0,0,0,0,0
234850239,0.018835813,-0.024501935,0.8604458,0.0008490812,0.90871614,0.013668108,-0.0072061936,0.41712847,0.0,0.0,-0.691127,0,0,0,0,0
234900229,0.0176354,-0.02500562,0.8592892,0.0005349964,0.90896153,0.013223242,-0.0076930816,0.41659918,0.0,0.0,-0.70058995,0,0,0,0,0
234950391,0.01749028,-0.024591494,0.8582159,0.00011661276,0.90918905,0.013067021,-0.0075420905,0.41611028,0.0,0.0,-0.71064866,0,0,0,0,0
235010191,0.017592868,-0.021755897,0.85695446,0.0007969197,0.90947074,0.012520028,-0.0062394645,0.41553253,0.0,0.0,-0.73439634,0,0,0,0,0
235050218,0.018867861,-0.024610864,0.8561555,0.0,0.9096078,0.0136897955,-0.00727839,0.4151785,0.0,0.0,-0.7428487,0,0,0,0,0
235100344,0.017265718,-0.023037968,0.8552944,0.0,0.9098085,0.012631798,-0.006900976,0.41477856,0.0,0.0,-0.76697004,0,0,0,0,0
235160282,0.016025335,-0.020245472,0.8542169,0.0,0.9100579,0.01148546,-0.005893963,0.4142801,0.0,0.0,-0.7807971,0,0,0,0,0
235200337,0.016364407,-0.019547008,0.8535524,0.0,0.9101979,0.011493289,-0.0055097016,0.41397753,0.0,0.0,-0.78830975,0,0,0,0,0
235250277,0.019259822,-0.018302469,0.8527527,0.0020039063,0.9103536,0.012551733,-0.0043489696,0.41361803,0.0,0.0,-0.78458947,0,0,0,0,0
235300292,0.019324357,-0.018622538,0.851993,0.0016151872,0.9105083,0.012645572,-0.0044861264,0.41327313,0.0,0.0,-0.8007933,0,0,0,0,0
235360268,0.020884786,-0.019356577,0.8510636,0.003713498,0.9106853,0.013505484,-0.0045041596,0.4128554,0.0,0.0,-0.80946136,0,0,0,0,0
235400317,0.019327324,-0.020505933,0.8505548,0.0027477536,0.910793,0.013032095,-0.005352377,0.41262278,0.0,0.0,-0.81656903,0,0,0,0,0
235450250,0.02378726,-0.02137283,0.8497348,0.0033372305,0.91092455,0.015239877,-0.0048332894,0.41226304,0.0,0.0,-0.811426,0,0,0,0,0
235510240,0.023085162,-0.02261967,0.84877205,0.004881786,0.911119,0.015174294,-0.0055532735,0.41182652,0.0,0.0,-0.8263297,0,0,0,0,0
235550486,0.024073647,-0.023886662,0.84811515,0.0071428884,0.91123676,0.015883392,-0.0059322035,0.41153383,0.0,0.0,-0.8349612,0,0,0,0,0
235600286,0.024604669,-0.025915505,0.8470652,0.008953944,0.9114318,0.01653898,-0.0067561134,0.41106316,0.0,0.0,-0.85308164,0,0,0,0,0
235650283,0.028780334,-0.026062084,0.845994,0.011152877,0.91161394,0.018468767,-0.0059745675,0.41058877,0.0,0.0,-0.8258654,0,0,0,0,0
235710273,0.027916232,-0.026725845,0.84446806,0.012205612,0.911929,0.018206125,-0.0064684534,0.40989292,0.0,0.0,-0.8050282,0,0,0,0,0
235750485,0.031579934,-0.02354238,0.84316105,0.008577989,0.9121903,0.019221947,-0.004278369,0.40929332,0.0,0.0,-0.7960341,0,0,0,0,0
235800304,0.031592008,-0.021635095,0.8415262,0.014086971,0.9125405,0.01883466,-0.003421246,0.40853822,0.0,0.0,-0.7909514,0,0,0,0,0
235860455,0.031448483,-0.021211596,0.83938736,0.016659787,0.91298157,0.018679235,-0.0032772813,0.40755978,0.0,0.0,-0.77822405,0,0,0,0,0
235900313,0.033677943,-0.01803049,0.8378873,0.018942567,0.9132908,0.019048164,-0.0013849017,0.40686014,0.0,0.0,-0.77555203,0,0,0,0,0
235950440,0.03808322,-0.017034054,0.8361986,0.020840121,0.9135977,0.020857178,-5.1277922e-05,0.40608406,0.0,0.0,-0.7618045,0,0,0,0,0
236000358,0.039324936,-0.015447355,0.83452445,0.020606773,0.9139364,0.021103224,0.000908077,0.40530753,0.0,0.0,-0.7699331,0,0,0,0,0
236060495,0.041821465,-0.017333768,0.83293426,0.023197925,0.9142162,0.022626474,0.0005338888,0.40459418,0.0,0.0,-0.76140857,0,0,0,0,0
236100369,0.04505255,-0.015449776,0.8320867,0.024622975,0.91436553,0.023723464,0.0020387722,0.40418908,0.0,0.0,-0.7470768,0,0,0,0,0
236150477,0.04445685,-0.0155502,0.83137655,0.02520418,0.9145152,0.023472063,0.0018641314,0.40386584,0.0,0.0,-0.73595995,0,0,0,0,0
236210303,0.043859135,-0.014938134,0.8309196,0.027379358,0.91461927,0.023075713,0.002018079,0.40365225,0.0,0.0,-0.726949,0,0,0,0,0
236250337,0.043787077,-0.017230421,0.8308431,0.0277623,0.91461694,0.023505079,0.0009541969,0.40363652,0.0,0.0,-0.72005695,0,0,0,0,0
236300425,0.043689165,-0.016406747,0.83096576,0.02515207,0.91460013,0.023294132,0.0013126015,0.40368584,0.0,0.0,-0.71474695,0,0,0,0,0
236350417,0.042736426,-0.015887303,0.831136,0.028029906,0.91458094,0.022753559,0.0013598152,0.40376,0.0,0.0,-0.72604775,0,0,0,0,0
236410379,0.042316165,-0.016741965,0.8315156,0.026010217,0.9145022,0.022733618,0.0008884002,0.4039407,0.0,0.0,-0.7389304,0,0,0,0,0
236450369,0.044985905,-0.016694607,0.8319141,0.025901599,0.9143909,0.023944492,0.0014540352,0.404121,0.0,0.0,-0.74494135,0,0,0,0,0
236500375,0.04296535,-0.0143626835,0.8324972,0.026759775,0.9143152,0.022549251,0.002118674,0.40436962,0.0,0.0,-0.75234383,0,0,0,0,0
236560438,0.044668,-0.015631331,0.83339953,0.029110016,0.91410303,0.023583082,0.0018935236,0.40479115,0.0,0.0,-0.75552,0,0,0,0,0
236600373,0.045843624,-0.016288627,0.83412486,0.029692756,0.9139367,0.024252655,0.0018397968,0.4051273,0.0,0.0,-0.75535625,0,0,0,0,0
236650340,0.045792315,-0.013315339,0.83516157,0.026107578,0.91375107,0.023625748,0.0032005713,0.40557435,0.0,0.0,-0.7597874,0,0,0,0,0
236700383,0.043339208,-0.011649022,0.8365593,0.026598373,0.91350776,0.022164846,0.0034800225,0.40620214,0.0,0.0,-0.7589381,0,0,0,0,0
236760527,0.043933954,-0.011835781,0.8385732,0.028678587,0.9130903,0.022470854,0.003538133,0.40712237,0.0,0.0,-0.7542886,0,0,0,0,0
236800517,0.04300964,-0.009020263,0.8399066,0.024904026,0.91284806,0.021472938,0.0046498617,0.40770793,0.0,0.0,-0.7548215,0,0,0,0,0
236850426,0.03947739,-0.012071106,0.8420698,0.019561192,0.9124234,0.020479614,0.0025592963,0.40872687,0.0,0.0,-0.7524116,0,0,0,0,0
236910431,0.03986486,-0.013857385,0.8448655,0.019470701,0.9118346,0.021018658,0.0018528563,0.41001523,0.0,0.0,-0.75324273,0,0,0,0,0
236950455,0.03947757,-0.013280034,0.84658915,0.018604266,0.91148907,0.020722032,0.0020545777,0.41079694,0.0,0.0,-0.758056,0,0,0,0,0
237000498,0.031233871,-0.015144962,0.84907365,0.017663864,0.9110437,0.017348314,-0.00046721066,0.41194445,0.0,0.0,-0.7615257,0,0,0,0,0
237050397,0.036240116,-0.02077512,0.85142016,0.02195725,0.91046935,0.020789916,-0.0019765194,0.41304892,0.0,0.0,-0.7613171,0,0,0,0,0
237110398,0.038666334,-0.019339016,0.85410297,0.022396414,0.9099009,0.021599146,-0.0007926065,0.41426226,0.0,0.0,-0.76311445,0,0,0,0,0
237150456,0.034120772,-0.019968143,0.85589933,0.020615464,0.90957016,0.019663109,-0.0020027512,0.41508013,0.0,0.0,-0.76672894,0,0,0,0,0
237200483,0.040496856,-0.021139866,0.85825026,0.021069514,0.90900385,0.022807123,-0.001185582,0.41616154,0.0,0.0,-0.76170033,0,0,0,0,0
237260481,0.045997996,-0.021849629,0.86086786,0.026988877,0.90838534,0.0254553,-0.00033021937,0.41735828,0.0,0.0,-0.76018053,0,0,0,0,0
237300450,0.047546696,-0.020784292,0.8626908,0.024409657,0.90799505,0.025936186,0.00050057477,0.41817704,0.0,0.0,-0.7633074,0,0,0,0,0
237350532,0.044837866,-0.02108946,0.8648439,0.028926017,0.9075757,0.024770308,-0.00017772462,0.41915703,0.0,0.0,-0.76013374,0,0,0,0,0
237400493,0.047134504,-0.019471467,0.86672175,0.026776029,0.9071682,0.025472755,0.0010618902,0.41999507,0.0,0.0,-0.7633453,0,0,0,0,0
237460614,0.04346284,-0.021765962,0.8689429,0.025575278,0.9067252,0.024289507,-0.00072317856,0.4210212,0.0,0.0,-0.7626197,0,0,0,0,0
237500474,0.04112081,-0.019955287,0.8700251,0.02199926,0.9065415,0.022847101,-0.00038274936,0.42149776,0.0,0.0,-0.7636342,0,0,0,0,0
237550485,0.040872354,-0.024825498,0.8710487,0.020932103,0.9062828,0.02376126,-0.0026308969,0.42199522,0.0,0.0,-0.7645661,0,0,0,0,0
237610431,0.031721316,-0.024468975,0.87173164,0.021653777,0.90624106,0.01954065,-0.0043934346,0.4222866,0.0,0.0,-0.76683015,0,0,0,0,0
237650479,0.025167417,-0.0242739,0.87186736,0.015792457,0.9062731,0.01653007,-0.005687689,0.4223309,0.0,0.0,-0.76764977,0,0,0,0,0
237700540,0.032179788,-0.025966901,0.8718303,0.010063279,0.9062021,0.020064645,-0.004974503,0.42233926,0.0,0.0,-0.770622,0,0,0,0,0
237750505,0.031040076,-0.02578276,0.8714532,0.0072265808,0.90629464,0.019508418,-0.0051354007,0.4221647,0.0,0.0,-0.77422726,0,0,0,0,0
237810460,0.027657913,-0.024481433,0.87064695,0.011334781,0.9065077,0.017699175,-0.0052666315,0.42178532,0.0,0.0,-0.77605605,0,0,0,0,0
237850529,0.028951088,-0.023416096,0.8699236,0.012904197,0.9066576,0.018059172,-0.0045175,0.42145646,0.0,0.0,-0.7801379,0,0,0,0,0
237900508,0.0332545,-0.022020416,0.86895025,0.014527725,0.9068337,0.019714665,-0.002987446,0.4210167,0.0,0.0,-0.7795987,0,0,0,0,0
237960752,0.038559865,-0.022874525,0.86770475,0.023518493,0.9070324,0.022298357,-0.0022718187,0.42046386,0.0,0.0,-0.7830725,0,0,0,0,0
238000518,0.03318074,-0.021161573,0.8668054,0.018859247,0.9072926,0.019497748,-0.0026344038,0.42003927,0.0,0.0,-0.78616434,0,0,0,0,0
238050493,0.037022147,-0.021465918,0.8658904,0.016981466,0.90744287,0.021303318,-0.0019754586,0.4196303,0.0,0.0,-0.78909093,0,0,0,0,0
238100568,0.04149069,-0.021572372,0.86499655,0.018250188,0.9075795,0.023352562,-0.0010966315,0.41922894,0.0,0.0,-0.7924263,0,0,0,0,0
238150543,0.034176126,-0.025972305,0.86422724,0.02051727,0.9077805,0.020952849,-0.0046350695,0.4188961,0.0,0.0,-0.7983192,0,0,0,0,0
238200545,0.03832704,-0.02676372,0.86345047,0.022964822,0.90788984,0.023000842,-0.004133872,0.41855702,0.0,0.0,-0.8010512,0,0,0,0,0
238250553,0.03980602,-0.029256249,0.86246264,0.02150016,0.908053,0.02419077,-0.0049680253,0.41812667,0.0,0.0,-0.8081267,0,0,0,0,0
238310503,0.0415573,-0.030330742,0.8610976,0.02057199,0.9083047,0.025206752,-0.0051070726,0.4175178,0.0,0.0,-0.80346704,0,0,0,0,0
238350583,0.037971515,-0.027779596,0.860162,0.019512812,0.9085706,0.023044104,-0.0047074333,0.41706875,0.0,0.0,-0.80412644,0,0,0,0,0
238400555,0.03983977,-0.031842843,0.8589817,0.020628588,0.90875024,0.02473544,-0.006178722,0.4165609,0.0,0.0,-0.79951143,0,0,0,0,0
238450542,0.03538646,-0.028357208,0.85789347,0.018643966,0.90906626,0.021983793,-0.0055339094,0.41603443,0.0,0.0,-0.8003984,0,0,0,0,0
238510563,0.038386337,-0.02945453,0.8568986,0.019495266,0.9092275,0.023572607,-0.005420479,0.4155963,0.0,0.0,-0.7976091,0,0,0,0,0
238550570,0.033130497,-0.026429987,0.8564337,0.021295773,0.9094125,0.020554133,-0.005141989,0.4153553,0.0,0.0,-0.80184865,0,0,0,0,0
238600634,0.04217352,-0.026221292,0.85616565,0.020647714,0.9093681,0.024622116,-0.0031723,0.4152509,0.0,0.0,-0.8001149,0,0,0,0,0
238660581,0.043226827,-0.025865978,0.8562086,0.022370854,0.9093498,0.025027411,-0.002791474,0.41526955,0.0,0.0,-0.80521315,0,0,0,0,0
238700650,0.040743425,-0.025391549,0.85638696,0.02491452,0.90934795,0.023800135,-0.0030892189,0.41534376,0.0,0.0,-0.80483776,0,0,0,0,0
238750627,0.043412387,-0.026130432,0.85657847,0.020333162,0.9092679,0.025167154,-0.002868562,0.41543984,0.0,0.0,-0.8068029,0,0,0,0,0
238800644,0.043910474,-0.026283847,0.8570882,0.026677059,0.90915406,0.02542615,-0.0028283843,0.41567346,0.0,0.0,-0.80691916,0,0,0,0,0
238860668,0.042125378,-0.02779857,0.8575089,0.023393719,0.909073,0.024929916,-0.0038828973,0.41587222,0.0,0.0,-0.80719346,0,0,0,0,0
238900611,0.042259723,-0.027804941,0.8577164,0.023846807,0.9090281,0.024992703,-0.003855266,0.41596684,0.0,0.0,-0.8060636,0,0,0,0,0
238950717,0.03918248,-0.029673098,0.85801756,0.024228157,0.90898305,0.023982896,-0.005341012,0.41610828,0.0,0.0,-0.80551094,0,0,0,0,0
239010568,0.03571247,-0.030363856,0.8583166,0.020825984,0.9089538,0.022550268,-0.0063736155,0.41623777,0.0,0.0,-0.80870295,0,0,0,0,0
239050630,0.036427345,-0.030122604,0.85839605,0.019963125,0.9089317,0.022825252,-0.0061142594,0.4162749,0.0,0.0,-0.8063955,0,0,0,0,0
239100673,0.034455042,-0.031167777,0.85872054,0.01872438,0.9088752,0.02214732,-0.006996293,0.416421,0.0,0.0,-0.8086271,0,0,0,0,0
239150701,0.03087832,-0.031614162,0.8588914,0.013378417,0.90887314,0.02061541,-0.007942136,0.41648713,0.0,0.0,-0.80876535,0,0,0,0,0
239200683,0.030527787,-0.029312646,0.85927373,0.013868196,0.90882033,0.019978665,-0.006965181,0.4166508,0.0,0.0,-0.8076084,0,0,0,0,0
239250659,0.03212776,-0.02855313,0.8596868,0.015450036,0.90872556,0.020548934,-0.006282419,0.41684073,0.0,0.0,-0.80934453,0,0,0,0,0
239300660,0.029464703,-0.032117814,0.86021495,0.0174929,0.90860647,0.020083375,-0.008452155,0.41708452,0.0,0.0,-0.80703115,0,0,0,0,0
239360686,0.033546537,-0.030414006,0.8610652,0.019428296,0.90840423,0.021585705,-0.0068175234,0.41747966,0.0,0.0,-0.80688393,0,0,0,0,0
239400740,0.030757938,-0.031959787,0.861737,0.01656477,0.9082773,0.02064414,-0.008094942,0.4177807,0.0,0.0,-0.807351,0,0,0,0,0
239450636,0.03402997,-0.031141017,0.8624229,0.021027857,0.90810776,0.021961644,-0.0070319897,0.41810113,0.0,0.0,-0.80734664,0,0,0,0,0
239500711,0.03857849,-0.02993076,0.8633057,0.015533632,0.90788406,0.023776606,-0.005520963,0.4185101,0.0,0.0,-0.806801,0,0,0,0,0
239550726,0.036345653,-0.034866136,0.86401147,0.02318325,0.9077072,0.023797361,-0.008220776,0.41884807,0.0,0.0,-0.8039751,0,0,0,0,0
239600676,0.034055665,-0.03362114,0.8645439,0.019842433,0.90763646,0.022499798,-0.008129139,0.4190748,0.0,0.0,-0.8055167,0,0,0,0,0
239650642,0.040334117,-0.03359663,0.8652007,0.018524395,0.907424,0.025346067,-0.006794084,0.41939622,0.0,0.0,-0.79940355,0,0,0,0,0
239710642,0.042578444,-0.030841542,0.86596096,0.015689598,0.90726787,0.025789378,-0.0050632493,0.41973108,0.0,0.0,-0.8003619,0,0,0,0,0
239750697,0.03844878,-0.03287313,0.866469,0.016572895,0.9071897,0.024343496,-0.006845627,0.4199612,0.0,0.0,-0.79589415,0,0,0,0,0
239800700,0.038808573,-0.032073975,0.86703396,0.019119414,0.90707576,0.024340922,-0.0064006033,0.4202143,0.0,0.0,-0.7963933,0,0,0,0,0
239850757,0.028361676,-0.03201311,0.8676765,0.020520376,0.90705615,0.019592527,-0.0085615665,0.4204664,0.0,0.0,-0.7951067,0,0,0,0,0
239900687,0.031373914,-0.03153741,0.8682208,0.01931745,0.90691614,0.02086083,-0.007706822,0.4207239,0.0,0.0,-0.79444194,0,0,0,0,0
239950721,0.028661478,-0.034171607,0.86875224,0.014295517,0.9068042,0.020186922,-0.00946682,0.420962,0.0,0.0,-0.79552394,0,0,0,0,0
240000770,0.03367579,-0.033111043,0.8692573,0.012652863,0.90665627,0.022239387,-0.007924794,0.421209,0.0,0.0,-0.7928934,0,0,0,0,0
240060847,0.032890197,-0.032213192,0.8695942,0.013011768,0.9066037,0.02169568,-0.007679461,0.421355,0.0,0.0,-0.7958061,0,0,0,0,0
240100697,0.032013405,-0.033239376,0.8699001,0.014945099,0.9065376,0.02151545,-0.008326176,0.42149416,0.0,0.0,-0.7925664,0,0,0,0,0
240150761,0.030806018,-0.0318592,0.87025416,0.0102588255,0.90649045,0.020679034,-0.007951217,0.42164466,0.0,0.0,-0.7953693,0,0,0,0,0
240200762,0.025740314,-0.031318046,0.87039536,0.009983949,0.9065155,0.0182696,-0.008772529,0.42168579,0.0,0.0,-0.79456395,0,0,0,0,0
240250680,0.029645119,-0.030696636,0.8705967,0.017380683,0.906442,0.019909326,-0.007665499,0.42179126,0.0,0.0,-0.7940525,0,0,0,0,0
240300822,0.0322823,-0.033787683,0.8707792,0.008598294,0.90634334,0.021756493,-0.008508535,0.4218958,0.0,0.0,-0.79677886,0,0,0,0,0
240350743,0.032678023,-0.032812398,0.8710117,0.009902986,0.90630066,0.021731256,-0.007980449,0.421999,0.0,0.0,-0.79566455,0,0,0,0,0
240410686,0.030040223,-0.032642595,0.8713422,0.0150737185,0.9062606,0.020501528,-0.008456663,0.42213732,0.0,0.0,-0.79764444,0,0,0,0,0
240450746,0.025587471,-0.031579293,0.87166214,0.014002638,0.906247,0.018261004,-0.008911623,0.42225987,0.0,0.0,-0.79798937,0,0,0,0,0
240500753,0.029542977,-0.029468823,0.87199193,0.008665616,0.90616065,0.019609312,-0.007116772,0.42241874,0.0,0.0,-0.79658926,0,0,0,0,0
240550773,0.025981495,-0.028251605,0.87236404,0.012410449,0.90612686,0.017740132,-0.00731406,0.4225706,0.0,0.0,-0.7994792,0,0,0,0,0
240600741,0.02912205,-0.029672587,0.87275964,0.0072970446,0.9060006,0.01946439,-0.0072905445,0.4227658,0.0,0.0,-0.7958176,0,0,0,0,0
