timestamp,accel_device_id_primary,accel_device_ids[0],accel_device_ids[1],accel_device_ids[2],accel_device_ids[3],accel_inconsistency_m_s_s[0],accel_inconsistency_m_s_s[1],accel_inconsistency_m_s_s[2],accel_inconsistency_m_s_s[3],gyro_device_id_primary,gyro_device_ids[0],gyro_device_ids[1],gyro_device_ids[2],gyro_device_ids[3],gyro_inconsistency_rad_s[0],gyro_inconsistency_rad_s[1],gyro_inconsistency_rad_s[2],gyro_inconsistency_rad_s[3],accel_healthy[0],accel_healthy[1],accel_healthy[2],accel_healthy[3],accel_priority[0],accel_priority[1],accel_priority[2],accel_priority[3],gyro_healthy[0],gyro_healthy[1],gyro_healthy[2],gyro_healthy[3],gyro_priority[0],gyro_priority[1],gyro_priority[2],gyro_priority[3]
217458482,4259850,4259850,2490378,0,0,0.1099451,0.10994509,0.0,0.0,4325386,4325386,2490378,0,0,0.00189713,0.00189713,0.0,0.0,1,1,0,0,50,50,0,0,1,1,0,0,50,50,0,0
217463463,4259850,4259850,2490378,0,0,0.1102604,0.11026038,0.0,0.0,4325386,4325386,2490378,0,0,0.0019164893,0.0019164893,0.0,0.0,1,1,0,0,50,50,0,0,1,1,0,0,50,50,0,0
217658528,4259850,4259850,2490378,0,0,0.10865179,0.10865178,0.0,0.0,4325386,4325386,2490378,0,0,0.002387752,0.002387752,0.0,0.0,1,1,0,0,50,50,0,0,1,1,0,0,50,50,0,0
217858500,4259850,4259850,2490378,0,0,0.11093635,0.11093635,0.0,0.0,4325386,4325386,2490378,0,0,0.0021620863,0.0021620863,0.0,0.0,1,1,0,0,50,50,0,0,1,1,0,0,50,50,0,0
218058525,4259850,4259850,2490378,0,0,0.109728254,0.109728284,0.0,0.0,4325386,4325386,2490378,0,0,0.0024906208,0.0024906208,0.0,0.0,1,1,0,0,50,50,0,0,1,1,0,0,50,50,0,0
218258532,4259850,4259850,2490378,0,0,0.110828616,0.11082862,0.0,0.0,4325386,4325386,2490378,0,0,0.002283288,0.002283288,0.0,0.0,1,1,0,0,50,50,0,0,1,1,0,0,50,50,0,0
218458565,4259850,4259850,2490378,0,0,0.11061142,0.11061139,0.0,0.0,4325386,4325386,2490378,0,0,0.002216438,0.002216438,0.0,0.0,1,1,0,0,50,50,0,0,1,1,0,0,50,50,0,0
218658544,4259850,4259850,2490378,0,0,0.11302953,0.11302955,0.0,0.0,4325386,4325386,2490378,0,0,0.0022153347,0.0022153347,0.0,0.0,1,1,0,0,50,50,0,0,1,1,0,0,50,50,0,0
218858558,4259850,4259850,2490378,0,0,0.110232,0.11023199,0.0,0.0,4325386,4325386,2490378,0,0,0.002502978,0.002502978,0.0,0.0,1,1,0,0,50,50,0,0,1,1,0,0,50,50,0,0
219058579,4259850,4259850,2490378,0,0,0.11134921,0.11134924,0.0,0.0,4325386,4325386,2490378,0,0,0.0019522565,0.0019522565,0.0,0.0,1,1,0,0,50,50,0,0,1,1,0,0,50,50,0,0
219258593,4259850,4259850,2490378,0,0,0.11076249,0.11076249,0.0,0.0,4325386,4325386,2490378,0,0,0.002138282,0.002138282,0.0,0.0,1,1,0,0,50,50,0,0,1,1,0,0,50,50,0,0
219458611,4259850,4259850,2490378,0,0,0.10787147,0.10787149,0.0,0.0,4325386,4325386,2490378,0,0,0.0025087972,0.002508797,0.0,0.0,1,1,0,0,50,50,0,0,1,1,0,0,50,50,0,0
219658635,4259850,4259850,2490378,0,0,0.106460184,0.106460184,0.0,0.0,4325386,4325386,2490378,0,0,0.002509337,0.002509337,0.0,0.0,1,1,0,0,50,50,0,0,1,1,0,0,50,50,0,0
219858643,4259850,4259850,2490378,0,0,0.10589593,0.10589594,0.0,0.0,4325386,4325386,2490378,0,0,0.0020231998,0.0020231998,0.0,0.0,1,1,0,0,50,50,0,0,1,1,0,0,50,50,0,0
220058661,4259850,4259850,2490378,0,0,0.10393259,0.10393263,0.0,0.0,4325386,4325386,2490378,0,0,0.0023269542,0.0023269544,0.0,0.0,1,1,0,0,50,50,0,0,1,1,0,0,50,50,0,0
220258708,4259850,4259850,2490378,0,0,0.10794416,0.10794418,0.0,0.0,4325386,4325386,2490378,0,0,0.0021407157,0.002140716,0.0,0.0,1,1,0,0,50,50,0,0,1,1,0,0,50,50,0,0
220458692,4259850,4259850,2490378,0,0,0.114092395,0.11409239,0.0,0.0,4325386,4325386,2490378,0,0,0.0021556627,0.002155663,0.0,0.0,1,1,0,0,50,50,0,0,1,1,0,0,50,50,0,0
220658708,4259850,4259850,2490378,0,0,0.11192207,0.11192207,0.0,0.0,4325386,4325386,2490378,0,0,0.0021385138,0.002138514,0.0,0.0,1,1,0,0,50,50,0,0,1,1,0,0,50,50,0,0
220858729,4259850,4259850,2490378,0,0,0.12951145,0.12951146,0.0,0.0,4325386,4325386,2490378,0,0,0.0015117032,0.0015117029,0.0,0.0,1,1,0,0,50,50,0,0,1,1,0,0,50,50,0,0
221058750,4259850,4259850,2490378,0,0,0.11067648,0.11067651,0.0,0.0,4325386,4325386,2490378,0,0,0.0023869898,0.0023869898,0.0,0.0,1,1,0,0,50,50,0,0,1,1,0,0,50,50,0,0
221258757,4259850,4259850,2490378,0,0,0.11396066,0.11396068,0.0,0.0,4325386,4325386,2490378,0,0,0.0017957693,0.0017957692,0.0,0.0,1,1,0,0,50,50,0,0,1,1,0,0,50,50,0,0
221458775,4259850,4259850,2490378,0,0,0.13993879,0.13993882,0.0,0.0,4325386,4325386,2490378,0,0,0.0021203184,0.002120319,0.0,0.0,1,1,0,0,50,50,0,0,1,1,0,0,50,50,0,0
221658792,4259850,4259850,2490378,0,0,0.11828537,0.11828535,0.0,0.0,4325386,4325386,2490378,0,0,0.0014047276,0.0014047273,0.0,0.0,1,1,0,0,50,50,0,0,1,1,0,0,50,50,0,0
221858810,4259850,4259850,2490378,0,0,0.11819492,0.11819497,0.0,0.0,4325386,4325386,2490378,0,0,0.0017988033,0.0017988037,0.0,0.0,1,1,0,0,50,50,0,0,1,1,0,0,50,50,0,0
222058824,4259850,4259850,2490378,0,0,0.13439819,0.13439819,0.0,0.0,4325386,4325386,2490378,0,0,0.004234834,0.004234834,0.0,0.0,1,1,0,0,50,50,0,0,1,1,0,0,50,50,0,0
222258842,4259850,4259850,2490378,0,0,0.119185865,0.119185835,0.0,0.0,4325386,4325386,2490378,0,0,0.0019129465,0.0019129473,0.0,0.0,1,1,0,0,50,50,0,0,1,1,0,0,50,50,0,0
222458817,4259850,4259850,2490378,0,0,0.11693543,0.11693543,0.0,0.0,4325386,4325386,2490378,0,0,0.0041530943,0.004153094,0.0,0.0,1,1,0,0,50,50,0,0,1,1,0,0,50,50,0,0
222658877,4259850,4259850,2490378,0,0,0.12655078,0.12655082,0.0,0.0,4325386,4325386,2490378,0,0,0.0026801296,0.0026801291,0.0,0.0,1,1,0,0,50,50,0,0,1,1,0,0,50,50,0,0
222858910,4259850,4259850,2490378,0,0,0.13924487,0.13924497,0.0,0.0,4325386,4325386,2490378,0,0,0.0036646537,0.0036646542,0.0,0.0,1,1,0,0,50,50,0,0,1,1,0,0,50,50,0,0
223058982,4259850,4259850,2490378,0,0,0.19557467,0.19557466,0.0,0.0,4325386,4325386,2490378,0,0,0.0041320315,0.004132032,0.0,0.0,1,1,0,0,50,50,0,0,1,1,0,0,50,50,0,0
223258925,4259850,4259850,2490378,0,0,0.11134814,0.111348234,0.0,0.0,4325386,4325386,2490378,0,0,0.0038470288,0.0038470286,0.0,0.0,1,1,0,0,50,50,0,0,1,1,0,0,50,50,0,0
223458942,4259850,4259850,2490378,0,0,0.116051905,0.11605187,0.0,0.0,4325386,4325386,2490378,0,0,0.006630565,0.0066305688,0.0,0.0,1,1,0,0,50,50,0,0,1,1,0,0,50,50,0,0
223658960,4259850,4259850,2490378,0,0,0.15535961,0.15535958,0.0,0.0,4325386,4325386,2490378,0,0,0.007700609,0.007700607,0.0,0.0,1,1,0,0,50,50,0,0,1,1,0,0,50,50,0,0
223858978,4259850,4259850,2490378,0,0,0.1593767,0.15937671,0.0,0.0,4325386,4325386,2490378,0,0,0.0014590087,0.0014590103,0.0,0.0,1,1,0,0,50,50,0,0,1,1,0,0,50,50,0,0
224059007,4259850,4259850,2490378,0,0,0.11948203,0.11948205,0.0,0.0,4325386,4325386,2490378,0,0,0.0048881657,0.004888165,0.0,0.0,1,1,0,0,50,50,0,0,1,1,0,0,50,50,0,0
224259009,4259850,4259850,2490378,0,0,0.13126765,0.13126764,0.0,0.0,4325386,4325386,2490378,0,0,0.004203541,0.0042035435,0.0,0.0,1,1,0,0,50,50,0,0,1,1,0,0,50,50,0,0
224459032,4259850,4259850,2490378,0,0,0.1593252,0.15932518,0.0,0.0,4325386,4325386,2490378,0,0,0.0029646277,0.002964626,0.0,0.0,1,1,0,0,50,50,0,0,1,1,0,0,50,50,0,0
224659082,4259850,4259850,2490378,0,0,0.124560475,0.124560475,0.0,0.0,4325386,4325386,2490378,0,0,0.0006717862,0.000671786,0.0,0.0,1,1,0,0,50,50,0,0,1,1,0,0,50,50,0,0
224859066,4259850,4259850,2490378,0,0,0.117076755,0.11707677,0.0,0.0,4325386,4325386,2490378,0,0,0.0022827643,0.002282764,0.0,0.0,1,1,0,0,50,50,0,0,1,1,0,0,50,50,0,0
225059079,4259850,4259850,2490378,0,0,0.1315809,0.13158092,0.0,0.0,4325386,4325386,2490378,0,0,0.0032690333,0.003269034,0.0,0.0,1,1,0,0,50,50,0,0,1,1,0,0,50,50,0,0
225259097,4259850,4259850,2490378,0,0,0.12663023,0.12663023,0.0,0.0,4325386,4325386,2490378,0,0,0.0031570676,0.0031570673,0.0,0.0,1,1,0,0,50,50,0,0,1,1,0,0,50,50,0,0
225459113,4259850,4259850,2490378,0,0,0.13801156,0.13801154,0.0,0.0,4325386,4325386,2490378,0,0,0.001817094,0.0018170938,0.0,0.0,1,1,0,0,50,50,0,0,1,1,0,0,50,50,0,0
225659131,4259850,4259850,2490378,0,0,0.12589571,0.12589559,0.0,0.0,4325386,4325386,2490378,0,0,0.0018612443,0.0018612446,0.0,0.0,1,1,0,0,50,50,0,0,1,1,0,0,50,50,0,0
225859150,4259850,4259850,2490378,0,0,0.103153795,0.10315381,0.0,0.0,4325386,4325386,2490378,0,0,0.0021933059,0.0021933059,0.0,0.0,1,1,0,0,50,50,0,0,1,1,0,0,50,50,0,0
226059166,4259850,4259850,2490378,0,0,0.119567804,0.119567834,0.0,0.0,4325386,4325386,2490378,0,0,0.0017478185,0.0017478183,0.0,0.0,1,1,0,0,50,50,0,0,1,1,0,0,50,50,0,0
226259184,4259850,4259850,2490378,0,0,0.14214519,0.14214517,0.0,0.0,4325386,4325386,2490378,0,0,0.0017120711,0.001712072,0.0,0.0,1,1,0,0,50,50,0,0,1,1,0,0,50,50,0,0
226459200,4259850,4259850,2490378,0,0,0.11381039,0.11381035,0.0,0.0,4325386,4325386,2490378,0,0,0.0020327612,0.0020327615,0.0,0.0,1,1,0,0,50,50,0,0,1,1,0,0,50,50,0,0
226659235,4259850,4259850,2490378,0,0,0.13637403,0.13637403,0.0,0.0,4325386,4325386,2490378,0,0,0.0019418993,0.0019418994,0.0,0.0,1,1,0,0,50,50,0,0,1,1,0,0,50,50,0,0
226859232,4259850,4259850,2490378,0,0,0.18498315,0.1849832,0.0,0.0,4325386,4325386,2490378,0,0,0.0034826912,0.003482691,0.0,0.0,1,1,0,0,50,50,0,0,1,1,0,0,50,50,0,0
227059249,4259850,4259850,2490378,0,0,0.15110488,0.15110488,0.0,0.0,4325386,4325386,2490378,0,0,0.0026794495,0.0026794488,0.0,0.0,1,1,0,0,50,50,0,0,1,1,0,0,50,50,0,0
227259266,4259850,4259850,2490378,0,0,0.10936408,0.10936405,0.0,0.0,4325386,4325386,2490378,0,0,0.002274497,0.002274497,0.0,0.0,1,1,0,0,50,50,0,0,1,1,0,0,50,50,0,0
227459285,4259850,4259850,2490378,0,0,0.11130442,0.11130443,0.0,0.0,4325386,4325386,2490378,0,0,0.002322895,0.0023228955,0.0,0.0,1,1,0,0,50,50,0,0,1,1,0,0,50,50,0,0
227659303,4259850,4259850,2490378,0,0,0.15897666,0.15897658,0.0,0.0,4325386,4325386,2490378,0,0,0.0030434786,0.0030434786,0.0,0.0,1,1,0,0,50,50,0,0,1,1,0,0,50,50,0,0
227859322,4259850,4259850,2490378,0,0,0.11232322,0.112323195,0.0,0.0,4325386,4325386,2490378,0,0,0.002723694,0.0027236948,0.0,0.0,1,1,0,0,50,50,0,0,1,1,0,0,50,50,0,0
228059385,4259850,4259850,2490378,0,0,0.104135156,0.10413515,0.0,0.0,4325386,4325386,2490378,0,0,0.0040948777,0.0040948777,0.0,0.0,1,1,0,0,50,50,0,0,1,1,0,0,50,50,0,0
228259385,4259850,4259850,2490378,0,0,0.12666278,0.12666278,0.0,0.0,4325386,4325386,2490378,0,0,0.0041299467,0.004129947,0.0,0.0,1,1,0,0,50,50,0,0,1,1,0,0,50,50,0,0
228459370,4259850,4259850,2490378,0,0,0.113782406,0.11378234,0.0,0.0,4325386,4325386,2490378,0,0,0.00233408,0.0023340797,0.0,0.0,1,1,0,0,50,50,0,0,1,1,0,0,50,50,0,0
228659414,4259850,4259850,2490378,0,0,0.11704876,0.117048785,0.0,0.0,4325386,4325386,2490378,0,0,0.0032058896,0.0032058891,0.0,0.0,1,1,0,0,50,50,0,0,1,1,0,0,50,50,0,0
228859404,4259850,4259850,2490378,0,0,0.14107634,0.14107637,0.0,0.0,4325386,4325386,2490378,0,0,0.002508454,0.0025084538,0.0,0.0,1,1,0,0,50,50,0,0,1,1,0,0,50,50,0,0
229059425,4259850,4259850,2490378,0,0,0.12575588,0.12575589,0.0,0.0,4325386,4325386,2490378,0,0,0.0033312573,0.0033312575,0.0,0.0,1,1,0,0,50,50,0,0,1,1,0,0,50,50,0,0
229259439,4259850,4259850,2490378,0,0,0.15873882,0.15873888,0.0,0.0,4325386,4325386,2490378,0,0,0.0020288008,0.0020288005,0.0,0.0,1,1,0,0,50,50,0,0,1,1,0,0,50,50,0,0
229459456,4259850,4259850,2490378,0,0,0.13255352,0.13255353,0.0,0.0,4325386,4325386,2490378,0,0,0.0028658994,0.0028658996,0.0,0.0,1,1,0,0,50,50,0,0,1,1,0,0,50,50,0,0
229659478,4259850,4259850,2490378,0,0,0.1240672,0.12406718,0.0,0.0,4325386,4325386,2490378,0,0,0.0027405012,0.0027405012,0.0,0.0,1,1,0,0,50,50,0,0,1,1,0,0,50,50,0,0
229859556,4259850,4259850,2490378,0,0,0.11720726,0.117207244,0.0,0.0,4325386,4325386,2490378,0,0,0.0027620783,0.0027620778,0.0,0.0,1,1,0,0,50,50,0,0,1,1,0,0,50,50,0,0
230059507,4259850,4259850,2490378,0,0,0.11190672,0.11190671,0.0,0.0,4325386,4325386,2490378,0,0,0.0034069761,0.0034069761,0.0,0.0,1,1,0,0,50,50,0,0,1,1,0,0,50,50,0,0
230259526,4259850,4259850,2490378,0,0,0.11921491,0.11921486,0.0,0.0,4325386,4325386,2490378,0,0,0.002554344,0.0025543447,0.0,0.0,1,1,0,0,50,50,0,0,1,1,0,0,50,50,0,0
230459547,4259850,4259850,2490378,0,0,0.106248826,0.10624881,0.0,0.0,4325386,4325386,2490378,0,0,0.0021792047,0.0021792045,0.0,0.0,1,1,0,0,50,50,0,0,1,1,0,0,50,50,0,0
230659584,4259850,4259850,2490378,0,0,0.12692273,0.12692274,0.0,0.0,4325386,4325386,2490378,0,0,0.0023619856,0.0023619856,0.0,0.0,1,1,0,0,50,50,0,0,1,1,0,0,50,50,0,0
230859578,4259850,4259850,2490378,0,0,0.15243256,0.15243256,0.0,0.0,4325386,4325386,2490378,0,0,0.0032295284,0.0032295273,0.0,0.0,1,1,0,0,50,50,0,0,1,1,0,0,50,50,0,0
231059597,4259850,4259850,2490378,0,0,0.13814439,0.13814442,0.0,0.0,4325386,4325386,2490378,0,0,0.003525682,0.0035256818,0.0,0.0,1,1,0,0,50,50,0,0,1,1,0,0,50,50,0,0
231259619,4259850,4259850,2490378,0,0,0.11127056,0.11127053,0.0,0.0,4325386,4325386,2490378,0,0,0.00062369806,0.0006236978,0.0,0.0,1,1,0,0,50,50,0,0,1,1,0,0,50,50,0,0
231459641,4259850,4259850,2490378,0,0,0.11973032,0.11973035,0.0,0.0,4325386,4325386,2490378,0,0,0.0020474475,0.0020474473,0.0,0.0,1,1,0,0,50,50,0,0,1,1,0,0,50,50,0,0
231659652,4259850,4259850,2490378,0,0,0.13382536,0.13382533,0.0,0.0,4325386,4325386,2490378,0,0,0.0026944869,0.0026944866,0.0,0.0,1,1,0,0,50,50,0,0,1,1,0,0,50,50,0,0
231859673,4259850,4259850,2490378,0,0,0.11614258,0.11614249,0.0,0.0,4325386,4325386,2490378,0,0,0.0016957356,0.0016957355,0.0,0.0,1,1,0,0,50,50,0,0,1,1,0,0,50,50,0,0
232059691,4259850,4259850,2490378,0,0,0.11126993,0.11126989,0.0,0.0,4325386,4325386,2490378,0,0,0.0022037437,0.0022037437,0.0,0.0,1,1,0,0,50,50,0,0,1,1,0,0,50,50,0,0
232259710,4259850,4259850,2490378,0,0,0.12215943,0.122159384,0.0,0.0,4325386,4325386,2490378,0,0,0.002121872,0.002121872,0.0,0.0,1,1,0,0,50,50,0,0,1,1,0,0,50,50,0,0
232459725,4259850,4259850,2490378,0,0,0.12695429,0.12695423,0.0,0.0,4325386,4325386,2490378,0,0,0.0025623653,0.0025623653,0.0,0.0,1,1,0,0,50,50,0,0,1,1,0,0,50,50,0,0
232659741,4259850,4259850,2490378,0,0,0.13604063,0.13604063,0.0,0.0,4325386,4325386,2490378,0,0,0.0028365233,0.0028365236,0.0,0.0,1,1,0,0,50,50,0,0,1,1,0,0,50,50,0,0
232859755,4259850,4259850,2490378,0,0,0.12279564,0.12279566,0.0,0.0,4325386,4325386,2490378,0,0,0.0026239015,0.0026239012,0.0,0.0,1,1,0,0,50,50,0,0,1,1,0,0,50,50,0,0
233059782,4259850,4259850,2490378,0,0,0.11407222,0.114072226,0.0,0.0,4325386,4325386,2490378,0,0,0.001488911,0.0014889108,0.0,0.0,1,1,0,0,50,50,0,0,1,1,0,0,50,50,0,0
233259794,4259850,4259850,2490378,0,0,0.12721696,0.12721696,0.0,0.0,4325386,4325386,2490378,0,0,0.0018840105,0.0018840106,0.0,0.0,1,1,0,0,50,50,0,0,1,1,0,0,50,50,0,0
233459812,4259850,4259850,2490378,0,0,0.13633442,0.1363344,0.0,0.0,4325386,4325386,2490378,0,0,0.0020301722,0.0020301722,0.0,0.0,1,1,0,0,50,50,0,0,1,1,0,0,50,50,0,0
233659831,4259850,4259850,2490378,0,0,0.12565707,0.12565699,0.0,0.0,4325386,4325386,2490378,0,0,0.0030311109,0.0030311102,0.0,0.0,1,1,0,0,50,50,0,0,1,1,0,0,50,50,0,0
233859848,4259850,4259850,2490378,0,0,0.12031895,0.12031893,0.0,0.0,4325386,4325386,2490378,0,0,0.0021318283,0.0021318288,0.0,0.0,1,1,0,0,50,50,0,0,1,1,0,0,50,50,0,0
234059864,4259850,4259850,2490378,0,0,0.11054292,0.11054292,0.0,0.0,4325386,4325386,2490378,0,0,0.0021189612,0.0021189612,0.0,0.0,1,1,0,0,50,50,0,0,1,1,0,0,50,50,0,0
234259883,4259850,4259850,2490378,0,0,0.122832105,0.12283213,0.0,0.0,4325386,4325386,2490378,0,0,0.0022928324,0.0022928324,0.0,0.0,1,1,0,0,50,50,0,0,1,1,0,0,50,50,0,0
234459903,4259850,4259850,2490378,0,0,0.1303688,0.13036878,0.0,0.0,4325386,4325386,2490378,0,0,0.001817795,0.0018177952,0.0,0.0,1,1,0,0,50,50,0,0,1,1,0,0,50,50,0,0
234659929,4259850,4259850,2490378,0,0,0.11493863,0.114938624,0.0,0.0,4325386,4325386,2490378,0,0,0.0019522699,0.00195227,0.0,0.0,1,1,0,0,50,50,0,0,1,1,0,0,50,50,0,0
234859977,4259850,4259850,2490378,0,0,0.118540674,0.11854067,0.0,0.0,4325386,4325386,2490378,0,0,0.002619896,0.002619896,0.0,0.0,1,1,0,0,50,50,0,0,1,1,0,0,50,50,0,0
235059956,4259850,4259850,2490378,0,0,0.13931447,0.13931447,0.0,0.0,4325386,4325386,2490378,0,0,0.0028084654,0.002808465,0.0,0.0,1,1,0,0,50,50,0,0,1,1,0,0,50,50,0,0
235259970,4259850,4259850,2490378,0,0,0.15070935,0.15070936,0.0,0.0,4325386,4325386,2490378,0,0,0.003140965,0.003140964,0.0,0.0,1,1,0,0,50,50,0,0,1,1,0,0,50,50,0,0
235459990,4259850,4259850,2490378,0,0,0.15097994,0.15097994,0.0,0.0,4325386,4325386,2490378,0,0,0.0037974599,0.0037974606,0.0,0.0,1,1,0,0,50,50,0,0,1,1,0,0,50,50,0,0
235660007,4259850,4259850,2490378,0,0,0.15379901,0.15379901,0.0,0.0,4325386,4325386,2490378,0,0,0.0019424708,0.0019424707,0.0,0.0,1,1,0,0,50,50,0,0,1,1,0,0,50,50,0,0
235860025,4259850,4259850,2490378,0,0,0.14263439,0.14263439,0.0,0.0,4325386,4325386,2490378,0,0,0.0024791504,0.002479151,0.0,0.0,1,1,0,0,50,50,0,0,1,1,0,0,50,50,0,0
236060045,4259850,4259850,2490378,0,0,0.13194446,0.13194446,0.0,0.0,4325386,4325386,2490378,0,0,0.0024856268,0.002485627,0.0,0.0,1,1,0,0,50,50,0,0,1,1,0,0,50,50,0,0
236260066,4259850,4259850,2490378,0,0,0.12481394,0.12481394,0.0,0.0,4325386,4325386,2490378,0,0,0.002481617,0.002481617,0.0,0.0,1,1,0,0,50,50,0,0,1,1,0,0,50,50,0,0
236460077,4259850,4259850,2490378,0,0,0.1118689,0.11186892,0.0,0.0,4325386,4325386,2490378,0,0,0.003408693,0.003408693,0.0,0.0,1,1,0,0,50,50,0,0,1,1,0,0,50,50,0,0
236660100,4259850,4259850,2490378,0,0,0.12183829,0.12183828,0.0,0.0,4325386,4325386,2490378,0,0,0.00271595,0.0027159494,0.0,0.0,1,1,0,0,50,50,0,0,1,1,0,0,50,50,0,0
236860116,4259850,4259850,2490378,0,0,0.17373249,0.17373244,0.0,0.0,4325386,4325386,2490378,0,0,0.002480328,0.0024803276,0.0,0.0,1,1,0,0,50,50,0,0,1,1,0,0,50,50,0,0
237060137,4259850,4259850,2490378,0,0,0.12540968,0.12540965,0.0,0.0,4325386,4325386,2490378,0,0,0.0018658105,0.0018658099,0.0,0.0,1,1,0,0,50,50,0,0,1,1,0,0,50,50,0,0
237260153,4259850,4259850,2490378,0,0,0.1537392,0.15373918,0.0,0.0,4325386,4325386,2490378,0,0,0.0036115625,0.0036115623,0.0,0.0,1,1,0,0,50,50,0,0,1,1,0,0,50,50,0,0
237460171,4259850,4259850,2490378,0,0,0.12438535,0.12438536,0.0,0.0,4325386,4325386,2490378,0,0,0.0038190247,0.0038190237,0.0,0.0,1,1,0,0,50,50,0,0,1,1,0,0,50,50,0,0
237660189,4259850,4259850,2490378,0,0,0.11169352,0.11169351,0.0,0.0,4325386,4325386,2490378,0,0,0.0024215777,0.002421577,0.0,0.0,1,1,0,0,50,50,0,0,1,1,0,0,50,50,0,0
237860218,4259850,4259850,2490378,0,0,0.11725342,0.11725342,0.0,0.0,4325386,4325386,2490378,0,0,0.0010997871,0.0010997867,0.0,0.0,1,1,0,0,50,50,0,0,1,1,0,0,50,50,0,0
238060238,4259850,4259850,2490378,0,0,0.108320236,0.1083202,0.0,0.0,4325386,4325386,2490378,0,0,0.0033490171,0.0033490174,0.0,0.0,1,1,0,0,50,50,0,0,1,1,0,0,50,50,0,0
238260313,4259850,4259850,2490378,0,0,0.10285285,0.102852866,0.0,0.0,4325386,4325386,2490378,0,0,0.0019156226,0.0019156229,0.0,0.0,1,1,0,0,50,50,0,0,1,1,0,0,50,50,0,0
238460263,4259850,4259850,2490378,0,0,0.13110878,0.13110882,0.0,0.0,4325386,4325386,2490378,0,0,0.0024273726,0.0024273724,0.0,0.0,1,1,0,0,50,50,0,0,1,1,0,0,50,50,0,0
238660282,4259850,4259850,2490378,0,0,0.12203829,0.12203829,0.0,0.0,4325386,4325386,2490378,0,0,0.0025031997,0.0025032004,0.0,0.0,1,1,0,0,50,50,0,0,1,1,0,0,50,50,0,0
238860299,4259850,4259850,2490378,0,0,0.11718377,0.11718375,0.0,0.0,4325386,4325386,2490378,0,0,0.0033698662,0.003369866,0.0,0.0,1,1,0,0,50,50,0,0,1,1,0,0,50,50,0,0
239060314,4259850,4259850,2490378,0,0,0.11156015,0.11156016,0.0,0.0,4325386,4325386,2490378,0,0,0.003494012,0.003494012,0.0,0.0,1,1,0,0,50,50,0,0,1,1,0,0,50,50,0,0
239260334,4259850,4259850,2490378,0,0,0.1018311,0.101830974,0.0,0.0,4325386,4325386,2490378,0,0,0.0028974651,0.0028974656,0.0,0.0,1,1,0,0,50,50,0,0,1,1,0,0,50,50,0,0
239460354,4259850,4259850,2490378,0,0,0.10861066,0.10861066,0.0,0.0,4325386,4325386,2490378,0,0,0.0031874808,0.0031874804,0.0,0.0,1,1,0,0,50,50,0,0,1,1,0,0,50,50,0,0
239660370,4259850,4259850,2490378,0,0,0.17911078,0.17911074,0.0,0.0,4325386,4325386,2490378,0,0,0.0029443929,0.0029443926,0.0,0.0,1,1,0,0,50,50,0,0,1,1,0,0,50,50,0,0
239855410,4259850,4259850,2490378,0,0,0.13479549,0.13479547,0.0,0.0,4325386,4325386,2490378,0,0,0.0033692422,0.0033692424,0.0,0.0,1,1,0,0,50,50,0,0,1,1,0,0,50,50,0,0
240060408,4259850,4259850,2490378,0,0,0.1479179,0.14791791,0.0,0.0,4325386,4325386,2490378,0,0,0.0024834268,0.0024834273,0.0,0.0,1,1,0,0,50,50,0,0,1,1,0,0,50,50,0,0
240260428,4259850,4259850,2490378,0,0,0.11509236,0.11509238,0.0,0.0,4325386,4325386,2490378,0,0,0.0019845122,0.0019845115,0.0,0.0,1,1,0,0,50,50,0,0,1,1,0,0,50,50,0,0
240460444,4259850,4259850,2490378,0,0,0.116848126,0.11684815,0.0,0.0,4325386,4325386,2490378,0,0,0.0028628337,0.002862833,0.0,0.0,1,1,0,0,50,50,0,0,1,1,0,0,50,50,0,0
240660465,4259850,4259850,2490378,0,0,0.11154224,0.11154221,0.0,0.0,4325386,4325386,2490378,0,0,0.0027093538,0.0027093538,0.0,0.0,1,1,0,0,50,50,0,0,1,1,0,0,50,50,0,0
240860479,4259850,4259850,2490378,0,0,0.10035155,0.10035152,0.0,0.0,4325386,4325386,2490378,0,0,0.0015122413,0.0015122413,0.0,0.0,1,1,0,0,50,50,0,0,1,1,0,0,50,50,0,0
241060501,4259850,4259850,2490378,0,0,0.12376664,0.12376665,0.0,0.0,4325386,4325386,2490378,0,0,0.0021175395,0.0021175393,0.0,0.0,1,1,0,0,50,50,0,0,1,1,0,0,50,50,0,0
241255519,4259850,4259850,2490378,0,0,0.11370923,0.11370922,0.0,0.0,4325386,4325386,2490378,0,0,0.0027738397,0.002773839,0.0,0.0,1,1,0,0,50,50,0,0,1,1,0,0,50,50,0,0
241460559,4259850,4259850,2490378,0,0,0.1470837,0.1470837,0.0,0.0,4325386,4325386,2490378,0,0,0.0017204408,0.0017204406,0.0,0.0,1,1,0,0,50,50,0,0,1,1,0,0,50,50,0,0
241660553,4259850,4259850,2490378,0,0,0.109069765,0.1090698,0.0,0.0,4325386,4325386,2490378,0,0,0.0032861787,0.003286179,0.0,0.0,1,1,0,0,50,50,0,0,1,1,0,0,50,50,0,0
241860591,4259850,4259850,2490378,0,0,0.11921542,0.11921539,0.0,0.0,4325386,4325386,2490378,0,0,0.0027574839,0.0027574834,0.0,0.0,1,1,0,0,50,50,0,0,1,1,0,0,50,50,0,0
242060594,4259850,4259850,2490378,0,0,0.15638018,0.15638018,0.0,0.0,4325386,4325386,2490378,0,0,0.0024126887,0.002412689,0.0,0.0,1,1,0,0,50,50,0,0,1,1,0,0,50,50,0,0
242260643,4259850,4259850,2490378,0,0,0.13822795,0.13822794,0.0,0.0,4325386,4325386,2490378,0,0,0.0024798254,0.0024798254,0.0,0.0,1,1,0,0,50,50,0,0,1,1,0,0,50,50,0,0
242460631,4259850,4259850,2490378,0,0,0.13982968,0.13982968,0.0,0.0,4325386,4325386,2490378,0,0,0.0032765677,0.0032765672,0.0,0.0,1,1,0,0,50,50,0,0,1,1,0,0,50,50,0,0
242655663,4259850,4259850,2490378,0,0,0.13975535,0.13975532,0.0,0.0,4325386,4325386,2490378,0,0,0.002449315,0.0024493146,0.0,0.0,1,1,0,0,50,50,0,0,1,1,0,0,50,50,0,0
242860673,4259850,4259850,2490378,0,0,0.13600385,0.13600387,0.0,0.0,4325386,4325386,2490378,0,0,0.0034059763,0.003405976,0.0,0.0,1,1,0,0,50,50,0,0,1,1,0,0,50,50,0,0
243060692,4259850,4259850,2490378,0,0,0.1184644,0.118464395,0.0,0.0,4325386,4325386,2490378,0,0,0.0026352776,0.0026352776,0.0,0.0,1,1,0,0,50,50,0,0,1,1,0,0,50,50,0,0
243260705,4259850,4259850,2490378,0,0,0.16419688,0.16419688,0.0,0.0,4325386,4325386,2490378,0,0,0.002610422,0.0026104222,0.0,0.0,1,1,0,0,50,50,0,0,1,1,0,0,50,50,0,0
243460731,4259850,4259850,2490378,0,0,0.13022712,0.13022713,0.0,0.0,4325386,4325386,2490378,0,0,0.0029398699,0.0029398696,0.0,0.0,1,1,0,0,50,50,0,0,1,1,0,0,50,50,0,0
243660743,4259850,4259850,2490378,0,0,0.11438982,0.11438985,0.0,0.0,4325386,4325386,2490378,0,0,0.0018074905,0.0018074907,0.0,0.0,1,1,0,0,50,50,0,0,1,1,0,0,50,50,0,0
243860763,4259850,4259850,2490378,0,0,0.15686333,0.15686338,0.0,0.0,4325386,4325386,2490378,0,0,0.0026349688,0.0026349698,0.0,0.0,1,1,0,0,50,50,0,0,1,1,0,0,50,50,0,0
244055806,4259850,4259850,2490378,0,0,0.1264017,0.12640168,0.0,0.0,4325386,4325386,2490378,0,0,0.003162615,0.003162615,0.0,0.0,1,1,0,0,50,50,0,0,1,1,0,0,50,50,0,0
244260800,4259850,4259850,2490378,0,0,0.1349336,0.13493358,0.0,0.0,4325386,4325386,2490378,0,0,0.003586739,0.0035867388,0.0,0.0,1,1,0,0,50,50,0,0,1,1,0,0,50,50,0,0
244460817,4259850,4259850,2490378,0,0,0.13020284,0.13020281,0.0,0.0,4325386,4325386,2490378,0,0,0.0034135943,0.0034135946,0.0,0.0,1,1,0,0,50,50,0,0,1,1,0,0,50,50,0,0
244660835,4259850,4259850,2490378,0,0,0.12052847,0.120528504,0.0,0.0,4325386,4325386,2490378,0,0,0.0032307985,0.003230798,0.0,0.0,1,1,0,0,50,50,0,0,1,1,0,0,50,50,0,0
244860850,4259850,4259850,2490378,0,0,0.13499053,0.13499051,0.0,0.0,4325386,4325386,2490378,0,0,0.0026782355,0.0026782355,0.0,0.0,1,1,0,0,50,50,0,0,1,1,0,0,50,50,0,0
245060872,4259850,4259850,2490378,0,0,0.11737621,0.1173762,0.0,0.0,4325386,4325386,2490378,0,0,0.0034094502,0.0034094504,0.0,0.0,1,1,0,0,50,50,0,0,1,1,0,0,50,50,0,0
245255889,4259850,4259850,2490378,0,0,0.14941294,0.14941296,0.0,0.0,4325386,4325386,2490378,0,0,0.002620378,0.0026203776,0.0,0.0,1,1,0,0,50,50,0,0,1,1,0,0,50,50,0,0
245455918,4259850,4259850,2490378,0,0,0.10704662,0.10704667,0.0,0.0,4325386,4325386,2490378,0,0,0.0021309322,0.0021309315,0.0,0.0,1,1,0,0,50,50,0,0,1,1,0,0,50,50,0,0
245660958,4259850,4259850,2490378,0,0,0.13544631,0.13544634,0.0,0.0,4325386,4325386,2490378,0,0,0.0028016495,0.0028016488,0.0,0.0,1,1,0,0,50,50,0,0,1,1,0,0,50,50,0,0
245860948,4259850,4259850,2490378,0,0,0.14284563,0.14284565,0.0,0.0,4325386,4325386,2490378,0,0,0.0014622832,0.0014622825,0.0,0.0,1,1,0,0,50,50,0,0,1,1,0,0,50,50,0,0
246060964,4259850,4259850,2490378,0,0,0.12100547,0.12100547,0.0,0.0,4325386,4325386,2490378,0,0,0.002036829,0.0020368283,0.0,0.0,1,1,0,0,50,50,0,0,1,1,0,0,50,50,0,0
246260983,4259850,4259850,2490378,0,0,0.123404436,0.123404466,0.0,0.0,4325386,4325386,2490378,0,0,0.0028405401,0.0028405406,0.0,0.0,1,1,0,0,50,50,0,0,1,1,0,0,50,50,0,0
246461004,4259850,4259850,2490378,0,0,0.10198733,0.10198739,0.0,0.0,4325386,4325386,2490378,0,0,0.0023765771,0.002376577,0.0,0.0,1,1,0,0,50,50,0,0,1,1,0,0,50,50,0,0
246661036,4259850,4259850,2490378,0,0,0.1097001,0.109700084,0.0,0.0,4325386,4325386,2490378,0,0,0.0025095327,0.0025095325,0.0,0.0,1,1,0,0,50,50,0,0,1,1,0,0,50,50,0,0
246856035,4259850,4259850,2490378,0,0,0.100765094,0.10076506,0.0,0.0,4325386,4325386,2490378,0,0,0.002541411,0.0025414112,0.0,0.0,1,1,0,0,50,50,0,0,1,1,0,0,50,50,0,0
247061060,4259850,4259850,2490378,0,0,0.11657092,0.116570964,0.0,0.0,4325386,4325386,2490378,0,0,0.0022214516,0.0022214511,0.0,0.0,1,1,0,0,50,50,0,0,1,1,0,0,50,50,0,0
247261082,4259850,4259850,2490378,0,0,0.106556885,0.1065569,0.0,0.0,4325386,4325386,2490378,0,0,0.0030992827,0.0030992832,0.0,0.0,1,1,0,0,50,50,0,0,1,1,0,0,50,50,0,0
247461127,4259850,4259850,2490378,0,0,0.11751668,0.11751668,0.0,0.0,4325386,4325386,2490378,0,0,0.002151139,0.0021511386,0.0,0.0,1,1,0,0,50,50,0,0,1,1,0,0,50,50,0,0
247661115,4259850,4259850,2490378,0,0,0.10072038,0.10072035,0.0,0.0,4325386,4325386,2490378,0,0,0.0022212614,0.0022212616,0.0,0.0,1,1,0,0,50,50,0,0,1,1,0,0,50,50,0,0
247861151,4259850,4259850,2490378,0,0,0.12514855,0.1251485,0.0,0.0,4325386,4325386,2490378,0,0,0.0032156426,0.003215642,0.0,0.0,1,1,0,0,50,50,0,0,1,1,0,0,50,50,0,0
248056154,4259850,4259850,2490378,0,0,0.109728165,0.10972814,0.0,0.0,4325386,4325386,2490378,0,0,0.0030431773,0.003043177,0.0,0.0,1,1,0,0,50,50,0,0,1,1,0,0,50,50,0,0
248256204,4259850,4259850,2490378,0,0,0.11852393,0.11852392,0.0,0.0,4325386,4325386,2490378,0,0,0.0031083424,0.0031083422,0.0,0.0,1,1,0,0,50,50,0,0,1,1,0,0,50,50,0,0
248461187,4259850,4259850,2490378,0,0,0.12316292,0.123162925,0.0,0.0,4325386,4325386,2490378,0,0,0.002527004,0.0025270043,0.0,0.0,1,1,0,0,50,50,0,0,1,1,0,0,50,50,0,0
248661242,4259850,4259850,2490378,0,0,0.10656612,0.10656618,0.0,0.0,4325386,4325386,2490378,0,0,0.0030229855,0.0030229858,0.0,0.0,1,1,0,0,50,50,0,0,1,1,0,0,50,50,0,0
248861229,4259850,4259850,2490378,0,0,0.11414842,0.114148445,0.0,0.0,4325386,4325386,2490378,0,0,0.0027254578,0.0027254575,0.0,0.0,1,1,0,0,50,50,0,0,1,1,0,0,50,50,0,0
249061316,4259850,4259850,2490378,0,0,0.11092058,0.110920556,0.0,0.0,4325386,4325386,2490378,0,0,0.0028106717,0.0028106722,0.0,0.0,1,1,0,0,50,50,0,0,1,1,0,0,50,50,0,0
249261267,4259850,4259850,2490378,0,0,0.112656444,0.11265634,0.0,0.0,4325386,4325386,2490378,0,0,0.002160876,0.002160876,0.0,0.0,1,1,0,0,50,50,0,0,1,1,0,0,50,50,0,0
249456285,4259850,4259850,2490378,0,0,0.11361744,0.11361748,0.0,0.0,4325386,4325386,2490378,0,0,0.0024107578,0.0024107571,0.0,0.0,1,1,0,0,50,50,0,0,1,1,0,0,50,50,0,0
249656302,4259850,4259850,2490378,0,0,0.11764099,0.11764102,0.0,0.0,4325386,4325386,2490378,0,0,0.0031229302,0.0031229302,0.0,0.0,1,1,0,0,50,50,0,0,1,1,0,0,50,50,0,0
249861325,4259850,4259850,2490378,0,0,0.11562024,0.11562025,0.0,0.0,4325386,4325386,2490378,0,0,0.0027890732,0.0027890732,0.0,0.0,1,1,0,0,50,50,0,0,1,1,0,0,50,50,0,0
250061350,4259850,4259850,2490378,0,0,0.11991222,0.11991218,0.0,0.0,4325386,4325386,2490378,0,0,0.002637543,0.0026375426,0.0,0.0,1,1,0,0,50,50,0,0,1,1,0,0,50,50,0,0
250261360,4259850,4259850,2490378,0,0,0.12591657,0.12591659,0.0,0.0,4325386,4325386,2490378,0,0,0.0032261428,0.0032261435,0.0,0.0,1,1,0,0,50,50,0,0,1,1,0,0,50,50,0,0
250461379,4259850,4259850,2490378,0,0,0.13307258,0.13307257,0.0,0.0,4325386,4325386,2490378,0,0,0.0034150863,0.0034150858,0.0,0.0,1,1,0,0,50,50,0,0,1,1,0,0,50,50,0,0
250661405,4259850,4259850,2490378,0,0,0.11915747,0.11915747,0.0,0.0,4325386,4325386,2490378,0,0,0.002535689,0.0025356885,0.0,0.0,1,1,0,0,50,50,0,0,1,1,0,0,50,50,0,0
250856415,4259850,4259850,2490378,0,0,0.12737252,0.12737253,0.0,0.0,4325386,4325386,2490378,0,0,0.0029173319,0.0029173316,0.0,0.0,1,1,0,0,50,50,0,0,1,1,0,0,50,50,0,0
251056437,4259850,4259850,2490378,0,0,0.1403015,0.1403015,0.0,0.0,4325386,4325386,2490378,0,0,0.0034635505,0.003463552,0.0,0.0,1,1,0,0,50,50,0,0,1,1,0,0,50,50,0,0
251261453,4259850,4259850,2490378,0,0,0.13544637,0.13544634,0.0,0.0,4325386,4325386,2490378,0,0,0.0042055664,0.004205573,0.0,0.0,1,1,0,0,50,50,0,0,1,1,0,0,50,50,0,0
251461479,4259850,4259850,2490378,0,0,0.09911335,0.099113345,0.0,0.0,4325386,4325386,2490378,0,0,0.004741636,0.0047416366,0.0,0.0,1,1,0,0,50,50,0,0,1,1,0,0,50,50,0,0
251661491,4259850,4259850,2490378,0,0,0.124189205,0.124189205,0.0,0.0,4325386,4325386,2490378,0,0,0.002051624,0.0020516228,0.0,0.0,1,1,0,0,50,50,0,0,1,1,0,0,50,50,0,0
251861508,4259850,4259850,2490378,0,0,0.11435682,0.11435683,0.0,0.0,4325386,4325386,2490378,0,0,0.004929994,0.0049299956,0.0,0.0,1,1,0,0,50,50,0,0,1,1,0,0,50,50,0,0
252056529,4259850,4259850,2490378,0,0,0.13226822,0.13226825,0.0,0.0,4325386,4325386,2490378,0,0,0.006329532,0.006329531,0.0,0.0,1,1,0,0,50,50,0,0,1,1,0,0,50,50,0,0
252256548,4259850,4259850,2490378,0,0,0.12633891,0.12633888,0.0,0.0,4325386,4325386,2490378,0,0,0.004370004,0.0043700025,0.0,0.0,1,1,0,0,50,50,0,0,1,1,0,0,50,50,0,0
252456597,4259850,4259850,2490378,0,0,0.11208477,0.112084776,0.0,0.0,4325386,4325386,2490378,0,0,0.0044515487,0.004451552,0.0,0.0,1,1,0,0,50,50,0,0,1,1,0,0,50,50,0,0
252661590,4259850,4259850,2490378,0,0,0.13442522,0.13442524,0.0,0.0,4325386,4325386,2490378,0,0,0.010399108,0.010399105,0.0,0.0,1,1,0,0,50,50,0,0,1,1,0,0,50,50,0,0
252861604,4259850,4259850,2490378,0,0,0.11591976,0.115919776,0.0,0.0,4325386,4325386,2490378,0,0,0.007221033,0.0072210333,0.0,0.0,1,1,0,0,50,50,0,0,1,1,0,0,50,50,0,0
253061633,4259850,4259850,2490378,0,0,0.12810692,0.12810688,0.0,0.0,4325386,4325386,2490378,0,0,0.009803196,0.009803202,0.0,0.0,1,1,0,0,50,50,0,0,1,1,0,0,50,50,0,0
253261649,4259850,4259850,2490378,0,0,0.1389699,0.1389699,0.0,0.0,4325386,4325386,2490378,0,0,0.007891905,0.0078919055,0.0,0.0,1,1,0,0,50,50,0,0,1,1,0,0,50,50,0,0
253456708,4259850,4259850,2490378,0,0,0.12189356,0.121893555,0.0,0.0,4325386,4325386,2490378,0,0,0.0035094528,0.0035094535,0.0,0.0,1,1,0,0,50,50,0,0,1,1,0,0,50,50,0,0
253656700,4259850,4259850,2490378,0,0,0.12194333,0.12194333,0.0,0.0,4325386,4325386,2490378,0,0,0.0019678709,0.00196787,0.0,0.0,1,1,0,0,50,50,0,0,1,1,0,0,50,50,0,0
253856706,4259850,4259850,2490378,0,0,0.10610923,0.10610921,0.0,0.0,4325386,4325386,2490378,0,0,0.0016132707,0.0016132706,0.0,0.0,1,1,0,0,50,50,0,0,1,1,0,0,50,50,0,0
254061744,4259850,4259850,2490378,0,0,0.12261953,0.12261959,0.0,0.0,4325386,4325386,2490378,0,0,0.008890521,0.008890521,0.0,0.0,1,1,0,0,50,50,0,0,1,1,0,0,50,50,0,0
254261742,4259850,4259850,2490378,0,0,0.10862644,0.10862646,0.0,0.0,4325386,4325386,2490378,0,0,0.003924331,0.0039243363,0.0,0.0,1,1,0,0,50,50,0,0,1,1,0,0,50,50,0,0
254461760,4259850,4259850,2490378,0,0,0.09808567,0.09808566,0.0,0.0,4325386,4325386,2490378,0,0,0.0062331557,0.00623315,0.0,0.0,1,1,0,0,50,50,0,0,1,1,0,0,50,50,0,0
254661795,4259850,4259850,2490378,0,0,0.17345966,0.17345966,0.0,0.0,4325386,4325386,2490378,0,0,0.0056820167,0.005682016,0.0,0.0,1,1,0,0,50,50,0,0,1,1,0,0,50,50,0,0
254856799,4259850,4259850,2490378,0,0,0.1520921,0.1520921,0.0,0.0,4325386,4325386,2490378,0,0,0.0065315445,0.006531548,0.0,0.0,1,1,0,0,50,50,0,0,1,1,0,0,50,50,0,0
255056819,4259850,4259850,2490378,0,0,0.13035035,0.13035038,0.0,0.0,4325386,4325386,2490378,0,0,0.00678588,0.006785879,0.0,0.0,1,1,0,0,50,50,0,0,1,1,0,0,50,50,0,0
255256846,4259850,4259850,2490378,0,0,0.15649892,0.15649892,0.0,0.0,4325386,4325386,2490378,0,0,0.004731782,0.0047317822,0.0,0.0,1,1,0,0,50,50,0,0,1,1,0,0,50,50,0,0
255461864,4259850,4259850,2490378,0,0,0.17978013,0.17978011,0.0,0.0,4325386,4325386,2490378,0,0,0.008465806,0.008465806,0.0,0.0,1,1,0,0,50,50,0,0,1,1,0,0,50,50,0,0
255661881,4259850,4259850,2490378,0,0,0.18532996,0.18532994,0.0,0.0,4325386,4325386,2490378,0,0,0.006831349,0.006831352,0.0,0.0,1,1,0,0,50,50,0,0,1,1,0,0,50,50,0,0
255861900,4259850,4259850,2490378,0,0,0.124959126,0.12495914,0.0,0.0,4325386,4325386,2490378,0,0,0.0043464396,0.0043464415,0.0,0.0,1,1,0,0,50,50,0,0,1,1,0,0,50,50,0,0
256056908,4259850,4259850,2490378,0,0,0.15035719,0.15035719,0.0,0.0,4325386,4325386,2490378,0,0,0.0069037434,0.006903743,0.0,0.0,1,1,0,0,50,50,0,0,1,1,0,0,50,50,0,0
256256927,4259850,4259850,2490378,0,0,0.12583931,0.12583931,0.0,0.0,4325386,4325386,2490378,0,0,0.0067266854,0.006726684,0.0,0.0,1,1,0,0,50,50,0,0,1,1,0,0,50,50,0,0
256456946,4259850,4259850,2490378,0,0,0.10624733,0.106247246,0.0,0.0,4325386,4325386,2490378,0,0,0.0017364002,0.0017364003,0.0,0.0,1,1,0,0,50,50,0,0,1,1,0,0,50,50,0,0
256656969,4259850,4259850,2490378,0,0,0.13806236,0.13806239,0.0,0.0,4325386,4325386,2490378,0,0,0.004224355,0.0042243577,0.0,0.0,1,1,0,0,50,50,0,0,1,1,0,0,50,50,0,0
256862015,4259850,4259850,2490378,0,0,0.1501413,0.1501413,0.0,0.0,4325386,4325386,2490378,0,0,0.0032537489,0.0032537465,0.0,0.0,1,1,0,0,50,50,0,0,1,1,0,0,50,50,0,0
257062008,4259850,4259850,2490378,0,0,0.09744688,0.097446844,0.0,0.0,4325386,4325386,2490378,0,0,0.0022874628,0.0022874617,0.0,0.0,1,1,0,0,50,50,0,0,1,1,0,0,50,50,0,0
257262024,4259850,4259850,2490378,0,0,0.1362316,0.1362316,0.0,0.0,4325386,4325386,2490378,0,0,0.0015041723,0.0015041707,0.0,0.0,1,1,0,0,50,50,0,0,1,1,0,0,50,50,0,0
257457074,4259850,4259850,2490378,0,0,0.16193725,0.16193737,0.0,0.0,4325386,4325386,2490378,0,0,0.0064492864,0.0064492826,0.0,0.0,1,1,0,0,50,50,0,0,1,1,0,0,50,50,0,0
257657095,4259850,4259850,2490378,0,0,0.12676717,0.12676717,0.0,0.0,4325386,4325386,2490378,0,0,0.004487441,0.0044874377,0.0,0.0,1,1,0,0,50,50,0,0,1,1,0,0,50,50,0,0
257857203,4259850,4259850,2490378,0,0,0.134486,0.134486,0.0,0.0,4325386,4325386,2490378,0,0,0.0023621377,0.0023621374,0.0,0.0,1,1,0,0,50,50,0,0,1,1,0,0,50,50,0,0
258057168,4259850,4259850,2490378,0,0,0.11088475,0.11088478,0.0,0.0,4325386,4325386,2490378,0,0,0.0032029636,0.0032029643,0.0,0.0,1,1,0,0,50,50,0,0,1,1,0,0,50,50,0,0
258262133,4259850,4259850,2490378,0,0,0.15677567,0.15677571,0.0,0.0,4325386,4325386,2490378,0,0,0.008842354,0.008842356,0.0,0.0,1,1,0,0,50,50,0,0,1,1,0,0,50,50,0,0
258462156,4259850,4259850,2490378,0,0,0.14689066,0.14689067,0.0,0.0,4325386,4325386,2490378,0,0,0.0038154256,0.0038154246,0.0,0.0,1,1,0,0,50,50,0,0,1,1,0,0,50,50,0,0
258662191,4259850,4259850,2490378,0,0,0.15307166,0.15307169,0.0,0.0,4325386,4325386,2490378,0,0,0.0038920525,0.0038920525,0.0,0.0,1,1,0,0,50,50,0,0,1,1,0,0,50,50,0,0
258857279,4259850,4259850,2490378,0,0,0.13666365,0.13666362,0.0,0.0,4325386,4325386,2490378,0,0,0.0068699997,0.0068699983,0.0,0.0,1,1,0,0,50,50,0,0,1,1,0,0,50,50,0,0
259057312,4259850,4259850,2490378,0,0,0.121536605,0.1215365,0.0,0.0,4325386,4325386,2490378,0,0,0.005582908,0.0055829086,0.0,0.0,1,1,0,0,50,50,0,0,1,1,0,0,50,50,0,0
259257369,4259850,4259850,2490378,0,0,0.11737722,0.11737723,0.0,0.0,4325386,4325386,2490378,0,0,0.0041256854,0.004125687,0.0,0.0,1,1,0,0,50,50,0,0,1,1,0,0,50,50,0,0
259457408,4259850,4259850,2490378,0,0,0.1633687,0.1633687,0.0,0.0,4325386,4325386,2490378,0,0,0.006072505,0.006072506,0.0,0.0,1,1,0,0,50,50,0,0,1,1,0,0,50,50,0,0
259657405,4259850,4259850,2490378,0,0,0.14732264,0.14732264,0.0,0.0,4325386,4325386,2490378,0,0,0.005131489,0.0051314887,0.0,0.0,1,1,0,0,50,50,0,0,1,1,0,0,50,50,0,0
259862368,4259850,4259850,2490378,0,0,0.08275257,0.08275257,0.0,0.0,4325386,4325386,2490378,0,0,0.0055406378,0.005540636,0.0,0.0,1,1,0,0,50,50,0,0,1,1,0,0,50,50,0,0
260057463,4259850,4259850,2490378,0,0,0.14558263,0.14558263,0.0,0.0,4325386,4325386,2490378,0,0,0.0066502476,0.0066502457,0.0,0.0,1,1,0,0,50,50,0,0,1,1,0,0,50,50,0,0
260257322,4259850,4259850,2490378,0,0,0.13902803,0.13902801,0.0,0.0,4325386,4325386,2490378,0,0,0.0065321494,0.006532152,0.0,0.0,1,1,0,0,50,50,0,0,1,1,0,0,50,50,0,0
260457345,4259850,4259850,2490378,0,0,0.13105236,0.13105237,0.0,0.0,4325386,4325386,2490378,0,0,0.0034732572,0.0034732614,0.0,0.0,1,1,0,0,50,50,0,0,1,1,0,0,50,50,0,0
260657364,4259850,4259850,2490378,0,0,0.12557554,0.12557554,0.0,0.0,4325386,4325386,2490378,0,0,0.011586139,0.011586139,0.0,0.0,1,1,0,0,50,50,0,0,1,1,0,0,50,50,0,0
260857380,4259850,4259850,2490378,0,0,0.08797424,0.08797426,0.0,0.0,4325386,4325386,2490378,0,0,0.006144573,0.006144568,0.0,0.0,1,1,0,0,50,50,0,0,1,1,0,0,50,50,0,0
261062561,4259850,4259850,2490378,0,0,0.1595662,0.1595662,0.0,0.0,4325386,4325386,2490378,0,0,0.0049556517,0.0049556526,0.0,0.0,1,1,0,0,50,50,0,0,1,1,0,0,50,50,0,0
261262424,4259850,4259850,2490378,0,0,0.12431891,0.12431896,0.0,0.0,4325386,4325386,2490378,0,0,0.005224186,0.005224188,0.0,0.0,1,1,0,0,50,50,0,0,1,1,0,0,50,50,0,0
261457455,4259850,4259850,2490378,0,0,0.15426467,0.15426467,0.0,0.0,4325386,4325386,2490378,0,0,0.0049483804,0.004948384,0.0,0.0,1,1,0,0,50,50,0,0,1,1,0,0,50,50,0,0
261657462,4259850,4259850,2490378,0,0,0.10665528,0.10665526,0.0,0.0,4325386,4325386,2490378,0,0,0.003325067,0.003325068,0.0,0.0,1,1,0,0,50,50,0,0,1,1,0,0,50,50,0,0
261857492,4259850,4259850,2490378,0,0,0.17802654,0.17802648,0.0,0.0,4325386,4325386,2490378,0,0,0.010574356,0.010574354,0.0,0.0,1,1,0,0,50,50,0,0,1,1,0,0,50,50,0,0
262057499,4259850,4259850,2490378,0,0,0.116285935,0.11628595,0.0,0.0,4325386,4325386,2490378,0,0,0.007219653,0.0072196517,0.0,0.0,1,1,0,0,50,50,0,0,1,1,0,0,50,50,0,0
262257540,4259850,4259850,2490378,0,0,0.09043583,0.09043576,0.0,0.0,4325386,4325386,2490378,0,0,0.004058967,0.0040589664,0.0,0.0,1,1,0,0,50,50,0,0,1,1,0,0,50,50,0,0
262462545,4259850,4259850,2490378,0,0,0.12710974,0.1271098,0.0,0.0,4325386,4325386,2490378,0,0,0.0047783116,0.0047783116,0.0,0.0,1,1,0,0,50,50,0,0,1,1,0,0,50,50,0,0
262662560,4259850,4259850,2490378,0,0,0.13151681,0.13151678,0.0,0.0,4325386,4325386,2490378,0,0,0.006290581,0.006290581,0.0,0.0,1,1,0,0,50,50,0,0,1,1,0,0,50,50,0,0
262857578,4259850,4259850,2490378,0,0,0.11775327,0.11775324,0.0,0.0,4325386,4325386,2490378,0,0,0.0017957486,0.001795749,0.0,0.0,1,1,0,0,50,50,0,0,1,1,0,0,50,50,0,0
263057598,4259850,4259850,2490378,0,0,0.12795211,0.12795208,0.0,0.0,4325386,4325386,2490378,0,0,0.0040698904,0.004069891,0.0,0.0,1,1,0,0,50,50,0,0,1,1,0,0,50,50,0,0
263257564,4259850,4259850,2490378,0,0,0.1361468,0.13614678,0.0,0.0,4325386,4325386,2490378,0,0,0.004622194,0.004622193,0.0,0.0,1,1,0,0,50,50,0,0,1,1,0,0,50,50,0,0
263457650,4259850,4259850,2490378,0,0,0.119657345,0.11965729,0.0,0.0,4325386,4325386,2490378,0,0,0.0024765597,0.0024765588,0.0,0.0,1,1,0,0,50,50,0,0,1,1,0,0,50,50,0,0
263657669,4259850,4259850,2490378,0,0,0.10920692,0.10920693,0.0,0.0,4325386,4325386,2490378,0,0,0.0009333364,0.00093333656,0.0,0.0,1,1,0,0,50,50,0,0,1,1,0,0,50,50,0,0
263862687,4259850,4259850,2490378,0,0,0.14128076,0.14128076,0.0,0.0,4325386,4325386,2490378,0,0,0.006545589,0.0065455902,0.0,0.0,1,1,0,0,50,50,0,0,1,1,0,0,50,50,0,0
264062716,4259850,4259850,2490378,0,0,0.09645607,0.09645609,0.0,0.0,4325386,4325386,2490378,0,0,0.002929914,0.0029299124,0.0,0.0,1,1,0,0,50,50,0,0,1,1,0,0,50,50,0,0
264257716,4259850,4259850,2490378,0,0,0.12589125,0.12589137,0.0,0.0,4325386,4325386,2490378,0,0,0.0037868714,0.0037868705,0.0,0.0,1,1,0,0,50,50,0,0,1,1,0,0,50,50,0,0
264457729,4259850,4259850,2490378,0,0,0.12937847,0.12937841,0.0,0.0,4325386,4325386,2490378,0,0,0.0046275174,0.004627519,0.0,0.0,1,1,0,0,50,50,0,0,1,1,0,0,50,50,0,0
264657754,4259850,4259850,2490378,0,0,0.2069208,0.20692088,0.0,0.0,4325386,4325386,2490378,0,0,0.00056889356,0.00056889356,0.0,0.0,1,1,0,0,50,50,0,0,1,1,0,0,50,50,0,0
264857767,4259850,4259850,2490378,0,0,0.0804578,0.08045778,0.0,0.0,4325386,4325386,2490378,0,0,0.0033622219,0.0033622216,0.0,0.0,1,1,0,0,50,50,0,0,1,1,0,0,50,50,0,0
265057801,4259850,4259850,2490378,0,0,0.15153468,0.15153472,0.0,0.0,4325386,4325386,2490378,0,0,0.0081124725,0.008112472,0.0,0.0,1,1,0,0,50,50,0,0,1,1,0,0,50,50,0,0
265262811,4259850,4259850,2490378,0,0,0.05826152,0.0582615,0.0,0.0,4325386,4325386,2490378,0,0,0.0030103272,0.0030103298,0.0,0.0,1,1,0,0,50,50,0,0,1,1,0,0,50,50,0,0
265462848,4259850,4259850,2490378,0,0,0.10885682,0.10885682,0.0,0.0,4325386,4325386,2490378,0,0,0.0035289174,0.0035289167,0.0,0.0,1,1,0,0,50,50,0,0,1,1,0,0,50,50,0,0
265657878,4259850,4259850,2490378,0,0,0.10212595,0.102126025,0.0,0.0,4325386,4325386,2490378,0,0,0.00241432,0.0024143206,0.0,0.0,1,1,0,0,50,50,0,0,1,1,0,0,50,50,0,0
265857887,4259850,4259850,2490378,0,0,0.24628216,0.24628216,0.0,0.0,4325386,4325386,2490378,0,0,0.0015667678,0.0015667671,0.0,0.0,1,1,0,0,50,50,0,0,1,1,0,0,50,50,0,0
266057888,4259850,4259850,2490378,0,0,0.18780363,0.18780357,0.0,0.0,4325386,4325386,2490378,0,0,0.0030912687,0.003091268,0.0,0.0,1,1,0,0,50,50,0,0,1,1,0,0,50,50,0,0
266257905,4259850,4259850,2490378,0,0,0.1418939,0.14189383,0.0,0.0,4325386,4325386,2490378,0,0,0.0033885562,0.0033885557,0.0,0.0,1,1,0,0,50,50,0,0,1,1,0,0,50,50,0,0
266457926,4259850,4259850,2490378,0,0,0.10569749,0.10569751,0.0,0.0,4325386,4325386,2490378,0,0,0.0044069528,0.004406953,0.0,0.0,1,1,0,0,50,50,0,0,1,1,0,0,50,50,0,0
266662943,4259850,4259850,2490378,0,0,0.41042554,0.4104255,0.0,0.0,4325386,4325386,2490378,0,0,0.0065634535,0.006563453,0.0,0.0,1,1,0,0,50,50,0,0,1,1,0,0,50,50,0,0
266857970,4259850,4259850,2490378,0,0,0.128066,0.12806599,0.0,0.0,4325386,4325386,2490378,0,0,0.0036119637,0.003611964,0.0,0.0,1,1,0,0,50,50,0,0,1,1,0,0,50,50,0,0
267057994,4259850,4259850,2490378,0,0,0.13932088,0.13932112,0.0,0.0,4325386,4325386,2490378,0,0,0.00236894,0.0023689407,0.0,0.0,1,1,0,0,50,50,0,0,1,1,0,0,50,50,0,0
267258033,4259850,4259850,2490378,0,0,0.12006969,0.12006966,0.0,0.0,4325386,4325386,2490378,0,0,0.003641672,0.0036416727,0.0,0.0,1,1,0,0,50,50,0,0,1,1,0,0,50,50,0,0
267458023,4259850,4259850,2490378,0,0,0.21532172,0.21532175,0.0,0.0,4325386,4325386,2490378,0,0,0.0038728623,0.0038728626,0.0,0.0,1,1,0,0,50,50,0,0,1,1,0,0,50,50,0,0
267658043,4259850,4259850,2490378,0,0,0.17179869,0.17179868,0.0,0.0,4325386,4325386,2490378,0,0,0.0035116505,0.0035116496,0.0,0.0,1,1,0,0,50,50,0,0,1,1,0,0,50,50,0,0
267858061,4259850,4259850,2490378,0,0,0.32530028,0.32530028,0.0,0.0,4325386,4325386,2490378,0,0,0.003614934,0.0036149356,0.0,0.0,1,1,0,0,50,50,0,0,1,1,0,0,50,50,0,0
268063086,4259850,4259850,2490378,0,0,0.12943053,0.12943055,0.0,0.0,4325386,4325386,2490378,0,0,0.002349212,0.0023492132,0.0,0.0,1,1,0,0,50,50,0,0,1,1,0,0,50,50,0,0
268258124,4259850,4259850,2490378,0,0,0.11014808,0.11014805,0.0,0.0,4325386,4325386,2490378,0,0,0.0012212845,0.0012212851,0.0,0.0,1,1,0,0,50,50,0,0,1,1,0,0,50,50,0,0
268458121,4259850,4259850,2490378,0,0,0.094754204,0.09475418,0.0,0.0,4325386,4325386,2490378,0,0,0.0039927047,0.0039927047,0.0,0.0,1,1,0,0,50,50,0,0,1,1,0,0,50,50,0,0
268658152,4259850,4259850,2490378,0,0,0.10183397,0.10183399,0.0,0.0,4325386,4325386,2490378,0,0,0.004388747,0.0043887454,0.0,0.0,1,1,0,0,50,50,0,0,1,1,0,0,50,50,0,0
268858123,4259850,4259850,2490378,0,0,0.13946475,0.13946472,0.0,0.0,4325386,4325386,2490378,0,0,0.000904779,0.0009047791,0.0,0.0,1,1,0,0,50,50,0,0,1,1,0,0,50,50,0,0
269058138,4259850,4259850,2490378,0,0,0.15902027,0.15902027,0.0,0.0,4325386,4325386,2490378,0,0,0.019000681,0.019000677,0.0,0.0,1,1,0,0,50,50,0,0,1,1,0,0,50,50,0,0
269258155,4259850,4259850,2490378,0,0,0.0975087,0.09750871,0.0,0.0,4325386,4325386,2490378,0,0,0.014182446,0.014182438,0.0,0.0,1,1,0,0,50,50,0,0,1,1,0,0,50,50,0,0
269463184,4259850,4259850,2490378,0,0,0.12019477,0.12019478,0.0,0.0,4325386,4325386,2490378,0,0,0.02065401,0.02065401,0.0,0.0,1,1,0,0,50,50,0,0,1,1,0,0,50,50,0,0
269658230,4259850,4259850,2490378,0,0,0.11393701,0.11393698,0.0,0.0,4325386,4325386,2490378,0,0,0.019775074,0.019775076,0.0,0.0,1,1,0,0,50,50,0,0,1,1,0,0,50,50,0,0
269858218,4259850,4259850,2490378,0,0,0.278656,0.2786561,0.0,0.0,4325386,4325386,2490378,0,0,0.013995902,0.013995882,0.0,0.0,1,1,0,0,50,50,0,0,1,1,0,0,50,50,0,0
270058274,4259850,4259850,2490378,0,0,0.24655302,0.24655299,0.0,0.0,4325386,4325386,2490378,0,0,0.0031456223,0.0031456165,0.0,0.0,1,1,0,0,50,50,0,0,1,1,0,0,50,50,0,0
270258257,4259850,4259850,2490378,0,0,0.18692428,0.1869243,0.0,0.0,4325386,4325386,2490378,0,0,0.0071753142,0.00717531,0.0,0.0,1,1,0,0,50,50,0,0,1,1,0,0,50,50,0,0
270458278,4259850,4259850,2490378,0,0,0.1331245,0.13312452,0.0,0.0,4325386,4325386,2490378,0,0,0.0074049477,0.0074049495,0.0,0.0,1,1,0,0,50,50,0,0,1,1,0,0,50,50,0,0
270658304,4259850,4259850,2490378,0,0,0.09333891,0.093338855,0.0,0.0,4325386,4325386,2490378,0,0,0.012403007,0.012403007,0.0,0.0,1,1,0,0,50,50,0,0,1,1,0,0,50,50,0,0
270858318,4259850,4259850,2490378,0,0,0.07690636,0.07690636,0.0,0.0,4325386,4325386,2490378,0,0,0.013389834,0.013389833,0.0,0.0,1,1,0,0,50,50,0,0,1,1,0,0,50,50,0,0
271058335,4259850,4259850,2490378,0,0,0.12324969,0.12324973,0.0,0.0,4325386,4325386,2490378,0,0,0.010881851,0.010881852,0.0,0.0,1,1,0,0,50,50,0,0,1,1,0,0,50,50,0,0
271258358,4259850,4259850,2490378,0,0,0.13412017,0.13412018,0.0,0.0,4325386,4325386,2490378,0,0,0.0034055847,0.0034055873,0.0,0.0,1,1,0,0,50,50,0,0,1,1,0,0,50,50,0,0
271458379,4259850,4259850,2490378,0,0,0.10921343,0.10921342,0.0,0.0,4325386,4325386,2490378,0,0,0.0024095518,0.0024095513,0.0,0.0,1,1,0,0,50,50,0,0,1,1,0,0,50,50,0,0
271658399,4259850,4259850,2490378,0,0,0.11511986,0.115119874,0.0,0.0,4325386,4325386,2490378,0,0,0.0012201159,0.001220116,0.0,0.0,1,1,0,0,50,50,0,0,1,1,0,0,50,50,0,0
271858415,4259850,4259850,2490378,0,0,0.11507052,0.11507054,0.0,0.0,4325386,4325386,2490378,0,0,0.003280566,0.0032805675,0.0,0.0,1,1,0,0,50,50,0,0,1,1,0,0,50,50,0,0
272058435,4259850,4259850,2490378,0,0,0.1705372,0.17053722,0.0,0.0,4325386,4325386,2490378,0,0,0.001186389,0.0011863904,0.0,0.0,1,1,0,0,50,50,0,0,1,1,0,0,50,50,0,0
272258456,4259850,4259850,2490378,0,0,0.104709916,0.1047099,0.0,0.0,4325386,4325386,2490378,0,0,0.0065082945,0.006508294,0.0,0.0,1,1,0,0,50,50,0,0,1,1,0,0,50,50,0,0
272458476,4259850,4259850,2490378,0,0,0.15827253,0.15827253,0.0,0.0,4325386,4325386,2490378,0,0,0.004011697,0.004011696,0.0,0.0,1,1,0,0,50,50,0,0,1,1,0,0,50,50,0,0
272658494,4259850,4259850,2490378,0,0,0.10328449,0.103284486,0.0,0.0,4325386,4325386,2490378,0,0,0.0075162183,0.007516219,0.0,0.0,1,1,0,0,50,50,0,0,1,1,0,0,50,50,0,0
272858517,4259850,4259850,2490378,0,0,0.16488612,0.16488613,0.0,0.0,4325386,4325386,2490378,0,0,0.004420812,0.004420807,0.0,0.0,1,1,0,0,50,50,0,0,1,1,0,0,50,50,0,0
273058536,4259850,4259850,2490378,0,0,0.14061444,0.14061439,0.0,0.0,4325386,4325386,2490378,0,0,0.0017195123,0.0017195131,0.0,0.0,1,1,0,0,50,50,0,0,1,1,0,0,50,50,0,0
273258586,4259850,4259850,2490378,0,0,0.12032391,0.120323904,0.0,0.0,4325386,4325386,2490378,0,0,0.0045716534,0.0045716525,0.0,0.0,1,1,0,0,50,50,0,0,1,1,0,0,50,50,0,0
273458574,4259850,4259850,2490378,0,0,0.17569268,0.17569266,0.0,0.0,4325386,4325386,2490378,0,0,0.001404493,0.0014044939,0.0,0.0,1,1,0,0,50,50,0,0,1,1,0,0,50,50,0,0
273658595,4259850,4259850,2490378,0,0,0.11413586,0.114135854,0.0,0.0,4325386,4325386,2490378,0,0,0.004719742,0.0047197426,0.0,0.0,1,1,0,0,50,50,0,0,1,1,0,0,50,50,0,0
273858619,4259850,4259850,2490378,0,0,0.102537826,0.102537826,0.0,0.0,4325386,4325386,2490378,0,0,0.00480507,0.0048050703,0.0,0.0,1,1,0,0,50,50,0,0,1,1,0,0,50,50,0,0
274058643,4259850,4259850,2490378,0,0,0.12547478,0.12547478,0.0,0.0,4325386,4325386,2490378,0,0,0.0037824987,0.003782499,0.0,0.0,1,1,0,0,50,50,0,0,1,1,0,0,50,50,0,0
274258662,4259850,4259850,2490378,0,0,0.15729108,0.1572911,0.0,0.0,4325386,4325386,2490378,0,0,0.0022800004,0.0022799987,0.0,0.0,1,1,0,0,50,50,0,0,1,1,0,0,50,50,0,0
274458684,4259850,4259850,2490378,0,0,0.1402495,0.14024954,0.0,0.0,4325386,4325386,2490378,0,0,0.0045821304,0.004582132,0.0,0.0,1,1,0,0,50,50,0,0,1,1,0,0,50,50,0,0
274658700,4259850,4259850,2490378,0,0,0.12179838,0.1217984,0.0,0.0,4325386,4325386,2490378,0,0,0.0025195866,0.0025195861,0.0,0.0,1,1,0,0,50,50,0,0,1,1,0,0,50,50,0,0
274858718,4259850,4259850,2490378,0,0,0.124089316,0.12408933,0.0,0.0,4325386,4325386,2490378,0,0,0.005010916,0.0050109164,0.0,0.0,1,1,0,0,50,50,0,0,1,1,0,0,50,50,0,0
275058736,4259850,4259850,2490378,0,0,0.12477198,0.12477195,0.0,0.0,4325386,4325386,2490378,0,0,0.00093252596,0.0009325253,0.0,0.0,1,1,0,0,50,50,0,0,1,1,0,0,50,50,0,0
275258770,4259850,4259850,2490378,0,0,0.13630953,0.13630949,0.0,0.0,4325386,4325386,2490378,0,0,0.009774158,0.009774158,0.0,0.0,1,1,0,0,50,50,0,0,1,1,0,0,50,50,0,0
275458782,4259850,4259850,2490378,0,0,0.1023105,0.102310546,0.0,0.0,4325386,4325386,2490378,0,0,0.010421187,0.010421187,0.0,0.0,1,1,0,0,50,50,0,0,1,1,0,0,50,50,0,0
275658800,4259850,4259850,2490378,0,0,0.115411155,0.11541116,0.0,0.0,4325386,4325386,2490378,0,0,0.013033579,0.013033577,0.0,0.0,1,1,0,0,50,50,0,0,1,1,0,0,50,50,0,0
275858850,4259850,4259850,2490378,0,0,0.08943011,0.08943011,0.0,0.0,4325386,4325386,2490378,0,0,0.0097559225,0.009755923,0.0,0.0,1,1,0,0,50,50,0,0,1,1,0,0,50,50,0,0
276058869,4259850,4259850,2490378,0,0,0.2317432,0.23174317,0.0,0.0,4325386,4325386,2490378,0,0,0.0040457468,0.004045747,0.0,0.0,1,1,0,0,50,50,0,0,1,1,0,0,50,50,0,0
276258854,4259850,4259850,2490378,0,0,0.2642349,0.26423484,0.0,0.0,4325386,4325386,2490378,0,0,0.007361233,0.0073612314,0.0,0.0,1,1,0,0,50,50,0,0,1,1,0,0,50,50,0,0
276458879,4259850,4259850,2490378,0,0,0.30363804,0.30363807,0.0,0.0,4325386,4325386,2490378,0,0,0.008749054,0.008749055,0.0,0.0,1,1,0,0,50,50,0,0,1,1,0,0,50,50,0,0
276658892,4259850,4259850,2490378,0,0,0.30102816,0.30102816,0.0,0.0,4325386,4325386,2490378,0,0,0.0078034205,0.00780342,0.0,0.0,1,1,0,0,50,50,0,0,1,1,0,0,50,50,0,0
276858931,4259850,4259850,2490378,0,0,0.24755506,0.24755506,0.0,0.0,4325386,4325386,2490378,0,0,0.008311906,0.008311911,0.0,0.0,1,1,0,0,50,50,0,0,1,1,0,0,50,50,0,0
277058934,4259850,4259850,2490378,0,0,0.23696645,0.23696646,0.0,0.0,4325386,4325386,2490378,0,0,0.0069755744,0.006975574,0.0,0.0,1,1,0,0,50,50,0,0,1,1,0,0,50,50,0,0
277258955,4259850,4259850,2490378,0,0,0.23828177,0.23828179,0.0,0.0,4325386,4325386,2490378,0,0,0.008520144,0.008520149,0.0,0.0,1,1,0,0,50,50,0,0,1,1,0,0,50,50,0,0
277458974,4259850,4259850,2490378,0,0,0.22050074,0.22050068,0.0,0.0,4325386,4325386,2490378,0,0,0.00614159,0.0061415914,0.0,0.0,1,1,0,0,50,50,0,0,1,1,0,0,50,50,0,0
277659006,4259850,4259850,2490378,0,0,0.2312367,0.23123671,0.0,0.0,4325386,4325386,2490378,0,0,0.010220635,0.010220637,0.0,0.0,1,1,0,0,50,50,0,0,1,1,0,0,50,50,0,0
277859013,4259850,4259850,2490378,0,0,0.17017925,0.17017925,0.0,0.0,4325386,4325386,2490378,0,0,0.0067514204,0.0067514204,0.0,0.0,1,1,0,0,50,50,0,0,1,1,0,0,50,50,0,0
278059032,4259850,4259850,2490378,0,0,0.19761163,0.19761163,0.0,0.0,4325386,4325386,2490378,0,0,0.008047323,0.008047321,0.0,0.0,1,1,0,0,50,50,0,0,1,1,0,0,50,50,0,0
278259065,4259850,4259850,2490378,0,0,0.23646128,0.23646131,0.0,0.0,4325386,4325386,2490378,0,0,0.01211986,0.012119862,0.0,0.0,1,1,0,0,50,50,0,0,1,1,0,0,50,50,0,0
278459070,4259850,4259850,2490378,0,0,0.21973282,0.2197328,0.0,0.0,4325386,4325386,2490378,0,0,0.005591358,0.005591361,0.0,0.0,1,1,0,0,50,50,0,0,1,1,0,0,50,50,0,0
278659095,4259850,4259850,2490378,0,0,0.16349144,0.16349141,0.0,0.0,4325386,4325386,2490378,0,0,0.0099088,0.009908804,0.0,0.0,1,1,0,0,50,50,0,0,1,1,0,0,50,50,0,0
278859111,4259850,4259850,2490378,0,0,0.22986107,0.22986102,0.0,0.0,4325386,4325386,2490378,0,0,0.0055173957,0.0055173975,0.0,0.0,1,1,0,0,50,50,0,0,1,1,0,0,50,50,0,0
279059133,4259850,4259850,2490378,0,0,0.20955129,0.20955124,0.0,0.0,4325386,4325386,2490378,0,0,0.004395259,0.0043952637,0.0,0.0,1,1,0,0,50,50,0,0,1,1,0,0,50,50,0,0
279259151,4259850,4259850,2490378,0,0,0.19774152,0.19774152,0.0,0.0,4325386,4325386,2490378,0,0,0.007451531,0.0074515357,0.0,0.0,1,1,0,0,50,50,0,0,1,1,0,0,50,50,0,0
279459170,4259850,4259850,2490378,0,0,0.14694281,0.1469428,0.0,0.0,4325386,4325386,2490378,0,0,0.008237296,0.008237293,0.0,0.0,1,1,0,0,50,50,0,0,1,1,0,0,50,50,0,0
279659231,4259850,4259850,2490378,0,0,0.109336965,0.10933697,0.0,0.0,4325386,4325386,2490378,0,0,0.012281795,0.012281796,0.0,0.0,1,1,0,0,50,50,0,0,1,1,0,0,50,50,0,0
279859234,4259850,4259850,2490378,0,0,0.05635774,0.05635768,0.0,0.0,4325386,4325386,2490378,0,0,0.016300002,0.016300004,0.0,0.0,1,1,0,0,50,50,0,0,1,1,0,0,50,50,0,0
280059230,4259850,4259850,2490378,0,0,0.048341114,0.048341148,0.0,0.0,4325386,4325386,2490378,0,0,0.019252684,0.01925268,0.0,0.0,1,1,0,0,50,50,0,0,1,1,0,0,50,50,0,0
280259249,4259850,4259850,2490378,0,0,0.085641846,0.085641876,0.0,0.0,4325386,4325386,2490378,0,0,0.018252788,0.018252784,0.0,0.0,1,1,0,0,50,50,0,0,1,1,0,0,50,50,0,0
280459272,4259850,4259850,2490378,0,0,0.10092028,0.10092028,0.0,0.0,4325386,4325386,2490378,0,0,0.018613767,0.018613763,0.0,0.0,1,1,0,0,50,50,0,0,1,1,0,0,50,50,0,0
280659288,4259850,4259850,2490378,0,0,0.114437826,0.11443781,0.0,0.0,4325386,4325386,2490378,0,0,0.012161555,0.012161552,0.0,0.0,1,1,0,0,50,50,0,0,1,1,0,0,50,50,0,0
280859308,4259850,4259850,2490378,0,0,0.15393186,0.15393184,0.0,0.0,4325386,4325386,2490378,0,0,0.00678717,0.006787162,0.0,0.0,1,1,0,0,50,50,0,0,1,1,0,0,50,50,0,0
281059327,4259850,4259850,2490378,0,0,0.21404336,0.21404336,0.0,0.0,4325386,4325386,2490378,0,0,0.0026190232,0.00261902,0.0,0.0,1,1,0,0,50,50,0,0,1,1,0,0,50,50,0,0
281259346,4259850,4259850,2490378,0,0,0.18392281,0.18392281,0.0,0.0,4325386,4325386,2490378,0,0,0.0044993605,0.004499361,0.0,0.0,1,1,0,0,50,50,0,0,1,1,0,0,50,50,0,0
281459394,4259850,4259850,2490378,0,0,0.18511301,0.18511304,0.0,0.0,4325386,4325386,2490378,0,0,0.007826362,0.007826363,0.0,0.0,1,1,0,0,50,50,0,0,1,1,0,0,50,50,0,0
281659425,4259850,4259850,2490378,0,0,0.17060767,0.1706077,0.0,0.0,4325386,4325386,2490378,0,0,0.004681291,0.0046812906,0.0,0.0,1,1,0,0,50,50,0,0,1,1,0,0,50,50,0,0
281859404,4259850,4259850,2490378,0,0,0.120320514,0.12032053,0.0,0.0,4325386,4325386,2490378,0,0,0.0047946265,0.004794627,0.0,0.0,1,1,0,0,50,50,0,0,1,1,0,0,50,50,0,0
282059425,4259850,4259850,2490378,0,0,0.12907113,0.12907115,0.0,0.0,4325386,4325386,2490378,0,0,0.0040732585,0.004073256,0.0,0.0,1,1,0,0,50,50,0,0,1,1,0,0,50,50,0,0
282259445,4259850,4259850,2490378,0,0,0.1347019,0.13470191,0.0,0.0,4325386,4325386,2490378,0,0,0.009510333,0.009510332,0.0,0.0,1,1,0,0,50,50,0,0,1,1,0,0,50,50,0,0
282459462,4259850,4259850,2490378,0,0,0.16030642,0.16030642,0.0,0.0,4325386,4325386,2490378,0,0,0.0026137333,0.0026137335,0.0,0.0,1,1,0,0,50,50,0,0,1,1,0,0,50,50,0,0
282659482,4259850,4259850,2490378,0,0,0.17979398,0.17979398,0.0,0.0,4325386,4325386,2490378,0,0,0.0031594906,0.0031594886,0.0,0.0,1,1,0,0,50,50,0,0,1,1,0,0,50,50,0,0
282859505,4259850,4259850,2490378,0,0,0.15076102,0.15076101,0.0,0.0,4325386,4325386,2490378,0,0,0.003480848,0.003480847,0.0,0.0,1,1,0,0,50,50,0,0,1,1,0,0,50,50,0,0
283059524,4259850,4259850,2490378,0,0,0.12077734,0.12077736,0.0,0.0,4325386,4325386,2490378,0,0,0.0037251778,0.0037251776,0.0,0.0,1,1,0,0,50,50,0,0,1,1,0,0,50,50,0,0
283259583,4259850,4259850,2490378,0,0,0.111792095,0.111792095,0.0,0.0,4325386,4325386,2490378,0,0,0.0037759917,0.0037759899,0.0,0.0,1,1,0,0,50,50,0,0,1,1,0,0,50,50,0,0
283459560,4259850,4259850,2490378,0,0,0.15654182,0.15654184,0.0,0.0,4325386,4325386,2490378,0,0,0.0033522672,0.0033522677,0.0,0.0,1,1,0,0,50,50,0,0,1,1,0,0,50,50,0,0
283659581,4259850,4259850,2490378,0,0,0.10648195,0.10648192,0.0,0.0,4325386,4325386,2490378,0,0,0.005646501,0.0056465003,0.0,0.0,1,1,0,0,50,50,0,0,1,1,0,0,50,50,0,0
283859601,4259850,4259850,2490378,0,0,0.13104996,0.13104996,0.0,0.0,4325386,4325386,2490378,0,0,0.0028820254,0.002882023,0.0,0.0,1,1,0,0,50,50,0,0,1,1,0,0,50,50,0,0
284059623,4259850,4259850,2490378,0,0,0.15148833,0.15148832,0.0,0.0,4325386,4325386,2490378,0,0,0.0029486325,0.0029486327,0.0,0.0,1,1,0,0,50,50,0,0,1,1,0,0,50,50,0,0
284259639,4259850,4259850,2490378,0,0,0.09132237,0.091322385,0.0,0.0,4325386,4325386,2490378,0,0,0.0032854853,0.0032854823,0.0,0.0,1,1,0,0,50,50,0,0,1,1,0,0,50,50,0,0
284459659,4259850,4259850,2490378,0,0,0.12777382,0.12777382,0.0,0.0,4325386,4325386,2490378,0,0,0.0016363518,0.0016363512,0.0,0.0,1,1,0,0,50,50,0,0,1,1,0,0,50,50,0,0
284659680,4259850,4259850,2490378,0,0,0.11901691,0.11901689,0.0,0.0,4325386,4325386,2490378,0,0,0.0032254276,0.0032254288,0.0,0.0,1,1,0,0,50,50,0,0,1,1,0,0,50,50,0,0
284859736,4259850,4259850,2490378,0,0,0.12427768,0.12427766,0.0,0.0,4325386,4325386,2490378,0,0,0.0033966766,0.0033966762,0.0,0.0,1,1,0,0,50,50,0,0,1,1,0,0,50,50,0,0
285059715,4259850,4259850,2490378,0,0,0.09210179,0.09210179,0.0,0.0,4325386,4325386,2490378,0,0,0.0012923713,0.0012923708,0.0,0.0,1,1,0,0,50,50,0,0,1,1,0,0,50,50,0,0
285259735,4259850,4259850,2490378,0,0,0.101948366,0.10194834,0.0,0.0,4325386,4325386,2490378,0,0,0.0050847773,0.0050847763,0.0,0.0,1,1,0,0,50,50,0,0,1,1,0,0,50,50,0,0
285459754,4259850,4259850,2490378,0,0,0.1299703,0.12997028,0.0,0.0,4325386,4325386,2490378,0,0,0.004313908,0.0043139076,0.0,0.0,1,1,0,0,50,50,0,0,1,1,0,0,50,50,0,0
285659774,4259850,4259850,2490378,0,0,0.100479074,0.10047906,0.0,0.0,4325386,4325386,2490378,0,0,0.0017547716,0.0017547715,0.0,0.0,1,1,0,0,50,50,0,0,1,1,0,0,50,50,0,0
285859791,4259850,4259850,2490378,0,0,0.06493617,0.06493618,0.0,0.0,4325386,4325386,2490378,0,0,0.0054146047,0.005414605,0.0,0.0,1,1,0,0,50,50,0,0,1,1,0,0,50,50,0,0
286059812,4259850,4259850,2490378,0,0,0.12883252,0.1288325,0.0,0.0,4325386,4325386,2490378,0,0,0.0037305614,0.0037305604,0.0,0.0,1,1,0,0,50,50,0,0,1,1,0,0,50,50,0,0
286259834,4259850,4259850,2490378,0,0,0.18092753,0.18092753,0.0,0.0,4325386,4325386,2490378,0,0,0.0026589336,0.0026589336,0.0,0.0,1,1,0,0,50,50,0,0,1,1,0,0,50,50,0,0
286459855,4259850,4259850,2490378,0,0,0.115525484,0.11552547,0.0,0.0,4325386,4325386,2490378,0,0,0.0017319261,0.0017319265,0.0,0.0,1,1,0,0,50,50,0,0,1,1,0,0,50,50,0,0
286659900,4259850,4259850,2490378,0,0,0.14833388,0.14833389,0.0,0.0,4325386,4325386,2490378,0,0,0.0007073367,0.00070733624,0.0,0.0,1,1,0,0,50,50,0,0,1,1,0,0,50,50,0,0
286859884,4259850,4259850,2490378,0,0,0.12563902,0.12563905,0.0,0.0,4325386,4325386,2490378,0,0,0.0040769577,0.004076956,0.0,0.0,1,1,0,0,50,50,0,0,1,1,0,0,50,50,0,0
287059907,4259850,4259850,2490378,0,0,0.119884856,0.11988483,0.0,0.0,4325386,4325386,2490378,0,0,0.0028809865,0.0028809872,0.0,0.0,1,1,0,0,50,50,0,0,1,1,0,0,50,50,0,0
287259928,4259850,4259850,2490378,0,0,0.12455616,0.12455613,0.0,0.0,4325386,4325386,2490378,0,0,0.0051807705,0.005180768,0.0,0.0,1,1,0,0,50,50,0,0,1,1,0,0,50,50,0,0
287459948,4259850,4259850,2490378,0,0,0.1389574,0.13895738,0.0,0.0,4325386,4325386,2490378,0,0,0.0028524199,0.0028524215,0.0,0.0,1,1,0,0,50,50,0,0,1,1,0,0,50,50,0,0
287659965,4259850,4259850,2490378,0,0,0.13021173,0.13021174,0.0,0.0,4325386,4325386,2490378,0,0,0.003550087,0.0035500866,0.0,0.0,1,1,0,0,50,50,0,0,1,1,0,0,50,50,0,0
287859981,4259850,4259850,2490378,0,0,0.10411279,0.104112804,0.0,0.0,4325386,4325386,2490378,0,0,0.00093141786,0.0009314184,0.0,0.0,1,1,0,0,50,50,0,0,1,1,0,0,50,50,0,0
288060002,4259850,4259850,2490378,0,0,0.11677903,0.11677907,0.0,0.0,4325386,4325386,2490378,0,0,0.0034157163,0.0034157159,0.0,0.0,1,1,0,0,50,50,0,0,1,1,0,0,50,50,0,0
288260022,4259850,4259850,2490378,0,0,0.12877613,0.12877615,0.0,0.0,4325386,4325386,2490378,0,0,0.0011469221,0.0011469234,0.0,0.0,1,1,0,0,50,50,0,0,1,1,0,0,50,50,0,0
