timestamp,timestamp_sample,gps_hvel[0],gps_hvel[1],gps_vvel,gps_hpos[0],gps_hpos[1],gps_vpos,ev_hvel[0],ev_hvel[1],ev_vvel,ev_hpos[0],ev_hpos[1],ev_vpos,rng_vpos,baro_vpos,aux_hvel[0],aux_hvel[1],aux_vvel,flow[0],flow[1],heading,mag_field[0],mag_field[1],mag_field[2],drag[0],drag[1],airspeed,beta,hagl,hagl_rate
217793770,217693277,0.10065172,0.10066244,0.21407983,1.2341346,1.2341543,0.0,0.0,0.0,0.0,0.0,0.0,0.0,0.0,12.406287,0.0,0.0,nan,0.0,0.0,0.09034428,0.0,0.0,0.0,0.0,0.0,0.0,0.0,0.0,0.0
218293744,218193318,0.100649595,0.100654714,0.21407953,1.2164503,1.2164661,0.0,0.0,0.0,0.0,0.0,0.0,0.0,0.0,12.408082,0.0,0.0,nan,0.0,0.0,0.09034462,0.0,0.0,0.0,0.0,0.0,0.0,0.0,0.0,0.0
218793808,218693359,0.10062586,0.10062851,0.21409711,1.2032789,1.2032921,0.0,0.0,0.0,0.0,0.0,0.0,0.0,0.0,12.406546,0.0,0.0,nan,0.0,0.0,0.090345,0.0,0.0,0.0,0.0,0.0,0.0,0.0,0.0,0.0
219293805,219193401,0.10061701,0.10061738,0.21409887,1.1857907,1.1858004,0.0,0.0,0.0,0.0,0.0,0.0,0.0,0.0,12.404435,0.0,0.0,nan,0.0,0.0,0.09034533,0.0,0.0,0.0,0.0,0.0,0.0,0.0,0.0,0.0
219793853,219693441,0.10061289,0.100612685,0.21412098,1.1749058,1.1749134,0.0,0.0,0.0,0.0,0.0,0.0,0.0,0.0,12.405817,0.0,0.0,nan,0.0,0.0,0.09034582,0.0,0.0,0.0,0.0,0.0,0.0,0.0,0.0,0.0
220293993,220193483,0.10057876,0.10057856,0.21411927,1.1576078,1.1576128,0.0,0.0,0.0,0.0,0.0,0.0,0.0,0.0,12.403794,0.0,0.0,nan,0.0,0.0,0.09034612,0.0,0.0,0.0,0.0,0.0,0.0,0.0,0.0,0.0
220793932,220693524,0.10056594,0.10056618,0.2140784,1.144754,1.1447575,0.0,0.0,0.0,0.0,0.0,0.0,0.0,0.0,12.405216,0.0,0.0,nan,0.0,0.0,0.090346456,0.0,0.0,0.0,0.0,0.0,0.0,0.0,0.0,0.0
221294102,221193566,0.10054709,0.100547135,0.21408555,1.1297634,1.129765,0.0,0.0,0.0,0.0,0.0,0.0,0.0,0.0,12.403488,0.0,0.0,nan,0.0,0.0,0.09034673,0.0,0.0,0.0,0.0,0.0,0.0,0.0,0.0,0.0
221794005,221693608,0.10048419,0.1004849,0.2140658,1.1188768,1.1188776,0.0,0.0,0.0,0.0,0.0,0.0,0.0,0.0,12.405528,0.0,0.0,nan,0.0,0.0,0.090347,0.0,0.0,0.0,0.0,0.0,0.0,0.0,0.0,0.0
222294196,222193650,0.10048286,0.10048439,0.21410353,1.1042742,1.1042739,0.0,0.0,0.0,0.0,0.0,0.0,0.0,0.0,12.403605,0.0,0.0,nan,0.0,0.0,0.09034729,0.0,0.0,0.0,0.0,0.0,0.0,0.0,0.0,0.0
222794103,222693692,0.100525,0.10052736,0.21410397,1.0940158,1.094015,0.0,0.0,0.0,0.0,0.0,0.0,0.0,0.0,12.4046,0.0,0.0,nan,0.0,0.0,0.09034754,0.0,0.0,0.0,0.0,0.0,0.0,0.0,0.0,0.0
223294187,223193734,0.100485325,0.10048185,0.21406211,1.0811373,1.081136,0.0,0.0,0.0,0.0,0.0,0.0,0.0,0.0,12.406177,0.0,0.0,nan,0.0,0.0,0.09034792,0.0,0.0,0.0,0.0,0.0,0.0,0.0,0.0,0.0
223794210,223693776,0.10060514,0.10060153,0.2140834,1.0687668,1.0687652,0.0,0.0,0.0,0.0,0.0,0.0,0.0,0.0,12.405511,0.0,0.0,nan,0.0,0.0,0.09034805,0.0,0.0,0.0,0.0,0.0,0.0,0.0,0.0,0.0
224294255,224193819,0.10053218,0.10054779,0.21404436,1.0540589,1.0540571,0.0,0.0,0.0,0.0,0.0,0.0,0.0,0.0,12.40366,0.0,0.0,nan,0.0,0.0,0.090348296,0.0,0.0,0.0,0.0,0.0,0.0,0.0,0.0,0.0
224794298,224693861,0.100597,0.10061321,0.21404986,1.0480716,1.0480697,0.0,0.0,0.0,0.0,0.0,0.0,0.0,0.0,12.404722,0.0,0.0,nan,0.0,0.0,0.09034838,0.0,0.0,0.0,0.0,0.0,0.0,0.0,0.0,0.0
225294397,225193904,0.1005884,0.10059111,0.214052,1.0337863,1.033785,0.0,0.0,0.0,0.0,0.0,0.0,0.0,0.0,12.405833,0.0,0.0,nan,0.0,0.0,0.09034831,0.0,0.0,0.0,0.0,0.0,0.0,0.0,0.0,0.0
225794374,225693947,0.10056887,0.10057619,0.21407747,1.025641,1.0256399,0.0,0.0,0.0,0.0,0.0,0.0,0.0,0.0,12.405253,0.0,0.0,nan,0.0,0.0,0.090348564,0.0,0.0,0.0,0.0,0.0,0.0,0.0,0.0,0.0
226294502,226193989,0.10052759,0.10053242,0.21408468,1.0154512,1.0154508,0.0,0.0,0.0,0.0,0.0,0.0,0.0,0.0,12.402924,0.0,0.0,nan,0.0,0.0,0.10034732,0.0,0.0,0.0,0.0,0.0,0.0,0.0,0.0,0.0
226794486,226694032,0.09902659,0.099028476,0.21404743,1.0074351,1.007435,0.0,0.0,0.0,0.0,0.0,0.0,0.0,0.0,12.404554,0.0,0.0,nan,0.0,0.0,0.0957308,0.0,0.0,0.0,0.0,0.0,0.0,0.0,0.0,0.0
227294524,227194077,0.09890352,0.098838285,0.21410294,0.9954849,0.9954846,0.0,0.0,0.0,0.0,0.0,0.0,0.0,0.0,12.40572,0.0,0.0,nan,0.0,0.0,0.094138145,0.0,0.0,0.0,0.0,0.0,0.0,0.0,0.0,0.0
227794563,227694118,0.09943441,0.099264905,0.2140833,0.98895866,0.98895675,0.0,0.0,0.0,0.0,0.0,0.0,0.0,0.0,12.405159,0.0,0.0,nan,0.0,0.0,0.09311754,0.0,0.0,0.0,0.0,0.0,0.0,0.0,0.0,0.0
228294663,228194162,0.10057733,0.10031386,0.21408907,0.9786605,0.97864795,0.0,0.0,0.0,0.0,0.0,0.0,0.0,0.0,12.403871,0.0,0.0,nan,0.0,0.0,0.09250278,0.0,0.0,0.0,0.0,0.0,0.0,0.0,0.0,0.0
228794700,228694205,0.10120481,0.10089093,0.21410003,0.9705756,0.9705524,0.0,0.0,0.0,0.0,0.0,0.0,0.0,0.0,12.40598,0.0,0.0,nan,0.0,0.0,0.09214376,0.0,0.0,0.0,0.0,0.0,0.0,0.0,0.0,0.0
229294671,229194249,0.10183572,0.10155459,0.21414715,0.9587313,0.9586857,0.0,0.0,0.0,0.0,0.0,0.0,0.0,0.0,12.405819,0.0,0.0,nan,0.0,0.0,0.09183793,0.0,0.0,0.0,0.0,0.0,0.0,0.0,0.0,0.0
229794718,229694292,0.10199468,0.101748616,0.2141536,0.95097506,0.95091814,0.0,0.0,0.0,0.0,0.0,0.0,0.0,0.0,12.40709,0.0,0.0,nan,0.0,0.0,0.09160917,0.0,0.0,0.0,0.0,0.0,0.0,0.0,0.0,0.0
230294777,230194336,0.10192858,0.10176535,0.21413143,0.93944085,0.93937325,0.0,0.0,0.0,0.0,0.0,0.0,0.0,0.0,12.405359,0.0,0.0,nan,0.0,0.0,0.09145448,0.0,0.0,0.0,0.0,0.0,0.0,0.0,0.0,0.0
230794797,230694380,0.101645865,0.10155937,0.2140348,0.93340456,0.9333363,0.0,0.0,0.0,0.0,0.0,0.0,0.0,0.0,12.406108,0.0,0.0,nan,0.0,0.0,0.09130786,0.0,0.0,0.0,0.0,0.0,0.0,0.0,0.0,0.0
231294938,231194424,0.10140989,0.101404995,0.2140707,0.9279255,0.92785716,0.0,0.0,0.0,0.0,0.0,0.0,0.0,0.0,12.408001,0.0,0.0,nan,0.0,0.0,0.091187395,0.0,0.0,0.0,0.0,0.0,0.0,0.0,0.0,0.0
231794940,231694468,0.10117831,0.10120043,0.2140814,0.9222197,0.92215616,0.0,0.0,0.0,0.0,0.0,0.0,0.0,0.0,12.406283,0.0,0.0,nan,0.0,0.0,0.09108765,0.0,0.0,0.0,0.0,0.0,0.0,0.0,0.0,0.0
232294929,232194512,0.10092965,0.10093433,0.21411306,0.91304654,0.91299236,0.0,0.0,0.0,0.0,0.0,0.0,0.0,0.0,12.408664,0.0,0.0,nan,0.0,0.0,0.0910153,0.0,0.0,0.0,0.0,0.0,0.0,0.0,0.0,0.0
232794995,232694557,0.10072682,0.10071786,0.21412289,0.90732837,0.9072819,0.0,0.0,0.0,0.0,0.0,0.0,0.0,0.0,12.406368,0.0,0.0,nan,0.0,0.0,0.09094292,0.0,0.0,0.0,0.0,0.0,0.0,0.0,0.0,0.0
233295088,233194601,0.100461945,0.10044229,0.21407326,0.8994539,0.8994181,0.0,0.0,0.0,0.0,0.0,0.0,0.0,0.0,12.404885,0.0,0.0,nan,0.0,0.0,0.090880275,0.0,0.0,0.0,0.0,0.0,0.0,0.0,0.0,0.0
233795050,233694646,0.10037586,0.10034577,0.21409357,0.8974755,0.8974458,0.0,0.0,0.0,0.0,0.0,0.0,0.0,0.0,12.406243,0.0,0.0,nan,0.0,0.0,0.09083311,0.0,0.0,0.0,0.0,0.0,0.0,0.0,0.0,0.0
234295102,234194690,0.100302964,0.10028357,0.21409613,0.8936167,0.89359426,0.0,0.0,0.0,0.0,0.0,0.0,0.0,0.0,12.4047,0.0,0.0,nan,0.0,0.0,0.09078454,0.0,0.0,0.0,0.0,0.0,0.0,0.0,0.0,0.0
234795132,234694735,0.10017535,0.10017371,0.21406703,0.88952625,0.8895075,0.0,0.0,0.0,0.0,0.0,0.0,0.0,0.0,12.406069,0.0,0.0,nan,0.0,0.0,0.09074137,0.0,0.0,0.0,0.0,0.0,0.0,0.0,0.0,0.0
235295272,235194780,0.100359194,0.10038215,0.21405771,0.88233757,0.8823237,0.0,0.0,0.0,0.0,0.0,0.0,0.0,0.0,12.406994,0.0,0.0,nan,0.0,0.0,0.090708904,0.0,0.0,0.0,0.0,0.0,0.0,0.0,0.0,0.0
235795265,235694825,0.10085512,0.100883506,0.21407941,0.87855035,0.8785398,0.0,0.0,0.0,0.0,0.0,0.0,0.0,0.0,12.405468,0.0,0.0,nan,0.0,0.0,0.090675145,0.0,0.0,0.0,0.0,0.0,0.0,0.0,0.0,0.0
236295278,236194870,0.1010848,0.101101175,0.21407871,0.87294936,0.87294495,0.0,0.0,0.0,0.0,0.0,0.0,0.0,0.0,12.407486,0.0,0.0,nan,0.0,0.0,0.09064486,0.0,0.0,0.0,0.0,0.0,0.0,0.0,0.0,0.0
236795391,236694915,0.10078157,0.100785226,0.21409504,0.8692111,0.8692101,0.0,0.0,0.0,0.0,0.0,0.0,0.0,0.0,12.406113,0.0,0.0,nan,0.0,0.0,0.090621464,0.0,0.0,0.0,0.0,0.0,0.0,0.0,0.0,0.0
237295379,237194960,0.100480676,0.100481406,0.21401483,0.863125,0.8631269,0.0,0.0,0.0,0.0,0.0,0.0,0.0,0.0,12.404158,0.0,0.0,nan,0.0,0.0,0.09059663,0.0,0.0,0.0,0.0,0.0,0.0,0.0,0.0,0.0
237795446,237695006,0.100562625,0.10056468,0.21407016,0.8599877,0.85999095,0.0,0.0,0.0,0.0,0.0,0.0,0.0,0.0,12.4051485,0.0,0.0,nan,0.0,0.0,0.09057413,0.0,0.0,0.0,0.0,0.0,0.0,0.0,0.0,0.0
238295560,238195052,0.10039972,0.100409195,0.21412838,0.8543993,0.85440314,0.0,0.0,0.0,0.0,0.0,0.0,0.0,0.0,12.403713,0.0,0.0,nan,0.0,0.0,0.09055361,0.0,0.0,0.0,0.0,0.0,0.0,0.0,0.0,0.0
238795528,238695097,0.100388095,0.10039557,0.21408716,0.8524712,0.85247505,0.0,0.0,0.0,0.0,0.0,0.0,0.0,0.0,12.405202,0.0,0.0,nan,0.0,0.0,0.090537675,0.0,0.0,0.0,0.0,0.0,0.0,0.0,0.0,0.0
239295570,239195143,0.10036506,0.1003711,0.21408734,0.8487152,0.84871894,0.0,0.0,0.0,0.0,0.0,0.0,0.0,0.0,12.40398,0.0,0.0,nan,0.0,0.0,0.09052057,0.0,0.0,0.0,0.0,0.0,0.0,0.0,0.0,0.0
239795686,239695189,0.10036578,0.100367695,0.21410821,0.8468196,0.84682316,0.0,0.0,0.0,0.0,0.0,0.0,0.0,0.0,12.405532,0.0,0.0,nan,0.0,0.0,0.09050501,0.0,0.0,0.0,0.0,0.0,0.0,0.0,0.0,0.0
240295637,240195235,0.10038327,0.10038038,0.21410926,0.84488904,0.84489214,0.0,0.0,0.0,0.0,0.0,0.0,0.0,0.0,12.403632,0.0,0.0,nan,0.0,0.0,0.09049264,0.0,0.0,0.0,0.0,0.0,0.0,0.0,0.0,0.0
240795689,240695281,0.100496836,0.10049111,0.21414965,0.8417256,0.84172845,0.0,0.0,0.0,0.0,0.0,0.0,0.0,0.0,12.404636,0.0,0.0,nan,0.0,0.0,0.0904795,0.0,0.0,0.0,0.0,0.0,0.0,0.0,0.0,0.0
241285839,241185326,0.100344114,0.10033746,0.214064,0.8374904,0.8374924,0.0,0.0,0.0,0.0,0.0,0.0,0.0,0.0,12.406267,0.0,0.0,nan,0.0,0.0,0.09046736,0.0,0.0,0.0,0.0,0.0,0.0,0.0,0.0,0.0
241795829,241695373,0.10034914,0.10034614,0.21408477,0.83561516,0.8356165,0.0,0.0,0.0,0.0,0.0,0.0,0.0,0.0,12.405621,0.0,0.0,nan,0.0,0.0,0.09045776,0.0,0.0,0.0,0.0,0.0,0.0,0.0,0.0,0.0
242295889,242195419,0.10041178,0.10040916,0.2141269,0.83046484,0.8304653,0.0,0.0,0.0,0.0,0.0,0.0,0.0,0.0,12.404197,0.0,0.0,nan,0.0,0.0,0.0904474,0.0,0.0,0.0,0.0,0.0,0.0,0.0,0.0,0.0
242795929,242695466,0.10040257,0.10039675,0.21408397,0.8286023,0.82860255,0.0,0.0,0.0,0.0,0.0,0.0,0.0,0.0,12.405208,0.0,0.0,nan,0.0,0.0,0.09043793,0.0,0.0,0.0,0.0,0.0,0.0,0.0,0.0,0.0
243295932,243195512,0.100336835,0.10032888,0.21404639,0.82468396,0.82468396,0.0,0.0,0.0,0.0,0.0,0.0,0.0,0.0,12.406321,0.0,0.0,nan,0.0,0.0,0.09043042,0.0,0.0,0.0,0.0,0.0,0.0,0.0,0.0,0.0
243796098,243695558,0.10031685,0.10031189,0.21407266,0.8228551,0.82285494,0.0,0.0,0.0,0.0,0.0,0.0,0.0,0.0,12.40517,0.0,0.0,nan,0.0,0.0,0.09042218,0.0,0.0,0.0,0.0,0.0,0.0,0.0,0.0,0.0
244296008,244195605,0.1002969,0.10029875,0.21408086,0.81924,0.8192395,0.0,0.0,0.0,0.0,0.0,0.0,0.0,0.0,12.403356,0.0,0.0,nan,0.0,0.0,0.09041486,0.0,0.0,0.0,0.0,0.0,0.0,0.0,0.0,0.0
244786108,244685651,0.100270495,0.10027292,0.21404299,0.8156476,0.81564707,0.0,0.0,0.0,0.0,0.0,0.0,0.0,0.0,12.404454,0.0,0.0,nan,0.0,0.0,0.09040902,0.0,0.0,0.0,0.0,0.0,0.0,0.0,0.0,0.0
245286102,245185697,0.10029652,0.100289494,0.21405742,0.8138368,0.8138366,0.0,0.0,0.0,0.0,0.0,0.0,0.0,0.0,12.405614,0.0,0.0,nan,0.0,0.0,0.090402685,0.0,0.0,0.0,0.0,0.0,0.0,0.0,0.0,0.0
245796366,245695745,0.10020941,0.100198835,0.21404369,0.81353366,0.81353366,0.0,0.0,0.0,0.0,0.0,0.0,0.0,0.0,12.40509,0.0,0.0,nan,0.0,0.0,0.09039678,0.0,0.0,0.0,0.0,0.0,0.0,0.0,0.0,0.0
246296233,246195792,0.10022186,0.1002158,0.21405587,0.8117497,0.8117496,0.0,0.0,0.0,0.0,0.0,0.0,0.0,0.0,12.402806,0.0,0.0,nan,0.0,0.0,0.09039126,0.0,0.0,0.0,0.0,0.0,0.0,0.0,0.0,0.0
246796298,246695839,0.10017429,0.10018112,0.2140758,0.81167024,0.8116697,0.0,0.0,0.0,0.0,0.0,0.0,0.0,0.0,12.404471,0.0,0.0,nan,0.0,0.0,0.09038705,0.0,0.0,0.0,0.0,0.0,0.0,0.0,0.0,0.0
247296283,247195885,0.10015248,0.100174725,0.21407273,0.810171,0.8101703,0.0,0.0,0.0,0.0,0.0,0.0,0.0,0.0,12.406215,0.0,0.0,nan,0.0,0.0,0.09038263,0.0,0.0,0.0,0.0,0.0,0.0,0.0,0.0,0.0
247796404,247695932,0.099941544,0.09995955,0.21401295,0.8078871,0.80788666,0.0,0.0,0.0,0.0,0.0,0.0,0.0,0.0,12.405141,0.0,0.0,nan,0.0,0.0,0.09037839,0.0,0.0,0.0,0.0,0.0,0.0,0.0,0.0,0.0
248286404,248185978,0.099811085,0.09980061,0.21410492,0.8083417,0.8083427,0.0,0.0,0.0,0.0,0.0,0.0,0.0,0.0,12.403343,0.0,0.0,nan,0.0,0.0,0.0903751,0.0,0.0,0.0,0.0,0.0,0.0,0.0,0.0,0.0
248786497,248686025,0.09974461,0.099714644,0.21412498,0.8065304,0.80653197,0.0,0.0,0.0,0.0,0.0,0.0,0.0,0.0,12.404462,0.0,0.0,nan,0.0,0.0,0.09037146,0.0,0.0,0.0,0.0,0.0,0.0,0.0,0.0,0.0
249296541,249196073,0.09971717,0.09969264,0.21412347,0.80293614,0.80293703,0.0,0.0,0.0,0.0,0.0,0.0,0.0,0.0,12.403687,0.0,0.0,nan,0.0,0.0,0.09036807,0.0,0.0,0.0,0.0,0.0,0.0,0.0,0.0,0.0
249796623,249696121,0.09968937,0.099690706,0.21409734,0.80086064,0.80086035,0.0,0.0,0.0,0.0,0.0,0.0,0.0,0.0,12.405259,0.0,0.0,nan,0.0,0.0,0.090365045,0.0,0.0,0.0,0.0,0.0,0.0,0.0,0.0,0.0
250296584,250196168,0.09974078,0.09977139,0.21409252,0.8025033,0.80250144,0.0,0.0,0.0,0.0,0.0,0.0,0.0,0.0,12.403347,0.0,0.0,nan,0.0,0.0,0.09036271,0.0,0.0,0.0,0.0,0.0,0.0,0.0,0.0,0.0
250796701,250696215,0.099865764,0.09989456,0.21409437,0.80446774,0.8044661,0.0,0.0,0.0,0.0,0.0,0.0,0.0,0.0,12.405599,0.0,0.0,nan,0.0,0.0,0.09036056,0.0,0.0,0.0,0.0,0.0,0.0,0.0,0.0,0.0
251296815,251196262,0.10004989,0.10004698,0.21409197,0.8044365,0.80443704,0.0,0.0,0.0,0.0,0.0,0.0,0.0,0.0,12.404222,0.0,0.0,nan,0.0,0.0,0.09035845,0.0,0.0,0.0,0.0,0.0,0.0,0.0,0.0,0.0
251786754,251686308,0.10001498,0.10008706,0.21409793,0.80443364,0.80443484,0.0,0.0,0.0,0.0,0.0,0.0,0.0,0.0,12.405756,0.0,0.0,nan,0.0,0.0,0.09035768,0.0,0.0,0.0,0.0,0.0,0.0,0.0,0.0,0.0
252286783,252186356,0.10018559,0.10023428,0.21405354,0.8076841,0.8076886,0.0,0.0,0.0,0.0,0.0,0.0,0.0,0.0,12.403823,0.0,0.0,nan,0.0,0.0,0.09035281,0.0,0.0,0.0,0.0,0.0,0.0,0.0,0.0,0.0
252786861,252686403,0.10024242,0.10026249,0.21407655,0.8099399,0.8099477,0.0,0.0,0.0,0.0,0.0,0.0,0.0,0.0,12.404796,0.0,0.0,nan,0.0,0.0,0.090350986,0.0,0.0,0.0,0.0,0.0,0.0,0.0,0.0,0.0
253296885,253196451,0.10047552,0.10027781,0.21406963,0.8152615,0.8152713,0.0,0.0,0.0,0.0,0.0,0.0,0.0,0.0,12.403606,0.0,0.0,nan,0.0,0.0,0.09034916,0.0,0.0,0.0,0.0,0.0,0.0,0.0,0.0,0.0
253796975,253696499,0.10099831,0.10059436,0.21405503,0.8188,0.81881166,0.0,0.0,0.0,0.0,0.0,0.0,0.0,0.0,12.405916,0.0,0.0,nan,0.0,0.0,0.090347625,0.003136058,0.0032139241,0.0032095667,0.0,0.0,0.0,0.0,0.0,0.0
254296972,254196546,0.10151249,0.101964064,0.21406792,0.8239392,0.82393515,0.0,0.0,0.0,0.0,0.0,0.0,0.0,0.0,12.4044075,0.0,0.0,nan,0.0,0.0,0.090347625,0.0027711594,0.0027473583,0.002756543,0.0,0.0,0.0,0.0,0.0,0.0
254797010,254696594,0.10044755,0.10217099,0.21397428,0.8257838,0.8257591,0.0,0.0,0.0,0.0,0.0,0.0,0.0,0.0,12.407258,0.0,0.0,nan,0.0,0.0,0.090347625,0.0026700567,0.00265935,0.0026623865,0.0,0.0,0.0,0.0,0.0,0.0
255287076,255186641,0.100203186,0.10179895,0.21399285,0.820632,0.8206448,0.0,0.0,0.0,0.0,0.0,0.0,0.0,0.0,12.405512,0.0,0.0,nan,0.0,0.0,0.090347625,0.0026664361,0.0026088262,0.0026218218,0.0,0.0,0.0,0.0,0.0,0.0
255787077,255686688,0.10049894,0.100973606,0.21399152,0.8171713,0.81724185,0.0,0.0,0.0,0.0,0.0,0.0,0.0,0.0,12.406708,0.0,0.0,nan,0.0,0.0,0.090347625,0.0026566554,0.0026078306,0.0026450616,0.0,0.0,0.0,0.0,0.0,0.0
256287180,256186736,0.10097769,0.10025162,0.21395414,0.8153924,0.8155214,0.0,0.0,0.0,0.0,0.0,0.0,0.0,0.0,12.404528,0.0,0.0,nan,0.0,0.0,0.090347625,0.0026319227,0.0026185047,0.0026610752,0.0,0.0,0.0,0.0,0.0,0.0
256787187,256686784,0.10095353,0.100924194,0.21387014,0.8168258,0.81693625,0.0,0.0,0.0,0.0,0.0,0.0,0.0,0.0,12.405785,0.0,0.0,nan,0.0,0.0,0.090347625,0.0026009837,0.0025856711,0.002605381,0.0,0.0,0.0,0.0,0.0,0.0
257297282,257196833,0.10109098,0.101950414,0.21399154,0.82063544,0.8206435,0.0,0.0,0.0,0.0,0.0,0.0,0.0,0.0,12.403851,0.0,0.0,nan,0.0,0.0,0.090347625,0.0025881177,0.002558724,0.0025570567,0.0,0.0,0.0,0.0,0.0,0.0
257797424,257696880,0.10076208,0.101538666,0.21401398,0.820651,0.8206222,0.0,0.0,0.0,0.0,0.0,0.0,0.0,0.0,12.405229,0.0,0.0,nan,0.0,0.0,0.090347625,0.0026298512,0.0025543189,0.0025497149,0.0,0.0,0.0,0.0,0.0,0.0
258297404,258196929,0.10032012,0.10045753,0.21387003,0.8240179,0.82398176,0.0,0.0,0.0,0.0,0.0,0.0,0.0,0.0,12.403786,0.0,0.0,nan,0.0,0.0,0.090347625,0.0026468525,0.0025518173,0.002555097,0.0,0.0,0.0,0.0,0.0,0.0
258787397,258686976,0.10069058,0.10023605,0.21385865,0.8275569,0.8275427,0.0,0.0,0.0,0.0,0.0,0.0,0.0,0.0,12.405176,0.0,0.0,nan,0.0,0.0,0.090347625,0.0025780483,0.0025416673,0.0025432762,0.0,0.0,0.0,0.0,0.0,0.0
259287613,259187024,0.100878075,0.1003299,0.21384302,0.8329604,0.8329729,0.0,0.0,0.0,0.0,0.0,0.0,0.0,0.0,12.406118,0.0,0.0,nan,0.0,0.0,0.090347625,0.0025486643,0.0025373874,0.0025361194,0.0,0.0,0.0,0.0,0.0,0.0
259787517,259687072,0.10078572,0.10035996,0.21389385,0.8366149,0.8366284,0.0,0.0,0.0,0.0,0.0,0.0,0.0,0.0,12.404894,0.0,0.0,nan,0.0,0.0,0.090347625,0.002539596,0.0025322605,0.0025312349,0.0,0.0,0.0,0.0,0.0,0.0
260287561,260187120,0.10045831,0.10034061,0.21393457,0.8421482,0.84215623,0.0,0.0,0.0,0.0,0.0,0.0,0.0,0.0,12.403051,0.0,0.0,nan,0.0,0.0,0.090347625,0.0025353373,0.00252974,0.0025288232,0.0,0.0,0.0,0.0,0.0,0.0
260787588,260687169,0.10026339,0.10028146,0.21396983,0.84401584,0.8440165,0.0,0.0,0.0,0.0,0.0,0.0,0.0,0.0,12.404605,0.0,0.0,nan,0.0,0.0,0.090347625,0.0025409553,0.002535659,0.0025407122,0.0,0.0,0.0,0.0,0.0,0.0
261297622,261197218,0.10014546,0.10082692,0.213963,0.8480016,0.8480036,0.0,0.0,0.0,0.0,0.0,0.0,0.0,0.0,12.406235,0.0,0.0,nan,0.0,0.0,0.090347625,0.0025393707,0.0025318488,0.0025383704,0.0,0.0,0.0,0.0,0.0,0.0
261797684,261697267,0.10021471,0.10087894,0.21400513,0.8498504,0.8498662,0.0,0.0,0.0,0.0,0.0,0.0,0.0,0.0,12.40436,0.0,0.0,nan,0.0,0.0,0.090347625,0.0025254118,0.0025241424,0.0025240018,0.0,0.0,0.0,0.0,0.0,0.0
262287754,262187314,0.100141264,0.10042944,0.21402326,0.8517451,0.85178965,0.0,0.0,0.0,0.0,0.0,0.0,0.0,0.0,12.403219,0.0,0.0,nan,0.0,0.0,0.090347625,0.0025242683,0.002526638,0.0025256646,0.0,0.0,0.0,0.0,0.0,0.0
262787773,262687363,0.10012164,0.10029173,0.21404673,0.85352856,0.8535855,0.0,0.0,0.0,0.0,0.0,0.0,0.0,0.0,12.40479,0.0,0.0,nan,0.0,0.0,0.090347625,0.0025244553,0.0025242434,0.0025225482,0.0,0.0,0.0,0.0,0.0,0.0
263287830,263187412,0.099976,0.100060366,0.2139832,0.85311484,0.85317385,0.0,0.0,0.0,0.0,0.0,0.0,0.0,0.0,12.402492,0.0,0.0,nan,0.0,0.0,0.090347625,0.0025245245,0.0025231119,0.0025213007,0.0,0.0,0.0,0.0,0.0,0.0
263787878,263687460,0.10006652,0.100124605,0.21404266,0.85372144,0.85377866,0.0,0.0,0.0,0.0,0.0,0.0,0.0,0.0,12.40457,0.0,0.0,nan,0.0,0.0,0.090347625,0.0025232674,0.0025227517,0.0025210313,0.0,0.0,0.0,0.0,0.0,0.0
264287979,264187509,0.100953944,0.10018203,0.21407025,0.85528713,0.8553402,0.0,0.0,0.0,0.0,0.0,0.0,0.0,0.0,12.406197,0.0,0.0,nan,0.0,0.0,0.090347625,0.0025250087,0.0025235894,0.0025223028,0.0,0.0,0.0,0.0,0.0,0.0
264798007,264697560,0.10355904,0.10091897,0.21432196,0.8555035,0.85553795,0.0,0.0,0.0,0.0,0.0,0.0,0.0,0.0,12.405562,0.0,0.0,nan,0.0,0.0,0.090347625,0.0025276812,0.0025203812,0.0025184301,0.0,0.0,0.0,0.0,0.0,0.0
265298053,265197609,0.105400465,0.10212735,0.21462665,0.8537574,0.8537227,0.0,0.0,0.0,0.0,0.0,0.0,0.0,0.0,12.403201,0.0,0.0,nan,0.0,0.0,0.090347625,0.0025257382,0.00251937,0.0025179824,0.0,0.0,0.0,0.0,0.0,0.0
265788212,265687656,0.105143294,0.10255898,0.21476041,0.8502704,0.8501716,0.0,0.0,0.0,0.0,0.0,0.0,0.0,0.0,12.404329,0.0,0.0,nan,0.0,0.0,0.090347625,0.0025229522,0.0025173833,0.0025174718,0.0,0.0,0.0,0.0,0.0,0.0
266288212,266187706,0.104256414,0.102780625,0.2149865,0.8447342,0.8445566,0.0,0.0,0.0,0.0,0.0,0.0,0.0,0.0,12.406112,0.0,0.0,nan,0.0,0.0,0.090347625,0.0025188273,0.0025169977,0.0025163183,0.0,0.0,0.0,0.0,0.0,0.0
266788171,266687756,0.10363262,0.10288691,0.21517605,0.84317434,0.8429545,0.0,0.0,0.0,0.0,0.0,0.0,0.0,0.0,12.405317,0.0,0.0,nan,0.0,0.0,0.090347625,0.0025177768,0.0025162532,0.0025155498,0.0,0.0,0.0,0.0,0.0,0.0
267288265,267187804,0.10251641,0.10243854,0.21517275,0.842895,0.8426633,0.0,0.0,0.0,0.0,0.0,0.0,0.0,0.0,12.403207,0.0,0.0,nan,0.0,0.0,0.090347625,0.002517253,0.0025172855,0.002516164,0.0,0.0,0.0,0.0,0.0,0.0
267788301,267687854,0.10190119,0.101922594,0.21507503,0.84470433,0.84448355,0.0,0.0,0.0,0.0,0.0,0.0,0.0,0.0,12.404492,0.0,0.0,nan,0.0,0.0,0.090347625,0.0025168543,0.0025190725,0.0025173628,0.0,0.0,0.0,0.0,0.0,0.0
268288365,268187903,0.10141831,0.10116005,0.21495658,0.84318274,0.8429795,0.0,0.0,0.0,0.0,0.0,0.0,0.0,0.0,12.405813,0.0,0.0,nan,0.0,0.0,0.090347625,0.0025163947,0.0025181945,0.0025159523,0.0,0.0,0.0,0.0,0.0,0.0
268798322,268697954,0.100947596,0.10079974,0.21481775,0.84496677,0.8447668,0.0,0.0,0.0,0.0,0.0,0.0,0.0,0.0,12.405289,0.0,0.0,nan,0.0,0.0,0.090347625,0.0025158946,0.002517149,0.0025150934,0.0,0.0,0.0,0.15857518,0.0,0.0
269288443,269188002,0.10044191,0.10046773,0.21434253,0.844713,0.8445412,0.0,0.0,0.0,0.0,0.0,0.0,0.0,0.0,12.403486,0.0,0.0,nan,0.0,0.0,0.090347625,0.00251639,0.0025357616,0.002530835,0.0,0.0,2.5240219,0.11220427,0.0,0.0
269788446,269688052,0.09986632,0.10020465,0.21412462,0.85179526,0.85170066,0.0,0.0,0.0,0.0,0.0,0.0,0.0,0.0,12.404128,0.0,0.0,nan,0.0,0.0,0.090347625,0.002521035,0.0026648832,0.0026598794,0.0,0.0,2.3792355,0.096745044,0.0,0.0
270288572,270188102,0.100803666,0.11049223,0.21483062,0.8646101,0.86451024,0.0,0.0,0.0,0.0,0.0,0.0,0.0,0.0,12.406226,0.0,0.0,nan,0.0,0.0,0.090347625,0.0025599473,0.0025905275,0.0025810364,0.0,0.0,2.5081942,0.092986956,0.0,0.0
270788682,270688151,0.10014343,0.10942522,0.21494368,0.86645067,0.8663218,0.0,0.0,0.0,0.0,0.0,0.0,0.0,0.0,12.404391,0.0,0.0,nan,0.0,0.0,0.090347625,0.0025527868,0.0025250632,0.0025155372,0.0,0.0,2.3311682,0.09309012,0.0,0.0
271288608,271188201,0.09932716,0.103104174,0.21439147,0.8734814,0.87353534,0.0,0.0,0.0,0.0,0.0,0.0,0.0,0.0,12.402565,0.0,0.0,nan,0.0,0.0,0.090347625,0.002545337,0.0025255987,0.0025165165,0.0,0.0,2.229468,0.09274855,0.0,0.0
271788676,271688251,0.09948258,0.10091159,0.2140244,0.87921536,0.87943774,0.0,0.0,0.0,0.0,0.0,0.0,0.0,0.0,12.404129,0.0,0.0,nan,0.0,0.0,0.090347625,0.0025361523,0.0025295736,0.0025215633,0.0,0.0,2.1834366,0.092222124,0.0,0.0
272288887,272188301,0.10011642,0.09994524,0.21363401,0.8829059,0.8832513,0.0,0.0,0.0,0.0,0.0,0.0,0.0,0.0,12.4056835,0.0,0.0,nan,0.0,0.0,0.090347625,0.0025227189,0.0025234777,0.0025195882,0.0,0.0,2.164996,0.09203906,0.0,0.0
272788778,272688350,0.10046548,0.100314856,0.21357249,0.88266534,0.88299006,0.0,0.0,0.0,0.0,0.0,0.0,0.0,0.0,12.404455,0.0,0.0,nan,0.0,0.0,0.090347625,0.002519722,0.0025171626,0.0025148664,0.0,0.0,2.16171,0.09191267,0.0,0.0
273288845,273188400,0.10087995,0.100932755,0.21366629,0.8810071,0.88123536,0.0,0.0,0.0,0.0,0.0,0.0,0.0,0.0,12.402628,0.0,0.0,nan,0.0,0.0,0.090347625,0.0025175237,0.0025139232,0.0025123463,0.0,0.0,2.1592548,0.09173041,0.0,0.0
273788890,273688450,0.10105001,0.1011196,0.21372099,0.8790413,0.87921095,0.0,0.0,0.0,0.0,0.0,0.0,0.0,0.0,12.403633,0.0,0.0,nan,0.0,0.0,0.090347625,0.0025163388,0.0025122927,0.0025109332,0.0,0.0,2.154796,0.09161744,0.0,0.0
274288900,274188500,0.10131951,0.10127708,0.21380545,0.87947387,0.87957686,0.0,0.0,0.0,0.0,0.0,0.0,0.0,0.0,12.405223,0.0,0.0,nan,0.0,0.0,0.090347625,0.0025158303,0.002511914,0.0025104827,0.0,0.0,2.1507294,0.09151082,0.0,0.0
274789002,274688550,0.10116044,0.10103542,0.21387044,0.87771016,0.87778544,0.0,0.0,0.0,0.0,0.0,0.0,0.0,0.0,12.404156,0.0,0.0,nan,0.0,0.0,0.090347625,0.0025156804,0.002511694,0.0025102256,0.0,0.0,2.1455145,0.09138408,0.0,0.0
275288993,275188599,0.10119985,0.10087718,0.21393271,0.8741718,0.87422,0.0,0.0,0.0,0.0,0.0,0.0,0.0,0.0,12.402478,0.0,0.0,nan,0.0,0.0,0.090347625,0.002515864,0.0025113444,0.002510021,0.0,0.0,2.1415017,0.09133489,0.0,0.0
275789103,275688649,0.1009936,0.10076565,0.213918,0.8724101,0.87244064,0.0,0.0,0.0,0.0,0.0,0.0,0.0,0.0,12.403627,0.0,0.0,nan,0.0,0.0,0.090347625,0.002515217,0.0025417234,0.002534236,0.0,0.0,2.1444914,0.09100095,0.0,0.0
276289167,276188698,0.10233435,0.10427602,0.21418068,0.8702695,0.8702955,0.0,0.0,0.0,0.0,0.0,0.0,0.0,0.0,12.40193,0.0,0.0,nan,0.0,0.0,0.090347625,0.00252027,0.0025803582,0.0025596833,0.0,0.0,2.1943684,0.090398684,0.0,0.0
276789139,276688748,0.10841822,0.1093733,0.21524769,0.87223285,0.8723171,0.0,0.0,0.0,0.0,0.0,0.0,0.0,0.0,12.403344,0.0,0.0,nan,0.0,0.0,0.090347625,0.0025388568,0.0025813763,0.0025404282,0.0,0.0,2.2651205,0.09022465,0.0,0.0
277289322,277188798,0.1288964,0.11999898,0.24964604,0.8832824,0.8834059,0.0,0.0,0.0,0.0,0.0,0.0,0.0,0.0,12.402568,0.0,0.0,nan,0.0,0.0,0.090347625,0.0025516106,0.00258696,0.0025308675,0.0,0.0,2.2495904,0.09012254,0.0,0.0
277789286,277688847,0.11613524,0.10309732,0.21872757,0.90081006,0.9007326,0.0,0.0,0.0,0.0,0.0,0.0,0.0,0.0,12.404623,0.0,0.0,nan,0.0,0.0,0.090347625,0.002554817,0.0025890484,0.0025282544,0.0,0.0,2.2050166,0.09009843,0.0,0.0
278289252,278188896,0.11155298,0.101177745,0.21920691,0.938621,0.9380478,0.0,0.0,0.0,0.0,0.0,0.0,0.0,0.0,12.405809,0.0,0.0,nan,0.0,0.0,0.090347625,0.0025553913,0.0025847019,0.0025281212,0.0,0.0,2.1659918,0.09010884,0.0,0.0
278789532,278688946,0.10790328,0.10174616,0.21936776,0.96720815,0.96628463,0.0,0.0,0.0,0.0,0.0,0.0,0.0,0.0,12.404264,0.0,0.0,nan,0.0,0.0,0.090347625,0.0025566376,0.002575033,0.002525935,0.0,0.0,2.1420205,0.090117574,0.0,0.0
279289393,279188995,0.14514545,0.14526771,0.31363335,0.9999275,0.99821836,0.0,0.0,0.0,0.0,0.0,0.0,0.0,0.0,12.402657,0.0,0.0,nan,0.0,0.0,0.090347625,0.0025570188,0.002564701,0.0025237638,0.0,0.0,2.1331837,0.090112716,0.0,0.0
279789400,279689044,0.13385673,0.1365083,0.29163474,1.014968,1.012938,0.0,0.0,0.0,0.0,0.0,0.0,0.0,0.0,12.405801,0.0,0.0,nan,0.0,0.0,0.090347625,0.0025544844,0.0025666223,0.0025143253,0.0,0.0,2.1362689,0.09016094,0.0,0.0
280289454,280189093,0.10134836,0.10332157,0.22039166,1.0215553,1.0197638,0.0,0.0,0.0,0.0,0.0,0.0,0.0,0.0,12.40762,0.0,0.0,nan,0.0,0.0,0.090347625,0.0025457758,0.0025991385,0.0025089646,0.0,0.0,2.136454,0.09020451,0.0,0.0
280789568,280689142,0.117881104,0.11877001,0.2567798,1.0234298,1.0218943,0.0,0.0,0.0,0.0,0.0,0.0,0.0,0.0,12.4062195,0.0,0.0,nan,0.0,0.0,0.090347625,0.0025420787,0.0026116418,0.0025175354,0.0,0.0,2.1333244,0.09013367,0.0,0.0
281289598,281189191,0.100197785,0.10042293,0.2134419,1.0332863,1.0320922,0.0,0.0,0.0,0.0,0.0,0.0,0.0,0.0,12.402659,0.0,0.0,nan,0.0,0.0,0.090347625,0.002533808,0.0025843098,0.0025172457,0.0,0.0,2.1306937,0.090158954,0.0,0.0
281789597,281689240,0.100529306,0.101189785,0.2128772,1.0371215,1.0360856,0.0,0.0,0.0,0.0,0.0,0.0,0.0,0.0,12.403103,0.0,0.0,nan,0.0,0.0,0.090347625,0.0025297028,0.0025643532,0.0025140364,0.0,0.0,2.1341836,0.09019586,0.0,0.0
282289729,282189289,0.101131305,0.10222501,0.21278247,1.0386547,1.0378511,0.0,0.0,0.0,0.0,0.0,0.0,0.0,0.0,12.401116,0.0,0.0,nan,0.0,0.0,0.090347625,0.0025269585,0.0025546784,0.0025134129,0.0,0.0,2.137348,0.09021083,0.0,0.0
282789703,282689337,0.101725146,0.1029464,0.2131065,1.0429813,1.0423414,0.0,0.0,0.0,0.0,0.0,0.0,0.0,0.0,12.401523,0.0,0.0,nan,0.0,0.0,0.090347625,0.002523816,0.0025442026,0.0025119793,0.0,0.0,2.1451335,0.0902422,0.0,0.0
283289743,283189386,0.10183782,0.10255926,0.21346217,1.0646117,1.064208,0.0,0.0,0.0,0.0,0.0,0.0,0.0,0.0,12.399508,0.0,0.0,nan,0.0,0.0,0.090347625,0.0025218439,0.0025358151,0.0025103278,0.0,0.0,2.1460207,0.09026182,0.0,0.0
283789991,283689434,0.1017881,0.10210534,0.21364397,1.0727363,1.0724705,0.0,0.0,0.0,0.0,0.0,0.0,0.0,0.0,12.399919,0.0,0.0,nan,0.0,0.0,0.090347625,0.002520173,0.002530366,0.002509558,0.0,0.0,2.1460207,0.09027235,0.0,0.0
284289872,284189482,0.10179506,0.10167155,0.2139543,1.0833063,1.0832002,0.0,0.0,0.0,0.0,0.0,0.0,0.0,0.0,12.398865,0.0,0.0,nan,0.0,0.0,0.090347625,0.0025189603,0.0025262854,0.002508856,0.0,0.0,2.1460207,0.090291955,0.0,0.0
284789924,284689531,0.101571016,0.1012784,0.21399964,1.0851494,1.0851043,0.0,0.0,0.0,0.0,0.0,0.0,0.0,0.0,12.400679,0.0,0.0,nan,0.0,0.0,0.090347625,0.0025181433,0.002523158,0.0025081804,0.0,0.0,2.1460207,0.09028545,0.0,0.0
285289967,285189579,0.101106845,0.10079106,0.21402988,1.0833269,1.0833329,0.0,0.0,0.0,0.0,0.0,0.0,0.0,0.0,12.399285,0.0,0.0,nan,0.0,0.0,0.090347625,0.0025172886,0.0025213487,0.0025079,0.0,0.0,2.1460207,0.09030162,0.0,0.0
285789988,285689627,0.10100257,0.10077234,0.21405064,1.0857421,1.0857588,0.0,0.0,0.0,0.0,0.0,0.0,0.0,0.0,12.4008875,0.0,0.0,nan,0.0,0.0,0.090347625,0.0025168725,0.0025204818,0.0025077518,0.0,0.0,2.1460207,0.09030112,0.0,0.0
286290029,286189674,0.100697696,0.10063452,0.21403456,1.0835805,1.0835952,0.0,0.0,0.0,0.0,0.0,0.0,0.0,0.0,12.4021435,0.0,0.0,nan,0.0,0.0,0.090347625,0.0025163777,0.0025196718,0.0025076792,0.0,0.0,2.1460207,0.0903062,0.0,0.0
286790208,286689722,0.10045545,0.100480355,0.21402422,1.0813261,1.0813366,0.0,0.0,0.0,0.0,0.0,0.0,0.0,0.0,12.401436,0.0,0.0,nan,0.0,0.0,0.090347625,0.002516358,0.002519344,0.0025074957,0.0,0.0,2.1460207,0.09028236,0.0,0.0
287290132,287189770,0.10064918,0.10077956,0.21413915,1.0778738,1.0778818,0.0,0.0,0.0,0.0,0.0,0.0,0.0,0.0,12.400076,0.0,0.0,nan,0.0,0.0,0.090347625,0.0025158934,0.0025186788,0.0025074647,0.0,0.0,2.1460207,0.09029186,0.0,0.0
287790292,287689817,0.10040793,0.1005398,0.21413602,1.0715188,1.0715282,0.0,0.0,0.0,0.0,0.0,0.0,0.0,0.0,12.401352,0.0,0.0,nan,0.0,0.0,0.090347625,0.0025154352,0.0025180923,0.002507426,0.0,0.0,2.1460207,0.09028786,0.0,0.0
288290261,288189864,0.10043849,0.1005522,0.21411826,1.0674483,1.0674661,0.0,0.0,0.0,0.0,0.0,0.0,0.0,0.0,12.403247,0.0,0.0,nan,0.0,0.0,0.090347625,0.0025151605,0.002517653,0.0025073444,0.0,0.0,2.1460207,0.090276845,0.0,0.0
288790390,288689912,0.100503676,0.10059571,0.2141432,1.0653257,1.0653497,0.0,0.0,0.0,0.0,0.0,0.0,0.0,0.0,12.402503,0.0,0.0,nan,0.0,0.0,0.090059206,0.0025150478,0.0025174837,0.002507342,0.0,0.0,2.1460207,0.0902797,0.0,0.0
289290306,289189959,0.10045408,0.10049164,0.21412227,1.0590065,1.0590378,0.0,0.0,0.0,0.0,0.0,0.0,0.0,0.0,12.401078,0.0,0.0,nan,0.0,0.0,0.09006254,0.0025150478,0.0025174837,0.002507342,0.0,0.0,2.1460207,0.09027901,0.0,0.0
289790433,289690005,0.10058126,0.10059398,0.21419527,1.0572418,1.0572788,0.0,0.0,0.0,0.0,0.0,0.0,0.0,0.0,12.40293,0.0,0.0,nan,0.0,0.0,0.0900665,0.0025150478,0.0025174837,0.002507342,0.0,0.0,2.1460207,0.09027583,0.0,0.0
290290460,290190052,0.100750946,0.10074534,0.21419623,1.0531787,1.0532181,0.0,0.0,0.0,0.0,0.0,0.0,0.0,0.0,12.401413,0.0,0.0,nan,0.0,0.0,0.090070695,0.0025150478,0.0025174837,0.002507342,0.0,0.0,2.1460207,0.09028077,0.0,0.0
290790529,290690099,0.100840345,0.10085128,0.21414459,1.0530891,1.0531276,0.0,0.0,0.0,0.0,0.0,0.0,0.0,0.0,12.403189,0.0,0.0,nan,0.0,0.0,0.09007448,0.0025150478,0.0025174837,0.002507342,0.0,0.0,2.1460207,0.090292655,0.0,0.0
291290583,291190146,0.10078641,0.10080432,0.21414676,1.0510674,1.051104,0.0,0.0,0.0,0.0,0.0,0.0,0.0,0.0,12.402355,0.0,0.0,nan,0.0,0.0,0.090079054,0.0025150478,0.0025174837,0.002507342,0.0,0.0,2.1460207,0.090304926,0.0,0.0
291790588,291690192,0.10062647,0.10063815,0.2141629,1.0490099,1.0490446,0.0,0.0,0.0,0.0,0.0,0.0,0.0,0.0,12.403632,0.0,0.0,nan,0.0,0.0,0.09008368,0.0025150478,0.0025174837,0.002507342,0.0,0.0,2.1460207,0.09033185,0.0,0.0
292290597,292190238,0.100628406,0.10063414,0.21411864,1.0489932,1.0490248,0.0,0.0,0.0,0.0,0.0,0.0,0.0,0.0,12.404965,0.0,0.0,nan,0.0,0.0,0.09008782,0.0025150478,0.0025174837,0.002507342,0.0,0.0,2.1460207,0.09034579,0.0,0.0
292790725,292690284,0.100524515,0.10053711,0.21421766,1.0474724,1.0475025,0.0,0.0,0.0,0.0,0.0,0.0,0.0,0.0,12.403269,0.0,0.0,nan,0.0,0.0,0.09009252,0.0025150478,0.0025174837,0.002507342,0.0,0.0,2.1460207,0.0903265,0.0,0.0
293290723,293190330,0.100509964,0.10052546,0.2141621,1.0431268,1.0431522,0.0,0.0,0.0,0.0,0.0,0.0,0.0,0.0,12.402868,0.0,0.0,nan,0.0,0.0,0.090097375,0.0025150478,0.0025174837,0.002507342,0.0,0.0,2.1460207,0.09031826,0.0,0.0
293790745,293690376,0.100587904,0.100589484,0.2141298,1.0408313,1.0408539,0.0,0.0,0.0,0.0,0.0,0.0,0.0,0.0,12.404614,0.0,0.0,nan,0.0,0.0,0.09010166,0.0025150478,0.0025174837,0.002507342,0.0,0.0,2.1460207,0.09031527,0.0,0.0
294290810,294190422,0.100746825,0.10072654,0.21412255,1.038794,1.0388128,0.0,0.0,0.0,0.0,0.0,0.0,0.0,0.0,12.402368,0.0,0.0,nan,0.0,0.0,0.09010687,0.0025150478,0.0025174837,0.002507342,0.0,0.0,2.1460207,0.09032051,0.0,0.0
294790890,294690468,0.100894526,0.1008643,0.21407364,1.0367339,1.0367501,0.0,0.0,0.0,0.0,0.0,0.0,0.0,0.0,12.404048,0.0,0.0,nan,0.0,0.0,0.090112016,0.0025150478,0.0025174837,0.002507342,0.0,0.0,2.1460207,0.090310045,0.0,0.0
295290949,295190513,0.100467324,0.10040396,0.21406996,1.0387101,1.0387223,0.0,0.0,0.0,0.0,0.0,0.0,0.0,0.0,12.403041,0.0,0.0,nan,0.0,0.0,0.09011726,0.0025150478,0.0025174837,0.002507342,0.0,0.0,2.1460207,0.090320386,0.0,0.0
295790943,295690558,0.10035275,0.100290865,0.2140946,1.0387033,1.0387119,0.0,0.0,0.0,0.0,0.0,0.0,0.0,0.0,12.404751,0.0,0.0,nan,0.0,0.0,0.09012185,0.0025150478,0.0025174837,0.002507342,0.0,0.0,2.1460207,0.09033711,0.0,0.0
296290976,296190604,0.10045635,0.10039929,0.21410209,1.0367017,1.036705,0.0,0.0,0.0,0.0,0.0,0.0,0.0,0.0,12.402501,0.0,0.0,nan,0.0,0.0,0.09012718,0.0025150478,0.0025174837,0.002507342,0.0,0.0,2.1460207,0.09034201,0.0,0.0
296791073,296690649,0.1004878,0.10044142,0.21405882,1.0346491,1.0346497,0.0,0.0,0.0,0.0,0.0,0.0,0.0,0.0,12.404167,0.0,0.0,nan,0.0,0.0,0.09013264,0.0025150478,0.0025174837,0.002507342,0.0,0.0,2.1460207,0.09033641,0.0,0.0
297291133,297190694,0.10063425,0.10058038,0.2140681,1.0346663,1.0346637,0.0,0.0,0.0,0.0,0.0,0.0,0.0,0.0,12.403142,0.0,0.0,nan,0.0,0.0,0.090137206,0.0025150478,0.0025174837,0.002507342,0.0,0.0,2.1460207,0.090341575,0.0,0.0
297791089,297690739,0.10062813,0.100588016,0.21408801,1.0306747,1.0306699,0.0,0.0,0.0,0.0,0.0,0.0,0.0,0.0,12.404299,0.0,0.0,nan,0.0,0.0,0.09014277,0.0025150478,0.0025174837,0.002507342,0.0,0.0,2.1460207,0.09034648,0.0,0.0
298291133,298190783,0.10049474,0.100472525,0.21409743,1.0266912,1.0266843,0.0,0.0,0.0,0.0,0.0,0.0,0.0,0.0,12.402567,0.0,0.0,nan,0.0,0.0,0.090148315,0.0025150478,0.0025174837,0.002507342,0.0,0.0,2.1460207,0.09035473,0.0,0.0
298791218,298690828,0.10042723,0.100411855,0.21405719,1.0246352,1.0246277,0.0,0.0,0.0,0.0,0.0,0.0,0.0,0.0,12.4042225,0.0,0.0,nan,0.0,0.0,0.09015318,0.0025150478,0.0025174837,0.002507342,0.0,0.0,2.1460207,0.09035611,0.0,0.0
299291264,299190872,0.10052426,0.10051393,0.21406716,1.0186734,1.0186658,0.0,0.0,0.0,0.0,0.0,0.0,0.0,0.0,12.403194,0.0,0.0,nan,0.0,0.0,0.09015878,0.0025150478,0.0025174837,0.002507342,0.0,0.0,2.1460207,0.09035766,0.0,0.0
299791299,299690916,0.100209944,0.100196846,0.2140442,1.0143942,1.0143874,0.0,0.0,0.0,0.0,0.0,0.0,0.0,0.0,12.404894,0.0,0.0,nan,0.0,0.0,0.09016436,0.0025150478,0.0025174837,0.002507342,0.0,0.0,2.1460207,0.090355694,0.0,0.0
300291348,300190961,0.1003929,0.10038317,0.21409488,1.0086823,1.0086752,0.0,0.0,0.0,0.0,0.0,0.0,0.0,0.0,12.402607,0.0,0.0,nan,0.0,0.0,0.090169325,0.0025150478,0.0025174837,0.002507342,0.0,0.0,2.1460207,0.09037887,0.0,0.0
300791406,300691005,0.10035855,0.10035513,0.2141343,1.0051612,1.005154,0.0,0.0,0.0,0.0,0.0,0.0,0.0,0.0,12.403709,0.0,0.0,nan,0.0,0.0,0.090174966,0.0025150478,0.0025174837,0.002507342,0.0,0.0,2.1460207,0.090396486,0.0,0.0
301291459,301191049,0.10038112,0.10038101,0.21404576,1.0005649,1.000558,0.0,0.0,0.0,0.0,0.0,0.0,0.0,0.0,12.403202,0.0,0.0,nan,0.0,0.0,0.090180755,0.0025150478,0.0025174837,0.002507342,0.0,0.0,2.1460207,0.09037089,0.0,0.0
301791620,301691094,0.10101834,0.10078347,0.21400346,0.99660546,0.9966006,0.0,0.0,0.0,0.0,0.0,0.0,0.0,0.0,12.404329,0.0,0.0,nan,0.0,0.0,0.09018239,0.0025216385,0.0025369937,0.0025621895,0.0,0.0,2.1460207,0.090211265,0.0,0.0
302291508,302191136,0.10928248,0.10257054,0.21449636,0.99425095,0.9942495,0.0,0.0,0.0,0.0,0.0,0.0,0.0,0.0,12.402551,0.0,0.0,nan,0.0,0.0,0.09018239,0.0025191929,0.002536526,0.0025529747,0.0,0.0,2.1460207,0.090235434,0.0,0.0
302791532,302691180,0.11763373,0.10210984,0.21539944,1.0002657,1.0002509,0.0,0.0,0.0,0.0,0.0,0.0,0.0,0.0,12.404553,0.0,0.0,nan,0.0,0.0,0.09018239,0.0025184774,0.0025316272,0.0025449872,0.0,0.0,2.1460207,0.09024271,0.0,0.0
303291623,303191223,0.11059424,0.10066701,0.21489185,1.0104702,1.0102193,0.0,0.0,0.0,0.0,0.0,0.0,0.0,0.0,12.405383,0.0,0.0,nan,0.0,0.0,0.09018239,0.0025171724,0.0025266283,0.0025409893,0.0,0.0,2.1460207,0.09030873,0.0,0.0
303791654,303691266,0.107794166,0.10064596,0.21471643,1.0122267,1.0118091,0.0,0.0,0.0,0.0,0.0,0.0,0.0,0.0,12.40443,0.0,0.0,nan,0.0,0.0,0.09018239,0.002516488,0.0025233997,0.0025386177,0.0,0.0,2.1460207,0.09037895,0.0,0.0
304291701,304191309,0.10384727,0.10067794,0.21410261,1.016688,1.015935,0.0,0.0,0.0,0.0,0.0,0.0,0.0,0.0,12.401903,0.0,0.0,nan,0.0,0.0,0.09018239,0.0025159477,0.0025206406,0.0025362037,0.0,0.0,2.1460207,0.090445675,0.0,0.0
304791743,304691352,0.10238001,0.10079578,0.21376622,1.0170428,1.0161421,0.0,0.0,0.0,0.0,0.0,0.0,0.0,0.0,12.402695,0.0,0.0,nan,0.0,0.0,0.09018239,0.002515266,0.0025180692,0.0025348049,0.0,0.0,2.1460207,0.090525135,0.0,0.0
305291766,305191395,0.10131889,0.10084255,0.21329492,1.0151031,1.0141562,0.0,0.0,0.0,0.0,0.0,0.0,0.0,0.0,12.404347,0.0,0.0,nan,0.0,0.0,0.09018239,0.0025147945,0.0025171344,0.0025329199,0.0,0.0,2.1460207,0.090546995,0.0,0.0
305791821,305691438,0.100734994,0.1005035,0.21317346,1.0144682,1.0136024,0.0,0.0,0.0,0.0,0.0,0.0,0.0,0.0,12.402032,0.0,0.0,nan,0.0,0.0,0.09018239,0.0025143444,0.00252009,0.0025266828,0.0,0.0,2.1460207,0.0905234,0.0,0.0
306291903,306191481,0.10061073,0.10127449,0.21397929,1.018255,1.0175672,0.0,0.0,0.0,0.0,0.0,0.0,0.0,0.0,12.399989,0.0,0.0,nan,0.0,0.0,0.09018239,0.0025148084,0.0025223757,0.0025240656,0.0,0.0,2.1460207,0.09036838,0.0,0.0
306797056,306691524,0.10113317,0.10425852,0.21531089,1.0259973,1.0254122,0.0,0.0,0.0,0.0,0.0,0.0,0.0,0.0,12.400971,0.0,0.0,nan,0.0,0.0,0.09018239,0.002515884,0.002521437,0.0025231033,0.0,0.0,2.1460207,0.090268776,0.0,0.0
307291921,307191565,0.10167789,0.1088119,0.21705438,1.0299805,1.0295862,0.0,0.0,0.0,0.0,0.0,0.0,0.0,0.0,12.399231,0.0,0.0,nan,0.0,0.0,0.09018239,0.0025161342,0.002520603,0.002522751,0.0,0.0,2.1460207,0.09018289,0.0,0.0
307792000,307691608,0.10222001,0.10833934,0.2175086,1.033692,1.0335203,0.0,0.0,0.0,0.0,0.0,0.0,0.0,0.0,12.400439,0.0,0.0,nan,0.0,0.0,0.09018239,0.0025157603,0.002519542,0.0025221508,0.0,0.0,2.1460207,0.09011713,0.0,0.0
308292161,308191650,0.10349416,0.10526581,0.21758159,1.0478609,1.0481457,0.0,0.0,0.0,0.0,0.0,0.0,0.0,0.0,12.401768,0.0,0.0,nan,0.0,0.0,0.09018239,0.002515708,0.0025185784,0.0025215878,0.0,0.0,2.1460207,0.090096965,0.0,0.0
308792092,308691692,0.104253106,0.10310805,0.21747957,1.0516,1.0520988,0.0,0.0,0.0,0.0,0.0,0.0,0.0,0.0,12.400585,0.0,0.0,nan,0.0,0.0,0.09018239,0.0025158485,0.0025179642,0.0025211864,0.0,0.0,2.1460207,0.09008872,0.0,0.0
309292202,309191738,0.10403857,0.10086754,0.21690789,1.0599897,1.0606697,0.0,0.0,0.0,0.0,0.0,0.0,0.0,0.0,12.398927,0.0,0.0,nan,0.0,0.0,0.09018239,0.002516069,0.0025149405,0.0025206509,0.0,0.0,2.1460207,0.09012947,0.0,0.0
309792136,309691776,0.10278216,0.100122295,0.21611069,1.0558691,1.0564996,0.0,0.0,0.0,0.0,0.0,0.0,0.0,0.0,12.400267,0.0,0.0,nan,0.0,0.0,0.09018239,0.0025157991,0.0025135465,0.0025199861,0.0,0.0,2.1460207,0.09016133,0.0,0.0
310292381,310191817,0.100908965,0.09975331,0.21481097,1.052352,1.0527887,0.0,0.0,0.0,0.0,0.0,0.0,0.0,0.0,12.401186,0.0,0.0,nan,0.0,0.0,0.09018239,0.002515488,0.0025147616,0.0025188406,0.0,0.0,2.1460207,0.0901672,0.0,0.0
310792298,310691858,0.10011371,0.0997709,0.21406454,1.0464205,1.0467194,0.0,0.0,0.0,0.0,0.0,0.0,0.0,0.0,12.400105,0.0,0.0,nan,0.0,0.0,0.09018239,0.002514697,0.002515822,0.0025179782,0.0,0.0,2.1460207,0.090170234,0.0,0.0
311292295,311191900,0.09992078,0.10018119,0.21332823,1.0364484,1.0366051,0.0,0.0,0.0,0.0,0.0,0.0,0.0,0.0,12.398486,0.0,0.0,nan,0.0,0.0,0.09018239,0.0025140813,0.002515228,0.002517264,0.0,0.0,2.1460207,0.09018789,0.0,0.0
311792302,311691942,0.10027287,0.10059786,0.2131839,1.0323933,1.0325029,0.0,0.0,0.0,0.0,0.0,0.0,0.0,0.0,12.399165,0.0,0.0,nan,0.0,0.0,0.09018239,0.002513591,0.0025149882,0.0025168108,0.0,0.0,2.1460207,0.09019106,0.0,0.0
312292411,312191983,0.10053137,0.10081402,0.21318778,1.0263015,1.0263921,0.0,0.0,0.0,0.0,0.0,0.0,0.0,0.0,12.400381,0.0,0.0,nan,0.0,0.0,0.09018239,0.0025132908,0.002514225,0.00251608,0.0,0.0,2.1460207,0.09021354,0.0,0.0
312792480,312692024,0.10086218,0.10110055,0.21332094,1.0222234,1.0223106,0.0,0.0,0.0,0.0,0.0,0.0,0.0,0.0,12.399445,0.0,0.0,nan,0.0,0.0,0.09018239,0.0025128417,0.0025135877,0.002515559,0.0,0.0,2.1460207,0.090234526,0.0,0.0
313292608,313192065,0.100670986,0.10095743,0.21353729,1.0162187,1.0163132,0.0,0.0,0.0,0.0,0.0,0.0,0.0,0.0,12.398075,0.0,0.0,nan,0.0,0.0,0.09018239,0.0025127071,0.0025133176,0.0025148706,0.0,0.0,2.1460207,0.09025654,0.0,0.0
313792562,313692106,0.1005566,0.10082293,0.21369486,1.014187,1.0142862,0.0,0.0,0.0,0.0,0.0,0.0,0.0,0.0,12.399162,0.0,0.0,nan,0.0,0.0,0.09018239,0.0025125258,0.0025132967,0.002514563,0.0,0.0,2.1460207,0.090266004,0.0,0.0
314292582,314192146,0.10060616,0.10083106,0.21382403,1.0121458,1.0122528,0.0,0.0,0.0,0.0,0.0,0.0,0.0,0.0,12.400926,0.0,0.0,nan,0.0,0.0,0.09018239,0.002512508,0.0025130971,0.002513893,0.0,0.0,2.1460207,0.09026996,0.0,0.0
314792724,314692187,0.10060186,0.10079354,0.21393079,1.0120921,1.0122021,0.0,0.0,0.0,0.0,0.0,0.0,0.0,0.0,12.400389,0.0,0.0,nan,0.0,0.0,0.09018239,0.0025122997,0.0025131328,0.0025135656,0.0,0.0,2.1460207,0.09025886,0.0,0.0
315292672,315192228,0.100512564,0.10065096,0.21399827,1.0117953,1.0119048,0.0,0.0,0.0,0.0,0.0,0.0,0.0,0.0,12.399215,0.0,0.0,nan,0.0,0.0,0.09018239,0.0025122252,0.0025132191,0.0025131565,0.0,0.0,2.1460207,0.09024276,0.0,0.0
315792631,315692268,0.10050215,0.10060162,0.21411517,1.0120828,1.0121939,0.0,0.0,0.0,0.0,0.0,0.0,0.0,0.0,12.40112,0.0,0.0,nan,0.0,0.0,0.09018239,0.0025119912,0.002513324,0.0025128436,0.0,0.0,2.1460207,0.09023765,0.0,0.0
316292687,316192308,0.1004987,0.10054349,0.21412352,1.0101504,1.0102557,0.0,0.0,0.0,0.0,0.0,0.0,0.0,0.0,12.402607,0.0,0.0,nan,0.0,0.0,0.09018239,0.002511909,0.0025132627,0.0025123819,0.0,0.0,2.1460207,0.09024566,0.0,0.0
316792769,316692349,0.100551374,0.10057146,0.2141267,1.0118414,1.0119381,0.0,0.0,0.0,0.0,0.0,0.0,0.0,0.0,12.402026,0.0,0.0,nan,0.0,0.0,0.09006106,0.0025118382,0.0025133113,0.002512331,0.0,0.0,2.1460207,0.090248436,0.0,0.0
317292825,317192389,0.10057033,0.10055873,0.21419564,1.0121641,1.012243,0.0,0.0,0.0,0.0,0.0,0.0,0.0,0.0,12.400701,0.0,0.0,nan,0.0,0.0,0.090064496,0.0025118382,0.0025133113,0.002512331,0.0,0.0,2.1460207,0.09024083,0.0,0.0
317792787,317692429,0.10054524,0.10051026,0.21422176,1.0121821,1.0122494,0.0,0.0,0.0,0.0,0.0,0.0,0.0,0.0,12.4031315,0.0,0.0,nan,0.0,0.0,0.090068586,0.0025118382,0.0025133113,0.002512331,0.0,0.0,2.1460207,0.09024481,0.0,0.0
318292882,318192469,0.10061599,0.10045174,0.2141746,1.0141923,1.0142441,0.0,0.0,0.0,0.0,0.0,0.0,0.0,0.0,12.401145,0.0,0.0,nan,0.0,0.0,0.0900713,0.002515731,0.0025208644,0.002534406,0.0,0.0,2.1460207,0.090263,0.0,0.0
318792872,318692509,0.10107666,0.100489736,0.21402046,1.0138804,1.0139278,0.0,0.0,0.0,0.0,0.0,0.0,0.0,0.0,12.402931,0.0,0.0,nan,0.0,0.0,0.0900713,0.002514375,0.00252032,0.002531756,0.0,0.0,2.1460207,0.09022227,0.0,0.0
319293016,319192550,0.10200661,0.100834146,0.21421997,1.013953,1.0139786,0.0,0.0,0.0,0.0,0.0,0.0,0.0,0.0,12.401899,0.0,0.0,nan,0.0,0.0,0.0900713,0.0025151249,0.0025178157,0.0025296742,0.0,0.0,2.1460207,0.090214685,0.0,0.0
319793146,319692589,0.10181027,0.10093859,0.21421711,1.0103619,1.0103585,0.0,0.0,0.0,0.0,0.0,0.0,0.0,0.0,12.404327,0.0,0.0,nan,0.0,0.0,0.0900713,0.0025141404,0.0025180944,0.0025277615,0.0,0.0,2.1460207,0.09020661,0.0,0.0
320292982,320192629,0.10041903,0.10041968,0.21380374,1.0025724,1.0025218,0.0,0.0,0.0,0.0,0.0,0.0,0.0,0.0,12.402152,0.0,0.0,nan,0.0,0.0,0.0900713,0.0025133356,0.002518861,0.0025266553,0.0,0.0,2.1460207,0.09015394,0.0,0.0
320793066,320692669,0.1010923,0.100302204,0.21350558,0.9967016,0.9966396,0.0,0.0,0.0,0.0,0.0,0.0,0.0,0.0,12.403741,0.0,0.0,nan,0.0,0.0,0.0900713,0.0025133109,0.0025172129,0.0025256246,0.0,0.0,2.1460207,0.09015684,0.0,0.0
321293115,321192708,0.10326077,0.100713834,0.2137728,0.9964758,0.9964502,0.0,0.0,0.0,0.0,0.0,0.0,0.0,0.0,12.404721,0.0,0.0,nan,0.0,0.0,0.0900713,0.0025144017,0.0025144743,0.002523699,0.0,0.0,2.1460207,0.09028094,0.0,0.0
321793155,321692748,0.10341432,0.101252966,0.21389657,0.99999493,0.99997383,0.0,0.0,0.0,0.0,0.0,0.0,0.0,0.0,12.403638,0.0,0.0,nan,0.0,0.0,0.0900713,0.0025145933,0.002514002,0.0025222541,0.0,0.0,2.1460207,0.09032571,0.0,0.0
322293142,322192788,0.102023356,0.10118115,0.21378237,1.0098175,1.0097749,0.0,0.0,0.0,0.0,0.0,0.0,0.0,0.0,12.401973,0.0,0.0,nan,0.0,0.0,0.0900713,0.0025137546,0.0025143344,0.002520886,0.0,0.0,2.1460207,0.09026541,0.0,0.0
322793222,322692827,0.10109619,0.10089374,0.21369512,1.0138403,1.0137824,0.0,0.0,0.0,0.0,0.0,0.0,0.0,0.0,12.404107,0.0,0.0,nan,0.0,0.0,0.0900713,0.0025124468,0.0025147542,0.0025201424,0.0,0.0,2.1460207,0.09019152,0.0,0.0
323293252,323192867,0.10107377,0.10133921,0.21367349,1.0159229,1.0158588,0.0,0.0,0.0,0.0,0.0,0.0,0.0,0.0,12.402336,0.0,0.0,nan,0.0,0.0,0.0900713,0.00251173,0.002514632,0.0025194024,0.0,0.0,2.1460207,0.09017946,0.0,0.0
323793261,323692906,0.10118365,0.10135971,0.21374772,1.0143174,1.0142692,0.0,0.0,0.0,0.0,0.0,0.0,0.0,0.0,12.403335,0.0,0.0,nan,0.0,0.0,0.0900713,0.0025111292,0.0025141288,0.002518427,0.0,0.0,2.1460207,0.09018339,0.0,0.0
324293406,324192946,0.10081222,0.10075643,0.2137847,1.0160338,1.0160146,0.0,0.0,0.0,0.0,0.0,0.0,0.0,0.0,12.402284,0.0,0.0,nan,0.0,0.0,0.0900713,0.0025109046,0.0025136964,0.0025175917,0.0,0.0,2.1460207,0.09020292,0.0,0.0
324793495,324692985,0.100775465,0.10068515,0.21387595,1.0162851,1.0162835,0.0,0.0,0.0,0.0,0.0,0.0,0.0,0.0,12.403886,0.0,0.0,nan,0.0,0.0,0.0900713,0.002510658,0.0025136834,0.0025168702,0.0,0.0,2.1460207,0.09020828,0.0,0.0
325293381,325193024,0.100710385,0.10057204,0.21393526,1.0163176,1.0163304,0.0,0.0,0.0,0.0,0.0,0.0,0.0,0.0,12.40219,0.0,0.0,nan,0.0,0.0,0.0900713,0.002510371,0.0025137488,0.0025163405,0.0,0.0,2.1460207,0.09021156,0.0,0.0
325793459,325693064,0.10006435,0.09995318,0.21390516,1.0138718,1.013889,0.0,0.0,0.0,0.0,0.0,0.0,0.0,0.0,12.403334,0.0,0.0,nan,0.0,0.0,0.0900713,0.002510285,0.0025135777,0.0025157267,0.0,0.0,2.1460207,0.09023564,0.0,0.0
326293632,326193103,0.09975475,0.09976443,0.21397667,1.012455,1.0124767,0.0,0.0,0.0,0.0,0.0,0.0,0.0,0.0,12.402856,0.0,0.0,nan,0.0,0.0,0.0900713,0.0025101749,0.0025135793,0.002515101,0.0,0.0,2.1460207,0.09024427,0.0,0.0
326793538,326693142,0.099766515,0.099825725,0.21401441,1.0142922,1.0143155,0.0,0.0,0.0,0.0,0.0,0.0,0.0,0.0,12.404529,0.0,0.0,nan,0.0,0.0,0.0900713,0.0025100876,0.0025136115,0.0025147188,0.0,0.0,2.1460207,0.09024552,0.0,0.0
327293568,327193181,0.1000384,0.10012122,0.21405275,1.0142416,1.01427,0.0,0.0,0.0,0.0,0.0,0.0,0.0,0.0,12.402288,0.0,0.0,nan,0.0,0.0,0.0900713,0.002510121,0.0025135735,0.0025142874,0.0,0.0,2.1460207,0.09025241,0.0,0.0
327793583,327693221,0.09991681,0.09999358,0.21403441,1.0122701,1.0123035,0.0,0.0,0.0,0.0,0.0,0.0,0.0,0.0,12.403962,0.0,0.0,nan,0.0,0.0,0.09010382,0.0025100694,0.002513601,0.0025138764,0.0,0.0,2.1460207,0.09025071,0.0,0.0
328293614,328193260,0.10006799,0.100109145,0.21403086,1.0116973,1.0117322,0.0,0.0,0.0,0.0,0.0,0.0,0.0,0.0,12.403227,0.0,0.0,nan,0.0,0.0,0.09010736,0.0025100694,0.002513601,0.0025138764,0.0,0.0,2.1460207,0.090248354,0.0,0.0
328793685,328693299,0.10049729,0.10052196,0.21409225,1.0102667,1.010301,0.0,0.0,0.0,0.0,0.0,0.0,0.0,0.0,12.404295,0.0,0.0,nan,0.0,0.0,0.09011209,0.0025100694,0.002513601,0.0025138764,0.0,0.0,2.1460207,0.09024075,0.0,0.0
329293779,329193338,0.1007461,0.100757055,0.21410008,1.0083078,1.0083393,0.0,0.0,0.0,0.0,0.0,0.0,0.0,0.0,12.403726,0.0,0.0,nan,0.0,0.0,0.090116575,0.0025100694,0.002513601,0.0025138764,0.0,0.0,2.1460207,0.09024276,0.0,0.0
329793738,329693377,0.10049809,0.10050447,0.21407954,1.0061265,1.0061545,0.0,0.0,0.0,0.0,0.0,0.0,0.0,0.0,12.40536,0.0,0.0,nan,0.0,0.0,0.09012046,0.0025100694,0.002513601,0.0025138764,0.0,0.0,2.1460207,0.090250745,0.0,0.0
330293808,330193416,0.10052336,0.10052749,0.21407956,1.0022135,1.002237,0.0,0.0,0.0,0.0,0.0,0.0,0.0,0.0,12.403501,0.0,0.0,nan,0.0,0.0,0.09012488,0.0025100694,0.002513601,0.0025138764,0.0,0.0,2.1460207,0.09025683,0.0,0.0
330793813,330693455,0.10049117,0.1004979,0.21403211,1.0021361,1.0021573,0.0,0.0,0.0,0.0,0.0,0.0,0.0,0.0,12.404554,0.0,0.0,nan,0.0,0.0,0.09012973,0.0025100694,0.002513601,0.0025138764,0.0,0.0,2.1460207,0.09026227,0.0,0.0
331294033,331193493,0.10030944,0.100309856,0.21408345,1.0004767,1.0004954,0.0,0.0,0.0,0.0,0.0,0.0,0.0,0.0,12.403453,0.0,0.0,nan,0.0,0.0,0.0901343,0.0025100694,0.002513601,0.0025138764,0.0,0.0,2.1460207,0.09027202,0.0,0.0
331793936,331693532,0.1001258,0.100120336,0.21410708,1.0004411,1.0004574,0.0,0.0,0.0,0.0,0.0,0.0,0.0,0.0,12.405084,0.0,0.0,nan,0.0,0.0,0.0901383,0.0025100694,0.002513601,0.0025138764,0.0,0.0,2.1460207,0.0902845,0.0,0.0
332293959,332193571,0.10017956,0.100158736,0.21411802,0.9984473,0.998461,0.0,0.0,0.0,0.0,0.0,0.0,0.0,0.0,12.402761,0.0,0.0,nan,0.0,0.0,0.090142936,0.0025100694,0.002513601,0.0025138764,0.0,0.0,2.1460207,0.09029031,0.0,0.0
332794081,332693610,0.099901326,0.09989283,0.21409565,0.99618155,0.996193,0.0,0.0,0.0,0.0,0.0,0.0,0.0,0.0,12.404388,0.0,0.0,nan,0.0,0.0,0.09014766,0.0025100694,0.002513601,0.0025138764,0.0,0.0,2.1460207,0.09028937,0.0,0.0
333294063,333193648,0.1000685,0.10004836,0.21408108,0.99636346,0.99637264,0.0,0.0,0.0,0.0,0.0,0.0,0.0,0.0,12.403301,0.0,0.0,nan,0.0,0.0,0.090151645,0.0025100694,0.002513601,0.0025138764,0.0,0.0,2.1460207,0.09029689,0.0,0.0
333794171,333693687,0.10025765,0.100240596,0.21410938,0.99442524,0.99443203,0.0,0.0,0.0,0.0,0.0,0.0,0.0,0.0,12.404986,0.0,0.0,nan,0.0,0.0,0.09015657,0.0025100694,0.002513601,0.0025138764,0.0,0.0,2.1460207,0.09029906,0.0,0.0
334294079,334193726,0.100257084,0.10024324,0.21407107,0.99217826,0.9921827,0.0,0.0,0.0,0.0,0.0,0.0,0.0,0.0,12.402687,0.0,0.0,nan,0.0,0.0,0.090161346,0.0025100694,0.002513601,0.0025138764,0.0,0.0,2.1460207,0.0902967,0.0,0.0
334794400,334693764,0.10017409,0.10018645,0.21403353,0.992144,0.99214655,0.0,0.0,0.0,0.0,0.0,0.0,0.0,0.0,12.404338,0.0,0.0,nan,0.0,0.0,0.090165466,0.0025100694,0.002513601,0.0025138764,0.0,0.0,2.1460207,0.09029034,0.0,0.0
335294184,335193803,0.10038451,0.10047919,0.21409085,0.99239635,0.99239534,0.0,0.0,0.0,0.0,0.0,0.0,0.0,0.0,12.403287,0.0,0.0,nan,0.0,0.0,0.09017001,0.0025100694,0.002513601,0.0025138764,0.0,0.0,2.1460207,0.09028358,0.0,0.0
335794266,335693841,0.100563414,0.1007388,0.21412334,0.99041975,0.99041736,0.0,0.0,0.0,0.0,0.0,0.0,0.0,0.0,12.404969,0.0,0.0,nan,0.0,0.0,0.09017382,0.0025100694,0.002513601,0.0025138764,0.0,0.0,2.1460207,0.09026952,0.0,0.0
336294262,336193880,0.10131484,0.10159438,0.21410473,0.9881973,0.98819613,0.0,0.0,0.0,0.0,0.0,0.0,0.0,0.0,12.402689,0.0,0.0,nan,0.0,0.0,0.09017674,0.0025100694,0.002513601,0.0025138764,0.0,0.0,2.1460207,0.09025844,0.0,0.0
336794338,336693918,0.10079363,0.10101529,0.21405853,0.9862518,0.9862536,0.0,0.0,0.0,0.0,0.0,0.0,0.0,0.0,12.404339,0.0,0.0,nan,0.0,0.0,0.09017918,0.0025100694,0.002513601,0.0025138764,0.0,0.0,2.1460207,0.09026594,0.0,0.0
337294344,337193956,0.101011425,0.100754775,0.2140396,0.9823992,0.98240936,0.0,0.0,0.0,0.0,0.0,0.0,0.0,0.0,12.403292,0.0,0.0,nan,0.0,0.0,0.09018096,0.002513773,0.0025245773,0.0025257315,0.0,0.0,2.1460207,0.09025181,0.0,0.0
337797152,337693995,0.101617426,0.100597836,0.21405053,0.97660273,0.9766166,0.0,0.0,0.0,0.0,0.0,0.0,0.0,0.0,12.404959,0.0,0.0,nan,0.0,0.0,0.09018096,0.0025151395,0.0025211957,0.0025242567,0.0,0.0,2.1460207,0.09024515,0.0,0.0
338294405,338194033,0.103893586,0.101691484,0.21422398,0.9729038,0.9728992,0.0,0.0,0.0,0.0,0.0,0.0,0.0,0.0,12.402641,0.0,0.0,nan,0.0,0.0,0.09018096,0.002516447,0.0025187412,0.0025225733,0.0,0.0,2.1460207,0.09025959,0.0,0.0
338794471,338694071,0.1034406,0.10157681,0.21421626,0.97231746,0.9722881,0.0,0.0,0.0,0.0,0.0,0.0,0.0,0.0,12.404771,0.0,0.0,nan,0.0,0.0,0.09018096,0.0025170601,0.0025164213,0.0025210322,0.0,0.0,2.1460207,0.0902511,0.0,0.0
339294496,339194109,0.10318576,0.102363,0.2143862,0.9783866,0.9783001,0.0,0.0,0.0,0.0,0.0,0.0,0.0,0.0,12.402953,0.0,0.0,nan,0.0,0.0,0.09018096,0.00251851,0.0025136292,0.0025198183,0.0,0.0,2.1460207,0.0902559,0.0,0.0
339794546,339694148,0.10278166,0.10326496,0.21452433,0.9825537,0.9824418,0.0,0.0,0.0,0.0,0.0,0.0,0.0,0.0,12.405292,0.0,0.0,nan,0.0,0.0,0.09018096,0.0025192199,0.0025118678,0.0025192595,0.0,0.0,2.1460207,0.090282924,0.0,0.0
340294574,340194186,0.101977855,0.10456254,0.21475747,0.99225056,0.9921583,0.0,0.0,0.0,0.0,0.0,0.0,0.0,0.0,12.402967,0.0,0.0,nan,0.0,0.0,0.09018096,0.0025194108,0.00251068,0.0025187333,0.0,0.0,2.1460207,0.09030056,0.0,0.0
340794634,340694224,0.101508304,0.104813166,0.21487266,1.0020211,1.0019922,0.0,0.0,0.0,0.0,0.0,0.0,0.0,0.0,12.404663,0.0,0.0,nan,0.0,0.0,0.09018096,0.0025192825,0.0025097756,0.0025181542,0.0,0.0,2.1460207,0.09033591,0.0,0.0
341294635,341194262,0.10047266,0.10332993,0.21488045,1.0116491,1.0117568,0.0,0.0,0.0,0.0,0.0,0.0,0.0,0.0,12.4028845,0.0,0.0,nan,0.0,0.0,0.09018096,0.0025190352,0.002509534,0.0025175512,0.0,0.0,2.1460207,0.090339966,0.0,0.0
341794705,341694300,0.10035438,0.103203796,0.21494606,1.015646,1.0158477,0.0,0.0,0.0,0.0,0.0,0.0,0.0,0.0,12.405361,0.0,0.0,nan,0.0,0.0,0.09018096,0.0025184352,0.0025094545,0.0025171884,0.0,0.0,2.1460207,0.090365924,0.0,0.0
342294733,342194338,0.10082366,0.10355284,0.21532533,1.0118357,1.0121948,0.0,0.0,0.0,0.0,0.0,0.0,0.0,0.0,12.403581,0.0,0.0,nan,0.0,0.0,0.09018096,0.002517462,0.0025098461,0.0025166948,0.0,0.0,2.1460207,0.09042461,0.0,0.0
342794739,342694376,0.10108735,0.103012815,0.21543467,1.003991,1.0044533,0.0,0.0,0.0,0.0,0.0,0.0,0.0,0.0,12.404851,0.0,0.0,nan,0.0,0.0,0.09018096,0.0025169363,0.0025100326,0.0025161183,0.0,0.0,2.1460207,0.090431154,0.0,0.0
343294779,343194414,0.10097874,0.101866215,0.21531889,0.98670423,0.9872976,0.0,0.0,0.0,0.0,0.0,0.0,0.0,0.0,12.406737,0.0,0.0,nan,0.0,0.0,0.09018096,0.0025164082,0.0025101672,0.0025156082,0.0,0.0,2.1460207,0.0904175,0.0,0.0
343794937,343694452,0.10101275,0.10146954,0.21534143,0.97305506,0.9736663,0.0,0.0,0.0,0.0,0.0,0.0,0.0,0.0,12.405639,0.0,0.0,nan,0.0,0.0,0.09018096,0.0025153996,0.002510727,0.0025152953,0.0,0.0,2.1460207,0.09039116,0.0,0.0
344295003,344194489,0.101483025,0.1013695,0.21547851,0.95369154,0.95429003,0.0,0.0,0.0,0.0,0.0,0.0,0.0,0.0,12.4038105,0.0,0.0,nan,0.0,0.0,0.09018096,0.0025143013,0.0025116561,0.0025147074,0.0,0.0,2.1460207,0.0903806,0.0,0.0
344794882,344694527,0.101542324,0.101134956,0.21547562,0.93993664,0.94049,0.0,0.0,0.0,0.0,0.0,0.0,0.0,0.0,12.405621,0.0,0.0,nan,0.0,0.0,0.09018096,0.0025134063,0.0025124887,0.002514253,0.0,0.0,2.1460207,0.09035593,0.0,0.0
345295032,345194565,0.101751946,0.10110038,0.21552853,0.92663586,0.927107,0.0,0.0,0.0,0.0,0.0,0.0,0.0,0.0,12.403731,0.0,0.0,nan,0.0,0.0,0.09018096,0.0025125537,0.0025132985,0.0025136967,0.0,0.0,2.1460207,0.09032539,0.0,0.0
345794954,345694602,0.10162747,0.10098111,0.21540233,0.9186455,0.91903776,0.0,0.0,0.0,0.0,0.0,0.0,0.0,0.0,12.404972,0.0,0.0,nan,0.0,0.0,0.09018096,0.0025117542,0.0025137842,0.0025131956,0.0,0.0,2.1460207,0.090299144,0.0,0.0
346295121,346194640,0.10146633,0.10088367,0.2153602,0.91089416,0.9111674,0.0,0.0,0.0,0.0,0.0,0.0,0.0,0.0,12.404412,0.0,0.0,nan,0.0,0.0,0.09018096,0.0025110857,0.0025143668,0.002512897,0.0,0.0,2.1460207,0.090272896,0.0,0.0
346795072,346694678,0.10187729,0.101226255,0.2154825,0.906989,0.9071866,0.0,0.0,0.0,0.0,0.0,0.0,0.0,0.0,12.40567,0.0,0.0,nan,0.0,0.0,0.09018096,0.0025104552,0.0025147859,0.002512343,0.0,0.0,2.1460207,0.09024484,0.0,0.0
347295062,347194715,0.101880915,0.1014574,0.21543871,0.9014615,0.90153503,0.0,0.0,0.0,0.0,0.0,0.0,0.0,0.0,12.406975,0.0,0.0,nan,0.0,0.0,0.09018096,0.0025100205,0.0025150136,0.0025116878,0.0,0.0,2.1460207,0.09023255,0.0,0.0
347795103,347694753,0.10115438,0.10100233,0.2151845,0.9008044,0.9008147,0.0,0.0,0.0,0.0,0.0,0.0,0.0,0.0,12.4050045,0.0,0.0,nan,0.0,0.0,0.09018096,0.0025098147,0.00251484,0.0025114857,0.0,0.0,2.1460207,0.09021735,0.0,0.0
348295180,348194790,0.10106613,0.10103311,0.21524565,0.89724916,0.89718556,0.0,0.0,0.0,0.0,0.0,0.0,0.0,0.0,12.404158,0.0,0.0,nan,0.0,0.0,0.09018096,0.0025096016,0.0025150005,0.002511142,0.0,0.0,2.1460207,0.09020489,0.0,0.0
348795245,348694827,0.10094917,0.10097083,0.21519437,0.8955624,0.8954585,0.0,0.0,0.0,0.0,0.0,0.0,0.0,0.0,12.40658,0.0,0.0,nan,0.0,0.0,0.09018096,0.0025094217,0.0025148855,0.0025107872,0.0,0.0,2.1460207,0.090199895,0.0,0.0
349295375,349194865,0.10090938,0.10096124,0.21516638,0.8914809,0.8913445,0.0,0.0,0.0,0.0,0.0,0.0,0.0,0.0,12.404046,0.0,0.0,nan,0.0,0.0,0.09018096,0.0025094496,0.0025147514,0.002510351,0.0,0.0,2.1460207,0.09019963,0.0,0.0
349795297,349694902,0.10085941,0.10094222,0.21518373,0.8895689,0.88941306,0.0,0.0,0.0,0.0,0.0,0.0,0.0,0.0,12.406252,0.0,0.0,nan,0.0,0.0,0.09018096,0.002509537,0.0025145432,0.0025100433,0.0,0.0,2.1460207,0.09020901,0.0,0.0
350295294,350194939,0.10044862,0.10053337,0.21508849,0.88946146,0.8892898,0.0,0.0,0.0,0.0,0.0,0.0,0.0,0.0,12.403729,0.0,0.0,nan,0.0,0.0,0.09018096,0.002509496,0.0025141262,0.0025098321,0.0,0.0,2.1460207,0.09021539,0.0,0.0
350795504,350694977,0.10040499,0.10055688,0.21506605,0.8875155,0.88734305,0.0,0.0,0.0,0.0,0.0,0.0,0.0,0.0,12.406145,0.0,0.0,nan,0.0,0.0,0.09018096,0.002509749,0.0025137744,0.0025095814,0.0,0.0,2.1460207,0.09022412,0.0,0.0
351295402,351195013,0.10015088,0.10035399,0.21504042,0.88375425,0.8835905,0.0,0.0,0.0,0.0,0.0,0.0,0.0,0.0,12.404195,0.0,0.0,nan,0.0,0.0,0.09018096,0.00251,0.002513412,0.0025093723,0.0,0.0,2.1460207,0.090230614,0.0,0.0
351795452,351695050,0.10012906,0.100475356,0.21508622,0.8797543,0.8796053,0.0,0.0,0.0,0.0,0.0,0.0,0.0,0.0,12.405401,0.0,0.0,nan,0.0,0.0,0.09018096,0.002510328,0.0025128347,0.0025090904,0.0,0.0,2.1460207,0.09024287,0.0,0.0
352295443,352195087,0.100112095,0.100585856,0.2151432,0.87233406,0.8722193,0.0,0.0,0.0,0.0,0.0,0.0,0.0,0.0,12.403543,0.0,0.0,nan,0.0,0.0,0.09018096,0.0025106077,0.0025122121,0.0025088522,0.0,0.0,2.1460207,0.09025079,0.0,0.0
352795608,352695124,0.10022834,0.100774154,0.21519464,0.8688121,0.8687285,0.0,0.0,0.0,0.0,0.0,0.0,0.0,0.0,12.406041,0.0,0.0,nan,0.0,0.0,0.09018096,0.0025109858,0.0025117632,0.0025086328,0.0,0.0,2.1460207,0.090254664,0.0,0.0
353285515,353185160,0.1003249,0.10097611,0.21530235,0.86163795,0.86161166,0.0,0.0,0.0,0.0,0.0,0.0,0.0,0.0,12.407595,0.0,0.0,nan,0.0,0.0,0.09018096,0.0025113767,0.0025113346,0.002508405,0.0,0.0,2.1460207,0.09025222,0.0,0.0
353795594,353695198,0.10018099,0.10082323,0.21523191,0.8591694,0.8591801,0.0,0.0,0.0,0.0,0.0,0.0,0.0,0.0,12.406889,0.0,0.0,nan,0.0,0.0,0.09018096,0.0025114496,0.002510811,0.002508234,0.0,0.0,2.1460207,0.09025261,0.0,0.0
354295630,354195235,0.10027571,0.10088144,0.21523075,0.8569941,0.8570688,0.0,0.0,0.0,0.0,0.0,0.0,0.0,0.0,12.404371,0.0,0.0,nan,0.0,0.0,0.09018096,0.0025115325,0.0025104184,0.002508149,0.0,0.0,2.1460207,0.09025345,0.0,0.0
354795625,354695272,0.10050991,0.101080395,0.21535076,0.8571417,0.85726154,0.0,0.0,0.0,0.0,0.0,0.0,0.0,0.0,12.405523,0.0,0.0,nan,0.0,0.0,0.09018096,0.0025114196,0.0025100645,0.0025080214,0.0,0.0,2.1460207,0.09025284,0.0,0.0
355295663,355195308,0.10065059,0.10103778,0.21538337,0.858893,0.8590717,0.0,0.0,0.0,0.0,0.0,0.0,0.0,0.0,12.403611,0.0,0.0,nan,0.0,0.0,0.09018096,0.0025111383,0.0025098582,0.0025078955,0.0,0.0,2.1460207,0.09025238,0.0,0.0
355795873,355695346,0.10091567,0.10115555,0.21540415,0.86248606,0.8626916,0.0,0.0,0.0,0.0,0.0,0.0,0.0,0.0,12.406105,0.0,0.0,nan,0.0,0.0,0.09018096,0.0025109712,0.0025098938,0.0025077716,0.0,0.0,2.1460207,0.0902442,0.0,0.0
356295767,356195381,0.10090585,0.100916386,0.21540649,0.867944,0.8681755,0.0,0.0,0.0,0.0,0.0,0.0,0.0,0.0,12.403655,0.0,0.0,nan,0.0,0.0,0.09018096,0.0025106622,0.0025099788,0.0025077488,0.0,0.0,2.1460207,0.09023302,0.0,0.0
356785778,356685417,0.101090804,0.1009062,0.21551162,0.87342745,0.8736609,0.0,0.0,0.0,0.0,0.0,0.0,0.0,0.0,12.405953,0.0,0.0,nan,0.0,0.0,0.09018096,0.0025101237,0.0025101034,0.0025077371,0.0,0.0,2.1460207,0.09022322,0.0,0.0
357296115,357195454,0.101363346,0.10083078,0.21561097,0.87359816,0.8738205,0.0,0.0,0.0,0.0,0.0,0.0,0.0,0.0,12.404007,0.0,0.0,nan,0.0,0.0,0.09018096,0.0025095746,0.0025102585,0.0025077148,0.0,0.0,2.1460207,0.09021794,0.0,0.0
357795885,357695491,0.10145193,0.10069885,0.21559936,0.8736834,0.87388253,0.0,0.0,0.0,0.0,0.0,0.0,0.0,0.0,12.406529,0.0,0.0,nan,0.0,0.0,0.09018096,0.0025091202,0.0025105178,0.0025078226,0.0,0.0,2.1460207,0.0902094,0.0,0.0
358296011,358195527,0.10202132,0.10073583,0.21579094,0.86678034,0.8669183,0.0,0.0,0.0,0.0,0.0,0.0,0.0,0.0,12.404012,0.0,0.0,nan,0.0,0.0,0.09018096,0.0025086328,0.002510694,0.002507849,0.0,0.0,2.1460207,0.090206735,0.0,0.0
