timestamp,timestamp_sample,device_id,pressure,temperature,error_count
218181806,218181220,4028193,101201.0,40.26,4
219183054,219182468,4028193,101195.0,40.28,6
220185861,220185275,4028193,101199.0,40.309998,10
221184749,221184163,4028193,101197.0,40.329998,14
222168794,222168123,4028193,101199.0,40.36,15
223182203,223181617,4028193,101183.0,40.379997,19
224176601,224176015,4028193,101199.0,40.39,21
225181554,225180896,4028193,101171.0,40.399998,23
226186943,226186357,4028193,101162.0,40.44,25
227181526,227180940,4028193,101163.0,40.45,26
228180568,228179982,4028193,101173.0,40.45,30
229181902,229181287,4028193,101161.0,40.489998,41
230182806,230182220,4028193,101133.0,40.52,43
231185267,231184681,4028193,101128.0,40.52,50
232180244,232179569,4028193,101112.0,40.559998,51
233185429,233184842,4028193,101103.0,40.579998,52
234184332,234183731,4028193,101101.0,40.6,54
235180740,235180153,4028193,101071.0,40.629997,54
236182979,236182393,4028193,101051.0,40.64,60
237188269,237187683,4028193,101007.0,40.64,63
238187204,238186597,4028193,101005.0,40.69,69
239181925,239181339,4028193,100951.0,40.71,69
240171208,240170622,4028193,100903.0,40.73,71
241177354,241176768,4028193,100879.0,40.75,72
242180685,242180005,4028193,100852.0,40.77,76
243185163,243184577,4028193,100806.0,40.79,80
244182386,244181800,4028193,100737.0,40.809998,80
245180755,245180169,4028193,100743.0,40.829998,82
246189270,246188684,4028193,100701.0,40.86,82
247184362,247183768,4028193,100694.0,40.879997,82
248184999,248184413,4028193,100633.0,40.89,84
249169328,249168742,4028193,100621.0,40.91,85
250189645,250189052,4028193,100608.0,40.94,90
251184495,251183821,4028193,100604.0,40.94,92
252173697,252173111,4028193,100596.0,40.969997,94
253168804,253168218,4028193,100597.0,41.0,94
254181756,254181170,4028193,100587.0,41.0,100
255186501,255185915,4028193,100606.0,41.03,105
256186459,256185874,4028193,100588.0,41.05,107
257182462,257181876,4028193,100586.0,41.07,107
258188060,258187473,4028193,100606.0,41.079998,109
259183794,259183208,4028193,100593.0,41.11,109
260179769,260179114,4028193,100597.0,41.129997,109
261185708,261185103,4028193,100578.0,41.149998,109
262180553,262179967,4028193,100589.0,41.16,110
263165065,263164405,4028193,100587.0,41.18,110
264182353,264181767,4028193,100616.0,41.2,111
265188058,265187472,4028193,100541.0,41.219997,111
266182863,266182211,4028193,100567.0,41.239998,111
267172977,267172306,4028193,100598.0,41.25,114
268190067,268189481,4028193,100584.0,41.27,114
269185371,269184785,4028193,100528.0,41.28,114
270188325,270187739,4028193,100557.0,41.309998,118
271184117,271183530,4028193,100523.0,41.32,118
272178859,272178273,4028193,100600.0,41.329998,118
273173141,273172555,4028193,100611.0,41.35,118
274183141,274182556,4028193,100550.0,41.36,120
275183659,275183043,4028193,100632.0,41.37,122
276188566,276187981,4028193,100633.0,41.379997,123
277183061,277182473,4028193,100554.0,41.399998,123
278172936,278172350,4028193,100523.0,41.399998,126
279181705,279181119,4028193,100592.0,41.42,128
280177721,280177135,4028193,100568.0,41.41,129
281186258,281185673,4028193,100601.0,41.43,131
282181995,282181408,4028193,100565.0,41.45,132
283187619,283187031,4028193,100567.0,41.46,133
284185794,284185208,4028193,100640.0,41.469997,136
285186887,285186301,4028193,100660.0,41.469997,139
286191556,286190970,4028193,100596.0,41.469997,140
287169713,287169127,4028193,100566.0,41.48,143
288185628,288185042,4028193,100640.0,41.489998,143
289172626,289172038,4028193,100664.0,41.489998,145
290184997,290184411,4028193,100580.0,41.5,148
291177692,291177106,4028193,100601.0,41.51,152
292180762,292180175,4028193,100573.0,41.51,156
293189467,293188881,4028193,100606.0,41.51,158
294185969,294185358,4028193,100580.0,41.52,158
295180509,295179923,4028193,100560.0,41.52,158
296185540,296184955,4028193,100575.0,41.52,159
297179753,297179167,4028193,100559.0,41.53,159
298185065,298184479,4028193,100598.0,41.52,160
299189938,299189352,4028193,100620.0,41.52,161
300184441,300183845,4028193,100614.0,41.53,161
301178786,301178200,4028193,100586.0,41.53,161
302184105,302183519,4028193,100617.0,41.53,161
303188547,303187961,4028193,100581.0,41.53,164
304183061,304182473,4028193,100609.0,41.53,164
305181015,305180429,4028193,100622.0,41.53,167
306187794,306187208,4028193,100643.0,41.53,167
307182116,307181529,4028193,100599.0,41.53,167
308187061,308186475,4028193,100578.0,41.52,168
309181472,309180886,4028193,100631.0,41.53,168
310186702,310186116,4028193,100675.0,41.52,168
311180384,311179798,4028193,100711.0,41.52,169
312174928,312174342,4028193,100737.0,41.52,169
313190586,313190000,4028193,100772.0,41.53,170
314185383,314184797,4028193,100800.0,41.52,170
315157760,315157174,4028193,100836.0,41.51,171
316189309,316188723,4028193,100867.0,41.51,174
317183941,317183355,4028193,100900.0,41.52,174
318178259,318177673,4028193,100932.0,41.51,176
319173319,319172732,4028193,100958.0,41.5,184
320183029,320182442,4028193,100974.0,41.52,186
321179058,321178472,4028193,101063.0,41.52,186
322173520,322172934,4028193,101013.0,41.52,186
323183782,323183195,4028193,101057.0,41.52,188
324188349,324187763,4028193,101045.0,41.52,190
325182931,325182345,4028193,101070.0,41.53,190
326183327,326182740,4028193,101055.0,41.53,192
327188892,327188305,4028193,101032.0,41.53,192
328191338,328190752,4028193,100980.0,41.53,196
329185986,329185392,4028193,101013.0,41.53,196
330180189,330179603,4028193,100991.0,41.53,197
331185327,331184742,4028193,101014.0,41.54,197
332179561,332178975,4028193,100998.0,41.54,197
333184199,333183613,4028193,101090.0,41.52,199
334178658,334178072,4028193,101082.0,41.54,199
335173077,335172491,4028193,101096.0,41.55,199
336188806,336188221,4028193,101001.0,41.55,199
337182998,337182412,4028193,101022.0,41.54,200
338177312,338176726,4028193,101017.0,41.55,200
339182358,339181772,4028193,101018.0,41.55,201
340187192,340186605,4028193,100926.0,41.55,202
341176061,341175474,4028193,100951.0,41.559998,204
342170602,342170015,4028193,100875.0,41.559998,204
343186937,343186341,4028193,100867.0,41.559998,204
344175501,344174915,4028193,100823.0,41.559998,206
345171064,345170478,4028193,100766.0,41.559998,206
346186964,346186378,4028193,100784.0,41.559998,206
347181504,347180918,4028193,100746.0,41.559998,206
348183943,348183357,4028193,100756.0,41.559998,210
349177976,349177390,4028193,100666.0,41.559998,211
350179381,350178795,4028193,100646.0,41.559998,215
351184752,351184166,4028193,100670.0,41.559998,215
352176995,352176409,4028193,100578.0,41.55,219
353177809,353177140,4028193,100574.0,41.55,221
354185347,354184735,4028193,100659.0,41.559998,221
355179583,355178994,4028193,100613.0,41.55,221
356190324,356189738,4028193,100616.0,41.55,223
357178988,357178402,4028193,100637.0,41.54,226
358189263,358188677,4028193,100617.0,41.54,228
359172913,359172324,4028193,100552.0,41.55,229
360183195,360182593,4028193,100558.0,41.54,231
361177979,361177393,4028193,100619.0,41.54,231
362180547,362179952,4028193,100590.0,41.53,235
363187469,363186876,4028193,100615.0,41.54,235
364181875,364181289,4028193,100563.0,41.54,235
365187147,365186560,4028193,100624.0,41.53,235
366181342,366180756,4028193,100631.0,41.53,236
367175604,367175012,4028193,100639.0,41.53,236
368186353,368185760,4028193,100591.0,41.53,238
369184559,369183973,4028193,100600.0,41.52,240
370191550,370190964,4028193,100547.0,41.52,240
371185990,371185403,4028193,100595.0,41.52,240
372180152,372179566,4028193,100621.0,41.51,241
373186868,373186282,4028193,100558.0,41.51,245
374159626,374159040,4028193,100642.0,41.51,245
375168560,375167974,4028193,100636.0,41.5,249
376185551,376184965,4028193,100549.0,41.51,249
377191028,377190442,4028193,100644.0,41.51,249
378185578,378184992,4028193,100556.0,41.5,249
379179810,379179171,4028193,100551.0,41.51,249
380185060,380184471,4028193,100647.0,41.5,249
381185178,381184592,4028193,100621.0,41.489998,251
382179556,382178970,4028193,100538.0,41.5,251
383184798,383184198,4028193,100539.0,41.489998,251
384151739,384151153,4028193,100619.0,41.489998,253
385170662,385170076,4028193,100621.0,41.489998,254
386170138,386169497,4028193,100604.0,41.48,257
387189337,387188751,4028193,100613.0,41.48,257
388184963,388184357,4028193,100597.0,41.469997,257
389168776,389168190,4028193,100676.0,41.469997,258
390186991,390186405,4028193,100654.0,41.469997,258
391182082,391181496,4028193,100679.0,41.469997,258
392188025,392187363,4028193,100722.0,41.48,258
393183910,393183324,4028193,100761.0,41.48,258
394178978,394178392,4028193,100717.0,41.46,259
395174522,395173936,4028193,100689.0,41.48,259
396169907,396169321,4028193,100674.0,41.48,259
397186349,397185763,4028193,100647.0,41.469997,260
398175619,398175031,4028193,100593.0,41.48,262
399171591,399171005,4028193,100583.0,41.48,262
400187687,400187101,4028193,100602.0,41.469997,264
401183629,401182974,4028193,100599.0,41.48,265
402167972,402167386,4028193,100585.0,41.48,266
403184564,403183978,4028193,100597.0,41.489998,266
404180457,404179871,4028193,100579.0,41.5,266
405186083,405185497,4028193,100576.0,41.5,266
406180919,406180333,4028193,100579.0,41.5,266
407186124,407185538,4028193,100580.0,41.51,266
408180997,408180411,4028193,100580.0,41.52,266
409176938,409176352,4028193,100582.0,41.53,266
410171518,410170932,4028193,100585.0,41.53,266
411188438,411187833,4028193,100580.0,41.53,266
412184113,412183527,4028193,100577.0,41.54,266
413178780,413178194,4028193,100593.0,41.55,266
414185355,414184765,4028193,100567.0,41.559998,266
415191608,415191022,4028193,100589.0,41.559998,266
416186141,416185555,4028193,100558.0,41.57,267
417180998,417180411,4028193,100567.0,41.579998,267
418187326,418186740,4028193,100587.0,41.579998,267
419183324,419182738,4028193,100572.0,41.59,267
420179313,420178727,4028193,100600.0,41.6,267
421184924,421184338,4028193,100582.0,41.61,267
422180009,422179423,4028193,100604.0,41.62,267
423179460,423178874,4028193,100631.0,41.64,269
424186917,424186331,4028193,100622.0,41.64,269
425181947,425181361,4028193,100642.0,41.66,269
426189314,426188728,4028193,100648.0,41.66,269
427184627,427184041,4028193,100673.0,41.68,269
428180514,428179928,4028193,100673.0,41.69,269
429175327,429174741,4028193,100683.0,41.7,269
430171306,430170720,4028193,100684.0,41.71,269
431187672,431187086,4028193,100699.0,41.719997,269
432182547,432181960,4028193,100719.0,41.739998,269
433176794,433176208,4028193,100732.0,41.75,271
434173529,434172893,4028193,100747.0,41.76,271
435189440,435188818,4028193,100740.0,41.78,272
436184055,436183469,4028193,100753.0,41.79,272
437180372,437179786,4028193,100790.0,41.809998,272
438174711,438174125,4028193,100787.0,41.809998,273
439170558,439169972,4028193,100805.0,41.829998,273
440187751,440187163,4028193,100816.0,41.85,273
441182920,441182333,4028193,100823.0,41.86,273
442189989,442189403,4028193,100846.0,41.87,273
443185117,443184531,4028193,100849.0,41.89,273
444184745,444184159,4028193,100846.0,41.899998,275
445180272,445179686,4028193,100868.0,41.91,275
446186145,446185559,4028193,100875.0,41.93,277
447180909,447180322,4028193,100891.0,41.94,277
448175545,448174959,4028193,100908.0,41.96,277
449171426,449170840,4028193,100914.0,41.98,277
450186537,450185951,4028193,100935.0,41.989998,281
451188315,451187729,4028193,100947.0,42.0,283
452183585,452182999,4028193,100953.0,42.02,283
453190155,453189565,4028193,100969.0,42.04,283
454186068,454185456,4028193,100971.0,42.059998,283
455181734,455181148,4028193,100980.0,42.07,283
456187358,456186772,4028193,100987.0,42.079998,283
457183141,457182554,4028193,101011.0,42.1,283
458178117,458177502,4028193,101023.0,42.12,284
459183803,459183217,4028193,101050.0,42.129997,284
460179120,460178533,4028193,101036.0,42.149998,284
461185282,461184696,4028193,101062.0,42.16,285
462180702,462180116,4028193,101059.0,42.18,285
463187179,463186593,4028193,101082.0,42.2,285
464182287,464181701,4028193,101083.0,42.219997,285
465177083,465176497,4028193,101101.0,42.23,285
466183061,466182473,4028193,101123.0,42.25,286
467178861,467178274,4028193,101129.0,42.27,286
468174084,468173473,4028193,101134.0,42.28,286
469185287,469184701,4028193,101152.0,42.3,288
470180995,470180409,4028193,101167.0,42.32,288
471176093,471175507,4028193,101168.0,42.34,288
472171925,472171339,4028193,101180.0,42.35,288
473188195,473187609,4028193,101199.0,42.379997,288
474183007,474182420,4028193,101198.0,42.39,288
475181425,475180839,4028193,101197.0,42.41,291
476179027,476178441,4028193,101196.0,42.43,291
477185623,477185036,4028193,101194.0,42.44,291
478180913,478180326,4028193,101191.0,42.46,291
479186909,479186323,4028193,101192.0,42.48,291
480181718,480181131,4028193,101196.0,42.5,291
481177316,481176730,4028193,101196.0,42.51,291
482188528,482187942,4028193,101190.0,42.53,293
483183269,483182683,4028193,101196.0,42.559998,293
484178755,484178156,4028193,101196.0,42.57,293
485174195,485173609,4028193,101192.0,42.59,293
486184080,486183494,4028193,101192.0,42.61,295
487181574,487180988,4028193,101178.0,42.62,295
488186877,488186291,4028193,101183.0,42.64,296
489174651,489174025,4028193,101184.0,42.66,299
490171743,490171157,4028193,101183.0,42.68,299
491188158,491187571,4028193,101188.0,42.7,299
492183356,492182755,4028193,101184.0,42.719997,300
493187601,493187003,4028193,101182.0,42.739998,304
494180922,494180336,4028193,101183.0,42.75,310
495169981,495169395,4028193,101182.0,42.78,313
496180762,496180176,4028193,101181.0,42.8,315
497179467,497178881,4028193,101180.0,42.82,317
498185669,498185075,4028193,101184.0,42.84,317
499185801,499185215,4028193,101187.0,42.85,321
500181261,500180674,4028193,101198.0,42.87,321
501186805,501186219,4028193,101193.0,42.89,321
502186941,502186354,4028193,101194.0,42.91,323
503182324,503181738,4028193,101196.0,42.93,323
504188366,504187779,4028193,101194.0,42.94,324
505177460,505176859,4028193,101189.0,42.96,326
506183503,506182916,4028193,101193.0,42.98,327
507179065,507178479,4028193,101190.0,43.01,327
508185061,508184475,4028193,101195.0,43.03,327
509185293,509184706,4028193,101192.0,43.04,333
510171060,510170474,4028193,101196.0,43.059998,352
