timestamp,timestamp_sample,hover_thrust,hover_thrust_var,accel_innov,accel_innov_var,accel_innov_test_ratio,accel_noise_var,valid
225229423,225229371,0.63579434,0.003018742,-3.3664532,6.517352,0.19321083,5.0272336,0
225239394,225239312,0.6427045,0.0025627397,-0.78746027,5.92176,0.011634935,5.008003,0
225329366,225329326,0.6767538,0.0011616293,-2.4902885,5.1684017,0.1333216,4.867316,0
225439449,225439347,0.67723346,0.00072239636,-2.0355015,4.95121,0.09297988,4.7669535,0
225529384,225529344,0.6829477,0.00055145845,1.5103016,4.7867293,0.052947566,4.653413,0
225639418,225639338,0.6842378,0.00042649457,0.6432633,4.5419555,0.010122602,4.4277987,0
225729386,225729346,0.6876288,0.0003579812,0.272438,4.3640866,0.0018897288,4.265638,0
225839507,225839426,0.6926405,0.0002978196,-1.1797669,4.1538434,0.037230577,4.0742965,0
225939535,225939455,0.6936536,0.00025715167,0.09231898,3.9568982,0.00023932311,3.8828182,0
226029435,226029394,0.6937196,0.00022793957,-0.56342363,3.8001409,0.009281709,3.7339272,0
226139512,226139431,0.6917919,0.0001995244,0.73297024,3.6698985,0.016265826,3.6128974,0
226229426,226229385,0.69275886,0.0001804844,0.103897184,3.5331767,0.00033946865,3.4785612,0
226339480,226339400,0.69214165,0.00016102933,-0.15414658,3.385715,0.000779785,3.3356042,0
226429449,226429408,0.69240016,0.0001476246,-0.5789263,3.2850223,0.011336155,3.2394648,0
226539500,226539421,0.69257545,0.0001336059,-0.87862253,3.1649928,0.027101256,3.124713,0
226639505,226639426,0.69242436,0.00012260322,0.25503933,3.0348866,0.0023813834,2.9949641,0
226729470,226729430,0.6927537,0.00011388421,1.4823742,2.9476578,0.082831606,2.9214807,0
226839569,226839488,0.6937836,0.00010464297,1.5287932,2.9107938,0.089216165,2.8876355,0
226929553,226929512,0.694016,9.807381e-05,-1.5430921,2.8999107,0.091233976,2.876072,0
227039604,227039522,0.694179,9.107848e-05,-2.298762,2.8709147,0.20451504,2.86228,0
227129523,227129482,0.6929309,8.6045795e-05,2.7309742,2.8802524,0.28771475,2.8857484,0
227239557,227239477,0.694279,8.0667865e-05,1.1362216,2.9339402,0.048891388,2.9099016,0
227339573,227339494,0.6942427,7.633661e-05,1.5663877,2.8874674,0.094414555,2.8704886,0
227429541,227429499,0.6947865,7.277752e-05,-1.8899331,2.8354347,0.13996863,2.8230872,1
227539658,227539573,0.69406444,6.88137e-05,-1.6619732,2.8113713,0.10916599,2.7964094,1
227629606,227629564,0.6943243,6.5868546e-05,0.93826294,2.777982,0.035210904,2.7557588,1
227739650,227739568,0.6942025,6.254613e-05,0.7892875,2.7232928,0.025417544,2.7004137,1
227829590,227829549,0.6961047,6.00381e-05,-0.9871836,2.6894054,0.04026216,2.668362,1
227929574,227929533,0.6949115,5.7477304e-05,-1.111237,2.6530352,0.051716357,2.6343665,1
228039635,228039549,0.6945582,5.4854e-05,-1.0419961,2.5461442,0.04738127,2.5278714,1
228129590,228129549,0.6948422,5.2805728e-05,-1.0404661,2.4695604,0.048707254,2.4521577,1
228239655,228239570,0.69556516,5.0447983e-05,0.07973385,2.4407926,0.00028940904,2.4188359,1
228329611,228329570,0.6960657,4.8646e-05,-2.271304,2.4027748,0.23855852,2.4051435,1
228439701,228439612,0.6956201,4.6558842e-05,0.4488825,2.322465,0.009639925,2.302886,1
228529714,228529673,0.6956176,4.492062e-05,0.10363298,2.2454674,0.0005314307,2.2256732,1
228629687,228629646,0.69602865,4.3204953e-05,-1.9553145,2.2434514,0.18935382,2.2417338,1
228739716,228739637,0.69497514,4.1484374e-05,-0.4180669,2.24105,0.008665577,2.2225828,1
228829656,228829610,0.6942378,4.0150695e-05,-0.91179764,2.1799693,0.042374447,2.1655788,1
228939708,228939628,0.6931192,3.859871e-05,1.1021659,2.1622722,0.06242249,2.1492891,1
229029676,229029634,0.6927894,3.739408e-05,0.2652046,2.0949156,0.00373038,2.0774822,1
229139727,229139642,0.6932195,3.599776e-05,1.9802561,2.104151,0.20707291,2.1051414,1
229229730,229229684,0.6930997,3.494082e-05,-0.6144819,2.0853434,0.020118618,2.0702608,1
229329803,229329760,0.6932661,3.3822183e-05,0.18214971,2.0587475,0.0017906526,2.0420072,1
229439745,229439665,0.69355124,3.266392e-05,-0.98158276,2.0376194,0.05253979,2.025967,1
229529784,229529740,0.6941394,3.1757358e-05,-1.2531171,1.9898894,0.08768229,1.9814392,1
229639775,229639694,0.6932497,3.071285e-05,1.0748124,2.0220912,0.06347784,2.0114398,1
229729809,229729768,0.6940969,2.9908932e-05,-1.1635787,1.9649098,0.07656079,1.9558843,1
229839800,229839717,0.69311535,2.8955223e-05,2.4683738,1.9133512,0.35382184,1.9275098,1
229929889,229929834,0.69339967,2.8220427e-05,1.0449829,1.9533613,0.06211454,1.943351,1
230029765,230029724,0.69261694,2.7436468e-05,0.8941665,1.8836877,0.04716126,1.872459,1
230139923,230139842,0.6921184,2.6591068e-05,1.4054227,1.8444692,0.11898713,1.8388531,1
230229791,230229750,0.69237065,2.5943804e-05,-0.60965395,1.9082588,0.021641482,1.8959146,1
230339881,230339801,0.6919609,2.5201829e-05,0.74680674,1.857161,0.033367556,1.8453004,1
230429823,230429783,0.6922115,2.4604835e-05,-0.2921211,1.7855961,0.0053100684,1.7724441,1
230539887,230539806,0.6924544,2.388721e-05,1.480772,1.7543136,0.13887583,1.7512201,1
230629771,230629729,0.69320893,2.3329643e-05,-2.4126594,1.7592818,0.3676327,1.7744393,1
230729955,230729914,0.692763,2.274895e-05,-0.81804407,1.7631671,0.042171337,1.7533371,1
230839962,230839866,0.6920551,2.2131573e-05,1.6417916,1.6980981,0.17637245,1.6978908,1
230930026,230929984,0.69170076,2.164402e-05,-1.5757393,1.685418,0.16368866,1.6861581,1
231039926,231039844,0.69244224,2.108147e-05,-3.4346442,1.7288843,0.7581498,1.7752397,1
231130010,231129969,0.6922113,2.0660495e-05,0.13980985,1.7916543,0.0012122126,1.7786986,1
231239985,231239905,0.6921223,2.0156174e-05,0.33776182,1.7264919,0.0073419944,1.7143228,1
231330046,231330005,0.69257665,1.9744373e-05,0.01463446,1.6660742,1.4282906e-05,1.65388,1
231429913,231429873,0.69236195,1.9296549e-05,0.18349114,1.6305743,0.0022942836,1.6188242,1
231530092,231530051,0.6919398,1.8870363e-05,-2.4221919,1.6476791,0.3956416,1.6660169,1
231629907,231629866,0.6911929,1.8479126e-05,-2.0817316,1.6942607,0.2842017,1.705224,1
231740073,231739994,0.6905631,1.8068773e-05,0.17084023,1.6659185,0.0019466329,1.6541164,1
231829940,231829879,0.6901851,1.7732344e-05,0.5579655,1.6261979,0.021271534,1.6156096,1
231940033,231939954,0.6899152,1.7336e-05,1.6017705,1.6800421,0.16968283,1.6790341,1
232029945,232029902,0.6901246,1.703164e-05,0.9742006,1.6911775,0.06235411,1.6831732,1
232129988,232129947,0.68970263,1.6701586e-05,-0.15251085,1.6326141,0.00158298,1.6215723,1
232239998,232239902,0.689405,1.6340384e-05,-0.35121733,1.5566558,0.008804745,1.5468491,1
232330029,232329986,0.6889507,1.6047612e-05,-0.7961964,1.5292876,0.04605839,1.5228953,1
232440100,232440020,0.68882436,1.5702628e-05,-1.7601316,1.5618558,0.22039759,1.5688483,1
232530178,232530136,0.6885444,1.544138e-05,-1.2179458,1.6374508,0.10065727,1.6354561,1
232640035,232639954,0.6888952,1.5147798e-05,-1.0152594,1.6789299,0.06821485,1.6738111,1
232730054,232730013,0.68843037,1.4916819e-05,0.50367796,1.6775066,0.016803477,1.6668937,1
232830106,232830044,0.6881565,1.4667854e-05,-0.17881218,1.6777006,0.0021175672,1.6668907,1
232940174,232940095,0.6884919,1.44090445e-05,-2.7387426,1.7500281,0.47622794,1.7787237,1
233030080,233030037,0.6887273,1.422154e-05,-3.3202205,1.9200792,0.6379288,1.9649136,1
233140267,233140153,0.6890422,1.4018765e-05,0.53536594,2.1010542,0.015157294,2.089039,1
233230050,233230008,0.68905866,1.3864029e-05,-1.5906991,2.1401458,0.13136818,2.1397097,1
233330145,233330102,0.6888613,1.3699838e-05,-0.5635931,2.1845489,0.016155748,2.1727607,1
233430109,233430066,0.68877584,1.3539162e-05,-0.44460785,2.1194851,0.010362901,2.1074047,1
233530127,233530085,0.6885177,1.33759595e-05,0.23224385,2.028283,0.0029547273,2.0157046,1
233640139,233640059,0.6883624,1.3193619e-05,-0.3980748,1.9802883,0.0088911615,1.9689585,1
233730158,233730115,0.6882481,1.304897e-05,2.4620728,2.0230458,0.3329305,2.0384262,1
233840165,233840084,0.68881243,1.2884398e-05,-2.4239056,2.171677,0.30060324,2.1878982,1
233930149,233930108,0.6886568,1.2759612e-05,-0.38826585,2.24861,0.0074490644,2.2357368,1
234030114,234030073,0.6886303,1.2625526e-05,0.026209265,2.230289,3.422205e-05,2.2166708,1
234130213,234130172,0.6886589,1.24925145e-05,-0.035034582,2.1759226,6.267696e-05,2.1626332,1
234230222,234230182,0.6886601,1.2357644e-05,-0.49359024,2.0852363,0.0129818125,2.073694,1
234340331,234340251,0.68889,1.2207331e-05,-1.448305,2.0540001,0.11346895,2.051699,1
234430151,234430110,0.6886404,1.2088512e-05,-2.2772093,2.101264,0.27420965,2.1145747,1
234540239,234540156,0.68884593,1.1949585e-05,-1.5478036,2.1317003,0.124871425,2.13054,1
234630164,234630123,0.6888087,1.1837834e-05,-1.2844936,2.097899,0.08738498,2.0932927,1
234730226,234730185,0.688793,1.1711904e-05,0.22233102,2.0120535,0.0027297197,1.9999788,1
234830219,234830178,0.6888591,1.1583045e-05,0.07051509,1.9275597,0.0002866248,1.9156237,1
234930325,234930271,0.6889249,1.14506e-05,0.4735343,1.8765231,0.013277197,1.8658658,1
235030256,235030214,0.6891185,1.1307485e-05,-1.1363574,1.9092158,0.07515059,1.903187,1
235130253,235130212,0.6887231,1.1158801e-05,1.2488785,1.915917,0.09045262,1.9111837,1
235240268,235240187,0.6885393,1.0986806e-05,-2.156328,1.8915665,0.27312753,1.9029335,1
235330276,235330235,0.6879496,1.0849581e-05,-1.6344696,1.9853543,0.14951101,1.987193,1
235430335,235430293,0.6870771,1.0705419e-05,-2.0247657,2.1762402,0.20931493,2.1863804,1
235530319,235530278,0.68595445,1.0573943e-05,-2.4271736,2.5408313,0.25762224,2.4583123,1
235630329,235630267,0.68522066,1.0486171e-05,-0.74116874,4.2661753,0.014307145,2.5042257,1
235740394,235740315,0.68516725,1.0434608e-05,0.39509463,6.286627,0.0027589386,2.454397,1
235830309,235830268,0.6851138,1.0408059e-05,0.66765475,7.3951573,0.0066975188,2.3527465,1
235940386,235940305,0.6851279,1.038286e-05,0.13536453,8.087052,0.0002517544,2.2477345,1
236030317,236030276,0.6851756,1.0364434e-05,0.34835994,8.300262,0.0016245089,2.190563,1
236130385,236130344,0.6853319,1.0345418e-05,-1.7849028,8.192158,0.043210406,2.1497335,1
236230368,236230326,0.68553406,1.0328247e-05,1.0849895,8.333977,0.01569482,2.216391,1
236330363,236330322,0.68576646,1.0311894e-05,-1.7425627,7.9441633,0.04247038,2.2930124,1
236440418,236440323,0.6860946,1.0290121e-05,-2.1430092,7.3171873,0.0697367,2.2846708,1
236530473,236530432,0.6862693,1.0269443e-05,0.2837211,7.0886283,0.0012617653,2.2447784,1
236640392,236640312,0.6865601,1.0242969e-05,-3.112594,7.143737,0.15068741,2.329947,1
236730424,236730384,0.68687767,1.0223467e-05,-3.363191,7.7729,0.16168788,2.498345,1
236832918,236832877,0.6870348,1.0205715e-05,0.82262003,8.392669,0.008958926,2.5658267,1
236930461,236930418,0.68716544,1.0188372e-05,-2.2791724,8.671986,0.06655694,2.6676245,1
237030398,237030355,0.6874886,1.0172152e-05,-1.8027627,8.931353,0.040431272,2.762201,1
237140542,237140462,0.68759376,1.0154641e-05,-1.6137962,8.977133,0.03223422,2.7809234,1
237230429,237230385,0.6877436,1.0141104e-05,-4.455701,9.343057,0.23610248,2.9416842,1
237340511,237340430,0.6878481,1.0126973e-05,1.6082628,10.171085,0.028255582,3.0340807,1
237430453,237430409,0.68796337,1.0115862e-05,0.2847209,10.034069,0.0008976749,2.979762,1
237530532,237530459,0.6881282,1.0102856e-05,-0.23253816,9.656046,0.00062222383,2.8553026,1
237630441,237630398,0.68831885,1.0088516e-05,-1.4446728,9.1640215,0.025305236,2.7316973,1
237730481,237730437,0.68851197,1.0072669e-05,0.24455214,8.783816,0.0007565144,2.6370096,1
237840520,237840437,0.6887461,1.0053488e-05,-1.9474223,8.387652,0.05023858,2.5684214,1
237930561,237930489,0.68896,1.0036795e-05,-2.439817,8.146191,0.08119278,2.5102808,1
238040613,238040531,0.6893118,1.0014809e-05,-2.0689294,7.830174,0.06074037,2.4420223,1
238130505,238130463,0.68957406,9.995079e-06,-0.9016906,7.5029955,0.012040315,2.3549168,1
238230544,238230504,0.690005,9.9720955e-06,-1.5684618,7.5918922,0.03600438,2.4522834,1
238330552,238330509,0.690448,9.950501e-06,-1.7955902,8.086678,0.044299804,2.5783343,1
238430600,238430558,0.6907945,9.931015e-06,-2.8062842,8.273351,0.10576436,2.5733511,1
238540651,238540566,0.69102013,9.910614e-06,-1.3201871,8.502758,0.022775536,2.5930448,1
238630611,238630555,0.6912302,9.894856e-06,1.1945415,8.932571,0.01774939,2.7344415,1
238740633,238740548,0.6915984,9.876622e-06,-1.6339885,8.937426,0.033192735,2.729727,1
238830561,238830521,0.6918727,9.86101e-06,-2.2028654,8.651457,0.062322397,2.6454182,1
238930573,238930532,0.69219846,9.843105e-06,-2.829969,8.433392,0.105516054,2.546554,1
239030684,239030639,0.692501,9.824862e-06,-4.3773766,8.487433,0.25084698,2.593283,1
239130636,239130591,0.6927473,9.8077735e-06,-4.764496,8.881879,0.2839792,2.720424,1
239240704,239240620,0.6930505,9.790518e-06,-3.1945524,9.245847,0.122639626,2.7407458,1
239330753,239330677,0.69330394,9.777077e-06,-3.4431143,9.304162,0.14157388,2.7251792,1
239430616,239430571,0.6936141,9.762575e-06,-2.1869311,9.340311,0.056893986,2.6916296,1
239530657,239530582,0.6939446,9.7476095e-06,-1.420266,9.131219,0.02454529,2.5863943,1
239630698,239630656,0.6943259,9.732853e-06,-1.6732814,9.457026,0.032895837,2.6379054,1
239730701,239730654,0.6945772,9.720315e-06,-2.232308,10.085634,0.054898754,2.7579536,1
239830641,239830579,0.69468063,9.709044e-06,-1.8508171,10.145312,0.03751622,2.7355907,1
239940800,239940721,0.6948995,9.696236e-06,-2.156053,9.739226,0.0530337,2.612924,1
240030770,240030730,0.6951158,9.685348e-06,-3.3547988,9.718615,0.1286726,2.6221993,1
240130665,240130624,0.69537485,9.673568e-06,-1.7739582,9.829629,0.035571907,2.6143484,1
240230754,240230712,0.6956694,9.661924e-06,-2.97646,9.7687645,0.100766905,2.6008205,1
240330685,240330644,0.6959363,9.65001e-06,-3.0574994,9.622551,0.107944384,2.5736306,1
240430772,240430731,0.69614875,9.637502e-06,-1.1729269,9.290953,0.016452774,2.466755,1
240530773,240530715,0.6962972,9.624104e-06,-0.65853494,9.128811,0.0052783834,2.4135232,1
240640755,240640672,0.6965662,9.609787e-06,-4.093561,9.426003,0.19752972,2.5498958,1
240730725,240730684,0.6967961,9.599326e-06,-2.6798923,9.8551035,0.08097128,2.6323948,1
240830836,240830795,0.6970951,9.588072e-06,-1.3875357,9.835914,0.02174859,2.6124816,1
240930783,240930742,0.69735545,9.576012e-06,-1.2090449,9.403434,0.017272526,2.4900272,1
241030787,241030746,0.6976558,9.563188e-06,-2.3101041,9.166526,0.06468683,2.4255097,1
241130762,241130721,0.69794333,9.550556e-06,-1.4951057,9.475354,0.026212342,2.4869933,1
241230789,241230732,0.69816667,9.538967e-06,-0.97898537,9.619405,0.011070359,2.4946384,1
241340843,241340763,0.6983791,9.526091e-06,-1.2583336,9.26736,0.018984232,2.3827085,1
241430804,241430761,0.69858474,9.5147525e-06,-0.6509687,8.92484,0.005275665,2.2897618,1
241530798,241530755,0.6988625,9.501074e-06,-1.5276527,8.499922,0.03050646,2.1908681,1
241630807,241630764,0.6991309,9.486191e-06,-1.7980468,8.136694,0.044148047,2.0983684,1
241730851,241730808,0.69938534,9.470726e-06,-2.265909,8.060731,0.070773065,2.0643206,1
241830830,241830787,0.6996739,9.455602e-06,-3.5187852,8.165309,0.16848855,2.1025171,1
241930853,241930811,0.7,9.441912e-06,-4.3217635,8.741081,0.23741837,2.2699995,1
242040948,242040868,0.7,9.429044e-06,-1.0935881,9.350103,0.014211786,2.3810637,1
242130910,242130867,0.7,9.418906e-06,-0.9112068,9.264178,0.009958284,2.375125,1
242230913,242230870,0.6999928,9.406973e-06,0.43574595,9.043697,0.0023328036,2.3390212,1
242330872,242330829,0.7,9.394386e-06,-0.30290353,8.782866,0.0011607265,2.2638004,1
242430958,242430895,0.7,9.3812e-06,-1.1261576,8.462304,0.016652033,2.166928,1
242530914,242530873,0.7,9.367091e-06,-1.5662272,8.138268,0.03349153,2.0804622,1
242630963,242630908,0.7,9.352405e-06,-1.1555037,7.990357,0.018566668,2.0188637,1
242740998,242740900,0.7,9.335834e-06,-2.2178469,7.879206,0.06936464,1.9894004,1
242830923,242830881,0.7,9.3221015e-06,-2.8614118,7.683515,0.11840179,1.9549294,1
242930971,242930915,0.7,9.3060835e-06,-1.1370262,7.4628825,0.019248277,1.87837,1
243030960,243030920,0.7,9.288931e-06,-1.8570414,7.118488,0.05382858,1.7918305,1
243131001,243130960,0.7,9.270725e-06,-1.4270852,6.9153776,0.03272211,1.735878,1
243230956,243230915,0.7,9.252043e-06,-2.5572858,6.8556156,0.10599114,1.7316141,1
243330994,243330953,0.7,9.233412e-06,-1.260211,6.8796544,0.025649412,1.7263945,1
243441020,243440941,0.69996756,9.2129085e-06,1.5203812,6.8654847,0.037410304,1.7565793,1
243530983,243530942,0.69998837,9.197834e-06,0.59005713,7.4396186,0.0051998994,1.8804306,1
243631064,243631018,0.6999971,9.1822585e-06,0.14709067,7.4968762,0.00032066196,1.8946922,1
243730998,243730958,0.69999593,9.166675e-06,-0.26728272,7.2611904,0.0010931795,1.8386217,1
243831016,243830954,0.699967,9.149908e-06,-0.3681631,7.317345,0.0020581854,1.8589882,1
243931077,243931031,0.7,9.133079e-06,-2.477353,7.090575,0.09617271,1.8190881,1
244031071,244031031,0.7,9.115532e-06,-3.2207167,6.972606,0.16529793,1.8137072,1
244141131,244141048,0.7,9.097238e-06,-3.5206244,7.391172,0.18633035,1.9250135,1
244231161,244231120,0.7,9.0836575e-06,-3.8263004,7.6544204,0.2125217,1.9894044,1
244331054,244331013,0.7,9.0701915e-06,-2.8831072,8.2772455,0.11158177,2.1085618,1
244431091,244431025,0.7,9.058793e-06,-2.3114593,8.686884,0.06833859,2.1972847,1
244531127,244531086,0.7,9.048135e-06,-3.568936,8.837542,0.16014138,2.2571032,1
244631080,244631039,0.7,9.037852e-06,-4.708027,9.015361,0.27318212,2.341613,1
244731088,244731047,0.7,9.0284275e-06,-2.5341063,9.550762,0.074708335,2.4319482,1
244831166,244831125,0.7,9.019454e-06,-1.0271025,9.406189,0.012461529,2.377795,1
244931151,244931110,0.7,9.009834e-06,-1.3649235,9.145402,0.022634521,2.2979088,1
245031180,245031123,0.7,9.0002e-06,-0.76705194,9.205521,0.00710164,2.294556,1
245131176,245131135,0.7,8.990653e-06,-0.51047975,9.099416,0.003182006,2.2677128,1
245231175,245231134,0.7,8.980324e-06,-0.04616797,8.702081,2.7215476e-05,2.1887367,1
245331162,245331121,0.7,8.968878e-06,-1.4658812,8.324905,0.028679775,2.111062,1
245431203,245431160,0.7,8.956259e-06,-3.2264357,7.9246864,0.14595583,2.044845,1
245531200,245531157,0.7,8.943341e-06,-4.0154104,8.064812,0.22213815,2.1011372,1
245631256,245631212,0.7,8.93163e-06,-4.328021,8.451442,0.24626654,2.2237446,1
245731199,245731156,0.7,8.920608e-06,-2.3186684,8.667117,0.068922356,2.2284014,1
245831250,245831207,0.7,8.910202e-06,-0.5601236,9.03226,0.0038594804,2.2940142,1
245931232,245931189,0.7,8.900308e-06,-2.3353958,9.025714,0.06714241,2.299687,1
246031262,246031220,0.7,8.8903125e-06,-1.7577795,8.728264,0.03933312,2.2028587,1
246131223,246131180,0.6999967,8.879399e-06,0.1940893,8.436924,0.0004961083,2.133143,1
246231230,246231187,0.7,8.867839e-06,-0.4892968,8.203331,0.003242739,2.0709383,1
246331306,246331263,0.69997436,8.85585e-06,-0.89253914,8.223089,0.010764083,2.0840452,1
246431256,246431215,0.69995683,8.844855e-06,-2.1063023,8.76425,0.056245025,2.2334926,1
246531263,246531223,0.7,8.8350325e-06,-2.6319106,8.828634,0.087177865,2.2653255,1
246631286,246631245,0.7,8.826355e-06,-3.8254275,8.847151,0.18378668,2.318018,1
246731317,246731276,0.7,8.818291e-06,-1.9999688,8.456271,0.05255633,2.3028338,1
246831286,246831245,0.7,8.80808e-06,-1.5982773,7.48876,0.0379011,2.214079,1
246931342,246931300,0.7,8.79376e-06,-2.216752,6.7772174,0.080563866,2.1490865,1
247031334,247031292,0.7,8.776911e-06,-2.7695785,6.551776,0.13008457,2.117057,1
247131338,247131273,0.7,8.759189e-06,-1.4462215,6.433568,0.036122285,2.0345492,1
247231330,247231289,0.7,8.740448e-06,-2.4360728,6.21267,0.10613527,1.9543896,1
247331402,247331346,0.7,8.722941e-06,-2.212459,6.1119885,0.08898677,1.9159775,1
247431352,247431289,0.7,8.706163e-06,-0.40909773,5.559718,0.0033447128,1.8422586,1
247531360,247531319,0.7,8.687098e-06,-2.444096,4.8561015,0.13668041,1.85141,1
247631548,247631505,0.7,8.662939e-06,-2.5457623,4.0133424,0.17942666,1.8286489,1
247731373,247731332,0.7,8.6309665e-06,-2.136598,3.347555,0.15152192,1.8266966,1
247831382,247831342,0.7,8.589812e-06,-2.0694094,2.7423341,0.17351216,1.7841241,1
247931463,247931422,0.7,8.538364e-06,-0.1902527,2.2657537,0.0017750332,1.7427953,1
248031416,248031374,0.7,8.4739195e-06,-1.3848984,1.814327,0.11745669,1.6726618,1
248131430,248131389,0.7,8.396458e-06,-0.522679,1.6197886,0.018739982,1.6149077,1
248231498,248231457,0.7,8.317071e-06,-0.83303434,1.5767174,0.048902314,1.5692027,1
248331459,248331418,0.69991606,8.238798e-06,1.1214683,1.5813096,0.088371985,1.6051162,1
248431437,248431396,0.7,8.166172e-06,-3.3900626,1.655854,0.77117133,1.6645316,1
248531587,248531544,0.7,8.099237e-06,-2.4591596,1.720205,0.39061663,1.7155141,1
248631463,248631422,0.69989556,8.03562e-06,0.087901115,1.7499516,0.00049059174,1.7500128,1
248731469,248731427,0.6998635,7.975184e-06,1.4406724,1.7826444,0.12936692,1.8092752,1
248831477,248831436,0.699965,7.917435e-06,0.56446874,1.8209703,0.019441709,1.8273224,1
248931537,248931496,0.7,7.860614e-06,-0.38142282,1.7915819,0.00902265,1.7850027,1
249031503,249031462,0.7,7.802014e-06,-0.6647171,1.7164494,0.028602246,1.7080563,1
249131511,249131470,0.699861,7.742474e-06,0.30869177,1.7229306,0.006145254,1.7237738,1
249231560,249231519,0.6999165,7.686769e-06,1.3728347,1.8000546,0.11633444,1.8213134,1
249331645,249331599,0.6999944,7.63369e-06,0.092634276,1.8063767,0.0005278282,1.8033547,1
249431534,249431492,0.7,7.5808243e-06,-0.1475879,1.7618074,0.0013737273,1.7558943,1
249531554,249531511,0.699858,7.5275434e-06,1.0898328,1.7333324,0.076136924,1.7451242,1
249631553,249631510,0.7,7.47702e-06,-0.42095032,1.8314226,0.010750548,1.8225234,1
249731576,249731533,0.7,7.43069e-06,-0.33984235,1.8871008,0.0068001323,1.8782032,1
249831577,249831534,0.7,7.3855767e-06,-0.57830393,1.8574098,0.020006081,1.8474253,1
249931644,249931599,0.6999298,7.3394926e-06,0.6553056,1.7972319,0.026548572,1.7987986,1
250031594,250031551,0.69984794,7.2934868e-06,1.9024423,1.8002278,0.2233845,1.8270833,1
250131635,250131589,0.69985604,7.249992e-06,2.563106,1.8998002,0.38422245,1.9451625,1
250231705,250231659,0.699967,7.2106773e-06,0.6563926,2.0252976,0.023637196,2.0237708,1
250331621,250331574,0.7,7.1742325e-06,-0.4919316,2.1221347,0.012670506,2.1104665,1
250431634,250431587,0.7,7.13907e-06,-0.6636885,2.098732,0.023320029,2.0870585,1
250531668,250531627,0.69999236,7.102767e-06,0.153233,2.0029285,0.0013025568,1.9949123,1
250631678,250631637,0.69993067,7.0655474e-06,1.3626179,1.9398695,0.106348924,1.9484781,1
250731666,250731624,0.69989693,7.028353e-06,2.0420313,1.9491493,0.23770438,1.9722899,1
250831667,250831626,0.69992334,6.993146e-06,1.6268582,2.0919964,0.14057107,2.1045675,1
250931678,250931637,0.69995743,6.960942e-06,0.9468342,2.1839428,0.045610424,2.1831903,1
251031682,251031641,0.6999152,6.9303437e-06,-0.6480067,2.1709304,0.02149169,2.1590948,1
251131738,251131697,0.6995412,6.9012226e-06,0.6417376,2.1572983,0.021211052,2.150521,1
251231732,251231691,0.69969976,6.8730774e-06,-0.88434887,2.0909977,0.04155767,2.0806828,1
251331759,251331718,0.6999859,6.8429613e-06,0.3029709,2.0572433,0.0049576247,2.048198,1
251431726,251431686,0.7,6.809493e-06,-0.2853817,2.0096478,0.004502874,1.9985573,1
251531760,251531699,0.7,6.773692e-06,-0.6280731,2.0178711,0.02172123,2.0065017,1
251631807,251631766,0.6998275,6.7383057e-06,1.3060936,2.0075657,0.09441397,2.0112753,1
251731786,251731745,0.7,6.7036603e-06,-2.2339067,1.9783462,0.28027558,1.9827942,1
251831848,251831800,0.7,6.668547e-06,-1.2120624,1.9126995,0.08534158,1.9047462,1
251931869,251931828,0.69992083,6.6317066e-06,1.5226967,1.846711,0.1395036,1.8545752,1
252031808,252031767,0.6998246,6.5967492e-06,-1.4776844,1.9411362,0.12498699,1.9364717,1
252131811,252131770,0.6998727,6.5639733e-06,-1.2982239,1.8855855,0.09931399,1.8795457,1
252231899,252231857,0.69958884,6.5327067e-06,0.19504106,1.8671938,0.0022637069,1.8577052,1
252331868,252331827,0.6996276,6.5013355e-06,-2.0482643,1.7995256,0.25904274,1.8057886,1
252431903,252431862,0.69999254,6.4702767e-06,-3.0752711,1.8644594,0.56360054,1.8928097,1
252531897,252531835,0.6999163,6.4396727e-06,1.7044483,1.8440086,0.17505005,1.8524289,1
252631937,252631895,0.69984037,6.4079754e-06,-0.12766673,1.8247863,0.0009924324,1.8144629,1
252731846,252731804,0.69983417,6.3770394e-06,0.7966155,1.7920707,0.03934593,1.7867676,1
252831954,252831913,0.7,6.34611e-06,-1.2393302,1.7626565,0.096819736,1.7576731,1
252931869,252931826,0.6999908,6.314058e-06,-1.1204097,1.7371141,0.08029396,1.7309847,1
253031999,253031958,0.69997567,6.285772e-06,0.47765774,1.7787899,0.014251693,1.7717856,1
253131897,253131856,0.69980276,6.2539025e-06,0.44862312,1.8341166,0.01219253,1.826281,1
253231994,253231953,0.6994958,6.226491e-06,0.8053588,1.8447789,0.039065376,1.8392509,1
253331912,253331871,0.6992715,6.2008558e-06,-1.3968185,1.8875492,0.114852175,1.8851047,1
253432108,253432068,0.6989992,6.1770966e-06,-0.22359759,1.8886116,0.002941366,1.878104,1
253531950,253531910,0.6990395,6.1525006e-06,-1.5319464,1.8747394,0.13909252,1.8750477,1
253632045,253632004,0.699064,6.1273417e-06,-0.9981135,1.875972,0.059005294,1.86984,1
253731943,253731902,0.6990577,6.101923e-06,1.9707677,1.8933004,0.22793387,1.9029534,1
253832098,253832056,0.69913125,6.077216e-06,0.13957193,1.9076065,0.0011346578,1.8971336,1
253937035,253936946,0.6989454,6.049826e-06,1.2865205,2.0519276,0.089624934,1.8753182,1
254037145,254037062,0.69906884,6.0353404e-06,0.96411896,3.4254718,0.030150766,1.8579491,1
254137228,254137146,0.6986353,6.033033e-06,-1.3594226,5.6065564,0.036624376,2.0933673,1
254237211,254237121,0.6987322,6.034811e-06,-1.8594643,6.530353,0.058829684,2.1098003,1
254337107,254337024,0.69892484,6.0364455e-06,-0.023895502,6.8209662,9.301306e-06,2.170454,1
254437384,254437301,0.6991005,6.037405e-06,-0.39754236,6.8816442,0.0025517144,2.2171438,1
254537091,254537008,0.69909847,6.038545e-06,0.4459654,7.3619747,0.0030016876,2.1964765,1
254637251,254637148,0.6989814,6.042236e-06,0.07732646,9.016855,7.3681535e-05,2.2082417,1
254737115,254737028,0.6989761,6.0480515e-06,3.2400944,10.727107,0.108740225,2.1917956,1
254837273,254837191,0.6990409,6.05522e-06,-0.096201554,12.64973,8.1290615e-05,2.266892,1
254937127,254937043,0.6990957,6.062621e-06,-1.8801001,13.146992,0.029873978,2.2624934,1
255037330,255037248,0.6991353,6.0697225e-06,0.31027526,12.678912,0.0008436645,2.2214246,1
255137140,255137058,0.69916666,6.07623e-06,0.6718267,12.079093,0.0041518123,2.1897674,1
255237323,255237241,0.6991668,6.0826696e-06,-0.7605455,11.721993,0.0054828506,2.1765459,1
255337243,255337158,0.6990783,6.08935e-06,1.2980115,11.981923,0.015623851,2.2588503,1
255437366,255437283,0.699044,6.0963985e-06,2.2457833,11.765026,0.04763216,2.275706,1
255537171,255537089,0.6990175,6.103254e-06,-0.030473262,10.888844,9.475751e-06,2.228633,1
255637352,255637271,0.699044,6.109418e-06,-1.406122,9.433014,0.023289116,2.205293,1
255737188,255737106,0.699043,6.1141977e-06,-0.7028064,8.042515,0.0068239695,2.2062523,1
255837303,255837198,0.6990206,6.1173014e-06,-0.65764594,6.4617124,0.007436938,2.2008138,1
255937279,255937198,0.69897693,6.1179444e-06,-0.49921012,5.0324073,0.0055023534,2.1790287,1
256037259,256037173,0.69891953,6.1151454e-06,-0.12444562,3.681865,0.0004673571,2.150536,1
256137227,256137143,0.69887406,6.1069213e-06,-0.7592596,2.5047839,0.02557218,2.1378741,1
256237283,256237199,0.6987015,6.0911325e-06,-1.3910344,2.1290846,0.10098114,2.1286716,1
256337254,256337170,0.69864404,6.074516e-06,-1.4569052,2.184604,0.10795615,2.1842213,1
256437298,256437214,0.69872236,6.056843e-06,1.9496369,2.2306821,0.18933342,2.2356672,1
256537267,256537184,0.69877,6.0448006e-06,-1.9246228,2.4781933,0.16607855,2.4823234,1
256637357,256637272,0.69882894,6.0286798e-06,-1.5647931,2.5076115,0.10849533,2.505412,1
256737291,256737210,0.6983046,6.013493e-06,1.2431642,2.6290395,0.065315664,2.6211574,1
256837337,256837254,0.6982813,5.9989216e-06,-3.0338142,2.5459225,0.40168926,2.580332,1
256937350,256937228,0.69828236,5.9844e-06,1.8507375,2.5214038,0.15094012,2.5229843,1
257037387,257037305,0.6984122,5.969136e-06,-2.4132383,2.5317595,0.25558504,2.548065,1
257137308,257137199,0.6985622,5.9544113e-06,-0.16464582,2.5986657,0.0011590669,2.585,1
257237414,257237331,0.698808,5.938986e-06,0.23307782,2.6097112,0.0023129538,2.595885,1
257337340,257337257,0.6991633,5.9235067e-06,0.4193908,2.719633,0.007185963,2.7065454,1
257437416,257437316,0.69912297,5.908952e-06,-1.8875318,2.6351457,0.15022472,2.6361,1
257537366,257537281,0.6988091,5.8956543e-06,1.6011733,2.6996527,0.10551793,2.6982243,1
257637460,257637377,0.6985806,5.8856044e-06,-0.60453725,2.7922997,0.014542584,2.7794561,1
257737396,257737313,0.69825333,5.87638e-06,4.139588,2.7637281,0.68893206,2.8273573,1
257837488,257837381,0.6984017,5.8672545e-06,0.22925131,2.7848246,0.002096927,2.7699697,1
257937432,257937349,0.6983125,5.8571877e-06,1.7223403,2.77975,0.11857405,2.7777271,1
258037528,258037442,0.69809985,5.8467563e-06,-0.17302287,2.7349916,0.0012162098,2.7208464,1
258137426,258137339,0.6979715,5.8362643e-06,-0.4386921,2.6938078,0.007937989,2.6813927,1
258237504,258237417,0.6972889,5.827296e-06,3.1937375,2.7919142,0.40593252,2.8156183,1
258337460,258337377,0.6974446,5.8190453e-06,-0.37682486,2.8098218,0.0056151035,2.7972326,1
258437572,258437487,0.69746304,5.8100213e-06,-0.8402325,2.7897904,0.028118026,2.7810192,1
258537633,258537543,0.6976486,5.79919e-06,-0.50408757,2.7358944,0.010319773,2.7233515,1
258637537,258637455,0.69799656,5.7864245e-06,-1.2896142,2.7403884,0.06743184,2.7346597,1
258737494,258737412,0.6978835,5.7733846e-06,1.8827164,2.706587,0.14551418,2.7078526,1
258837762,258837674,0.6975988,5.76151e-06,-0.12839128,2.7347608,0.00066974456,2.6543608,1
258937538,258937456,0.69753176,5.7531242e-06,-0.981918,3.2037113,0.033439096,2.626179,1
259037608,259037525,0.6975755,5.7456787e-06,-1.4563859,3.033651,0.077686355,2.5730045,1
259137674,259137590,0.6977938,5.734743e-06,-0.11004156,2.5855913,0.00052036863,2.5277011,1
259237619,259237530,0.69820815,5.7200587e-06,-0.13158831,2.5686114,0.0007490205,2.5546775,1
259337549,259337467,0.69826657,5.7048464e-06,0.67985964,2.537837,0.020236354,2.526745,1
259437765,259437681,0.69817513,5.6906692e-06,1.0377448,2.5173411,0.04753314,2.509193,1
259537621,259537520,0.69825107,5.677403e-06,1.1430745,2.5163558,0.057694513,2.5097437,1
259637688,259637599,0.6981885,5.6638632e-06,0.6781752,2.4708388,0.020682208,2.459887,1
259737765,259737684,0.698526,5.6488043e-06,-2.3927207,2.4491024,0.25973743,2.4615445,1
259837702,259837618,0.69867957,5.633333e-06,-0.7194701,2.4294739,0.02367395,2.4177263,1
259937609,259937526,0.6987591,5.6178606e-06,-2.3388314,2.3824923,0.25510785,2.3930185,1
260037823,260037739,0.6987896,5.603255e-06,-2.3027475,2.371963,0.24839464,2.382078,1
260137674,260137587,0.69878656,5.589344e-06,0.7638895,2.374746,0.027302435,2.3658836,1
260237710,260237628,0.69886196,5.5754945e-06,2.3224719,2.333793,0.25680062,2.3515136,1
260337807,260337727,0.6990258,5.561692e-06,-0.5563174,2.3272312,0.014776217,2.3150525,1
260437856,260437762,0.6993152,5.547682e-06,-1.0422392,2.3451371,0.051466435,2.3353653,1
260537708,260537629,0.69920504,5.5339574e-06,1.2403187,2.393273,0.071421966,2.3904023,1
260637872,260637791,0.69904244,5.5209935e-06,-0.24900115,2.3674014,0.0029099686,2.3544815,1
260737691,260737605,0.69892323,5.5088426e-06,-0.84155524,2.3850644,0.032993063,2.375062,1
260837748,260837669,0.698698,5.4974976e-06,1.6216799,2.3615997,0.123731844,2.3619173,1
260937743,260937663,0.6989352,5.486413e-06,-0.4375903,2.3279355,0.009139489,2.3161747,1
261037805,261037724,0.6994863,5.473384e-06,-1.7285213,2.4421778,0.13593452,2.440301,1
261137721,261137641,0.699847,5.4595916e-06,-0.31655037,2.5129275,0.0044306065,2.4992292,1
261237773,261237663,0.6999966,5.445755e-06,-1.7500656,2.5001876,0.13611111,2.4966702,1
261337730,261337651,0.69982344,5.432675e-06,-1.2075775,2.4945333,0.06495285,2.4854739,1
261437830,261437752,0.699845,5.420877e-06,-1.7730026,2.431602,0.14364275,2.4301076,1
261537745,261537667,0.7,5.4089396e-06,-1.7314936,2.357737,0.14128755,2.3554611,1
261637838,261637726,0.7,5.3962253e-06,-1.1757762,2.3902087,0.064264484,2.3807406,1
261737797,261737693,0.6999084,5.3826175e-06,-0.025598466,2.3454597,3.1042553e-05,2.333078,1
261837842,261837725,0.6998394,5.3702e-06,2.1631162,2.3565214,0.22062048,2.3730981,1
261937791,261937710,0.6997497,5.3595936e-06,-0.5942273,2.330981,0.016831545,2.3190613,1
262037868,262037753,0.6999029,5.3490494e-06,-1.1162275,2.2600813,0.061254617,2.251555,1
262137835,262137754,0.7,5.337494e-06,-2.3658683,2.254832,0.27581918,2.2629952,1
262237796,262237711,0.7,5.3239846e-06,-3.0028887,2.2196789,0.45138365,2.240862,1
262337868,262337787,0.69996005,5.3089802e-06,0.1047743,2.1911004,0.0005566788,2.180315,1
262437854,262437772,0.6999059,5.294711e-06,-1.374269,2.2416322,0.093613096,2.2346296,1
262537878,262537797,0.69953483,5.28282e-06,2.5973194,2.228083,0.33641618,2.2555025,1
262637870,262637792,0.6994134,5.2718888e-06,0.5716884,2.181426,0.016646992,2.1722584,1
262737859,262737780,0.6995354,5.2603204e-06,1.581133,2.1924906,0.12669416,2.1959276,1
262837901,262837820,0.69983673,5.2476767e-06,0.8695086,2.2130127,0.037959576,2.2071257,1
262937995,262937883,0.7,5.234245e-06,-1.8999854,2.213577,0.18120216,2.2140732,1
263038018,263037902,0.69990814,5.2207884e-06,0.5196173,2.1843832,0.0137339635,2.1754673,1
263138004,263137861,0.6996838,5.208243e-06,-0.19110224,2.1855223,0.001856666,2.173655,1
263237957,263237900,0.6995365,5.1971874e-06,0.56327564,2.1064656,0.016735744,2.0972755,1
263337954,263337896,0.69938755,5.1860716e-06,-0.6516355,2.1269436,0.022182528,2.1171222,1
263437979,263437920,0.69946206,5.173892e-06,0.3585963,2.0742214,0.0068883304,2.0637631,1
263537946,263537889,0.69982904,5.160601e-06,-0.11541898,2.0584574,0.00071906816,2.0471618,1
263637977,263637918,0.7,5.1464235e-06,-2.5092657,2.0213249,0.34611043,2.0360558,1
263737963,263737908,0.7,5.1326083e-06,-0.8744765,2.1406465,0.039692532,2.1310198,1
263837982,263837910,0.6999177,5.1225265e-06,0.30710256,2.2879305,0.0045801695,2.277169,1
263938061,263938001,0.6998726,5.1108145e-06,-0.43228275,2.3586943,0.008802816,2.3459466,1
264038044,264037989,0.7,5.098103e-06,-0.99658924,2.3113623,0.047744334,2.3008096,1
264137986,264137929,0.69997084,5.0843055e-06,0.8505784,2.2694764,0.03542098,2.264965,1
264238038,264237950,0.69995326,5.0719773e-06,0.11461055,3.0584822,0.00047720032,2.2031653,1
264338004,264337949,0.6999785,5.072068e-06,-1.275459,6.5316668,0.027673654,2.2563856,1
264438165,264438109,0.69999987,5.0784315e-06,-0.3602896,11.130556,0.0012958184,2.28926,1
264538026,264537970,0.6999904,5.087911e-06,2.0536418,16.00297,0.029282372,2.2396395,1
264638075,264638004,0.69999874,5.09797e-06,-1.6009284,22.28828,0.012776878,2.2410212,1
264738232,264738172,0.6999902,5.1089046e-06,1.1589535,29.953941,0.0049823653,2.3136537,1
264838110,264838021,0.6999906,5.120246e-06,-0.8290351,38.390205,0.0019892203,2.359799,1
264938103,264938047,0.6999865,5.131977e-06,1.9332047,45.93323,0.009040369,2.3523831,1
265038240,265038185,0.6999691,5.143974e-06,4.599706,55.188934,0.042595692,2.4468722,1
265138084,265138024,0.6999622,5.1561274e-06,0.52945745,70.16909,0.00044388842,2.5288491,1
265238117,265238062,0.69994974,5.168488e-06,6.4989424,80.2975,0.058444124,2.7209713,1
265338236,265338181,0.6999478,5.1810034e-06,1.2582755,99.941826,0.0017601986,2.7502053,1
265438201,265438125,0.6999494,5.1935635e-06,-2.931863,126.81837,0.0075311745,3.127147,1
265538143,265538087,0.699951,5.206175e-06,-4.040867,147.9793,0.012260429,3.2320058,1
265628113,265628072,0.6999653,5.2175537e-06,-8.837668,198.41573,0.043737788,4.156522,1
265738183,265738121,0.6999661,5.231542e-06,-0.103753686,258.61737,4.624948e-06,4.3775654,1
265838191,265838136,0.699977,5.2442974e-06,-1.8544488,400.795,0.00095337746,6.092437,1
265938293,265938238,0.6999806,5.257126e-06,-7.032212,506.77243,0.010842475,7.1088266,1
266038222,266038168,0.69998616,5.269937e-06,6.709404,722.2352,0.006925429,9.261566,1
266138217,266138157,0.6999922,5.2827886e-06,-15.557524,896.18274,0.030008333,11.068516,1
266238384,266238324,0.69999397,5.2957084e-06,-13.571905,1192.4457,0.01716329,13.012452,1
266328172,266328129,0.69999564,5.307259e-06,-4.3480177,1422.702,0.0014764752,13.66094,1
266438246,266438175,0.6999981,5.3214585e-06,-4.9291964,1659.1642,0.0016271229,14.591742,1
266538419,266538345,0.6999999,5.334407e-06,0.7806883,1867.6503,3.625912e-05,15.211176,1
266638262,266638206,0.69999963,5.3472813e-06,2.9742393,2253.5818,0.00043615012,17.124493,1
266738258,266738204,0.7,5.3603676e-06,-0.78180504,2915.112,2.3296956e-05,20.568987,1
266838406,266838335,0.6999998,5.3733315e-06,6.606599,3608.4258,0.0013439886,24.324627,1
266938260,266938205,0.7,5.386232e-06,0.04269719,4158.5806,4.8709197e-08,26.035929,1
267028252,267028209,0.7,5.3978756e-06,-4.3214655,4345.909,0.00047746213,25.844337,1
267138274,267138219,0.6999999,5.4121165e-06,0.81924176,4687.3457,1.5909432e-05,26.348692,1
267238355,267238298,0.6999998,5.4250795e-06,9.78155,5072.722,0.002095713,27.833563,1
267338344,267338287,0.7,5.4380207e-06,-8.749887,5753.1147,0.0014786297,29.531164,1
267438419,267438336,0.6999999,5.450978e-06,2.2314553,6292.6094,8.792312e-05,30.721529,1
267538330,267538272,0.69999975,5.463909e-06,1.7973361,6609.9604,5.4302174e-05,30.897305,1
267638401,267638320,0.6999998,5.4768684e-06,0.2528454,6840.5757,1.0384247e-06,30.675886,1
267728465,267728424,0.7,5.4885522e-06,-0.9803552,7205.827,1.481974e-05,31.17169,1
267838358,267838299,0.69999987,5.5027663e-06,9.031378,7538.133,0.0012022692,31.785778,1
267928399,267928358,0.7,5.5144383e-06,-4.242904,7979.575,0.00025067103,31.95987,1
268038384,268038327,0.69999987,5.5286787e-06,8.099251,8397.252,0.0008679806,32.8228,1
268138416,268138358,0.6999999,5.5416426e-06,2.5086668,8803.886,7.942716e-05,32.89325,1
268238445,268238390,0.6999999,5.554607e-06,0.22644824,8780.377,6.489066e-07,31.778841,1
268338354,268338278,0.6999999,5.567536e-06,1.5575309,8661.841,3.1118638e-05,30.520226,1
268428481,268428440,0.69999987,5.579239e-06,3.9134197,8590.032,0.00019809594,29.702593,1
268538412,268538356,0.69999987,5.5934706e-06,1.5086112,8462.441,2.988247e-05,28.473404,1
268638422,268638367,0.69999987,5.6064305e-06,-1.1594625,8286.956,1.8025024e-05,27.351927,1
268738493,268738437,0.69999987,5.619407e-06,0.75769466,8078.508,7.896139e-06,26.229927,1
268828386,268828361,0.6999998,5.6412987e-06,9.951266,8620.367,0.0012764048,28.503479,1
268928520,268928495,0.6999998,5.667289e-06,9.826426,9289.663,0.0011549114,31.093466,1
269028382,269028358,0.6999998,5.6931376e-06,12.414511,9862.914,0.0017362467,34.361843,1
269128395,269128370,0.6999998,5.719064e-06,8.475603,10285.151,0.000776047,36.03328,1
269228583,269228559,0.6999998,5.7450825e-06,9.827809,10216.187,0.0010504663,36.075268,1
269328483,269328458,0.6999998,5.7709503e-06,5.885072,10136.866,0.00037962725,34.762177,1
269428513,269428489,0.6999998,5.7968873e-06,5.8775954,9937.05,0.0003862775,33.279022,1
269528429,269528404,0.6999998,5.822764e-06,6.5505013,9682.65,0.00049239356,31.784307,1
269628444,269628419,0.6999998,5.8486917e-06,9.814872,9753.821,0.0010973671,31.512579,1
269728452,269728427,0.6999998,5.8746164e-06,12.936972,9948.938,0.0018691579,31.77965,1
269828476,269828452,0.6999998,5.9005497e-06,12.87616,10331.639,0.0017830395,32.48663,1
269928467,269928443,0.6999998,5.926467e-06,11.259484,10647.032,0.0013230186,33.104744,1
270028543,270028498,0.6999998,5.952416e-06,11.657847,10694.479,0.0014119998,33.357925,1
270128525,270128500,0.6999998,5.9783374e-06,12.579764,10512.383,0.0016726357,33.023125,1
270228557,270228533,0.6999998,6.0042753e-06,8.578764,10110.062,0.00080882234,31.720398,1
270328509,270328485,0.6999998,6.0301736e-06,8.3137245,9610.388,0.0007991124,30.288462,1
270428517,270428493,0.6999998,6.056099e-06,4.427839,9089.943,0.00023965137,28.986229,1
270528532,270528508,0.6999998,6.0820284e-06,3.4056559,8734.999,0.00014753536,28.18236,1
270628582,270628557,0.6999998,6.1079745e-06,4.61082,8400.87,0.0002811833,27.279194,1
270728579,270728555,0.6999998,6.133894e-06,6.919052,7958.3286,0.00066838827,26.00512,1
270828588,270828561,0.6999998,6.159818e-06,8.705039,7530.9897,0.001118013,24.814974,1
270928565,270928540,0.6999998,6.185729e-06,8.01529,7145.6074,0.0009989801,23.64654,1
271028608,271028583,0.6999998,6.211671e-06,5.5624056,6804.535,0.0005052244,22.57323,1
271128602,271128576,0.6999998,6.237589e-06,5.9383163,6527.9556,0.0006002151,21.555077,1
271228600,271228574,0.6999998,6.2635086e-06,8.035452,6278.41,0.00114269,20.564861,1
271328644,271328619,0.6999998,6.2894524e-06,7.1762085,6117.6494,0.000935326,19.823898,1
271428684,271428660,0.6999998,6.315395e-06,8.749017,5963.115,0.0014262734,19.16139,1
271528634,271528607,0.6999998,6.341288e-06,10.561786,5796.456,0.002138305,18.509481,1
271628640,271628612,0.6999998,6.367211e-06,6.6214237,5610.167,0.00086832925,17.675241,1
271728671,271728647,0.6999998,6.3931498e-06,10.2485895,5404.7476,0.0021592865,16.905403,1
271828686,271828640,0.6999998,6.4190663e-06,9.577068,5318.9395,0.0019160094,16.41202,1
271928724,271928698,0.6999998,6.445018e-06,12.499065,5293.538,0.0032791896,16.299265,1
272028717,272028691,0.6999998,6.4709343e-06,13.642847,5256.6997,0.003934181,16.105907,1
272128692,272128664,0.6999998,6.4968413e-06,10.850296,5180.121,0.0025252288,15.548556,1
272228708,272228682,0.6999998,6.522771e-06,9.435866,5044.9272,0.0019609483,14.971146,1
272328713,272328687,0.6999998,6.5486943e-06,10.071813,4944.43,0.0022795887,14.55828,1
272428753,272428729,0.6999998,6.5746362e-06,9.954573,4765.9243,0.0023102318,13.933644,1
272528734,272528710,0.6999998,6.6005473e-06,9.44165,4592.068,0.0021569745,13.324236,1
272628785,272628759,0.6999998,6.6264934e-06,9.197179,4420.858,0.002125985,12.744668,1
272728838,272728813,0.6999998,6.652442e-06,11.600372,4239.9976,0.0035264338,12.196004,1
272828757,272828733,0.6999998,6.678321e-06,12.643832,4119.5327,0.004311883,11.8277,1
272928810,272928785,0.6999998,6.7042693e-06,12.180488,4022.6235,0.0040980517,11.4663925,1
273028917,273028893,0.6999998,6.7302453e-06,11.244249,3881.6038,0.0036191554,10.980038,1
273128846,273128821,0.6999998,6.756129e-06,9.697499,3729.9717,0.0028013762,10.490869,1
273228819,273228794,0.6999998,6.7820347e-06,9.136263,3610.1965,0.0025689981,10.106828,1
273329115,273329090,0.6999998,6.8081085e-06,11.600584,3459.1606,0.004322614,9.659675,1
273428870,273428846,0.6999998,6.8339036e-06,12.780651,3366.5605,0.0053910958,9.404539,1
273533896,273533865,0.6999998,6.862747e-06,11.273126,3276.5679,0.004309501,9.039187,1
273629090,273629065,0.6999998,6.887807e-06,10.002689,3143.2295,0.0035368362,8.648478,1
273728916,273728891,0.6999998,6.9136386e-06,9.196987,3009.695,0.0031226703,8.256023,1
273828892,273828853,0.6999998,6.939539e-06,9.800319,2896.5674,0.003684294,7.9011097,1
273929119,273929094,0.6999998,6.965585e-06,10.698602,2801.5188,0.004539604,7.614443,1
274028907,274028868,0.6999998,6.9913885e-06,10.395269,2729.3079,0.0043992274,7.3902354,1
274128982,274128958,0.6999998,7.017355e-06,10.220089,2646.7302,0.0043848744,7.139013,1
274229074,274229049,0.6999998,7.043323e-06,10.056185,2543.2368,0.004418117,6.8341155,1
274329091,274329066,0.6999998,7.069252e-06,9.889489,2447.039,0.0044408315,6.5492854,1
274428920,274428896,0.6999998,7.0950846e-06,9.573648,2350.3838,0.00433285,6.271581,1
274529208,274529184,0.6999998,7.1211552e-06,10.225584,2250.8425,0.005161651,5.9918776,1
274628975,274628951,0.6999998,7.146955e-06,9.789633,2164.244,0.0049202153,5.7542167,1
274729143,274729105,0.6999998,7.172955e-06,10.955541,2071.5647,0.0064376392,5.496816,1
274829096,274829072,0.6999998,7.198859e-06,9.59844,2000.1105,0.0051180534,5.291371,1
274929105,274929080,0.6999998,7.224783e-06,10.888659,1946.5242,0.0067677833,5.1451144,1
275028984,275028959,0.6999998,7.25064e-06,10.067099,1900.9586,0.0059237056,5.0298963,1
275129313,275129288,0.6999998,7.276732e-06,9.876037,1830.0968,0.005921733,4.8643084,1
275229025,275229001,0.6999998,7.302505e-06,9.941056,1749.688,0.0062756967,4.674349,1
275329195,275329167,0.6999998,7.328511e-06,8.74707,1700.3441,0.0049997224,4.5787497,1
275429015,275428991,0.6999998,7.354341e-06,9.479198,1703.3755,0.005861251,4.5713153,1
275529224,275529200,0.6999998,7.38037e-06,10.308501,1651.4885,0.007149456,4.434008,1
275629032,275629007,0.6999998,7.406191e-06,6.9497056,1604.2394,0.0033451926,4.4025574,1
275729100,275729076,0.6999998,7.432148e-06,7.45433,1727.559,0.0035738954,4.696009,1
275829055,275829031,0.6999998,7.4580444e-06,7.6019135,1780.0171,0.0036072743,4.8188972,1
275929220,275929179,0.6999998,7.4840427e-06,9.253794,1749.0707,0.0054398854,4.694521,1
276029117,276029090,0.6999998,7.5099174e-06,13.190827,1709.3767,0.011310031,4.7371593,1
276129123,276129096,0.6999998,7.5358407e-06,12.657664,1873.4016,0.009502409,5.1751375,1
276229109,276229081,0.6999998,7.561753e-06,11.832948,1893.5405,0.008216158,5.247401,1
276329194,276329166,0.6999998,7.5877188e-06,13.722837,1974.3372,0.010598002,5.6086645,1
276429115,276429088,0.6999998,7.613598e-06,14.709753,2095.126,0.011475144,6.052022,1
276529196,276529170,0.6999998,7.639562e-06,13.272683,2077.595,0.00942137,5.995427,1
276629127,276629101,0.6999998,7.665446e-06,12.990817,1999.5812,0.009377593,5.8124638,1
276729253,276729226,0.6999998,7.691431e-06,9.013207,1900.0626,0.004750598,5.5974474,1
276829158,276829131,0.6999998,7.717302e-06,12.5655985,1817.8372,0.009650924,5.41787,1
276929205,276929180,0.6999998,7.743248e-06,13.03533,1757.1667,0.010744559,5.3108077,1
277029169,277029145,0.6999998,7.76915e-06,8.194918,1702.4551,0.0043829954,5.265476,1
277129291,277129266,0.6999998,7.795134e-06,9.652796,1651.3541,0.006269364,5.0724463,1
277229231,277229206,0.6999998,7.821023e-06,11.327376,1581.9823,0.009011862,4.8471603,1
277329239,277329214,0.6999998,7.846949e-06,10.073706,1541.2646,0.007315749,4.7515225,1
277429226,277429201,0.6999998,7.8728635e-06,10.975255,1506.8489,0.008882129,4.653597,1
277529363,277529339,0.6999998,7.898855e-06,10.544781,1458.0477,0.0084734615,4.5119495,1
277629260,277629236,0.6999998,7.924722e-06,8.505605,1387.9115,0.005791701,4.374542,1
277729295,277729270,0.6999998,7.95066e-06,11.086258,1347.6855,0.01013302,4.227823,1
277829254,277829230,0.6999998,7.97656e-06,9.835716,1326.4272,0.00810375,4.199525,1
277929330,277929305,0.6999998,8.00252e-06,9.700431,1312.1439,0.00796816,4.161688,1
278029310,278029285,0.6999998,8.02843e-06,10.462257,1249.518,0.009733428,3.9651878,1
278129377,278129352,0.6999998,8.054386e-06,7.811512,1190.1293,0.005696834,3.8536878,1
278229300,278229275,0.6999998,8.0802665e-06,8.868773,1185.6058,0.0073713036,3.7948198,1
278329353,278329328,0.6999998,8.106214e-06,11.417349,1157.9923,0.012507841,3.6883314,1
278429429,278429405,0.6999998,8.132174e-06,10.263868,1112.5408,0.010521161,3.5124881,1
278529388,278529363,0.6999998,8.158073e-06,8.475904,1082.6256,0.0073731197,3.421914,1
278629377,278629353,0.6999998,8.183987e-06,10.723921,1077.4363,0.011859683,3.3551652,1
278729391,278729366,0.6999998,8.209914e-06,10.303205,1039.8004,0.011343632,3.2144828,1
278829363,278829338,0.6999998,8.235821e-06,8.835338,1031.119,0.008411918,3.1673203,1
278929597,278929573,0.6999998,8.261864e-06,9.807084,1014.5614,0.010533167,3.0697117,1
279029385,279029345,0.6999998,8.287668e-06,9.157809,991.6677,0.009396682,2.9762015,1
279129474,279129443,0.6999998,8.313639e-06,5.5228333,1056.1688,0.0032088396,3.2847297,1
279229560,279229536,0.6999998,8.339609e-06,4.9991503,1249.4014,0.0022225312,3.8162913,1
279329519,279329494,0.6999998,8.365508e-06,10.073826,1263.2609,0.008925927,3.6431913,1
279429448,279429423,0.6999998,8.391391e-06,8.116501,1284.7494,0.005697401,3.6726043,1
279529668,279529642,0.6999998,8.417425e-06,4.1408305,1363.1508,0.0013976181,4.0622787,1
279629435,279629409,0.6999998,8.443226e-06,5.6839967,1468.6528,0.0024442521,4.201637,1
279729483,279729458,0.6999998,8.469173e-06,5.3753247,1526.8116,0.0021027199,4.3409,1
279829603,279829575,0.6999998,8.495154e-06,3.4227452,1612.5549,0.0008072204,4.668204,1
279929535,279929510,0.6999998,8.521042e-06,3.2699447,1767.3605,0.0006722227,5.049654,1
280029557,280029531,0.6999998,8.546974e-06,5.107015,1919.0322,0.0015101134,5.294944,1
280129710,280129683,0.6999998,8.572972e-06,8.606515,1878.3118,0.004381718,5.1143103,1
280229491,280229464,0.6999998,8.5987795e-06,10.177241,1860.5924,0.00618538,5.0727596,1
280329574,280329514,0.6999998,8.6247255e-06,11.032593,1941.5955,0.006965526,5.271392,1
280419568,280419543,0.6999998,8.648706e-06,8.393288,2021.0585,0.0038729587,5.3609385,1
280529518,280529492,0.6999998,8.68107e-06,11.11938,2025.7681,0.006781549,5.376477,1
280629571,280629545,0.6999998,8.7070175e-06,11.128379,1994.6401,0.0068985326,5.2473464,1
280729776,280729749,0.6999998,8.733046e-06,11.12409,2080.1062,0.006609993,5.412932,1
280829562,280829533,0.6999998,8.758855e-06,11.388327,2217.8066,0.00649761,5.7285566,1
280929666,280929607,0.6999998,8.784816e-06,13.793679,2436.9187,0.008675145,6.411565,1
281029723,281029699,0.6999998,8.8107845e-06,14.628263,2822.9106,0.008422595,7.4409432,1
281129598,281129573,0.6999998,8.83664e-06,11.426895,2985.002,0.00486037,7.665697,1
281229638,281229610,0.6999998,8.862579e-06,12.945503,2932.7107,0.0063493047,7.6198306,1
281329613,281329588,0.6999998,8.88849e-06,10.962286,2812.201,0.004748029,7.2737923,1
281429663,281429639,0.6999998,8.914436e-06,10.897438,2675.7678,0.00493126,6.9530063,1
281529634,281529607,0.6999998,8.94034e-06,12.257873,2545.192,0.0065594465,6.6767964,1
281629678,281629654,0.6999998,8.966285e-06,10.319337,2432.2048,0.0048647546,6.403996,1
281729662,281729638,0.6999998,8.992197e-06,11.751695,2325.0894,0.0065996186,6.170205,1
281829721,281829695,0.6999998,9.0181475e-06,10.582846,2214.5457,0.005619243,5.897767,1
281929693,281929668,0.6999998,9.044056e-06,12.1730175,2099.9185,0.007840641,5.64599,1
282029692,282029668,0.6999998,9.069977e-06,9.719638,1993.9825,0.0052642473,5.38662,1
282129742,282129718,0.6999998,9.095923e-06,10.817776,1918.5513,0.0067773517,5.192825,1
282229695,282229668,0.6999998,9.121818e-06,8.096978,1838.9972,0.00396116,5.052839,1
282329730,282329706,0.6999998,9.147758e-06,10.556158,1803.8197,0.006863982,4.9043713,1
282429711,282429687,0.6999998,9.173669e-06,11.560692,1760.4502,0.008435317,4.819026,1
282529777,282529752,0.6999998,9.1996235e-06,11.19644,1697.7957,0.008204119,4.6658583,1
282629731,282629705,0.6999998,9.22552e-06,13.067159,1628.0591,0.01165332,4.5538735,1
282729792,282729768,0.6999998,9.2514765e-06,12.981613,1576.3613,0.01187843,4.4298654,1
282829747,282829722,0.6999998,9.2773735e-06,9.533907,1521.5043,0.00663783,4.28201,1
282929754,282929729,0.6999998,9.3032995e-06,9.519832,1488.7308,0.006763942,4.198854,1
283029765,283029740,0.6999998,9.329225e-06,6.9478893,1465.8484,0.0036590996,4.252171,1
283129794,283129770,0.6999998,9.355161e-06,7.297779,1486.9241,0.0039796983,4.272579,1
283229789,283229765,0.6999998,9.381079e-06,9.017687,1450.6559,0.006228499,4.102778,1
283329810,283329785,0.6999998,9.407009e-06,11.07698,1385.6654,0.009838793,3.917854,1
283429891,283429867,0.6999998,9.432972e-06,9.823853,1334.3262,0.0080363555,3.780641,1
283529884,283529843,0.6999998,9.458881e-06,8.346162,1308.7407,0.0059139477,3.735772,1
283629838,283629814,0.6999998,9.484788e-06,7.415537,1304.7582,0.004682876,3.7541506,1
283729838,283729813,0.6999998,9.510708e-06,8.817412,1304.3611,0.0066228043,3.6935892,1
283829848,283829823,0.6999998,9.536633e-06,10.446686,1260.0812,0.009623123,3.562418,1
283929858,283929834,0.6999998,9.56256e-06,12.59613,1240.0063,0.014216999,3.5681398,1
284029901,284029874,0.6999998,9.5885025e-06,10.5346155,1231.2767,0.01001473,3.495005,1
284129907,284129882,0.6999998,9.614429e-06,8.381459,1187.9115,0.0065707155,3.4074435,1
284229911,284229862,0.6999998,9.640338e-06,8.800994,1157.1257,0.0074377297,3.3134618,1
284329954,284329929,0.6999998,9.666294e-06,10.447187,1107.5068,0.010949892,3.1643996,1
284429897,284429873,0.6999998,9.692185e-06,10.362154,1067.5048,0.011176035,3.0582998,1
284529912,284529886,0.6999998,9.718112e-06,11.83418,1028.9813,0.015122594,2.9831164,1
284629952,284629925,0.6999998,9.7440525e-06,9.124169,1001.9544,0.009232009,2.9016087,1
284729961,284729935,0.6999998,9.769979e-06,8.608032,1037.4757,0.007935738,3.0144694,1
284830104,284830077,0.6999998,9.795975e-06,10.28511,1022.40765,0.011496121,2.9565995,1
284929975,284929949,0.6999998,9.821829e-06,10.525965,1006.61304,0.012229783,2.9177363,1
285029954,285029930,0.6999998,9.847739e-06,8.737867,972.0012,0.008727736,2.848103,1
285130164,285130140,0.6999998,9.873768e-06,9.871894,950.52325,0.011391888,2.7817612,1
285230022,285229997,0.6999998,9.899615e-06,11.652427,908.68475,0.016602635,2.6945744,1
285330011,285329987,0.6999998,9.925529e-06,9.863528,878.9131,0.01229918,2.586716,1
285430182,285430154,0.6999998,9.951536e-06,10.62235,840.8937,0.014909312,2.4848576,1
285529999,285529975,0.6999998,9.977364e-06,11.1942005,810.4269,0.017180264,2.4097784,1
285630041,285630016,0.6999998,1.0003306e-05,8.593623,805.8819,0.010182131,2.4104908,1
285730174,285730150,0.6999998,1.00292955e-05,8.493898,812.91345,0.009861143,2.4292774,1
285830031,285830006,0.6999998,1.00551415e-05,9.047859,822.99646,0.011052262,2.4457557,1
285930093,285930069,0.6999998,1.0081095e-05,10.215881,791.87415,0.014643774,2.352085,1
286030284,286030259,0.6999998,1.0107115e-05,11.3365,781.9631,0.018261198,2.3467956,1
286130058,286130033,0.6999998,1.0132918e-05,10.553358,789.98505,0.015664624,2.3581393,1
286230072,286230047,0.6999998,1.0158847e-05,9.274663,774.5799,0.012339215,2.317521,1
286330224,286330199,0.6999998,1.0184847e-05,10.892993,779.6941,0.01690938,2.3391693,1
286430092,286430068,0.6999998,1.02107e-05,9.75875,765.1043,0.013830096,2.2837288,1
286530097,286530073,0.6999998,1.0236622e-05,10.989397,731.22345,0.018350804,2.1988976,1
286630292,286630266,0.6999998,1.0262644e-05,10.617775,771.454,0.016237326,2.3135877,1
286730139,286730115,0.6999998,1.0288486e-05,8.972723,751.18695,0.011908525,2.2627084,1
286830175,286830151,0.6999998,1.0314425e-05,7.968635,742.0103,0.009508575,2.2644615,1
286930277,286930253,0.6999998,1.0340398e-05,8.450611,736.3525,0.010775761,2.229474,1
287030188,287030163,0.6999998,1.0366271e-05,9.803214,720.2114,0.014826356,2.1620262,1
287130155,287130130,0.6999998,1.0392174e-05,11.865218,714.2528,0.021900648,2.1823528,1
287230217,287230193,0.6999998,1.0418127e-05,11.889442,730.3628,0.021505117,2.2284503,1
287330211,287330186,0.6999998,1.0444216e-05,9.597873,725.9184,0.014100018,2.1895983,1
287430193,287430167,0.6999998,1.0470127e-05,9.499015,757.44293,0.013236242,2.2806463,1
287530201,287530173,0.6999998,1.0496051e-05,9.354153,781.6217,0.0124385515,2.3506157,1
287630210,287630186,0.6999998,1.0521979e-05,8.249713,752.5111,0.0100489855,2.2772613,1
287730218,287730193,0.6999998,1.0547903e-05,10.35507,752.32227,0.015836516,2.2617025,1
287830263,287830225,0.6999998,1.0573842e-05,10.139615,727.6014,0.015700262,2.1864874,1
287930295,287930271,0.6999998,1.0599786e-05,9.513823,712.53156,0.014114434,2.1377199,1
288030257,288030231,0.6999998,1.0625686e-05,9.141386,716.9968,0.012949838,2.14813,1
288130254,288130229,0.6999998,1.0651605e-05,11.717031,710.5987,0.021466844,2.166398,1
288230298,288230274,0.6999998,1.067755e-05,12.592742,725.498,0.02428633,2.243755,1
288330278,288330254,0.6999998,1.070346e-05,11.477786,732.00073,0.01999688,2.213557,1
288430284,288430259,0.6999998,1.0729384e-05,9.289603,728.77856,0.013156981,2.1803842,1
288530339,288530314,0.6999998,1.0755333e-05,9.298642,711.82153,0.013496634,2.1254373,1
288630383,288630357,0.6999998,1.0781277e-05,8.390798,682.2065,0.011466956,2.0517006,1
288730358,288730317,0.6999998,1.0807176e-05,9.821304,668.4565,0.01603329,1.9879459,1
288830355,288830328,0.6999998,1.0833102e-05,11.065364,698.15875,0.019486539,2.0872633,1
288930329,288930303,0.6999998,1.0859009e-05,8.630886,691.4091,0.011971075,2.073547,1
289030380,289030333,0.6999998,1.0884945e-05,6.9499645,678.16846,0.0079138,2.098067,1
289130344,289130318,0.6999998,1.0910859e-05,9.155251,734.92145,0.012672346,2.1786788,1
289230385,289230359,0.6999998,1.09368e-05,11.083941,714.4733,0.019105567,2.1288316,1
289330381,289330355,0.6999998,1.0962718e-05,12.1179695,690.203,0.023639612,2.0912392,1
289430369,289430343,0.6999998,1.0988632e-05,9.438712,709.45416,0.0139527125,2.0969036,1
289530440,289530412,0.6999998,1.1014588e-05,7.1733136,700.39703,0.008163057,2.1329248,1
289630453,289630428,0.6999998,1.1040516e-05,7.9705625,730.63153,0.009661333,2.1843104,1
289730397,289730372,0.6999998,1.1066406e-05,11.041016,710.829,0.019055063,2.126324,1
289830445,289830420,0.6999998,1.1092351e-05,10.427116,751.02075,0.01608548,2.2312016,1
289930423,289930398,0.6999998,1.111826e-05,10.099175,751.9437,0.015071066,2.2363946,1
290030422,290030397,0.6999998,1.114418e-05,9.478186,729.7929,0.01367755,2.1743386,1
290130446,290130422,0.6999998,1.1170112e-05,8.823528,698.8852,0.012377594,2.0946805,1
290230452,290230427,0.6999998,1.1196035e-05,8.452807,692.77673,0.011459512,2.085203,1
290330491,290330466,0.6999998,1.1221975e-05,10.415872,675.748,0.017838731,2.025023,1
290430491,290430466,0.6999998,1.1247895e-05,10.617356,681.7381,0.018372688,2.053595,1
290530492,290530468,0.6999998,1.1273816e-05,9.224511,703.11383,0.013446788,2.1357198,1
290630482,290630458,0.6999998,1.1299731e-05,7.9833765,680.0918,0.010412696,2.1135106,1
290730547,290730507,0.6999998,1.13256765e-05,7.3335347,705.013,0.008475924,2.2171805,1
290830515,290830491,0.6999998,1.1351588e-05,8.195857,786.22577,0.009492902,2.428288,1
290930508,290930484,0.6999998,1.1377505e-05,13.641473,788.2206,0.02623205,2.5821426,1
291030572,291030548,0.6999998,1.1403458e-05,14.688655,925.29553,0.025908427,3.0845625,1
291130615,291130582,0.6999998,1.1429397e-05,9.175666,1026.6355,0.009112055,3.2158484,1
291230601,291230576,0.6999998,1.1455313e-05,8.343602,1007.0981,0.0076805605,3.1850102,1
291330620,291330592,0.6999998,1.1481243e-05,8.650958,1016.874,0.008177466,3.2131324,1
291430582,291430558,0.6999998,1.1507145e-05,9.166448,979.2533,0.0095337685,3.0920186,1
291530599,291530574,0.6999998,1.1533072e-05,9.556905,942.673,0.010765419,2.9890616,1
291630628,291630601,0.6999998,1.1559006e-05,8.6106,900.626,0.009147026,2.8892794,1
291730582,291730558,0.6999998,1.1584904e-05,8.419476,878.0961,0.008969856,2.8328955,1
291830621,291830590,0.6999998,1.161084e-05,9.857564,887.61835,0.012163833,2.8525066,1
291930656,291930632,0.6999998,1.1636783e-05,9.948945,852.3081,0.01290372,2.745475,1
292030686,292030659,0.6999998,1.1662716e-05,10.19335,822.0004,0.014044921,2.655267,1
292130658,292130633,0.6999998,1.1688623e-05,10.526929,810.90485,0.015184167,2.6296248,1
292230697,292230658,0.6999998,1.1714556e-05,9.164341,792.66327,0.011772569,2.5761545,1
292330645,292330621,0.6999998,1.1740457e-05,9.521798,763.277,0.013198157,2.4810376,1
292430657,292430633,0.6999998,1.1766383e-05,8.724478,802.8263,0.010534521,2.6166513,1
292530755,292530731,0.6999998,1.1792355e-05,7.407137,800.3396,0.007616999,2.6384737,1
292630671,292630645,0.6999998,1.18182315e-05,10.643647,780.916,0.016118852,2.5434117,1
292730717,292730677,0.6999998,1.18441685e-05,12.020665,771.03827,0.020822773,2.5568023,1
292830801,292830774,0.6999998,1.1870139e-05,9.325607,766.29675,0.012609989,2.4858825,1
292930701,292930670,0.6999998,1.1896005e-05,7.7859945,744.2736,0.009050094,2.4463983,1
293030733,293030706,0.6999998,1.1921945e-05,7.873105,735.5727,0.009363193,2.4082222,1
293130768,293130741,0.6999998,1.1947884e-05,11.449216,718.3933,0.02027434,2.352044,1
293230758,293230732,0.6999998,1.1973799e-05,11.851042,721.9049,0.021616757,2.3712556,1
293330795,293330768,0.6999998,1.19997385e-05,9.863076,789.4333,0.013691999,2.5429015,1
293430742,293430716,0.6999998,1.2025632e-05,10.846814,770.4945,0.016966503,2.4859023,1
