timestamp,timestamp_sample,windspeed_north,windspeed_east,variance_north,variance_east,tas_innov,tas_innov_var,beta_innov,beta_innov_var
268797077,268697938,-0.07483372,0.057550248,0.9781709,0.9870897,0.0,0.0,0.15480378,0.09341241
268806908,268707816,-0.07483372,0.057550248,0.9781709,0.9870897,0.0,0.0,0.15480378,0.09341241
269794718,269695626,0.99983686,2.524099,0.6354053,0.35247386,0.41748333,2.3303823,0.08428175,0.09543865
270792432,270693309,0.2312008,3.6226428,0.48811132,0.14295113,1.7996264,2.2843838,-0.17862846,0.09838016
271800053,271700873,-0.7996217,4.2750964,0.39819002,0.0836229,0.6143646,2.2365627,0.13035308,0.0971981
272797659,272698559,-0.9481761,4.4803686,0.3572283,0.063288644,0.8883829,2.1856,0.06505759,0.092811584
273795342,273696246,-0.6185121,4.60088,0.32132554,0.053751137,0.3096218,2.1595857,-0.052899268,0.09219618
274793059,274693932,-0.2534018,4.6182675,0.291794,0.047865614,-0.17068481,2.1448624,-0.1207256,0.092208594
275800629,275701496,0.14815103,4.5878983,0.2667055,0.043676693,1.2965794,2.1434422,-0.2453856,0.091852725
276798331,276699182,1.1779468,4.5204034,0.18735978,0.041740797,4.0576963,2.2704375,-0.11449049,0.09030112
277795972,277696868,1.971344,4.346486,0.14049534,0.0392576,6.2258844,2.2437594,-0.07699218,0.09010599
278793680,278694554,1.9750369,4.351317,0.13969922,0.03926549,11.304818,2.1632092,-0.058120206,0.09012154
279791372,279692239,2.006179,4.354083,0.13884039,0.039286334,12.8219385,2.135824,0.0120941745,0.09018977
280798894,280699802,2.0075204,4.366575,0.13708676,0.039193925,10.638807,2.1312704,-0.070662476,0.09020708
281796607,281697487,1.9235654,4.400337,0.1352673,0.039175723,8.140724,2.1405573,-0.26945525,0.09029956
282794265,282695171,1.8854399,4.4292784,0.13347103,0.039222416,7.2173185,2.1608615,-0.34692797,0.0903379
283792167,283692855,1.841907,4.447653,0.13168965,0.039310522,6.6907063,2.1629493,-0.35586864,0.09035245
284799513,284700417,1.7404156,4.4600463,0.12980536,0.039425757,6.6907063,2.1629493,-0.37917322,0.090345256
285797293,285698100,1.6322944,4.4682007,0.12830867,0.039551858,6.6907063,2.1629493,-0.4041722,0.09035572
286795313,286695782,1.5216614,4.475357,0.12691164,0.039679676,6.6907063,2.1629493,-0.3578115,0.090337284
287792656,287693464,1.4059325,4.4827604,0.12537915,0.039805774,6.6907063,2.1629493,-0.37830362,0.09036119
288800583,288701023,1.3169956,4.4881325,0.12418841,0.03993549,6.6907063,2.1629493,-0.3645319,0.09036374
289797916,289698704,1.2272968,4.493793,0.123069204,0.040063325,6.6907063,2.1629493,-0.35624412,0.09037426
290795708,290696384,1.1152148,4.500336,0.12181966,0.040189583,6.6907063,2.1629493,-0.40649027,0.09043062
291793242,291694063,1.0005218,4.5038733,0.12078377,0.040314883,6.6907063,2.1629493,-0.47360462,0.09051278
292801014,292701620,0.8735737,4.503398,0.11977602,0.04043852,6.6907063,2.1629493,-0.4703017,0.09053206
293798457,293699298,0.7525881,4.499655,0.11880931,0.04055871,6.6907063,2.1629493,-0.44420952,0.09051525
294796098,294696976,0.6597589,4.4948993,0.11807173,0.040674105,6.6907063,2.1629493,-0.41109043,0.09050881
295793749,295694655,0.5747398,4.4899364,0.11735842,0.040784065,6.6907063,2.1629493,-0.45957804,0.09056792
296801431,296702207,0.47225717,4.4829087,0.11653485,0.04089361,6.6907063,2.1629493,-0.44541186,0.09057978
297798967,297699883,0.39237046,4.476807,0.11588362,0.040999465,6.6907063,2.1629493,-0.45084116,0.090605564
298796645,298697558,0.3166823,4.4699473,0.115259975,0.041101422,6.6907063,2.1629493,-0.44284123,0.090625614
299794340,299695232,0.21859476,4.4642076,0.11464647,0.041201573,6.6907063,2.1629493,-0.4263655,0.09064733
300791994,300692906,0.12670106,4.458586,0.11412645,0.04130019,6.6907063,2.1629493,-0.49690777,0.09076004
301799545,301700457,0.07745886,4.449244,0.113588005,0.04139478,6.6907063,2.1629493,-0.3117167,0.090465434
302797225,302698129,0.21412688,4.401191,0.112915464,0.041345254,6.6907063,2.1629493,-0.40926093,0.09063416
303794910,303695801,0.5009831,4.325043,0.11131821,0.040877882,6.6907063,2.1629493,-0.25243068,0.090491585
304792587,304693472,0.6197521,4.270264,0.10915637,0.040200952,6.6907063,2.1629493,-0.22935726,0.09065166
305800116,305701021,0.69586056,4.2315784,0.10608604,0.039416615,6.6907063,2.1629493,-0.06804508,0.09198281
306797790,306698690,0.68024653,4.2316833,0.10464465,0.03931472,6.6907063,2.1629493,0.090196125,0.098719865
307795452,307696360,0.6496468,4.2330546,0.1041851,0.039396483,6.6907063,2.1629493,0.21844852,0.09278493
308793153,308694028,0.6730094,4.2203646,0.10416041,0.03942124,6.6907063,2.1629493,0.20406988,0.09124119
309800763,309701574,0.7052958,4.204994,0.103913814,0.03927893,6.6907063,2.1629493,0.16183239,0.09090623
310798347,310699242,0.7411488,4.171507,0.10357013,0.039047144,6.6907063,2.1629493,0.26217607,0.09075854
311796003,311696909,0.78879195,4.1188745,0.10342934,0.03877537,6.6907063,2.1629493,0.29627523,0.09070631
312793704,312694575,0.81706154,4.0718412,0.103518724,0.038601406,6.6907063,2.1629493,0.35918713,0.09064519
313801217,313702118,0.8430251,4.011744,0.10368665,0.038434714,6.6907063,2.1629493,0.40917978,0.0906524
314798876,314699783,0.86907554,3.9421215,0.103899196,0.03825222,6.6907063,2.1629493,0.37874526,0.090661585
315796547,315697448,0.8871182,3.8952363,0.10415062,0.038201567,6.6907063,2.1629493,0.30110705,0.09064127
316794247,316695112,0.90611845,3.852855,0.10442697,0.0381911,6.6907063,2.1629493,0.32017136,0.09072021
317801766,317702653,0.92454904,3.826724,0.104715206,0.0381691,6.6907063,2.1629493,0.2531862,0.0907339
318789612,318690439,0.97017,3.790697,0.104774944,0.038166117,6.6907063,2.1629493,0.27251908,0.090564676
319797067,319697980,0.9704301,3.7882726,0.10464825,0.038164545,6.6907063,2.1629493,-0.062406056,0.09052534
320794771,320695642,0.9714493,3.7717047,0.10490725,0.038334455,6.6907063,2.1629493,0.15306298,0.09032804
321792394,321693304,0.9386624,3.7497463,0.10519354,0.038539503,6.6907063,2.1629493,0.3623006,0.09048325
322790192,322690966,0.91887206,3.7174008,0.10551185,0.038764272,6.6907063,2.1629493,0.16561528,0.09031347
323797660,323698506,0.9187111,3.696138,0.10589542,0.03892581,6.6907063,2.1629493,0.114465795,0.09033292
324795255,324696167,0.9225872,3.6741905,0.106234066,0.039039567,6.6907063,2.1629493,0.15277453,0.09037913
325792922,325693828,0.92627364,3.656592,0.10652955,0.039106324,6.6907063,2.1629493,0.15755956,0.09042994
326790863,326691488,0.93002295,3.633609,0.10680115,0.039136164,6.6907063,2.1629493,0.15659279,0.09047225
327798162,327699027,0.93246704,3.6054888,0.10706685,0.03913131,6.6907063,2.1629493,0.17487925,0.09048218
328795804,328696687,0.9336318,3.5826602,0.107319,0.039166592,6.6907063,2.1629493,0.1532428,0.09046707
329793880,329694347,0.9343151,3.5648801,0.107550435,0.03919637,6.6907063,2.1629493,0.15395625,0.090491615
330791198,330692007,0.93464625,3.5473516,0.10775955,0.039171655,6.6907063,2.1629493,0.11006333,0.09051823
331798990,331699545,0.9351555,3.5358777,0.10795003,0.039147727,6.6907063,2.1629493,0.10968842,0.090549946
332796398,332697204,0.9360227,3.5266933,0.108126424,0.039095014,6.6907063,2.1629493,0.06650748,0.09056553
333794415,333694863,0.93705094,3.5153446,0.10829859,0.03899713,6.6907063,2.1629493,0.08450264,0.090556175
334791752,334692524,0.937658,3.503806,0.10847094,0.03894821,6.6907063,2.1629493,0.08187296,0.09053418
335789553,335690183,0.93796617,3.493113,0.10864353,0.03892242,6.6907063,2.1629493,0.064711496,0.09050374
336796896,336697718,0.93827486,3.4824593,0.10880944,0.038886424,6.6907063,2.1629493,0.08612587,0.09048734
337794566,337695376,0.9365981,3.4765897,0.108945265,0.03890114,6.6907063,2.1629493,0.072400644,0.09042426
338792128,338693034,0.9272419,3.4604964,0.10890405,0.038885042,6.6907063,2.1629493,0.06632862,0.0903853
339789814,339690692,0.9023511,3.4460762,0.10839835,0.03890105,6.6907063,2.1629493,0.13108787,0.09038472
340797318,340698228,0.8654185,3.4456692,0.10733304,0.03897897,6.6907063,2.1629493,0.13397032,0.09043449
341795080,341695886,0.83499813,3.4440258,0.10577775,0.03907422,6.6907063,2.1629493,0.08503561,0.09047056
342792699,342693543,0.8017175,3.4475322,0.10332607,0.039038967,6.6907063,2.1629493,0.0099610295,0.090559155
343800196,343701078,0.81228715,3.4380863,0.10141217,0.03894579,6.6907063,2.1629493,-0.05663118,0.09050374
344797821,344698735,0.8300764,3.424639,0.100103915,0.038802393,6.6907063,2.1629493,-0.08189922,0.09044905
345795514,345696392,0.8566494,3.4031236,0.09931462,0.0385853,6.6907063,2.1629493,-0.12561235,0.0903769
346793178,346694049,0.87151706,3.3823357,0.09923431,0.038513143,6.6907063,2.1629493,-0.14103805,0.090304725
347790857,347691705,0.87683904,3.3593874,0.09944842,0.038527325,6.6907063,2.1629493,-0.18153815,0.09027392
348798325,348699239,0.8691214,3.3362834,0.09972831,0.038635664,6.6907063,2.1629493,-0.17765923,0.09025144
349795979,349696895,0.85093075,3.3228245,0.09988141,0.038878456,6.6907063,2.1629493,-0.16561888,0.09025159
350793671,350694550,0.82359254,3.31522,0.09981231,0.03919044,6.6907063,2.1629493,-0.16183104,0.090269834
351791296,351692206,0.78441274,3.312502,0.09934973,0.039530996,6.6907063,2.1629493,-0.15259111,0.090298586
352798829,352699739,0.7494721,3.3146455,0.09875343,0.039860502,6.6907063,2.1629493,-0.12651755,0.09030873
353796506,353697393,0.72123975,3.3187716,0.09802997,0.040145688,6.6907063,2.1629493,-0.10022542,0.09031388
354794137,354695048,0.6979591,3.3243773,0.09708791,0.040364515,6.6907063,2.1629493,-0.052670643,0.090319365
355791791,355692703,0.687779,3.3275492,0.09637056,0.040536143,6.6907063,2.1629493,-0.026270095,0.09031034
356789505,356690356,0.6830718,3.329692,0.095792316,0.040658697,6.6907063,2.1629493,-0.013669341,0.0902817
357797050,357697888,0.6818471,3.3306036,0.09531428,0.04070682,6.6907063,2.1629493,0.023130346,0.090265036
358794652,358695541,0.69459534,3.321924,0.09514228,0.040740777,6.6907063,2.1629493,0.10217171,0.090250865
359792326,359693194,0.7124211,3.3037672,0.09515074,0.04075509,6.6907063,2.1629493,0.2024086,0.09024189
360789934,360690847,0.728208,3.2727597,0.09530399,0.040732853,6.6907063,2.1629493,0.25168368,0.090247504
361797532,361698378,0.72220737,3.2464979,0.09549523,0.040777307,6.6907063,2.1629493,0.26209465,0.090250075
362795136,362696030,0.6882309,3.2240896,0.095458716,0.040872518,6.6907063,2.1629493,0.23984763,0.09028614
363793018,363693684,0.63465357,3.2141712,0.094911166,0.04103128,6.6907063,2.1629493,0.26665887,0.09035492
364790491,364691334,0.5648731,3.2170873,0.09371232,0.041213006,6.6907063,2.1629493,0.20938174,0.09044283
365797949,365698863,0.5137515,3.2272682,0.09196074,0.04133078,6.6907063,2.1629493,0.10289839,0.09046922
366795633,366696514,0.48670748,3.2360044,0.08980309,0.041279577,6.6907063,2.1629493,0.048035305,0.0904921
367793276,367694165,0.4846389,3.2379668,0.08820879,0.04109497,6.6907063,2.1629493,-0.012631702,0.0904567
368790932,368691817,0.50203127,3.228769,0.087100096,0.04081823,6.6907063,2.1629493,-0.09387386,0.09039941
369798430,369699343,0.5196375,3.2170274,0.08644527,0.04044452,6.6907063,2.1629493,-0.053151093,0.09032783
370796079,370696993,0.5375518,3.1971054,0.08631298,0.0401553,6.6907063,2.1629493,-0.12645759,0.09028726
371793732,371694643,0.5453049,3.1792402,0.08639296,0.039954796,6.6907063,2.1629493,-0.12652282,0.0902468
372791448,372692293,0.54098,3.1568062,0.08648692,0.039808184,6.6907063,2.1629493,-0.1793264,0.09024599
373798969,373699819,0.522193,3.1380794,0.08644736,0.0397941,6.6907063,2.1629493,-0.18761979,0.0902497
374796592,374697468,0.49502,3.1255975,0.08621719,0.039848052,6.6907063,2.1629493,-0.19131693,0.09025988
375794503,375695117,0.45441648,3.1183398,0.0856766,0.03994328,6.6907063,2.1629493,-0.17873447,0.09027909
376792281,376692766,0.41928136,3.117732,0.085059114,0.040056292,6.6907063,2.1629493,-0.1569636,0.09029363
377789606,377690414,0.38478455,3.121515,0.08433445,0.04016147,6.6907063,2.1629493,-0.14224268,0.09030058
378797526,378697939,0.35349488,3.1281154,0.08344961,0.040237322,6.6907063,2.1629493,-0.09820535,0.09030646
379794782,379695587,0.33348036,3.1350744,0.082735054,0.040280737,6.6907063,2.1629493,-0.08205626,0.09030547
380792987,380693236,0.32228255,3.1402788,0.082116924,0.040290054,6.6907063,2.1629493,-0.034659512,0.09028974
381790086,381690882,0.3221877,3.142268,0.08165136,0.04026748,6.6907063,2.1629493,-0.026608733,0.09027748
382798034,382698407,0.3259433,3.1422384,0.081310965,0.040186755,6.6907063,2.1629493,0.04017526,0.090257004
383795322,383696055,0.33242688,3.1385942,0.08125199,0.040166274,6.6907063,2.1629493,0.054490875,0.09025451
384793226,384693700,0.3350465,3.1389346,0.081359886,0.04027587,6.6907063,2.1629493,0.054490875,0.09025451
385790488,385691346,0.3370869,3.1383095,0.0814746,0.040391304,6.6907063,2.1629493,0.054490875,0.09025451
386798431,386698870,0.33781782,3.1380463,0.08158841,0.040505353,6.6907063,2.1629493,0.054490875,0.09025451
387795653,387696516,0.33725378,3.1381454,0.08169534,0.040612232,6.6907063,2.1629493,0.054490875,0.09025451
388793275,388694161,0.3362058,3.1382139,0.081801206,0.040718146,6.6907063,2.1629493,0.054490875,0.09025451
389791035,389691807,0.33538285,3.138008,0.08192194,0.04083897,6.6907063,2.1629493,0.054490875,0.09025451
390798522,390699330,0.3353274,3.1380095,0.08207843,0.040995546,6.6907063,2.1629493,0.054490875,0.09025451
391796056,391696975,0.33532083,3.1380067,0.08226473,0.041181896,6.6907063,2.1629493,0.054490875,0.09025451
392793777,392694620,0.33537635,3.1379912,0.08247156,0.04138876,6.6907063,2.1629493,0.054490875,0.09025451
393376569,393277403,0.3354113,3.1379986,0.08259174,0.041508958,6.6907063,2.1629493,0.054490875,0.09025451
