timestamp,timestamp_sample,gyro_device_id,gyro_bias[0],gyro_bias[1],gyro_bias[2],gyro_bias_limit,gyro_bias_variance[0],gyro_bias_variance[1],gyro_bias_variance[2],accel_device_id,accel_bias[0],accel_bias[1],accel_bias[2],accel_bias_limit,accel_bias_variance[0],accel_bias_variance[1],accel_bias_variance[2],mag_device_id,mag_bias[0],mag_bias[1],mag_bias[2],mag_bias_limit,mag_bias_variance[0],mag_bias_variance[1],mag_bias_variance[2],gyro_bias_valid,gyro_bias_stable,accel_bias_valid,accel_bias_stable,mag_bias_valid,mag_bias_stable
217066594,216966969,2490378,-0.0003214795,-0.0005979224,0.0014564695,0.34906584,2.1560284e-07,2.1808306e-07,4.2496245e-07,2490378,0.13393277,0.05873275,-0.04490544,0.4,0.0005124404,0.00058895664,0.0005124404,396809,0.0,0.0,0.0,0.5,0.0025000002,0.0025000002,0.0025000002,1,1,1,0,1,0
218074230,217974512,2490378,-0.00030461597,-0.0006068165,0.0014124053,0.34906584,2.1302984e-07,2.156761e-07,4.249661e-07,2490378,0.13393629,0.058815207,-0.044801723,0.4,0.00051243906,0.0005888459,0.0005124381,396809,0.0,0.0,0.0,0.5,0.0025000002,0.0025000002,0.0025000002,1,1,1,0,1,0
219081428,218982051,2490378,-0.00031569644,-0.0006218479,0.0013499007,0.34906584,2.1053314e-07,2.1324347e-07,4.2564733e-07,2490378,0.13390407,0.058883257,-0.045229364,0.4,0.00051244226,0.00058883725,0.00051244145,396809,0.0,0.0,0.0,0.5,0.0025000002,0.0025000002,0.0025000002,1,0,1,0,1,0
220089371,219989593,2490378,-0.00031385632,-0.0006545778,0.0012974092,0.34906584,2.0819289e-07,2.1086888e-07,4.2557414e-07,2490378,0.13382412,0.05886182,-0.04519545,0.4,0.0005124425,0.0005887311,0.0005124425,396809,0.0,0.0,0.0,0.5,0.0025000002,0.0025000002,0.0025000002,1,0,1,0,1,0
221096491,220997136,2490378,-0.0003300079,-0.00065836095,0.0013023858,0.34906584,2.0613322e-07,2.0869882e-07,4.261814e-07,2490378,0.13373676,0.058885235,-0.044554442,0.4,0.000512443,0.0005885056,0.000512443,396809,0.0,0.0,0.0,0.5,0.0025000002,0.0025000002,0.0025000002,1,0,1,0,1,0
221511531,221412007,2490378,-0.00033825455,-0.00065869215,0.0013190726,0.34906584,2.0547573e-07,2.0797798e-07,4.2595542e-07,2490378,0.13368367,0.0588804,-0.043555804,0.4,0.0005124437,0.00058838667,0.00051244017,396809,0.0,0.0,0.0,0.5,0.0025000002,0.0025000002,0.0025000002,1,0,1,0,1,0
222429959,222330649,2490378,-0.0003457895,-0.00067727786,0.0013711523,0.34906584,2.0513065e-07,2.0747825e-07,4.2636324e-07,2490378,0.13353881,0.05873384,-0.04254366,0.4,0.00051245536,0.00058812235,0.00051244075,396809,0.0,0.0,0.0,0.5,0.0025000002,0.0025000002,0.0025000002,1,0,1,0,1,0
223437415,223338194,2490378,-0.00036074652,-0.0006824095,0.0014955606,0.34906584,2.036051e-07,2.0576081e-07,4.2616983e-07,2490378,0.13340078,0.058550574,-0.041696314,0.4,0.00051245454,0.00058760523,0.0005124425,396809,0.0,0.0,0.0,0.5,0.0025000002,0.0025000002,0.0025000002,1,0,1,0,1,0
223467419,223367827,2490378,-0.00036760405,-0.00068543473,0.0014961439,0.34906584,2.015957e-07,2.0373729e-07,4.264355e-07,2490378,0.13336244,0.058572523,-0.04281858,0.4,0.00051244046,0.0005874389,0.00051244046,396809,0.0,0.0,0.0,0.5,0.0025000002,0.0025000002,0.0025000002,1,0,1,0,1,0
224257574,224158061,2490378,-0.00033854702,-0.0006897068,0.0016166688,0.34906584,2.0020921e-07,2.021499e-07,4.2619953e-07,2490378,0.13353531,0.058193527,-0.043809053,0.4,0.00051243714,0.0005867374,0.00051243714,396809,0.0,0.0,0.0,0.5,0.0025000002,0.0025000002,0.0025000002,1,0,1,0,1,0
225265193,225165604,2490378,-0.00032300642,-0.0007223013,0.0017629082,0.34906584,1.9886004e-07,2.004781e-07,4.2652837e-07,2490378,0.13341127,0.057642184,-0.044447813,0.4,0.0005124396,0.0005859456,0.0005124396,396809,0.0,0.0,0.0,0.5,0.0025000002,0.0025000002,0.0025000002,1,0,1,0,1,0
226272836,226173149,2490378,-0.0003385168,-0.00073488953,0.0019047159,0.34906584,1.9789607e-07,1.9924472e-07,4.2688814e-07,2490378,0.13324739,0.05743261,-0.045367263,0.4,0.0005124398,0.0005853787,0.0005124398,396809,0.0,0.0,0.0,0.5,0.0025000002,0.0025000002,0.0025000002,1,0,1,0,1,0
227141858,227042405,2490378,-0.00036590084,-0.0007235832,0.0019042133,0.34906584,2.0111186e-07,2.024679e-07,4.3543173e-07,2490378,0.13289465,0.056753736,-0.04465754,0.4,0.0005124455,0.0005829841,0.00051243877,396809,0.0,0.0,0.0,0.5,0.0025000002,0.0025000002,0.0025000002,1,0,1,0,1,0
227468026,227368376,2490378,-0.00037639868,-0.0007383138,0.0019026452,0.34906584,2.0271864e-07,2.0413395e-07,4.3863517e-07,2490378,0.13367866,0.05610605,-0.044233993,0.4,0.00051243865,0.0005782659,0.00051243865,396809,0.0,0.0,0.0,0.5,0.0025000002,0.0025000002,0.0025000002,1,0,1,0,1,0
227863068,227763493,2490378,-0.00037205784,-0.0007233627,0.0019038052,0.34906584,2.0540524e-07,2.0688512e-07,4.425195e-07,2490378,0.13255954,0.05657964,-0.044850007,0.4,0.00051243795,0.00057100557,0.00051243795,396809,0.0,0.0,0.0,0.5,0.0025000002,0.0025000002,0.0025000002,1,0,1,0,1,0
228060781,227961051,2490378,-0.00036779122,-0.0007186585,0.0019041337,0.34906584,2.0685641e-07,2.0836566e-07,4.444592e-07,2490378,0.132144,0.05705377,-0.04574266,0.4,0.0005124381,0.00056661793,0.0005124381,396809,0.0,0.0,0.0,0.5,0.0025000002,0.0025000002,0.0025000002,1,0,1,0,1,0
228258138,228158610,2490378,-0.00037355814,-0.00070906384,0.0019049883,0.34906584,2.0836264e-07,2.0990086e-07,4.4639998e-07,2490378,0.13123567,0.056482356,-0.04579218,0.4,0.00051243725,0.0005618842,0.00051243725,396809,0.0,0.0,0.0,0.5,0.0025000002,0.0025000002,0.0025000002,1,0,1,0,1,0
228663263,228563604,2490378,-0.00036935223,-0.0007161183,0.0019040091,0.34906584,2.1158885e-07,2.1317588e-07,4.5036813e-07,2490378,0.1321674,0.05682637,-0.0447741,0.4,0.00051243755,0.0005516591,0.00051243755,396809,0.0,0.0,0.0,0.5,0.0025000002,0.0025000002,0.0025000002,1,0,1,0,1,0
229265723,229166157,2490378,-0.00036796977,-0.00071004627,0.0019039216,0.34906584,2.1658913e-07,2.1823493e-07,4.5625998e-07,2490378,0.1315375,0.056998905,-0.043290786,0.4,0.00051243696,0.0005370915,0.00051243696,396809,0.0,0.0,0.0,0.5,0.0025000002,0.0025000002,0.0025000002,1,0,1,0,1,0
229661011,229561274,2490378,-0.0003655977,-0.000721641,0.0019028094,0.34906584,2.1992015e-07,2.215978e-07,4.6011473e-07,2490378,0.13311113,0.056908973,-0.042891614,0.4,0.0005124363,0.0005286361,0.0005124363,396809,0.0,0.0,0.0,0.5,0.0025000002,0.0025000002,0.0025000002,1,0,1,0,1,0
229868248,229768710,2490378,-0.00036135202,-0.0007193456,0.0019023388,0.34906584,2.2168037e-07,2.2337188e-07,4.6213148e-07,2490378,0.13289957,0.05747508,-0.043974724,0.4,0.0005124364,0.0005248389,0.0005124364,396809,0.0,0.0,0.0,0.5,0.0025000002,0.0025000002,0.0025000002,1,0,1,0,1,0
230263502,230163827,2490378,-0.00035364408,-0.0007195318,0.0019015484,0.34906584,2.2498901e-07,2.2670442e-07,4.659715e-07,2490378,0.13300371,0.058250573,-0.044635158,0.4,0.00051243574,0.00051826745,0.00051243574,396809,0.0,0.0,0.0,0.5,0.0025000002,0.0025000002,0.0025000002,1,0,1,0,1,0
231270979,231171376,2490378,-0.0003616037,-0.00071835995,0.0019022052,0.34906584,2.3310754e-07,2.3485254e-07,4.756917e-07,2490378,0.13278463,0.05774121,-0.04374053,0.4,0.0005124333,0.0005124333,0.0005124333,396809,0.0,0.0,0.0,0.5,0.0025000002,0.0025000002,0.0025000002,1,0,1,0,1,0
232061151,231961610,2490378,-0.00035919895,-0.0007395783,0.0019020706,0.34906584,2.3875614e-07,2.4052073e-07,4.8327325e-07,2490378,0.13378721,0.057615507,-0.04362324,0.4,0.0005124323,0.0005124323,0.0005124323,396809,0.0,0.0,0.0,0.5,0.0025000002,0.0025000002,0.0025000002,1,0,1,0,1,0
232476051,232376484,2490378,-0.0003534923,-0.00074916036,0.0019025065,0.34906584,2.4139385e-07,2.4317293e-07,4.872087e-07,2490378,0.13414013,0.057729214,-0.042678248,0.4,0.0005124308,0.0005124308,0.0005124308,396809,0.0,0.0,0.0,0.5,0.0025000002,0.0025000002,0.0025000002,1,0,1,0,1,0
233068733,232969160,2490378,-0.00036193384,-0.00078522257,0.0019043502,0.34906584,2.445036e-07,2.4630785e-07,4.928095e-07,2490378,0.13498373,0.057323787,-0.04117358,0.4,0.0005124312,0.0005124312,0.0005124312,396809,0.0,0.0,0.0,0.5,0.0025000002,0.0025000002,0.0025000002,1,0,1,0,1,0
233671310,233571714,2490378,-0.00037151575,-0.0008080277,0.001905738,0.34906584,2.4693057e-07,2.4875655e-07,4.9845886e-07,2490378,0.13532864,0.057163805,-0.04216996,0.4,0.0005124317,0.0005124317,0.0005124317,396809,0.0,0.0,0.0,0.5,0.0025000002,0.0025000002,0.0025000002,1,0,1,0,1,0
234066365,233966832,2490378,-0.00036174257,-0.00081470265,0.0019061647,0.34906584,2.480096e-07,2.4984232e-07,5.021439e-07,2490378,0.1354251,0.05726768,-0.04356239,0.4,0.0005124314,0.0005124314,0.0005124314,396809,0.0,0.0,0.0,0.5,0.0025000002,0.0025000002,0.0025000002,1,0,1,0,1,0
234283476,234184147,2490378,-0.000364797,-0.0008174352,0.001906508,0.34906584,2.485967e-07,2.504292e-07,5.0414917e-07,2490378,0.13543838,0.057251897,-0.04476354,0.4,0.0005124331,0.0005124331,0.0005124314,396809,0.0,0.0,0.0,0.5,0.0025000002,0.0025000002,0.0025000002,1,0,1,0,1,0
234609441,234510119,2490378,-0.00035587535,-0.0008210171,0.0019068634,0.34906584,2.5008902e-07,2.5191846e-07,5.071688e-07,2490378,0.13546237,0.05731078,-0.045924753,0.4,0.0005124422,0.00051244226,0.0005124317,396809,0.0,0.0,0.0,0.5,0.0025000002,0.0025000002,0.0025000002,1,0,1,0,1,0
234866546,234766946,2490378,-0.0003554104,-0.0008247755,0.0019068958,0.34906584,2.4900314e-07,2.5082153e-07,5.0948523e-07,2490378,0.13546962,0.057336118,-0.04717018,0.4,0.0005124311,0.0005124311,0.0005124311,396809,0.0,0.0,0.0,0.5,0.0025000002,0.0025000002,0.0025000002,1,0,1,0,1,0
235054163,234954627,2490378,-0.00035945626,-0.0008104474,0.0019065259,0.34906584,2.4890815e-07,2.5071915e-07,5.11223e-07,2490378,0.13540748,0.057332173,-0.048206337,0.4,0.0005124312,0.0005124312,0.0005124312,396809,0.0,0.0,0.0,0.5,0.0025000002,0.0025000002,0.0025000002,1,0,1,0,1,0
235261710,235162064,2490378,-0.00036897112,-0.00081700215,0.0019093808,0.34906584,2.4882385e-07,2.5062604e-07,5.1309087e-07,2490378,0.13540927,0.05733634,-0.04977211,0.4,0.0005124311,0.0005124311,0.0005124311,396809,0.0,0.0,0.0,0.5,0.0025000002,0.0025000002,0.0025000002,1,0,1,0,1,0
235469014,235369501,2490378,-0.0003769907,-0.0008190525,0.0019141269,0.34906584,2.484816e-07,2.5027163e-07,5.1494845e-07,2490378,0.13539533,0.05735772,-0.051032044,0.4,0.0005124314,0.0005124314,0.0005124314,396809,0.0,0.0,0.0,0.5,0.0025000002,0.0025000002,0.0025000002,1,0,1,0,1,0
235666625,235567061,2490378,-0.00037554375,-0.000799922,0.0019164484,0.34906584,2.4781818e-07,2.4959334e-07,5.167622e-07,2490378,0.13542303,0.057324193,-0.053813607,0.4,0.0005124304,0.0005124304,0.0005124304,396809,0.0,0.0,0.0,0.5,0.0025000002,0.0025000002,0.0025000002,1,0,1,0,1,0
235864244,235764619,2490378,-0.00038044414,-0.0008025613,0.0019221907,0.34906584,2.4695385e-07,2.4871255e-07,5.185034e-07,2490378,0.13539104,0.057354983,-0.055298507,0.4,0.0005124316,0.0005124316,0.0005124316,396809,0.0,0.0,0.0,0.5,0.0025000002,0.0025000002,0.0025000002,1,0,1,0,1,0
236861806,236762293,2490378,-0.00039093863,-0.00078395434,0.0019268079,0.34906584,2.425028e-07,2.4419205e-07,5.2731747e-07,2490378,0.13547215,0.05743814,-0.05405692,0.4,0.00051243126,0.00051243126,0.00051243126,396809,0.0,0.0,0.0,0.5,0.0025000002,0.0025000002,0.0025000002,1,0,1,0,1,0
237247114,237147534,2490378,-0.00039332564,-0.000781434,0.0019300899,0.34906584,2.40694e-07,2.423545e-07,5.3057795e-07,2490378,0.13548219,0.05747292,-0.052461404,0.4,0.0005124308,0.0005124308,0.0005124308,396809,0.0,0.0,0.0,0.5,0.0025000002,0.0025000002,0.0025000002,1,0,1,0,1,0
237671886,237572286,2490378,-0.00039814864,-0.0007943582,0.0019344494,0.34906584,2.3913626e-07,2.4076505e-07,5.342821e-07,2490378,0.1354084,0.0575347,-0.050791353,0.4,0.00051243085,0.00051243085,0.00051243085,396809,0.0,0.0,0.0,0.5,0.0025000002,0.0025000002,0.0025000002,1,0,1,0,1,0
237869383,237769845,2490378,-0.00038396087,-0.0007969576,0.0019371548,0.34906584,2.3819413e-07,2.3980243e-07,5.3592646e-07,2490378,0.1353921,0.057471257,-0.04977652,0.4,0.0005124316,0.0005124316,0.0005124316,396809,0.0,0.0,0.0,0.5,0.0025000002,0.0025000002,0.0025000002,1,0,1,0,1,0
238066952,237967405,2490378,-0.00038528012,-0.0007958645,0.0019395129,0.34906584,2.3725954e-07,2.3884675e-07,5.3766485e-07,2490378,0.1353976,0.057488788,-0.048597872,0.4,0.00051243074,0.00051243074,0.00051243074,396809,0.0,0.0,0.0,0.5,0.0025000002,0.0025000002,0.0025000002,1,0,1,0,1,0
238669545,238569961,2490378,-0.00039239117,-0.0007807643,0.0019535525,0.34906584,2.3451145e-07,2.3603677e-07,5.4259914e-07,2490378,0.13546531,0.057557143,-0.046557397,0.4,0.00051243074,0.00051243074,0.00051243074,396809,0.0,0.0,0.0,0.5,0.0025000002,0.0025000002,0.0025000002,1,0,1,0,1,0
238906347,238807034,2490378,-0.00039968363,-0.00078534585,0.001958732,0.34906584,2.3394213e-07,2.3544631e-07,5.4457354e-07,2490378,0.13542756,0.057603933,-0.04545761,0.4,0.0005124324,0.0005124324,0.0005124289,396809,0.0,0.0,0.0,0.5,0.0025000002,0.0025000002,0.0025000002,1,0,1,0,1,0
239064647,238965080,2490378,-0.00039262505,-0.0007822139,0.0019617802,0.34906584,2.3259196e-07,2.3407458e-07,5.4588526e-07,2490378,0.13545388,0.05758291,-0.044154987,0.4,0.0005124308,0.0005124308,0.0005124308,396809,0.0,0.0,0.0,0.5,0.0025000002,0.0025000002,0.0025000002,1,0,1,0,1,0
239272083,239172517,2490378,-0.00038593297,-0.000793923,0.001967328,0.34906584,2.316989e-07,2.3315877e-07,5.4754645e-07,2490378,0.1353961,0.05754909,-0.042712122,0.4,0.00051243085,0.00051243085,0.00051243085,396809,0.0,0.0,0.0,0.5,0.0025000002,0.0025000002,0.0025000002,1,0,1,0,1,0
239469637,239370077,2490378,-0.00038315146,-0.000811887,0.0019714362,0.34906584,2.3071074e-07,2.3214777e-07,5.492307e-07,2490378,0.13529514,0.057522908,-0.041525576,0.4,0.00051243074,0.00051243074,0.00051243074,396809,0.0,0.0,0.0,0.5,0.0025000002,0.0025000002,0.0025000002,1,0,1,0,1,0
239834858,239735562,2490378,-0.00039047515,-0.00081783073,0.0019809215,0.34906584,2.3142067e-07,2.3283515e-07,5.5214633e-07,2490378,0.13524337,0.05756143,-0.04039242,0.4,0.0005124466,0.0005124466,0.0005124308,396809,0.0,0.0,0.0,0.5,0.0025000002,0.0025000002,0.0025000002,1,0,1,0,1,0
239864816,239765199,2490378,-0.0003993025,-0.00082714716,0.0019827902,0.34906584,2.2877714e-07,2.3016868e-07,5.522913e-07,2490378,0.13516642,0.057603482,-0.039153967,0.4,0.0005124276,0.0005124276,0.0005124276,396809,0.0,0.0,0.0,0.5,0.0025000002,0.0025000002,0.0025000002,1,0,1,0,1,0
240872370,240772750,2490378,-0.00041899653,-0.00085996446,0.0020075033,0.34906584,2.2405202e-07,2.2532755e-07,5.602129e-07,2490378,0.13489836,0.057632603,-0.038210995,0.4,0.00051243056,0.00051243056,0.00051243056,396809,0.0,0.0,0.0,0.5,0.0025000002,0.0025000002,0.0025000002,1,0,1,0,1,0
241860118,241760548,2490378,-0.00038685248,-0.0008350887,0.002031294,0.34906584,2.1968641e-07,2.20851e-07,5.6761667e-07,2490378,0.13516092,0.0575749,-0.036870785,0.4,0.0005124308,0.0005124308,0.0005124308,396809,0.0,0.0,0.0,0.5,0.0025000002,0.0025000002,0.0025000002,1,0,1,0,1,0
242867680,242768103,2490378,-0.00034888717,-0.0008114951,0.0020512864,0.34906584,2.1589629e-07,2.1696681e-07,5.746556e-07,2490378,0.13545355,0.05748072,-0.03705369,0.4,0.0005124304,0.0005124304,0.0005124304,396809,0.0,0.0,0.0,0.5,0.0025000002,0.0025000002,0.0025000002,1,0,1,0,1,0
243272713,243173101,2490378,-0.00033320804,-0.00081833074,0.0020585665,0.34906584,2.145498e-07,2.1558367e-07,5.7751333e-07,2490378,0.13548106,0.05737828,-0.03554729,0.4,0.0005124304,0.0005124304,0.0005124304,396809,0.0,0.0,0.0,0.5,0.0025000002,0.0025000002,0.0025000002,1,0,1,0,1,0
244280065,244180658,2490378,-0.0003381914,-0.00089102215,0.0020830007,0.34906584,2.1153333e-07,2.1246869e-07,5.839849e-07,2490378,0.1350524,0.05710115,-0.035186604,0.4,0.00051242905,0.00051242905,0.0005124282,396809,0.0,0.0,0.0,0.5,0.0025000002,0.0025000002,0.0025000002,1,0,1,0,1,0
245050737,244951140,2490378,-0.0003291816,-0.0009429017,0.0021055331,0.34906584,2.0913276e-07,2.0999538e-07,5.888429e-07,2490378,0.13480051,0.0568904,-0.033853695,0.4,0.0005124299,0.0005124299,0.0005124299,396809,0.0,0.0,0.0,0.5,0.0025000002,0.0025000002,0.0025000002,1,0,1,0,1,0
246058425,245958696,2490378,-0.0003729369,-0.000992519,0.0021336789,0.34906584,2.0694205e-07,2.0772224e-07,5.948153e-07,2490378,0.13442214,0.05693106,-0.033662308,0.4,0.0005124296,0.0005124296,0.0005124296,396809,0.0,0.0,0.0,0.5,0.0025000002,0.0025000002,0.0025000002,1,0,1,0,1,0
247065792,246966252,2490378,-0.00041136015,-0.0009964219,0.0021553028,0.34906584,2.0507544e-07,2.0578076e-07,5.99991e-07,2490378,0.13431026,0.057057444,-0.03320285,0.4,0.0005124293,0.0005124293,0.0005124293,396809,0.0,0.0,0.0,0.5,0.0025000002,0.0025000002,0.0025000002,1,0,1,0,1,0
247648761,247549054,2490378,-0.000405964,-0.000964673,0.0021576446,0.34906584,2.0405437e-07,2.0473793e-07,6.027918e-07,2490378,0.1344473,0.05707318,-0.03190833,0.4,0.00051242916,0.00051242916,0.00051242916,396809,0.0,0.0,0.0,0.5,0.0025000002,0.0025000002,0.0025000002,1,0,1,0,1,0
248270972,248171369,2490378,-0.0003798944,-0.0009472779,0.0021436037,0.34906584,2.0371309e-07,2.0440426e-07,6.057956e-07,2490378,0.13451397,0.057047676,-0.030655317,0.4,0.00051244005,0.00051245803,0.00051242806,396809,0.0,0.0,0.0,0.5,0.0025000002,0.0025000002,0.0025000002,1,0,1,0,1,0
248666080,248566490,2490378,-0.00036644435,-0.000945842,0.002133577,0.34906584,2.033993e-07,2.0409495e-07,6.0763784e-07,2490378,0.1345261,0.057033084,-0.029326743,0.4,0.0005124618,0.00051248504,0.0005124269,396809,0.0,0.0,0.0,0.5,0.0025000002,0.0025000002,0.0025000002,1,0,1,0,1,0
249466741,249366608,2490378,-0.00034132,-0.00094144663,0.0021126722,0.34906584,2.0291745e-07,2.0357942e-07,6.1073956e-07,2490378,0.13455,0.057024635,-0.028097566,0.4,0.0005125191,0.00051254587,0.0005124269,396809,0.0,0.0,0.0,0.5,0.0025000002,0.0025000002,0.0025000002,1,1,1,1,1,0
249663902,249564169,2490378,-0.0003441692,-0.0009461132,0.0021084764,0.34906584,2.0274933e-07,2.0339155e-07,6.1131965e-07,2490378,0.13454527,0.05701064,-0.026884412,0.4,0.00051253167,0.00051256025,0.0005124259,396809,0.0,0.0,0.0,0.5,0.0025000002,0.0025000002,0.0025000002,1,1,1,1,1,0
249861992,249761729,2490378,-0.00034179952,-0.00095259433,0.0021046223,0.34906584,2.0257573e-07,2.0319642e-07,6.123312e-07,2490378,0.13453951,0.0569964,-0.025756976,0.4,0.0005125445,0.0005125755,0.0005124259,396809,0.0,0.0,0.0,0.5,0.0025000002,0.0025000002,0.0025000002,1,1,1,1,1,0
250257108,250156849,2490378,-0.00033244226,-0.0009876572,0.0020925654,0.34906584,2.0221682e-07,2.0279265e-07,6.1340114e-07,2490378,0.13449818,0.0569465,-0.024098469,0.4,0.000512567,0.00051260414,0.0005124259,396809,0.0,0.0,0.0,0.5,0.0025000002,0.0025000002,0.0025000002,1,1,1,1,1,0
251264057,251164407,2490378,-0.0003150134,-0.0010516108,0.0020802692,0.34906584,2.0116003e-07,2.0166158e-07,6.168453e-07,2490378,0.13437793,0.056816023,-0.024261188,0.4,0.00051255635,0.00051262375,0.0005124238,396809,0.0,0.0,0.0,0.5,0.0025000002,0.0025000002,0.0025000002,1,1,1,1,1,0
251867062,251766966,2490378,-0.00024961436,-0.0010293513,0.002041879,0.34906584,2.0053952e-07,2.0096961e-07,6.1819634e-07,2490378,0.1346845,0.056693193,-0.025320852,0.4,0.00051247096,0.000512581,0.00051242294,396809,0.0,0.0,0.0,0.5,0.0025000002,0.0025000002,0.0025000002,1,1,1,1,1,0
252262402,252162087,2490378,-0.00020930705,-0.0010598048,0.002015268,0.34906584,2.0005622e-07,2.004056e-07,6.183849e-07,2490378,0.13470972,0.05642809,-0.026879804,0.4,0.0005124223,0.0005124902,0.0005124223,396809,0.0,0.0,0.0,0.5,0.0025000002,0.0025000002,0.0025000002,1,1,1,1,1,0
252854427,252754768,2490378,-0.0002059989,-0.001156354,0.002017894,0.34906584,1.9919864e-07,1.9953134e-07,6.20266e-07,2490378,0.13419719,0.05593683,-0.028275385,0.4,0.00051242136,0.00051242136,0.00051242136,396809,0.0,0.0,0.0,0.5,0.0025000002,0.0025000002,0.0025000002,1,1,1,1,1,0
253477138,253377084,2490378,-0.00024981363,-0.0012528165,0.0020383094,0.34906584,1.9867036e-07,1.9907921e-07,6.2007973e-07,2490378,0.13330147,0.055560358,-0.028952423,0.4,0.0005124212,0.0005124212,0.0005124212,396809,0.0,0.0,0.0,0.5,0.0025000002,0.0025000002,0.0025000002,1,1,1,1,1,0
253535749,253436352,2490378,-0.00024947344,-0.0012514781,0.0020507793,0.34906584,1.9923675e-07,1.996536e-07,6.196572e-07,2490378,0.13339616,0.055541884,-0.028842628,0.4,0.00051242136,0.00051242136,0.00051242573,396809,0.013532195,-0.0040338635,-0.0032747162,0.5,0.0012942984,0.0016664785,0.0016417983,1,1,1,1,1,0
253614842,253515376,2490378,-0.00024922556,-0.0012508883,0.002056104,0.34906584,2.0001312e-07,2.0043039e-07,6.2007973e-07,2490378,0.13343717,0.055526026,-0.029141257,0.4,0.00051242136,0.00051242136,0.0005124231,396809,0.018686758,-0.0045051696,-0.006327826,0.5,0.00090627,0.0014994489,0.0014616391,1,1,1,1,1,0
253683954,253584522,2490378,-0.0003079695,-0.0012765696,0.002021473,0.34906584,1.9850047e-07,1.9891185e-07,6.190964e-07,2490378,0.13284753,0.05570294,-0.028817076,0.4,0.00051242136,0.00051242136,0.00051242224,396809,0.02258241,-0.005042202,-0.007876077,0.5,0.0007138214,0.0014275599,0.0013834598,1,1,1,1,1,0
253763022,253663547,2490378,-0.0003077275,-0.0012762827,0.0020238655,0.34906584,1.9927938e-07,1.9969086e-07,6.1975476e-07,2490378,0.13286531,0.055689223,-0.028835896,0.4,0.00051242247,0.0005124235,0.0005124205,396809,0.024793223,-0.0052912855,-0.009699938,0.5,0.0005993297,0.0013869973,0.0013395938,1,1,1,1,1,0
253832545,253732693,2490378,-0.0003075743,-0.0012760183,0.0020261484,0.34906584,1.9996162e-07,2.0037322e-07,6.2034917e-07,2490378,0.13288069,0.05568143,-0.028931536,0.4,0.0005124259,0.00051242765,0.00051242294,396809,0.02693561,-0.0054602106,-0.010919283,0.5,0.0005239988,0.0013602708,0.0013109348,1,1,1,1,1,0
253911135,253811717,2490378,-0.00036485164,-0.0012854901,0.0019787562,0.34906584,1.986161e-07,1.989775e-07,6.1882423e-07,2490378,0.1323996,0.0559592,-0.02906775,0.4,0.0005124224,0.0005124228,0.00051242486,396809,0.028904239,-0.0056750164,-0.012240867,0.5,0.00047094168,0.0013404362,0.0012900587,1,1,1,1,1,0
253980287,253880863,2490378,-0.00036484844,-0.0012853846,0.001979516,0.34906584,1.9929824e-07,1.9965982e-07,6.194443e-07,2490378,0.1324036,0.05595927,-0.02928829,0.4,0.0005124266,0.0005124274,0.00051242136,396809,0.029825343,-0.005912989,-0.012565048,0.5,0.00043198536,0.0013242259,0.0012741546,1,1,1,1,1,0
254128529,254029034,2490378,-0.00042872073,-0.0012890062,0.0019120695,0.34906584,1.9870492e-07,1.9896186e-07,6.1762603e-07,2490378,0.13192211,0.056320194,-0.029910108,0.4,0.00051242404,0.0005124244,0.000512424,396809,0.031270638,-0.0060315668,-0.014594418,0.5,0.00037688247,0.0012958775,0.0012519959,1,1,1,1,1,0
254267571,254167326,2490378,-0.0005042624,-0.0012691709,0.0018085779,0.34906584,1.9807466e-07,1.9818577e-07,6.150626e-07,2490378,0.1315819,0.056919362,-0.031224297,0.4,0.0005124212,0.0005124212,0.0005124212,396809,0.03220237,-0.0066568307,-0.015573601,0.5,0.00035286476,0.0012808854,0.0012413851,1,1,1,1,1,0
254286447,254187082,2490378,-0.0005045289,-0.0012694722,0.0018065731,0.34906584,1.9826727e-07,1.9837924e-07,6.1513157e-07,2490378,0.13157034,0.056940895,-0.031224709,0.4,0.0005124212,0.0005124212,0.00051242294,396809,0.030496936,-0.008063097,-0.016940467,0.5,0.0003282982,0.0012677975,0.0012199216,1,1,1,1,1,0
254355629,254256228,2490378,-0.0005039555,-0.0012704534,0.0017982842,0.34906584,1.9894695e-07,1.9905974e-07,6.156296e-07,2490378,0.1315162,0.05694533,-0.031221492,0.4,0.0005124212,0.0005124221,0.00051242474,396809,0.029024594,-0.008852115,-0.020072408,0.5,0.00030431984,0.0012581174,0.0011846242,1,1,1,1,1,0
254434817,254335252,2490378,-0.00050286064,-0.0012718886,0.0017860176,0.34906584,1.9972364e-07,1.9983712e-07,6.1618556e-07,2490378,0.1314342,0.05693979,-0.03115826,0.4,0.0005124212,0.0005124234,0.0005124212,396809,0.028152717,-0.009753412,-0.023491506,0.5,0.00028275372,0.0012509676,0.001141299,1,1,1,1,1,0
254484259,254384643,2490378,-0.0005575317,-0.0012235108,0.0016898323,0.34906584,1.982524e-07,1.9826071e-07,6.134143e-07,2490378,0.13147956,0.057419643,-0.030336862,0.4,0.00051242026,0.00051242026,0.00051242026,396809,0.02925417,-0.009723955,-0.023810474,0.5,0.00028232762,0.0012509642,0.0011412507,1,1,1,1,1,0
254503842,254404399,2490378,-0.0005558726,-0.0012252586,0.00167598,0.34906584,1.9844357e-07,1.9845262e-07,6.134165e-07,2490378,0.13138382,0.05740271,-0.030202195,0.4,0.0005124203,0.0005124203,0.0005124203,396809,0.028855082,-0.010565912,-0.027028305,0.5,0.000264922,0.0012452505,0.0011051408,1,1,1,1,1,0
254582841,254483423,2490378,-0.00055472984,-0.0012263732,0.0016672692,0.34906584,1.9922095e-07,1.992311e-07,6.140539e-07,2490378,0.13132425,0.057392515,-0.03007691,0.4,0.0005124216,0.00051242474,0.00051242375,396809,0.028319059,-0.010908723,-0.029352255,0.5,0.00025167293,0.0012397062,0.0010814074,1,1,1,1,1,0
254652439,254552569,2490378,-0.00055403705,-0.0012270773,0.0016616578,0.34906584,1.9990084e-07,1.9991231e-07,6.146314e-07,2490378,0.1312879,0.057392277,-0.030118903,0.4,0.0005124233,0.00051242847,0.0005124247,396809,0.027431829,-0.011258025,-0.031281903,0.5,0.00024144024,0.0012331704,0.0010660951,1,1,1,1,1,0
254672289,254572325,2490378,-0.0006024244,-0.001153472,0.0015506449,0.34906584,1.9813604e-07,1.9812519e-07,6.119754e-07,2490378,0.13158727,0.057886135,-0.030848447,0.4,0.0005124212,0.0005124212,0.0005124212,396809,0.028662225,-0.01118745,-0.031514175,0.5,0.00024108186,0.0012331655,0.0010660676,1,1,1,1,1,0
254731083,254631593,2490378,-0.000602323,-0.0011539403,0.0015477947,0.34906584,1.9871835e-07,1.9870893e-07,6.124787e-07,2490378,0.13157088,0.057896506,-0.030790685,0.4,0.000512423,0.00051242445,0.0005124212,396809,0.027640171,-0.011931986,-0.032723147,0.5,0.00023280214,0.0012254824,0.0010549196,1,1,1,1,1,0
254809987,254710617,2490378,-0.0006028492,-0.0011543123,0.0015462679,0.34906584,1.9949564e-07,1.994878e-07,6.13177e-07,2490378,0.13156627,0.057921946,-0.030763017,0.4,0.00051242654,0.0005124296,0.0005124238,396809,0.026254963,-0.013462283,-0.033714626,0.5,0.00022565262,0.0012178636,0.0010445593,1,1,1,1,1,0
254879595,254779764,2490378,-0.00065539614,-0.0010853267,0.0014342049,0.34906584,1.9815472e-07,1.9823874e-07,6.1062457e-07,2490378,0.1319313,0.058390174,-0.031186305,0.4,0.0005124203,0.0005124203,0.0005124203,396809,0.02619232,-0.014746886,-0.03514463,0.5,0.00021872268,0.0012118012,0.0010334919,1,1,1,1,1,0
254958179,254858788,2490378,-0.0006556957,-0.0010857485,0.001432416,0.34906584,1.9893106e-07,1.9901681e-07,6.112973e-07,2490378,0.13192196,0.058412228,-0.031182066,0.4,0.00051242224,0.00051242555,0.00051242195,396809,0.024967505,-0.015702082,-0.03673384,0.5,0.00021240633,0.0012068846,0.0010189258,1,1,1,1,1,0
255027768,254927934,2490378,-0.00065582007,-0.0010863269,0.0014298386,0.34906584,1.9960892e-07,1.9969663e-07,6.1185204e-07,2490378,0.13190441,0.058432896,-0.031116704,0.4,0.00051242125,0.0005124287,0.00051242387,396809,0.023883728,-0.016621051,-0.038657166,0.5,0.0002063616,0.001200614,0.0009998013,1,1,1,1,1,0
255106508,255006958,2490378,-0.0006691633,-0.0010300373,0.0013524641,0.34906584,1.9839078e-07,1.9867625e-07,6.098707e-07,2490378,0.13223612,0.05853137,-0.030841582,0.4,0.00051242136,0.00051242136,0.00051242136,396809,0.023925412,-0.017862096,-0.040846452,0.5,0.00020033926,0.0011919071,0.0009773636,1,1,1,1,1,0
255175603,255076104,2490378,-0.0006687239,-0.0010311039,0.0013471504,0.34906584,1.9906788e-07,1.9935536e-07,6.1042107e-07,2490378,0.132193,0.05855263,-0.030825542,0.4,0.00051242154,0.000512424,0.00051242154,396809,0.023197534,-0.01952396,-0.04327659,0.5,0.00019526872,0.0011815743,0.00095570897,1,1,1,1,1,0
255254625,255155129,2490378,-0.00066859653,-0.0010318975,0.0013437673,0.34906584,1.9984226e-07,2.0013202e-07,6.110803e-07,2490378,0.13216503,0.05857187,-0.030719763,0.4,0.00051242113,0.0005124271,0.0005124229,396809,0.022507505,-0.02080647,-0.045184724,0.5,0.00019092853,0.0011706079,0.00093720923,1,1,1,1,1,0
255323717,255224275,2490378,-0.0006657051,-0.0009591681,0.0012628362,0.34906584,1.984899e-07,1.9907121e-07,6.0966283e-07,2490378,0.1326067,0.058502782,-0.031594936,0.4,0.0005124212,0.0005124233,0.0005124247,396809,0.022574337,-0.021599246,-0.046796605,0.5,0.00018698955,0.0011598708,0.0009221368,1,1,1,1,1,0
255402746,255303299,2490378,-0.0006661805,-0.0009597988,0.001261538,0.34906584,1.9926433e-07,1.9984812e-07,6.103424e-07,2490378,0.13259612,0.058523435,-0.031209957,0.4,0.00051242136,0.0005124272,0.00051242206,396809,0.021711048,-0.022522584,-0.04842564,0.5,0.00018375306,0.0011483113,0.00090882403,1,1,1,1,1,0
255482118,255382323,2490378,-0.0006399246,-0.000905129,0.0012043306,0.34906584,1.9793937e-07,1.9888637e-07,6.094159e-07,2490378,0.13290077,0.05825707,-0.031655304,0.4,0.0005124212,0.0005124212,0.00051242294,396809,0.021329992,-0.023057215,-0.05000944,0.5,0.000180597,0.001134906,0.0008951551,1,1,1,1,1,0
255550954,255451470,2490378,-0.00064124004,-0.00090499374,0.0012068785,0.34906584,1.9861562e-07,1.9956504e-07,6.099926e-07,2490378,0.1329251,0.05828143,-0.031554244,0.4,0.0005124208,0.0005124231,0.00051242515,396809,0.020121982,-0.022482682,-0.05158505,0.5,0.00017766721,0.0011183352,0.0008792129,1,1,1,1,1,0
255629962,255530494,2490378,-0.0006428097,-0.0009048159,0.0012101965,0.34906584,1.9938905e-07,2.003411e-07,6.1065674e-07,2490378,0.13295515,0.058307033,-0.031288072,0.4,0.00051242136,0.0005124261,0.0005124231,396809,0.01880851,-0.021371812,-0.05353889,0.5,0.00017463314,0.001096349,0.00085902534,1,1,1,1,1,0
255699120,255599640,2490378,-0.0006291931,-0.0008451566,0.0011650167,0.34906584,1.9790338e-07,1.9924494e-07,6.099613e-07,2490378,0.13334633,0.057968155,-0.030978115,0.4,0.00051242136,0.00051242136,0.000512424,396809,0.018004378,-0.020000568,-0.05578593,0.5,0.00017141367,0.0010699403,0.0008358098,1,1,1,1,1,0
255778147,255678664,2490378,-0.0006305637,-0.00084515207,0.0011674219,0.34906584,1.9867618e-07,2.0002003e-07,6.106177e-07,2490378,0.1333666,0.057998218,-0.030771928,0.4,0.00051242136,0.00051242264,0.00051242136,396809,0.016763877,-0.01891716,-0.05830768,0.5,0.0001682706,0.0010389395,0.00081028073,1,1,1,1,1,0
255847803,255747811,2490378,-0.0006318046,-0.0008452734,0.0011692444,0.34906584,1.9935095e-07,2.006972e-07,6.11179e-07,2490378,0.13337995,0.058025848,-0.030462388,0.4,0.0005124205,0.000512422,0.00051242224,396809,0.015802994,-0.018192783,-0.060660064,0.5,0.00016525266,0.0010061795,0.00078506826,1,1,1,1,1,0
255926262,255826835,2490378,-0.0005919354,-0.00080578047,0.0011296854,0.34906584,1.9795465e-07,1.9964772e-07,6.107977e-07,2490378,0.13344763,0.05757202,-0.030135531,0.4,0.0005124212,0.0005124212,0.0005124256,396809,0.015130051,-0.01681316,-0.06286394,0.5,0.00016233514,0.00097299815,0.0007613434,1,1,1,1,1,0
256005314,255905859,2490378,-0.00059309264,-0.0008060359,0.001130983,0.34906584,1.987275e-07,2.0042283e-07,6.1147074e-07,2490378,0.13345832,0.05759422,-0.029769411,0.4,0.0005124212,0.00051242224,0.000512423,396809,0.01422977,-0.015988475,-0.064863615,0.5,0.00015969736,0.00093949965,0.0007389864,1,1,1,1,1,0
256074581,255975005,2490378,-0.0005486254,-0.0007521962,0.0010914208,0.34906584,1.9722029e-07,1.9917185e-07,6.108529e-07,2490378,0.13354486,0.056908675,-0.029140187,0.4,0.0005124212,0.0005124212,0.00051242206,396809,0.013771637,-0.01485146,-0.06656028,0.5,0.00015707368,0.0009060229,0.00071769394,1,1,1,1,1,0
256153575,256054030,2490378,-0.0005497242,-0.00075246487,0.0010926046,0.34906584,1.9799336e-07,1.9994663e-07,6.1153315e-07,2490378,0.13355754,0.056925952,-0.02888707,0.4,0.0005124203,0.00051242125,0.00051242026,396809,0.01275001,-0.013308824,-0.06835023,0.5,0.00015461764,0.00087070174,0.0006958385,1,1,1,1,1,0
256222675,256123176,2490378,-0.000550855,-0.0007527837,0.0010937453,0.34906584,1.9866951e-07,2.0062426e-07,6.121176e-07,2490378,0.1335704,0.05694426,-0.0286709,0.4,0.00051242096,0.0005124219,0.0005124227,396809,0.011654588,-0.011510529,-0.07030805,0.5,0.00015216954,0.0008340272,0.0006731921,1,1,1,1,1,0
256301623,256202200,2490378,-0.00049811037,-0.00073315884,0.0010504312,0.34906584,1.9726768e-07,1.9934203e-07,6.110888e-07,2490378,0.13328443,0.05647077,-0.028696695,0.4,0.00051242136,0.00051242136,0.0005124249,396809,0.01110311,-0.009572251,-0.07198486,0.5,0.00014948643,0.0007962576,0.0006496269,1,1,1,1,1,0
256370888,256271346,2490378,-0.00049874914,-0.00073367136,0.0010502983,0.34906584,1.9794408e-07,2.0001906e-07,6.116723e-07,2490378,0.13328595,0.056485523,-0.028593024,0.4,0.00051242136,0.00051242136,0.00051242136,396809,0.010288811,-0.008459672,-0.073533334,0.5,0.00014710774,0.0007595952,0.0006263515,1,1,1,1,1,0
256449929,256350370,2490378,-0.00049916457,-0.0007343243,0.001049424,0.34906584,1.9871806e-07,2.0079341e-07,6.123522e-07,2490378,0.13327846,0.05650279,-0.028493296,0.4,0.0005124221,0.0005124225,0.00051242416,396809,0.009814833,-0.008515688,-0.07497783,0.5,0.0001448692,0.00072530203,0.00060439063,1,1,1,1,1,0
256518910,256419517,2490378,-0.00042186884,-0.0007270179,0.00097640237,0.34906584,1.9723174e-07,1.9924377e-07,6.10154e-07,2490378,0.13258052,0.05597834,-0.028105065,0.4,0.00051242113,0.00051242113,0.0005124247,396809,0.010274918,-0.008352446,-0.07634031,0.5,0.00014245398,0.0006945985,0.00058498397,1,1,1,1,1,0
256598031,256498541,2490378,-0.0004220056,-0.0007276465,0.000975194,0.34906584,1.9800612e-07,2.0001835e-07,6.108424e-07,2490378,0.13256924,0.055991497,-0.028054,0.4,0.0005124224,0.0005124227,0.00051242206,396809,0.010082595,-0.009040772,-0.0771991,0.5,0.0001407269,0.0006678227,0.0005688967,1,1,1,1,1,0
256658045,256557809,2490378,-0.00034697267,-0.00073314214,0.0008922939,0.34906584,1.9654205e-07,1.9835015e-07,6.076181e-07,2490378,0.13173808,0.055682365,-0.028555864,0.4,0.0005124212,0.0005124212,0.0005124212,396809,0.011014583,-0.0082897395,-0.07736258,0.5,0.00014016073,0.0006675094,0.000568887,1,1,1,1,1,0
256677667,256577565,2490378,-0.00034709572,-0.00073376915,0.00089122023,0.34906584,1.9673163e-07,1.9853971e-07,6.077265e-07,2490378,0.13172626,0.05570011,-0.028555173,0.4,0.0005124212,0.0005124212,0.000512423,396809,0.010886545,-0.009305677,-0.07825112,0.5,0.00013877057,0.000645417,0.00055686786,1,1,1,1,1,0
256825181,256725736,2490378,-0.00034785958,-0.00073478546,0.0008902275,0.34906584,1.981822e-07,1.9999159e-07,6.090101e-07,2490378,0.13172372,0.05572317,-0.02866699,0.4,0.00051242317,0.0005124247,0.0005124227,396809,0.010254346,-0.00936012,-0.079131216,0.5,0.0001368246,0.0006123081,0.0005431054,1,1,1,1,1,0
256864930,256765248,2490378,-0.00029384697,-0.0007569796,0.0008092347,0.34906584,1.965361e-07,1.9803468e-07,6.0463367e-07,2490378,0.13093404,0.055742905,-0.029092815,0.4,0.0005124212,0.0005124212,0.0005124212,396809,0.011203153,-0.008588466,-0.07931717,0.5,0.0001361135,0.00061187934,0.00054308446,1,1,1,1,1,0
257042814,256943053,2490378,-0.0002956372,-0.0007588179,0.00080762565,0.34906584,1.982702e-07,1.9977352e-07,6.060987e-07,2490378,0.13093658,0.055771306,-0.02885384,0.4,0.0005124219,0.00051242445,0.000512422,396809,0.010384402,-0.009676099,-0.079882264,0.5,0.00013438925,0.00057778053,0.0005365168,1,1,1,1,1,0
257062906,256962809,2490378,-0.00025027554,-0.00078319834,0.0007325721,0.34906584,1.96486e-07,1.9764025e-07,6.014458e-07,2490378,0.13016307,0.055896033,-0.029287219,0.4,0.0005124205,0.0005124205,0.0005124205,396809,0.011272198,-0.008929169,-0.08007496,0.5,0.00013366566,0.0005773044,0.0005364883,1,1,1,1,1,0
257200526,257101101,2490378,-0.00025074085,-0.00078425556,0.000730391,0.34906584,1.9783718e-07,1.9899551e-07,6.0261135e-07,2490378,0.1301529,0.055888996,-0.028747588,0.4,0.0005124227,0.0005124244,0.00051242206,396809,0.011093877,-0.010172581,-0.08005594,0.5,0.000132779,0.00055645267,0.0005344708,1,1,1,1,1,0
257289311,257190003,2490378,-0.00021375186,-0.0008149674,0.0006578142,0.34906584,1.9677698e-07,1.9757562e-07,5.988039e-07,2490378,0.12937997,0.056153815,-0.028166633,0.4,0.00051242294,0.0005124225,0.0005124212,396809,0.011919331,-0.0102195,-0.080226034,0.5,0.00013169352,0.00054541463,0.0005336681,1,1,1,1,1,0
257477905,257377686,2490378,-0.00018154198,-0.00085074536,0.00058787083,0.34906584,1.967213e-07,1.9717301e-07,5.9648585e-07,2490378,0.12858647,0.05659996,-0.027587064,0.4,0.0005124212,0.0005124212,0.0005124212,396809,0.012797035,-0.010476075,-0.08024397,0.5,0.00013039187,0.00052360754,0.0005321957,1,1,1,1,1,0
257645132,257545613,2490378,-0.0001833132,-0.00085311936,0.0005788016,0.34906584,1.983508e-07,1.9881085e-07,5.9768604e-07,2490378,0.12854473,0.05659366,-0.027525268,0.4,0.0005124214,0.0005124242,0.0005124232,396809,0.013072659,-0.011821009,-0.07925959,0.5,0.00012911818,0.00048768797,0.0005213276,1,1,1,1,1,0
257665136,257565369,2490378,-0.00016935068,-0.00090324774,0.0005209953,0.34906584,1.9668182e-07,1.9683812e-07,5.9511825e-07,2490378,0.12792818,0.057555575,-0.02797446,0.4,0.00051242084,0.00051242084,0.00051242084,396809,0.013799356,-0.0111892605,-0.079376176,0.5,0.00012868433,0.00048732257,0.0005213043,1,1,1,1,1,0
257793154,257693783,2490378,-0.0001726249,-0.00090609083,0.00050952745,0.34906584,1.9792814e-07,1.9809056e-07,5.959764e-07,2490378,0.12787594,0.057550844,-0.027878335,0.4,0.00051242136,0.00051242317,0.0005124222,396809,0.014287432,-0.012194728,-0.07837473,0.5,0.00012750682,0.0004622552,0.00050559425,1,1,1,1,1,0
257863028,257762929,2490378,-0.0001647377,-0.0009602334,0.0004630166,0.34906584,1.9673202e-07,1.9666598e-07,5.950775e-07,2490378,0.12731186,0.058696367,-0.028177835,0.4,0.00051242154,0.00051242154,0.00051242154,396809,0.014890885,-0.011646166,-0.0784552,0.5,0.00012723549,0.00046199144,0.00050558103,1,1,1,1,1,0
258020402,257920978,2490378,-0.00016752639,-0.0009625244,0.00044804477,0.34906584,1.9825589e-07,1.9820075e-07,5.958927e-07,2490378,0.12722886,0.058669,-0.02833352,0.4,0.0005124212,0.000512424,0.00051242195,396809,0.015716394,-0.010799164,-0.07944149,0.5,0.00012516585,0.00042734237,0.00047589734,1,1,1,1,1,0
258050289,257950612,2490378,-0.0001592308,-0.0010114793,0.00041421453,0.34906584,1.966769e-07,1.9647958e-07,5.953266e-07,2490378,0.12668458,0.05976899,-0.02852717,0.4,0.0005124212,0.0005124212,0.0005124212,396809,0.016167331,-0.010343846,-0.07950137,0.5,0.00012500715,0.0004271565,0.00047589146,1,1,1,1,1,0
258089607,257990124,2490378,-0.00015929705,-0.0010113904,0.00041065196,0.34906584,1.9705348e-07,1.9686082e-07,5.954321e-07,2490378,0.12665978,0.05974987,-0.028593421,0.4,0.0005124212,0.0005124212,0.0005124237,396809,0.016437037,-0.009281888,-0.08086021,0.5,0.00012418295,0.00041672905,0.0004644146,1,1,1,1,1,0
258168651,258069149,2490378,-0.00015919698,-0.0010110717,0.00040762092,0.34906584,1.9781908e-07,1.9763118e-07,5.958993e-07,2490378,0.12663673,0.059721585,-0.028490126,0.4,0.0005124208,0.0005124217,0.0005124208,396809,0.016693585,-0.008142583,-0.0824486,0.5,0.00012328241,0.00040705135,0.0004518312,1,1,1,1,1,0
258237967,258138295,2490378,-0.00016036941,-0.0010116465,0.00040147625,0.34906584,1.9848672e-07,1.9830348e-07,5.962509e-07,2490378,0.12659802,0.05968627,-0.028141849,0.4,0.0005124212,0.00051242305,0.0005124228,396809,0.017101077,-0.007457441,-0.08353379,0.5,0.00012237091,0.00039840044,0.00043900582,1,1,1,1,1,0
258258284,258158051,2490378,-0.0001741698,-0.0010753764,0.00036702186,0.34906584,1.9669741e-07,1.9647611e-07,5.958742e-07,2490378,0.12641299,0.061371565,-0.029239977,0.4,0.0005124212,0.0005124212,0.0005124212,396809,0.017540058,-0.007019493,-0.0835768,0.5,0.00012228175,0.0003982787,0.00043900395,1,1,1,1,1,0
258395742,258296344,2490378,-0.00017847471,-0.0010785053,0.00034973267,0.34906584,1.9803291e-07,1.978211e-07,5.9659976e-07,2490378,0.126312,0.061345898,-0.029231012,0.4,0.0005124205,0.0005124212,0.00051242125,396809,0.018485988,-0.006592295,-0.084308766,0.5,0.00012068281,0.00038415653,0.00041733898,1,1,1,1,1,0
258494933,258395124,2490378,-0.00019346706,-0.0011496189,0.0003100282,0.34906584,1.9685801e-07,1.96709e-07,5.9617554e-07,2490378,0.12602435,0.063124806,-0.029324427,0.4,0.0005124212,0.0005124212,0.0005124212,396809,0.019286985,-0.00588183,-0.08467644,0.5,0.00011994124,0.00037812244,0.00041022207,1,1,1,1,1,0
258663160,258563051,2490378,-0.00020568765,-0.0011888812,0.0002853046,0.34906584,1.964814e-07,1.9641307e-07,5.960702e-07,2490378,0.12600291,0.06413401,-0.029219704,0.4,0.00051242067,0.00051242067,0.00051242067,396809,0.019851731,-0.0050553135,-0.08536074,0.5,0.00011880256,0.00036756802,0.00040211377,1,1,1,1,1,0
258761264,258661831,2490378,-0.00020450978,-0.0011877621,0.00028420342,0.34906584,1.9742868e-07,1.9737398e-07,5.966879e-07,2490378,0.12599324,0.06410751,-0.029255904,0.4,0.00051242334,0.00051242154,0.00051242136,396809,0.02000189,-0.0041990834,-0.08636072,0.5,0.00011781021,0.00035827773,0.00039635273,1,1,1,1,1,0
258860326,258760612,2490378,-0.00023033902,-0.001210716,0.00025413602,0.34906584,1.9638591e-07,1.9640704e-07,5.958408e-07,2490378,0.12649658,0.064860195,-0.030688722,0.4,0.0005124203,0.0005124203,0.0005124203,396809,0.020394737,-0.003962546,-0.0865379,0.5,0.00011724157,0.00035411504,0.00039380978,1,1,1,1,1,0
259087640,258987806,2490378,-0.00025828576,-0.0012181394,0.00022201323,0.34906584,1.9658471e-07,1.9666898e-07,5.958187e-07,2490378,0.12707332,0.065087214,-0.031552896,0.4,0.00051242294,0.00051242206,0.0005124212,396809,0.020864317,-0.0042581,-0.08605332,0.5,0.0001163366,0.00034410213,0.0003906349,1,1,1,1,1,0
259463316,259363172,2490378,-0.00025842048,-0.0012071499,0.0002169397,0.34906584,1.9644517e-07,1.9653342e-07,5.9627683e-07,2490378,0.12711349,0.06490629,-0.033397425,0.4,0.0005124212,0.0005124212,0.0005124212,396809,0.02084961,-0.0049483315,-0.08580919,0.5,0.000115306284,0.0003308303,0.00038798663,1,1,1,1,1,0
260055514,259955855,2490378,-0.0002879319,-0.001220437,0.0001950097,0.34906584,1.966664e-07,1.966615e-07,5.9864664e-07,2490378,0.12769265,0.06524247,-0.03494405,0.4,0.00051242067,0.00051242067,0.00051242067,396809,0.02070789,-0.0046674595,-0.085577734,0.5,0.0001140379,0.00031856124,0.00038523777,1,1,1,1,1,0
260263493,260163294,2490378,-0.000289182,-0.0012317584,0.00018952395,0.34906584,1.9683019e-07,1.9678183e-07,5.998546e-07,2490378,0.12765558,0.06552232,-0.03592862,0.4,0.00051242067,0.00051242067,0.00051242067,396809,0.020723576,-0.004875956,-0.08548532,0.5,0.000113673996,0.00031539585,0.00038487357,1,1,1,1,1,0
260658584,260558415,2490378,-0.00029153246,-0.0012253348,0.000185174,0.34906584,1.9699495e-07,1.9685234e-07,6.0249454e-07,2490378,0.12767333,0.06545692,-0.03786684,0.4,0.0005124212,0.0005124212,0.0005124212,396809,0.020651355,-0.005349167,-0.085676625,0.5,0.00011297227,0.00030996,0.00038185448,1,1,1,1,1,0
260865497,260765855,2490378,-0.0002679838,-0.0012180986,0.00017839263,0.34906584,1.9716197e-07,1.9698828e-07,6.035912e-07,2490378,0.12718867,0.06534817,-0.038891397,0.4,0.00051242026,0.00051242026,0.00051242026,396809,0.020452233,-0.005578013,-0.08592414,0.5,0.0001116975,0.00030291302,0.00037355683,1,1,1,1,1,0
261458398,261358537,2490378,-0.00022180611,-0.0012004513,0.00016318404,0.34906584,1.9927603e-07,1.9913291e-07,6.0526037e-07,2490378,0.12630749,0.065033525,-0.038801603,0.4,0.0005124321,0.0005124254,0.0005124247,396809,0.020017443,-0.0053991675,-0.08687324,0.5,0.00010800713,0.00028778453,0.00035112386,1,1,1,1,1,0
262198800,262099391,2490378,-0.00022270023,-0.0012364172,0.00012984457,0.34906584,1.9912645e-07,1.9909118e-07,6.044415e-07,2490378,0.12611376,0.06529841,-0.03952276,0.4,0.00051242235,0.0005124212,0.00051242294,396809,0.019719645,-0.0042742207,-0.08675944,0.5,0.000106087704,0.00028473212,0.00034808874,1,1,1,1,1,0
262949500,262850123,2490378,-0.00021368837,-0.0012751961,0.00010680984,0.34906584,1.9892582e-07,1.9894004e-07,6.065493e-07,2490378,0.12599127,0.06551828,-0.039714772,0.4,0.00051242136,0.00051242136,0.00051242224,396809,0.01996796,-0.003325776,-0.08700136,0.5,0.000103522776,0.00028132883,0.00034375172,1,1,1,1,1,0
263661001,263561343,2490378,-0.00021898474,-0.00130636,9.671685e-05,0.34906584,1.9815718e-07,1.9828079e-07,6.096742e-07,2490378,0.12592599,0.06543755,-0.038671378,0.4,0.0005124212,0.0005124212,0.0005124212,396809,0.020179125,-0.0025660421,-0.087244205,0.5,0.00010104979,0.000278034,0.00034008044,1,1,1,1,1,0
263848638,263749026,2490378,-0.00021558357,-0.0013018373,0.000113387265,0.34906584,1.9991616e-07,2.0008416e-07,6.1031443e-07,2490378,0.12599619,0.06551983,-0.038683604,0.4,0.00051242136,0.00051242136,0.0005124248,396809,0.020703781,-0.0034241788,-0.0875762,0.5,0.0001002294,0.00027675682,0.00033910165,1,1,1,1,1,0
263927345,263828051,2490378,-0.00021393818,-0.0013135982,0.00012612376,0.34906584,1.9875003e-07,1.9894296e-07,6.106347e-07,2490378,0.12612575,0.0654853,-0.03758889,0.4,0.00051242166,0.00051242113,0.00051242084,396809,0.021201817,-0.0042036558,-0.08778225,0.5,9.994069e-05,0.0002763164,0.0003388208,1,1,1,1,1,0
263976825,263877441,2490378,-0.00021397475,-0.001313524,0.00012624735,0.34906584,1.9923806e-07,1.9943099e-07,6.1112297e-07,2490378,0.12614053,0.06544065,-0.036386732,0.4,0.0005124263,0.0005124253,0.0005124212,396809,0.021200592,-0.004203968,-0.08778247,0.5,9.994069e-05,0.0002763164,0.0003388208,1,1,1,1,1,0
263996629,263897197,2490378,-0.00020607005,-0.0013057635,0.000151471,0.34906584,1.9940099e-07,1.9960926e-07,6.109081e-07,2490378,0.12628087,0.065564305,-0.036390625,0.4,0.0005124212,0.0005124212,0.00051242294,396809,0.02205477,-0.0058059203,-0.08799244,0.5,9.9659985e-05,0.00027584645,0.00033845459,1,1,1,1,1,0
264194097,264094758,2490378,-0.00019886644,-0.0013785233,0.00014213315,0.34906584,1.9935847e-07,1.9964848e-07,6.122917e-07,2490378,0.12656102,0.065107845,-0.035057995,0.4,0.00051243254,0.00051243114,0.00051242136,396809,0.022263562,-0.0056483718,-0.08802638,0.5,9.956712e-05,0.0002758121,0.00033845153,1,1,1,1,1,0
264213916,264114515,2490378,-0.00018874907,-0.0013689786,0.00017150394,0.34906584,1.9951999e-07,1.9982605e-07,6.1204923e-07,2490378,0.12671961,0.06526025,-0.035059832,0.4,0.0005124258,0.00051242445,0.000512422,396809,0.02362262,-0.008182881,-0.08805154,0.5,9.9232086e-05,0.0002751375,0.0003377947,1,1,1,1,1,0
264293351,264193539,2490378,-0.00017664734,-0.0014157733,0.00018485001,0.34906584,1.9820268e-07,1.9868567e-07,6.094324e-07,2490378,0.12707749,0.065012544,-0.035169285,0.4,0.00051242113,0.00051242113,0.0005124238,396809,0.025120873,-0.010424018,-0.088119,0.5,9.871057e-05,0.0002744455,0.0003372124,1,1,1,1,1,0
264371939,264272567,2490378,-0.00016702665,-0.0014067341,0.00021073186,0.34906584,1.98949e-07,1.9944812e-07,6.097943e-07,2490378,0.1272252,0.06513886,-0.034600247,0.4,0.0005124172,0.0005124172,0.00051241805,396809,0.0263437,-0.012656286,-0.08817046,0.5,9.8366974e-05,0.0002738146,0.0003367061,1,1,1,1,1,0
264441084,264341710,2490378,-0.0001575747,-0.0013981304,0.00023367064,0.34906584,1.9959994e-07,2.0011565e-07,6.100747e-07,2490378,0.12736003,0.06524582,-0.03367315,0.4,0.00051242096,0.00051242096,0.00051242363,396809,0.027482457,-0.014698788,-0.08824535,0.5,9.801679e-05,0.0002731924,0.00033625338,1,1,1,1,1,0
264520285,264420734,2490378,-0.00015234065,-0.0014668781,0.0002159489,0.34906584,1.9819856e-07,1.9887524e-07,6.0332064e-07,2490378,0.12775636,0.06469917,-0.034184176,0.4,0.0005124212,0.0005124212,0.0005124212,396809,0.029023241,-0.016297327,-0.0882758,0.5,9.724442e-05,0.00027243773,0.00033582083,1,1,1,1,1,0
264589286,264489881,2490378,-0.0001438983,-0.0014588602,0.00023388775,0.34906584,1.9884831e-07,1.995419e-07,6.03607e-07,2490378,0.12785557,0.064805046,-0.033923574,0.4,0.0005124208,0.0005124208,0.0005124216,396809,0.030041168,-0.017898958,-0.08819426,0.5,9.687728e-05,0.00027183114,0.00033543495,1,1,1,1,1,0
264669140,264568905,2490378,-0.00016351906,-0.0014929998,0.00016411845,0.34906584,1.9761774e-07,1.9832184e-07,5.943048e-07,2490378,0.12801144,0.06429592,-0.03359233,0.4,0.0005124212,0.0005124212,0.0005124212,396809,0.031744633,-0.018914396,-0.08819434,0.5,9.596794e-05,0.00027104118,0.0003350772,1,1,1,1,1,0
264737484,264638052,2490378,-0.00015271075,-0.0014847672,0.00017457844,0.34906584,1.9826732e-07,1.9898914e-07,5.9460035e-07,2490378,0.12810385,0.0643674,-0.03311883,0.4,0.0005124205,0.0005124205,0.0005124205,396809,0.032634195,-0.020125171,-0.088237904,0.5,9.5589334e-05,0.00027040747,0.0003347371,1,1,1,1,1,0
264816500,264717076,2490378,-0.00014153395,-0.0014764913,0.00018311724,0.34906584,1.9901374e-07,1.9975408e-07,5.949926e-07,2490378,0.12818775,0.06445179,-0.0333097,0.4,0.0005124214,0.00051242125,0.0005124228,396809,0.033440243,-0.021108927,-0.088289276,0.5,9.521457e-05,0.0002697677,0.00033438747,1,1,1,1,1,0
264865967,264766466,2490378,-0.00018032588,-0.0015060375,6.735923e-05,0.34906584,1.9769679e-07,1.9820745e-07,5.8353993e-07,2490378,0.12814131,0.06388336,-0.034007285,0.4,0.0005124212,0.0005124212,0.0005124212,396809,0.034359924,-0.020571373,-0.08835462,0.5,9.456005e-05,0.00026952277,0.00033438316,1,1,1,1,1,0
264885738,264786223,2490378,-0.00016927022,-0.0014983546,7.2881565e-05,0.34906584,1.9785811e-07,1.9838747e-07,5.833604e-07,2490378,0.12821126,0.063944325,-0.03399908,0.4,0.00051242026,0.00051242026,0.0005124219,396809,0.035109505,-0.021402067,-0.08842053,0.5,9.4181785e-05,0.00026886378,0.00033399038,1,1,1,1,1,0
265013936,264914637,2490378,-0.00015784308,-0.0014908129,7.684431e-05,0.34906584,1.9909227e-07,1.9964104e-07,5.8425644e-07,2490378,0.12826623,0.06396415,-0.032982282,0.4,0.00051242637,0.0005124256,0.0005124212,396809,0.035820972,-0.022077832,-0.0884764,0.5,9.382323e-05,0.00026824544,0.00033353374,1,1,1,1,1,0
265063797,264964028,2490378,-0.00019717368,-0.0015041014,-7.7392266e-05,0.34906584,1.9794585e-07,1.9802492e-07,5.714213e-07,2490378,0.12822077,0.063416354,-0.034143753,0.4,0.0005124205,0.0005124205,0.0005124205,396809,0.037658144,-0.021842156,-0.0886107,0.5,9.2789545e-05,0.0002674174,0.00033303603,1,1,1,1,1,0
265191813,265092443,2490378,-0.00017480277,-0.001490008,-7.556886e-05,0.34906584,1.9914184e-07,1.9926281e-07,5.719888e-07,2490378,0.12830669,0.06347113,-0.03420571,0.4,0.0005124225,0.00051242247,0.0005124221,396809,0.038685404,-0.022253873,-0.08879362,0.5,9.219173e-05,0.0002664193,0.00033199438,1,1,1,1,1,0
265271056,265171467,2490378,-0.00021242567,-0.0014948907,-0.00023433706,0.34906584,1.9848171e-07,1.9784483e-07,5.589967e-07,2490378,0.1282243,0.06299747,-0.034950163,0.4,0.0005124212,0.0005124212,0.0005124212,396809,0.040323775,-0.021621687,-0.0889847,0.5,9.1220594e-05,0.00026575814,0.0003314337,1,1,1,1,1,0
265330044,265230735,2490378,-0.00021242547,-0.0014951306,-0.00023414937,0.34906584,1.9906717e-07,1.9843023e-07,5.595822e-07,2490378,0.12820639,0.06296477,-0.033873953,0.4,0.0005124262,0.00051242573,0.0005124212,396809,0.04032323,-0.021622341,-0.08898467,0.5,9.1220594e-05,0.00026575814,0.0003314337,1,1,1,1,1,0
265409135,265309760,2490378,-0.00019269803,-0.0014838494,-0.00023471072,0.34906584,1.9977152e-07,1.9917995e-07,5.597104e-07,2490378,0.12824726,0.06297886,-0.03351551,0.4,0.00051242515,0.00051242503,0.0005124234,396809,0.04127534,-0.022090817,-0.08906164,0.5,9.075808e-05,0.0002651925,0.00033027446,1,1,1,1,1,0
265459052,265359150,2490378,-0.00023811212,-0.0014790918,-0.0003855537,0.34906584,1.9906862e-07,1.9747944e-07,5.474848e-07,2490378,0.12791306,0.06269129,-0.03319891,0.4,0.0005124212,0.0005124212,0.0005124212,396809,0.04237918,-0.021402184,-0.08914676,0.5,9.008849e-05,0.00026492102,0.00033026884,1,1,1,1,1,0
265666112,265566590,2490378,-0.00025584231,-0.0014932386,-0.0004975326,0.34906584,2.000198e-07,1.9730567e-07,5.3615076e-07,2490378,0.12740484,0.06219341,-0.03137678,0.4,0.0005124205,0.0005124205,0.0005124205,396809,0.043950047,-0.021338567,-0.08935152,0.5,8.886275e-05,0.00026415286,0.00032879176,1,1,1,1,1,0
265853734,265754273,2490378,-0.00027788297,-0.0014921548,-0.0006104675,0.34906584,2.0102044e-07,1.9703315e-07,5.2556624e-07,2490378,0.12740704,0.06180588,-0.03115916,0.4,0.00051242084,0.00051242084,0.00051242084,396809,0.045159623,-0.02116813,-0.089493535,0.5,8.792214e-05,0.00026367352,0.00032769435,1,1,1,1,1,0
265923242,265823419,2490378,-0.0002754448,-0.001491268,-0.0006098229,0.34906584,2.0166034e-07,1.9770063e-07,5.2596926e-07,2490378,0.1273444,0.061772563,-0.029813886,0.4,0.000512425,0.0005124259,0.0005124212,396809,0.045335554,-0.021304104,-0.08950606,0.5,8.7775756e-05,0.00026359851,0.00032714408,1,1,1,1,1,0
266081003,265981468,2490378,-0.00028637916,-0.0014858312,-0.0006886731,0.34906584,2.0245284e-07,1.9711544e-07,5.153082e-07,2490378,0.12721762,0.06152643,-0.02927762,0.4,0.0005124215,0.00051242154,0.0005124225,396809,0.04629176,-0.021000557,-0.0896363,0.5,8.687277e-05,0.00026323396,0.00032607952,1,1,1,1,1,0
266259138,266159274,2490378,-0.0003010908,-0.001469329,-0.00078418833,0.34906584,2.035866e-07,1.9674708e-07,5.058088e-07,2490378,0.12739408,0.061305493,-0.029720403,0.4,0.00051242026,0.00051242026,0.00051242026,396809,0.047179695,-0.020440005,-0.08971676,0.5,8.61605e-05,0.000262917,0.0003256743,1,1,1,1,1,0
266486104,266386469,2490378,-0.00031437402,-0.0014848616,-0.00087257504,0.34906584,2.0519921e-07,1.967655e-07,4.970205e-07,2490378,0.12763119,0.060802013,-0.03028625,0.4,0.00051242096,0.00051242096,0.00051242096,396809,0.048229925,-0.020042138,-0.08982405,0.5,8.538004e-05,0.0002625924,0.00032515652,1,1,1,1,1,0
266851272,266751958,2490378,-0.00031380932,-0.0014731117,-0.0009207381,0.34906584,2.081205e-07,1.9819251e-07,4.9030723e-07,2490378,0.12765925,0.060623795,-0.028950833,0.4,0.0005124203,0.0005124336,0.0005124203,396809,0.04918472,-0.019987576,-0.09010514,0.5,8.448444e-05,0.0002622399,0.00032471644,1,1,1,1,1,0
266861342,266761836,2490378,-0.00032647248,-0.0014619486,-0.0009913247,0.34906584,2.0781015e-07,1.9618157e-07,4.824378e-07,2490378,0.12817238,0.060470134,-0.030480227,0.4,0.0005124205,0.0005124205,0.0005124205,396809,0.049643952,-0.019657513,-0.09014384,0.5,8.412612e-05,0.00026205814,0.00032471024,1,1,1,1,1,0
267256461,267156958,2490378,-0.00032654972,-0.0014048176,-0.0010573405,0.34906584,2.1057639e-07,1.9576517e-07,4.7180683e-07,2490378,0.1289929,0.060568918,-0.03125629,0.4,0.0005124212,0.0005124212,0.0005124212,396809,0.05058893,-0.019683277,-0.09050193,0.5,8.313316e-05,0.00026127684,0.00032401527,1,1,1,1,1,0
267374845,267275495,2490378,-0.0003270762,-0.0014041092,-0.0010518908,0.34906584,2.116226e-07,1.9689782e-07,4.7239524e-07,2490378,0.1288452,0.06056344,-0.030066647,0.4,0.0005124211,0.00051242963,0.0005124211,396809,0.050710954,-0.019756947,-0.09059373,0.5,8.2950355e-05,0.00026095685,0.0003235788,1,1,1,1,1,0
267542759,267443422,2490378,-0.00033323377,-0.0013928037,-0.0010749442,0.34906584,2.1269045e-07,1.9640542e-07,4.6820927e-07,2490378,0.12870674,0.060584117,-0.028847696,0.4,0.0005124212,0.00051242724,0.0005124212,396809,0.050991334,-0.019702943,-0.09071779,0.5,8.2538034e-05,0.0002604645,0.0003230204,1,1,1,1,1,0
267661534,267561959,2490378,-0.00033301144,-0.0013686062,-0.0010846462,0.34906584,2.1322899e-07,1.9542505e-07,4.642993e-07,2490378,0.12934864,0.060589034,-0.030118342,0.4,0.0005124212,0.0005124212,0.0005124212,396809,0.051193178,-0.019723857,-0.090896845,0.5,8.211442e-05,0.0002598408,0.0003222078,1,1,1,1,1,0
267809419,267710130,2490378,-0.00033462408,-0.0013683533,-0.0010791579,0.34906584,2.1456275e-07,1.968492e-07,4.651484e-07,2490378,0.12916997,0.060590807,-0.028936325,0.4,0.00051242113,0.00051243225,0.00051242113,396809,0.051317297,-0.019827727,-0.091032304,0.5,8.181514e-05,0.00025915922,0.00032118647,1,1,1,1,1,0
268244189,268144765,2490378,-0.00033459504,-0.001336777,-0.001071278,0.34906584,2.1739608e-07,1.9686831e-07,4.608206e-07,2490378,0.1294587,0.060635623,-0.027925523,0.4,0.0005124212,0.0005124353,0.0005124212,396809,0.051569857,-0.019949224,-0.091456465,0.5,8.082981e-05,0.00025773467,0.00031923942,1,1,1,1,1,0
268264140,268164522,2490378,-0.0003354267,-0.0013021101,-0.001080796,0.34906584,2.1683543e-07,1.9493837e-07,4.580196e-07,2490378,0.1300413,0.060717404,-0.029465448,0.4,0.0005124203,0.0005124203,0.0005124203,396809,0.051619526,-0.019882439,-0.09158265,0.5,8.060413e-05,0.0002574667,0.0003188665,1,1,1,1,1,0
268412035,268312693,2490378,-0.00033772003,-0.0013021256,-0.0010753452,0.34906584,2.1815148e-07,1.9636059e-07,4.5883544e-07,2490378,0.1298249,0.0607278,-0.028251596,0.4,0.0005124205,0.00051243196,0.0005124205,396809,0.05171548,-0.019938856,-0.091746666,0.5,8.036757e-05,0.0002571256,0.00031829777,1,1,1,1,1,0
268619427,268520132,2490378,-0.0003400606,-0.0012775449,-0.0010776462,0.34906584,2.1926554e-07,1.9628061e-07,4.5805356e-07,2490378,0.12971339,0.060826976,-0.026957693,0.4,0.00051242113,0.0005124334,0.00051242113,396809,0.051783662,-0.019917231,-0.09189966,0.5,8.0058206e-05,0.00025664177,0.00031757337,1,1,1,1,1,0
268836777,268737450,2490378,-0.0003474719,-0.0012536574,-0.0010799994,0.34906584,2.202461e-07,1.9628138e-07,4.5749883e-07,2490378,0.12951566,0.060934514,-0.025464177,0.4,0.0005124211,0.00051243417,0.0005124211,396809,0.05179547,-0.019731969,-0.09206934,0.5,7.9690144e-05,0.00025611077,0.00031673955,1,1,1,1,1,0
268866695,268767084,2490378,-0.00034933173,-0.0012284011,-0.0010829674,0.34906584,2.1938096e-07,1.945114e-07,4.5619078e-07,2490378,0.12990522,0.060967237,-0.026685733,0.4,0.0005124212,0.0005124212,0.0005124212,396809,0.051797476,-0.019683285,-0.092152536,0.5,7.953884e-05,0.00025588583,0.00031640488,1,1,1,1,1,0
268925875,268826353,2490378,-0.00036086087,-0.0012362378,-0.0010920259,0.34906584,2.1988376e-07,1.9507613e-07,4.5643097e-07,2490378,0.12981115,0.060940713,-0.02658423,0.4,0.0005124211,0.00051242474,0.00051242136,396809,0.051082972,-0.018444821,-0.09203681,0.5,7.9415266e-05,0.0002556691,0.00031608567,1,1,1,1,1,0
268994899,268895499,2490378,-0.00037305494,-0.0012439977,-0.0010995191,0.34906584,2.2048165e-07,1.9573837e-07,4.5676364e-07,2490378,0.12967686,0.060925126,-0.026263513,0.4,0.00051242346,0.00051243074,0.0005124238,396809,0.050409585,-0.017298328,-0.09194285,0.5,7.929129e-05,0.00025547761,0.00031581314,1,1,1,1,1,0
269073922,268974524,2490378,-0.00038452295,-0.0011937963,-0.0011157653,0.34906584,2.1964131e-07,1.9445743e-07,4.5665502e-07,2490378,0.12983005,0.061095294,-0.026878837,0.4,0.0005124205,0.0005124205,0.0005124205,396809,0.04961323,-0.015925618,-0.09191318,0.5,7.913469e-05,0.00025519409,0.0003154274,1,1,1,1,1,0
269152985,269053548,2490378,-0.0003900469,-0.0011994848,-0.0011265768,0.34906584,2.2034322e-07,1.9521777e-07,4.5706827e-07,2490378,0.12977134,0.061049625,-0.026890313,0.4,0.0005124232,0.00051242707,0.0005124241,396809,0.04877168,-0.014132889,-0.09174285,0.5,7.891364e-05,0.00025439158,0.00031427245,1,1,1,1,1,0
269222165,269122696,2490378,-0.0003927059,-0.0012034748,-0.0011365738,0.34906584,2.2095149e-07,1.958789e-07,4.5737298e-07,2490378,0.12979437,0.06099043,-0.027296716,0.4,0.0005124197,0.00051242986,0.0005124197,396809,0.047949083,-0.012181129,-0.091576375,0.5,7.858035e-05,0.00025269334,0.00031175924,1,1,1,1,1,0
269261814,269162207,2490378,-0.0003958817,-0.0011501731,-0.0011360955,0.34906584,2.1916748e-07,1.942209e-07,4.5764725e-07,2490378,0.13005212,0.06114594,-0.028267536,0.4,0.0005124211,0.0005124211,0.0005124211,396809,0.047828536,-0.012109132,-0.09162709,0.5,7.856576e-05,0.00025267337,0.00031175217,1,1,1,1,1,0
269429504,269330134,2490378,-0.0003965848,-0.0011516425,-0.0011369046,0.34906584,2.2069817e-07,1.9583867e-07,4.5852784e-07,2490378,0.12976874,0.061179325,-0.026788898,0.4,0.0005124212,0.00051242864,0.0005124212,396809,0.047975935,-0.012577892,-0.09193016,0.5,7.7564495e-05,0.00024591223,0.00030118925,1,1,1,1,1,0
269449297,269349891,2490378,-0.0003986656,-0.0011516435,-0.0011336779,0.34906584,2.2083528e-07,1.9601205e-07,4.5833346e-07,2490378,0.12977865,0.061213776,-0.026787652,0.4,0.00051242026,0.0005124228,0.00051242055,396809,0.048297543,-0.013447508,-0.09284938,0.5,7.691968e-05,0.0002408045,0.00029281294,1,1,1,1,1,0
269459317,269359769,2490378,-0.00037300226,-0.0011470333,-0.0011312533,0.34906584,2.1874973e-07,1.941771e-07,4.5827923e-07,2490378,0.12946586,0.061268374,-0.02493565,0.4,0.0005124203,0.0005124203,0.0005124203,396809,0.048320185,-0.013359986,-0.09291014,0.5,7.68938e-05,0.00024078293,0.00029280153,1,1,1,1,1,0
269519119,269419037,2490378,-0.00037561986,-0.0011479909,-0.001128604,0.34906584,2.1928415e-07,1.9474267e-07,4.584843e-07,2490378,0.12927891,0.061311416,-0.023957647,0.4,0.00051242096,0.00051242096,0.00051242305,396809,0.048621256,-0.014145989,-0.09399997,0.5,7.6108096e-05,0.00023427106,0.0002822138,1,1,1,1,1,0
