timestamp,timestamp_sample,output_tracking_error[0],output_tracking_error[1],output_tracking_error[2],control_mode_flags,filter_fault_flags,pos_horiz_accuracy,pos_vert_accuracy,mag_test_ratio,vel_test_ratio,pos_test_ratio,hgt_test_ratio,tas_test_ratio,hagl_test_ratio,beta_test_ratio,time_slip,accel_device_id,gyro_device_id,baro_device_id,mag_device_id,gps_check_fail_flags,innovation_check_flags,solution_status_flags,reset_count_vel_ne,reset_count_vel_d,reset_count_pos_ne,reset_count_pod_d,reset_count_quat,pre_flt_fail_innov_heading,pre_flt_fail_innov_vel_horiz,pre_flt_fail_innov_vel_vert,pre_flt_fail_innov_height,pre_flt_fail_mag_field_disturbed,health_flags,timeout_flags
217451360,217352205,6.6074725e-05,0.0009264207,0.0017162713,67109399,0,0.3681677,0.396673,0.07231293,0.022338796,0.008494492,0.016411342,0.0,0.0,0.0,0.0,2490378,2490378,4028193,396321,0,0,895,2,1,2,0,3,0,0,0,0,0,0,0
217461240,217362083,5.9913764e-05,0.0009620449,0.0015775744,67109399,0,0.36900118,0.39734966,0.07231293,0.022338796,0.008494492,0.016411342,0.0,0.0,0.0,0.0,2490378,2490378,4028193,396321,0,0,895,2,1,2,0,3,0,0,0,0,0,0,0
217659341,217559640,0.0011642962,0.0035862087,0.007437318,67109399,0,0.3519874,0.3917842,0.16372113,0.010055388,0.00716032,0.017368037,0.0,0.0,0.0,0.0,2490378,2490378,4028193,396321,0,0,895,2,1,2,0,3,0,0,0,0,0,0,0
217856336,217757197,0.0015494847,0.0022000843,0.004659677,67109399,0,0.36774474,0.3949716,0.18264326,0.010055388,0.00716032,0.010405159,0.0,0.0,0.0,0.0,2490378,2490378,4028193,396321,0,0,895,2,1,2,0,3,0,0,0,0,0,0,0
218054019,217954754,0.0015155129,0.0020188768,0.0026309064,67109399,0,0.36712122,0.3963498,0.19262713,0.014467447,0.0068129194,0.018969696,0.0,0.0,0.0,0.0,2490378,2490378,4028193,396321,0,0,895,2,1,2,0,3,0,0,0,0,0,0,0
218261504,218162189,0.0011567839,0.0019859658,0.004487287,67109399,0,0.35088685,0.3915092,0.16347298,0.019179046,0.0076479726,0.016672723,0.0,0.0,0.0,0.0,2490378,2490378,4028193,396321,0,0,895,2,1,2,0,3,0,0,0,0,0,0,0
218459104,218359746,0.0015070741,0.001140073,0.0024674514,67109399,0,0.36673346,0.39727867,0.20417716,0.019179046,0.0076479726,0.014726481,0.0,0.0,0.0,0.0,2490378,2490378,4028193,396321,0,0,895,2,1,2,0,3,0,0,0,0,0,0,0
218656434,218557303,0.0016640353,0.0023413184,0.002096598,67109399,0,0.36599472,0.39613608,0.18797284,0.0119187245,0.005914787,0.010705165,0.0,0.0,0.0,0.0,2490378,2490378,4028193,396321,0,0,895,2,1,2,0,3,0,0,0,0,0,0,0
218853949,218754860,0.0010631168,0.002324985,0.0032216983,67109399,0,0.36533815,0.39501062,0.15014608,0.025070876,0.0073900954,0.015871685,0.0,0.0,0.0,0.0,2490378,2490378,4028193,396321,0,0,895,2,1,2,0,3,0,0,0,0,0,0,0
219061562,218962295,0.001153175,0.0062509445,0.009013034,67109399,0,0.34899727,0.3926928,0.16487882,0.00865143,0.007268139,0.016681312,0.0,0.0,0.0,0.0,2490378,2490378,4028193,396321,0,0,895,2,1,2,0,3,0,0,0,0,0,0,0
219259206,219159853,0.0014547561,0.003503046,0.0047903573,1049239,0,0.3648929,0.39600968,0.15583763,0.00865143,0.007268139,0.018759107,0.0,0.0,0.0,0.0,2490378,2490378,4028193,396321,0,0,895,2,1,2,0,3,0,0,0,0,0,0,0
219456507,219357410,0.0007665576,0.002012063,0.002845948,1049239,0,0.36421248,0.39491016,0.060912993,0.018411547,0.006595081,1.1754944e-38,0.0,0.0,0.0,0.0,2490378,2490378,4028193,396321,0,0,895,2,1,2,0,3,0,0,0,0,0,0,0
219654068,219554967,0.0002816483,0.0012666909,0.0015137878,1049239,0,0.36354262,0.396351,0.0956048,0.013994253,0.007023906,0.009946252,0.0,0.0,0.0,0.0,2490378,2490378,4028193,396321,0,0,895,2,1,2,0,3,0,0,0,0,0,0,0
219851679,219752525,0.00022016098,0.0031034374,0.0063714082,1049239,0,0.36290115,0.39528474,0.024186155,0.047929883,0.005404432,0.012373299,0.0,0.0,0.0,0.0,2490378,2490378,4028193,396321,0,0,895,2,1,2,0,3,0,0,0,0,0,0,0
220059194,219959960,0.00018128754,0.0032895776,0.009162285,1049239,0,0.3630411,0.3948994,0.0020636998,0.024117358,0.0058008847,0.019516826,0.0,0.0,0.0,0.0,2490378,2490378,4028193,396321,0,0,895,2,1,2,0,3,0,0,0,0,0,0,0
220256612,220157517,0.0001466829,0.0020540897,0.0054530534,1049239,0,0.3623491,0.39636484,0.027775671,0.033389036,0.00413179,0.017711943,0.0,0.0,0.0,0.0,2490378,2490378,4028193,396321,0,0,895,2,1,2,0,3,0,0,0,0,0,0,0
220454228,220355074,0.00080139976,0.0031043086,0.006794816,1049239,0,0.3616875,0.39531282,0.1817619,0.03431833,0.0056444514,0.019706191,0.0,0.0,0.0,0.0,2490378,2490378,4028193,396321,0,0,895,2,1,2,0,3,0,0,0,0,0,0,0
220661748,220562510,0.0013836692,0.005600365,0.0068042027,1049239,0,0.34520105,0.390553,0.19586812,0.0210004,0.0062822155,0.0151454825,0.0,0.0,0.0,0.0,2490378,2490378,4028193,396321,0,0,895,2,1,2,0,3,0,0,0,0,0,0,0
220859640,220760067,0.0018184072,0.0037976294,0.005339796,1049239,0,0.34459,0.3895389,0.21941407,0.009184514,0.0054641166,0.0031443073,0.0,0.0,0.0,0.0,2490378,2490378,4028193,396321,0,0,895,2,1,2,0,3,0,0,0,0,0,0,0
221056842,220957625,0.0022052324,0.0035351801,0.010133866,1049239,0,0.36055464,0.39290395,0.24363017,0.009184514,0.0054641166,0.030004483,0.0,0.0,0.0,0.0,2490378,2490378,4028193,396321,0,0,895,2,1,2,0,3,0,0,0,0,0,0,0
221254284,221155182,0.0019663794,0.0042098304,0.008842567,1049239,0,0.35987708,0.39442867,0.27563232,0.017146323,0.007241143,0.016352793,0.0,0.0,0.0,0.0,2490378,2490378,4028193,396321,0,0,895,2,1,2,0,3,0,0,0,0,0,0,0
221451868,221352740,0.0026027528,0.004987799,0.011635208,1049239,0,0.3592279,0.39342627,0.32773855,0.016456503,0.0076674684,0.0038181914,0.0,0.0,0.0,0.0,2490378,2490378,4028193,396321,0,0,895,2,1,2,0,3,0,0,0,0,0,0,0
221659770,221560175,0.0034617214,0.005331478,0.009179044,1049239,0,0.34276062,0.39119428,0.38059816,0.012643675,0.0080422005,0.014719756,0.0,0.0,0.0,0.0,2490378,2490378,4028193,396321,0,0,895,2,1,2,0,3,0,0,0,0,0,0,0
221856871,221757732,0.002953413,0.0034133221,0.0074866842,1049239,0,0.35876885,0.3946184,0.4045353,0.012643675,0.0080422005,0.029973054,0.0,0.0,0.0,0.0,2490378,2490378,4028193,396321,0,0,895,2,1,2,0,3,0,0,0,0,0,0,0
222054419,221955290,0.0038201616,0.0030249346,0.009366204,1114775,0,0.3581102,0.39362466,0.46154007,0.04663462,0.00535454,0.023995992,0.0,0.0,0.0,0.0,2490378,2490378,4028193,396321,0,0,895,2,1,2,0,3,0,0,0,0,1,0,0
222261976,222162725,0.0031715038,0.0063136513,0.009102302,1114775,0,0.3414047,0.3913592,0.5212395,0.036685795,0.0061868187,0.017506447,0.0,0.0,0.0,0.0,2490378,2490378,4028193,396321,0,0,895,2,1,2,0,3,0,0,0,0,1,0,0
222459382,222360283,0.0041468893,0.0018745599,0.004940793,1114775,0,0.35741445,0.39480284,0.56839454,0.036685795,0.0061868187,0.013062302,0.0,0.0,0.0,0.0,2490378,2490378,4028193,396321,0,0,895,2,1,2,0,3,0,0,0,0,1,0,0
222656968,222557841,0.00524978,0.0032874362,0.008685339,1114775,0,0.35659978,0.39379016,0.6076924,0.026532104,0.0071980036,0.0011981693,0.0,0.0,0.0,0.0,2490378,2490378,4028193,396321,0,0,895,2,1,2,0,3,0,0,0,0,1,0,0
222854496,222755398,0.004275878,0.0026281276,0.0049776323,1114775,0,0.35589558,0.39529744,0.6329738,0.024939507,0.0075138584,0.029254347,0.0,0.0,0.0,0.0,2490378,2490378,4028193,396321,0,0,895,2,1,2,0,3,0,0,0,0,1,0,0
223052066,222952956,0.005655081,0.002096414,0.013145766,1114775,0,0.35528994,0.39429417,0.71775556,0.018809177,0.0064373715,0.0549287,0.0,0.0,0.0,0.0,2490378,2490378,4028193,396321,0,0,895,2,1,2,0,3,0,0,0,0,1,0,0
223259624,223160392,0.006580023,0.00582222,0.027292985,1114775,0,0.35556445,0.3939914,0.750066,0.020398835,0.0062775128,0.04040872,0.0,0.0,0.0,0.0,2490378,2490378,4028193,396321,0,0,895,2,1,2,0,3,0,0,0,0,1,0,0
223457071,223357949,0.005535229,0.0056310813,0.029076383,1114775,0,0.3549409,0.39301467,0.7480297,0.036767304,0.007844532,0.027302833,0.0,0.0,0.0,0.0,2490378,2490378,4028193,396321,0,0,895,2,1,2,0,3,0,0,0,0,1,0,0
223654635,223555507,0.0058414442,0.0008960466,0.009506479,1114775,0,0.3543286,0.3945424,0.64004856,0.072299205,0.0065218643,0.06623583,0.0,0.0,0.0,0.0,2490378,2490378,4028193,396321,0,0,895,2,1,2,0,3,0,0,0,0,1,0,0
223852169,223753065,0.0039564134,0.0068919603,0.010055926,1114775,0,0.35371658,0.39357266,0.60189754,0.0617562,0.008896779,1.1754944e-38,0.0,0.0,0.0,0.0,2490378,2490378,4028193,396321,0,0,895,2,1,2,0,3,0,0,0,0,1,0,0
224059644,223960501,0.0046830066,0.0068668965,0.013982072,1114775,0,0.3539117,0.39328432,0.65078473,0.06530252,0.009602,0.026096608,0.0,0.0,0.0,0.0,2490378,2490378,4028193,396321,0,0,895,2,1,2,0,3,0,0,0,0,1,0,0
224257303,224158061,0.005690748,0.0069058267,0.016772514,1114775,0,0.33657297,0.39042324,0.65157074,0.034715585,0.008144701,0.01789001,0.0,0.0,0.0,0.0,2490378,2490378,4028193,396321,0,0,831,2,1,2,0,3,0,0,0,0,1,0,0
224454719,224355618,0.00423071,0.0030357153,0.014328977,1114775,0,0.35270587,0.3938811,0.61214525,0.034715585,0.008144701,0.005720441,0.0,0.0,0.0,0.0,2490378,2490378,4028193,396321,0,0,831,2,1,2,0,3,0,0,0,0,1,0,0
224662150,224563052,0.0045957128,0.0060854186,0.01073998,1114775,0,0.35288385,0.39360055,0.6184944,0.054450493,0.009304812,0.009641401,0.0,0.0,0.0,0.0,2490378,2490378,4028193,396321,0,0,831,2,1,2,0,3,0,0,0,0,1,0,0
224859776,224760610,0.0054624635,0.0061046514,0.012199678,1114775,0,0.35225207,0.39514568,0.6267033,0.09219134,0.0068036197,0.01828743,0.0,0.0,0.0,0.0,2490378,2490378,4028193,396321,0,0,831,2,1,2,0,3,0,0,0,0,1,0,0
225057263,224958168,0.0043158284,0.0070645087,0.015369194,1114775,0,0.3515772,0.39417255,0.62111396,0.0850509,0.009621,0.006416612,0.0,0.0,0.0,0.0,2490378,2490378,4028193,396321,0,0,831,2,1,2,0,3,0,0,0,0,1,0,0
225254864,225155726,0.005114138,0.0015580214,0.005392818,1114775,0,0.35097122,0.39322743,0.6255543,0.018973164,0.007918751,0.016573168,0.0,0.0,0.0,0.0,2490378,2490378,4028193,396321,0,0,831,2,1,2,0,3,0,0,0,0,1,0,0
225452453,225353284,0.0056426576,0.0025111597,0.013142424,1114775,0,0.3503875,0.39478865,0.60297275,0.04256552,0.007092028,0.0022831298,0.0,0.0,0.0,0.0,2490378,2490378,4028193,396321,0,0,831,2,1,2,0,3,0,0,0,0,1,0,0
225659961,225560720,0.004207176,0.0075683678,0.017688714,1114775,0,0.3339119,0.39012095,0.59851134,0.05978077,0.007071712,0.008663497,0.0,0.0,0.0,0.0,2490378,2490378,4028193,396321,0,0,831,2,1,2,0,3,0,0,0,0,1,0,0
225857374,225758278,0.0050026686,0.003022316,0.011811958,1114775,0,0.3501423,0.393592,0.61292106,0.05978077,0.007071712,1.1754944e-38,0.0,0.0,0.0,0.0,2490378,2490378,4028193,396321,0,0,831,2,1,2,0,3,0,0,0,0,1,0,0
226055016,225955836,0.005580379,0.007940782,0.014470834,1114775,0,0.34953707,0.39265984,0.60133964,0.11435677,0.00783682,0.06216955,0.0,0.0,0.0,0.0,2490378,2490378,4028193,396321,0,0,831,2,1,2,0,3,0,0,0,0,1,0,0
226262392,226163272,0.004157529,0.0075228605,0.014429431,1114775,0,0.34983647,0.39490366,0.5977065,0.07490535,0.0069885766,0.010746555,0.0,0.0,0.0,0.0,2490378,2490378,4028193,396321,0,0,831,2,1,2,0,3,0,0,0,0,1,0,0
226459931,226360830,0.004874541,0.007111878,0.013172028,1114775,0,0.34921795,0.39396277,0.5781388,0.046661865,0.00800757,1.1754944e-38,0.0,0.0,0.0,0.0,2490378,2490378,4028193,396321,0,0,831,2,1,2,0,3,0,0,0,0,1,0,0
226657547,226558388,0.0037526456,0.004771971,0.009884979,1114775,0,0.34861496,0.39302284,0.5941159,0.024599703,0.0066740727,1.1754944e-38,0.0,0.0,0.0,0.0,2490378,2490378,4028193,396321,0,0,831,2,1,2,0,3,0,0,0,0,1,0,0
226855210,226755946,0.004426654,0.010962603,0.022421304,1114775,0,0.33132553,0.3901866,0.5813109,0.02362632,0.009523794,1.1754944e-38,0.0,0.0,0.0,0.0,2490378,2490378,4028193,396321,0,0,831,2,1,2,0,3,0,0,0,0,1,0,0
227052605,226953504,0.0050847135,0.005631658,0.014000765,1114775,0,0.3475367,0.39367902,0.56922674,0.02362632,0.009523794,0.0075154626,0.0,0.0,0.0,0.0,2490378,2490378,4028193,396321,0,0,831,2,1,2,0,3,0,0,0,0,1,0,0
227260039,227160940,0.0036912395,0.011060048,0.019911954,1114775,0,0.3478392,0.39342716,0.56535363,0.08716478,0.010042886,1.1754944e-38,0.0,0.0,0.0,0.0,2490378,2490378,4028193,396321,0,0,831,2,1,2,0,3,0,0,0,0,1,0,0
227457593,227358498,0.0043681334,0.006618113,0.013763227,1114775,0,0.3472214,0.39498764,0.5548944,0.07658246,0.004629609,1.1754944e-38,0.0,0.0,0.0,0.0,2490378,2490378,4028193,396321,0,0,831,2,1,2,0,3,0,0,0,0,1,0,0
227655154,227556057,0.0049139983,0.004331702,0.008011038,1114775,0,0.34664533,0.39405665,0.5458914,0.047288053,0.0058862385,0.014821446,0.0,0.0,0.0,0.0,2490378,2490378,4028193,396321,0,0,831,2,1,2,0,3,0,0,0,0,1,0,0
227852733,227753615,0.003848209,0.0032642575,0.006257287,1114775,0,0.34608245,0.39313447,0.55127543,0.031221531,0.0077854292,0.00028435214,0.0,0.0,0.0,0.0,2490378,2490378,4028193,396321,0,0,831,2,1,2,0,3,0,0,0,0,1,0,0
228060401,227961051,0.004258243,0.025632212,0.048812795,1114775,0,0.32960698,0.38852644,0.545236,0.06321638,0.010930789,1.1754944e-38,0.0,0.0,0.0,0.0,2490378,2490378,4028193,396321,0,0,831,2,1,2,0,3,0,0,0,0,1,0,0
228257860,228158610,0.0048995246,0.027239356,0.048721783,1114775,0,0.3291185,0.3900512,0.5550335,0.112821914,0.010993287,1.1754944e-38,0.0,0.0,0.0,0.0,2490378,2490378,4028193,396321,0,0,831,2,1,2,0,3,0,0,0,0,1,0,0
228455293,228356167,0.0038778335,0.012719103,0.024300802,1114775,0,0.3453823,0.39350736,0.5681259,0.112821914,0.010993287,1.1754944e-38,0.0,0.0,0.0,0.0,2490378,2490378,4028193,396321,0,0,831,2,1,2,0,3,0,0,0,0,1,0,0
228652828,228553726,0.0047647264,0.0074729645,0.017951967,1114775,0,0.34459358,0.39502066,0.5802632,0.04736569,0.007579159,0.051066406,0.0,0.0,0.0,0.0,2490378,2490378,4028193,396321,0,0,831,2,1,2,0,3,0,0,0,0,1,0,0
228860529,228761162,0.0052669425,0.008499987,0.023026645,1114775,0,0.32812953,0.39026895,0.5786182,0.031372957,0.012960432,1.1754944e-38,0.0,0.0,0.0,0.0,2490378,2490378,4028193,396321,0,0,831,2,1,2,0,3,0,0,0,0,1,0,0
229057815,228958720,0.0043959604,0.00522027,0.018012434,1114775,0,0.34439263,0.39614287,0.5775482,0.031372957,0.012960432,0.009579523,0.0,0.0,0.0,0.0,2490378,2490378,4028193,396321,0,0,831,2,1,2,0,3,0,0,0,0,1,0,0
229255401,229156279,0.00338309,0.004760203,0.009433761,1114775,0,0.34380776,0.3975543,0.56935346,0.032137875,0.011130229,1.1754944e-38,0.0,0.0,0.0,0.0,2490378,2490378,4028193,396321,0,0,831,2,1,2,0,3,0,0,0,0,1,0,0
229453124,229353837,0.004503069,0.012521451,0.018864552,1114775,0,0.32654417,0.3919067,0.58221793,0.07940074,0.011910629,0.011183922,0.0,0.0,0.0,0.0,2490378,2490378,4028193,396321,0,0,831,2,1,2,0,3,0,0,0,0,1,0,0
229660698,229561274,0.0050697657,0.018489713,0.031117553,1114775,0,0.32677957,0.3914356,0.5785765,0.07993482,0.013680406,0.030419916,0.0,0.0,0.0,0.0,2490378,2490378,4028193,396321,0,0,831,2,1,2,0,3,0,0,0,0,1,0,0
229857929,229758832,0.0042626103,0.008270094,0.016044464,1114775,0,0.3430732,0.39728215,0.566677,0.07993482,0.013680406,0.009219613,0.0,0.0,0.0,0.0,2490378,2490378,4028193,396321,0,0,831,2,1,2,0,3,0,0,0,0,1,0,0
230055515,229956390,0.004789581,0.007089228,0.013804101,1114775,0,0.34246635,0.39608514,0.55620617,0.07283354,0.018004805,1.1754944e-38,0.0,0.0,0.0,0.0,2490378,2490378,4028193,396321,0,0,831,2,1,2,0,3,0,0,0,0,1,0,0
230253072,230153949,0.0035598618,0.007969537,0.017739635,1114775,0,0.34187877,0.39746186,0.5338647,0.052737433,0.018558089,0.0036397178,0.0,0.0,0.0,0.0,2490378,2490378,4028193,396321,0,0,831,2,1,2,0,3,0,0,0,0,1,0,0
230460510,230361385,0.0037360368,0.008635816,0.020037346,1114775,0,0.34217057,0.3969772,0.51054865,0.106543735,0.018163303,0.00042608764,0.0,0.0,0.0,0.0,2490378,2490378,4028193,396321,0,0,831,2,1,2,0,3,0,0,0,0,1,0,0
230658181,230558944,0.004490387,0.012596711,0.026208257,1114775,0,0.3247439,0.39141414,0.531635,0.060492005,0.018009923,1.1754944e-38,0.0,0.0,0.0,0.0,2490378,2490378,4028193,396321,0,0,831,2,1,2,0,3,0,0,0,0,1,0,0
230855603,230756503,0.0034392616,0.004718306,0.009178084,1114775,0,0.3410302,0.39725572,0.52066857,0.060492005,0.018009923,1.1754944e-38,0.0,0.0,0.0,0.0,2490378,2490378,4028193,396321,0,0,831,2,1,2,0,3,0,0,0,0,1,0,0
231053159,230954061,0.0037793077,0.007530902,0.01137716,1114775,0,0.34047967,0.39610246,0.4711481,0.05220651,0.019115949,1.1754944e-38,0.0,0.0,0.0,0.0,2490378,2490378,4028193,396321,0,0,831,2,1,2,0,3,0,0,0,0,1,0,0
231260734,231161498,0.004271061,0.0041328785,0.0059290593,1114775,0,0.34082574,0.39563614,0.51058775,0.048014753,0.016865931,1.1754944e-38,0.0,0.0,0.0,0.0,2490378,2490378,4028193,396321,0,0,831,2,1,2,0,3,0,0,0,0,1,0,0
231458156,231359056,0.0033811175,0.010109916,0.017422244,1114775,0,0.3402627,0.39701784,0.529272,0.08829004,0.014848736,1.1754944e-38,0.0,0.0,0.0,0.0,2490378,2490378,4028193,396321,0,0,831,2,1,2,0,3,0,0,0,0,1,0,0
231655862,231556615,0.003795666,0.01047591,0.017577596,1114775,0,0.32293752,0.39145797,0.48729485,0.058439597,0.017190538,1.1754944e-38,0.0,0.0,0.0,0.0,2490378,2490378,4028193,396321,0,0,831,2,1,2,0,3,0,0,0,0,1,0,0
231853272,231754174,0.004285735,0.0025664365,0.009724618,1114775,0,0.33923063,0.39727867,0.48878217,0.058439597,0.017190538,1.1754944e-38,0.0,0.0,0.0,0.0,2490378,2490378,4028193,396321,0,0,831,2,1,2,0,3,0,0,0,0,1,0,0
232060855,231961610,0.0032387574,0.023563001,0.038169608,1114775,0,0.32277545,0.39233136,0.50915426,0.096527584,0.016294809,1.1754944e-38,0.0,0.0,0.0,0.0,2490378,2490378,4028193,396321,0,0,831,2,1,2,0,3,0,0,0,0,1,0,0
232258298,232159169,0.0039060959,0.008931509,0.018093327,1114775,0,0.3391346,0.39561218,0.504718,0.096527584,0.016294809,1.1754944e-38,0.0,0.0,0.0,0.0,2490378,2490378,4028193,396321,0,0,831,2,1,2,0,3,0,0,0,0,1,0,0
232455935,232356728,0.0041876826,0.0050507183,0.012152099,1114775,0,0.33859104,0.39701554,0.4693512,0.05909691,0.018151382,1.1754944e-38,0.0,0.0,0.0,0.0,2490378,2490378,4028193,396321,0,0,831,2,1,2,0,3,0,0,0,0,1,0,0
232653403,232554287,0.0033038768,0.004481457,0.00925419,1114775,0,0.3380044,0.39585802,0.4612997,0.06519465,0.016262978,1.1754944e-38,0.0,0.0,0.0,0.0,2490378,2490378,4028193,396321,0,0,831,2,1,2,0,3,0,0,0,0,1,0,0
232850998,232751845,0.003842738,0.006344005,0.012864979,1114775,0,0.33743128,0.39723453,0.44297457,0.07045659,0.015856802,1.1754944e-38,0.0,0.0,0.0,0.0,2490378,2490378,4028193,396321,0,0,831,2,1,2,0,3,0,0,0,0,1,0,0
233058430,232959282,0.003955873,0.0068576084,0.013982126,1114775,0,0.3377343,0.3967608,0.4267091,0.06717188,0.013432826,1.1754944e-38,0.0,0.0,0.0,0.0,2490378,2490378,4028193,396321,0,0,831,2,1,2,0,3,0,0,0,0,1,0,0
233255939,233156841,0.0030605637,0.0085682385,0.0166856,1114775,0,0.33720738,0.39563859,0.4263454,0.10894757,0.013478388,1.1754944e-38,0.0,0.0,0.0,0.0,2490378,2490378,4028193,396321,0,0,831,2,1,2,0,3,0,0,0,0,1,0,0
233453529,233354400,0.0035492622,0.0039858078,0.01555744,66199,0,0.33671513,0.39453113,0.40916333,0.07453952,0.013365291,0.031364292,0.0,0.0,0.0,0.0,2490378,2490378,4028193,396321,0,0,831,2,1,2,0,3,0,0,0,0,1,0,0
233661027,233561837,0.0035640188,0.0077740033,0.030066026,66199,0,0.33706245,0.39663655,0.37115166,0.06858744,0.014070987,0.020609967,0.0,0.0,0.0,0.0,2490378,2490378,4028193,396321,0,0,831,2,1,2,0,3,0,0,0,0,1,0,0
233858490,233759395,0.0027687834,0.011720217,0.047213614,66199,0,0.33657476,0.39554262,0.38323826,0.10044593,0.012460579,0.04035315,0.0,0.0,0.0,0.0,2490378,2490378,4028193,396321,0,0,831,2,1,2,0,3,0,0,0,0,1,0,0
234056082,233956954,0.0034127343,0.007569224,0.038359124,66199,0,0.3361359,0.39446154,0.39903253,0.05378425,0.01212662,0.020654878,0.0,0.0,0.0,0.0,2490378,2490378,4028193,396321,0,0,831,2,1,2,0,3,0,0,0,0,1,0,0
234253613,234154513,0.0025467384,0.01009451,0.039252862,66199,0,0.3357244,0.39590165,0.36345777,0.029708665,0.013588385,0.029000362,0.0,0.0,0.0,0.0,2490378,2490378,4028193,396321,0,0,831,2,1,2,0,3,0,0,0,0,1,0,0
234461045,234361950,0.002674991,0.010306987,0.034073833,66199,0,0.3362026,0.39548692,0.3666713,0.046191532,0.010352408,0.030180622,0.0,0.0,0.0,0.0,2490378,2490378,4028193,396321,0,0,831,2,1,2,0,3,0,0,0,0,1,0,0
234658777,234559509,0.0031274634,0.015173663,0.053093277,66199,0,0.31889528,0.39002424,0.37693527,0.03428807,0.0121106,0.035888866,0.0,0.0,0.0,0.0,2490378,2490378,4028193,396321,0,0,831,2,1,2,0,3,0,0,0,0,1,0,0
234856193,234757069,0.0023887975,0.009813283,0.030561425,66199,0,0.33526525,0.3958357,0.3530952,0.03428807,0.0121106,0.026173491,0.0,0.0,0.0,0.0,2490378,2490378,4028193,396321,0,0,831,2,1,2,0,3,0,0,0,0,1,0,0
235053877,234954627,0.002739046,0.02437091,0.054426752,66199,0,0.3182042,0.39040053,0.35314035,0.08491416,0.013651724,0.07525563,0.0,0.0,0.0,0.0,2490378,2490378,4028193,396321,0,0,831,2,1,2,0,3,0,0,0,0,1,0,0
235261407,235162064,0.0035904285,0.020892814,0.04674672,66199,0,0.3185854,0.39002675,0.45075372,0.08473765,0.011919269,0.024029076,0.0,0.0,0.0,0.0,2490378,2490378,4028193,396321,0,0,831,2,1,2,0,3,0,0,0,0,1,0,0
235458720,235359623,0.0030732576,0.01008339,0.021537824,66199,0,0.33513698,0.39587036,0.45741147,0.08473765,0.011919269,0.015631642,0.0,0.0,0.0,0.0,2490378,2490378,4028193,396321,0,0,831,2,1,2,0,3,0,0,0,0,1,0,0
235656285,235557182,0.003776706,0.009734098,0.024462802,66199,0,0.3347767,0.3948209,0.46744007,0.06820203,0.010933257,0.015448028,0.0,0.0,0.0,0.0,2490378,2490378,4028193,396321,0,0,831,2,1,2,0,3,0,0,0,0,1,0,0
235853889,235754741,0.0042845737,0.015817078,0.034657344,66199,0,0.3344632,0.39628044,0.43059203,0.14941406,0.011276305,0.052877683,0.0,0.0,0.0,0.0,2490378,2490378,4028193,396321,0,0,831,2,1,2,0,3,0,0,0,0,1,0,0
236061455,235962179,0.0027988595,0.018351557,0.03717961,66199,0,0.31784296,0.39148006,0.40091237,0.042251304,0.009865165,0.0054520434,0.0,0.0,0.0,0.0,2490378,2490378,4028193,396321,0,0,831,2,1,2,0,3,0,0,0,0,1,0,0
236258854,236159738,0.0028927242,0.009137759,0.020254966,66199,0,0.33472964,0.39485455,0.34631637,0.042251304,0.009865165,0.05278869,0.0,0.0,0.0,0.0,2490378,2490378,4028193,396321,0,0,831,2,1,2,0,3,0,0,0,0,1,0,0
236456452,236357297,0.0029032247,0.008031898,0.023269964,66199,0,0.3343091,0.39631584,0.31410727,0.019604871,0.0076122098,0.0070141,0.0,0.0,0.0,0.0,2490378,2490378,4028193,396321,0,0,831,2,1,2,0,3,0,0,0,0,1,0,0
236653953,236554856,0.0025153179,0.010137108,0.020112311,66199,0,0.33389503,0.3952595,0.361804,0.049715497,0.010050648,0.0067659733,0.0,0.0,0.0,0.0,2490378,2490378,4028193,396321,0,0,831,2,1,2,0,3,0,0,0,0,1,0,0
236851558,236752417,0.003133028,0.011947356,0.02439717,66199,0,0.3334997,0.39421314,0.3636252,0.056139756,0.011686785,0.007370424,0.0,0.0,0.0,0.0,2490378,2490378,4028193,396321,0,0,831,2,1,2,0,3,0,0,0,0,1,0,0
237059246,236959852,0.0033822295,0.01610146,0.042464178,66199,0,0.31694302,0.38951102,0.38012138,0.052565694,0.010248676,0.0011312888,0.0,0.0,0.0,0.0,2490378,2490378,4028193,396321,0,0,831,2,1,2,0,3,0,0,0,0,1,0,0
237256522,237157412,0.0028216117,0.017502878,0.05261838,66199,0,0.3166824,0.39096296,0.3903562,0.046766624,0.011646468,0.05638216,0.0,0.0,0.0,0.0,2490378,2490378,4028193,396321,0,0,831,2,1,2,0,3,0,0,0,0,1,0,0
237454220,237354971,0.0033639846,0.017202325,0.0589223,66199,0,0.31635904,0.38998935,0.38692892,0.04062672,0.008577776,0.03038874,0.0,0.0,0.0,0.0,2490378,2490378,4028193,396321,0,0,831,2,1,2,0,3,0,0,0,0,1,0,0
237661580,237562408,0.0034866054,0.009886014,0.039985213,66199,0,0.3338699,0.39404953,0.37456578,0.04062672,0.008577776,0.037016015,0.0,0.0,0.0,0.0,2490378,2490378,4028193,396321,0,0,831,2,1,2,0,3,0,0,0,0,1,0,0
237859069,237759968,0.002844339,0.009977975,0.035922684,66199,0,0.3333563,0.39554778,0.39495414,0.051264167,0.009434437,0.024805259,0.0,0.0,0.0,0.0,2490378,2490378,4028193,396321,0,0,831,2,1,2,0,3,0,0,0,0,1,0,0
238056625,237957527,0.0034608878,0.01321889,0.04823617,66199,0,0.33286473,0.394515,0.40909618,0.060674146,0.0113835465,0.03429855,0.0,0.0,0.0,0.0,2490378,2490378,4028193,396321,0,0,831,2,1,2,0,3,0,0,0,0,1,0,0
238254182,238155087,0.0028052325,0.009117697,0.03511324,66199,0,0.3323913,0.39599246,0.4328751,0.048330385,0.008599355,0.036796868,0.0,0.0,0.0,0.0,2490378,2490378,4028193,396321,0,0,831,2,1,2,0,3,0,0,0,0,1,0,0
238451751,238352646,0.0033945628,0.0023539565,0.0054648314,66199,0,0.33193612,0.39497387,0.43657798,0.03160472,0.010087169,0.09639027,0.0,0.0,0.0,0.0,2490378,2490378,4028193,396321,0,0,831,2,1,2,0,3,0,0,0,0,1,0,0
238659177,238560083,0.003496846,0.0021176406,0.0019886803,66199,0,0.33232844,0.39463335,0.40228063,0.03944842,0.009699972,0.07901687,0.0,0.0,0.0,0.0,2490378,2490378,4028193,396321,0,0,831,2,1,2,0,3,0,0,0,0,1,0,0
238856789,238757642,0.0027198454,0.0032405977,0.0027361007,66199,0,0.3318643,0.39362705,0.41748583,0.07797436,0.009670477,0.034647353,0.0,0.0,0.0,0.0,2490378,2490378,4028193,396321,0,0,831,2,1,2,0,3,0,0,0,0,1,0,0
239054318,238955202,0.0032707287,0.0075977393,0.026951462,66199,0,0.33144575,0.3951383,0.40488082,0.07383721,0.008526552,0.038889464,0.0,0.0,0.0,0.0,2490378,2490378,4028193,396321,0,0,831,2,1,2,0,3,0,0,0,0,1,0,0
239261745,239162639,0.0035008022,0.00526371,0.018524932,66199,0,0.3319166,0.3948219,0.40204814,0.071357764,0.011139812,0.03944091,0.0,0.0,0.0,0.0,2490378,2490378,4028193,396321,0,0,831,2,1,2,0,3,0,0,0,0,1,0,0
239459352,239360199,0.0027181602,0.005255795,0.008827089,66199,0,0.33145505,0.39382154,0.40863913,0.09598992,0.010973627,0.04302797,0.0,0.0,0.0,0.0,2490378,2490378,4028193,396321,0,0,831,2,1,2,0,3,0,0,0,0,1,0,0
239657001,239557760,0.0033023835,0.01631096,0.032475125,66199,0,0.3142623,0.39092264,0.41236642,0.045973588,0.00803717,0.034111932,0.0,0.0,0.0,0.0,2490378,2490378,4028193,396321,0,0,831,2,1,2,0,3,0,0,0,0,1,0,0
239854466,239755318,0.0036229661,0.007828633,0.031734537,66199,0,0.3307165,0.3943502,0.40002328,0.045973588,0.00803717,0.057368323,0.0,0.0,0.0,0.0,2490378,2490378,4028193,396321,0,0,831,2,1,2,0,3,0,0,0,0,1,0,0
240062041,239962755,0.0026319132,0.010816027,0.022427713,66199,0,0.31436422,0.3896492,0.39067504,0.031169787,0.008174296,0.0546636,0.0,0.0,0.0,0.0,2490378,2490378,4028193,396321,0,0,831,2,1,2,0,3,0,0,0,0,1,0,0
240259439,240160316,0.0031212955,0.007246315,0.029645447,66199,0,0.33087438,0.39555472,0.39936334,0.031169787,0.008174296,0.044015758,0.0,0.0,0.0,0.0,2490378,2490378,4028193,396321,0,0,831,2,1,2,0,3,0,0,0,0,1,0,0
240457022,240357875,0.0036214516,0.005760196,0.014637784,66199,0,0.3304809,0.3945679,0.4033201,0.039709453,0.008634224,0.029899675,0.0,0.0,0.0,0.0,2490378,2490378,4028193,396321,0,0,831,2,1,2,0,3,0,0,0,0,1,0,0
240654559,240555434,0.0028642812,0.007911108,0.016543252,66199,0,0.32994744,0.3935693,0.40404847,0.073156886,0.0065475763,0.0605111,0.0,0.0,0.0,0.0,2490378,2490378,4028193,396321,0,0,831,2,1,2,0,3,0,0,0,0,1,0,0
240852095,240752994,0.0033956554,0.0041688415,0.008026495,66199,0,0.3294399,0.39508557,0.40324107,0.008076299,0.008200898,0.04484018,0.0,0.0,0.0,0.0,2490378,2490378,4028193,396321,0,0,831,2,1,2,0,3,0,0,0,0,1,0,0
241059595,240960431,0.0037717014,0.008880839,0.033822812,66199,0,0.32992724,0.39478186,0.40891644,0.054557,0.0056346143,0.035376243,0.0,0.0,0.0,0.0,2490378,2490378,4028193,396321,0,0,831,2,1,2,0,3,0,0,0,0,1,0,0
241257091,241157991,0.0029663357,0.006915487,0.019348733,66199,0,0.3295607,0.39380088,0.40823367,0.0281859,0.007618785,0.051143885,0.0,0.0,0.0,0.0,2490378,2490378,4028193,396321,0,0,831,2,1,2,0,3,0,0,0,0,1,0,0
241454655,241355551,0.0034432209,0.0051688473,0.018755361,66199,0,0.32921252,0.39533886,0.4062476,0.05437855,0.0067515485,0.0006394912,0.0,0.0,0.0,0.0,2490378,2490378,4028193,396321,0,0,831,2,1,2,0,3,0,0,0,0,1,0,0
241662290,241562988,0.0036714713,0.020931626,0.034529384,66199,0,0.3128947,0.39063302,0.39613706,0.05554449,0.011886812,0.029436646,0.0,0.0,0.0,0.0,2490378,2490378,4028193,396321,0,0,831,2,1,2,0,3,0,0,0,0,1,0,0
241859839,241760548,0.0029162373,0.012968284,0.023990309,66199,0,0.31261253,0.38969344,0.3845474,0.034001824,0.010343705,0.0396603,0.0,0.0,0.0,0.0,2490378,2490378,4028193,396321,0,0,831,2,1,2,0,3,0,0,0,0,1,0,0
242057205,241958108,0.0033470737,0.0070340396,0.015198642,66199,0,0.32909042,0.3955791,0.3886784,0.034001824,0.010343705,0.099206485,0.0,0.0,0.0,0.0,2490378,2490378,4028193,396321,0,0,831,2,1,2,0,3,0,0,0,0,1,0,0
242254795,242155668,0.0025874025,0.006295633,0.022749713,66199,0,0.3287332,0.39455566,0.39494672,0.03314228,0.012046195,0.07637397,0.0,0.0,0.0,0.0,2490378,2490378,4028193,396321,0,0,831,2,1,2,0,3,0,0,0,0,1,0,0
242452386,242353227,0.003117781,0.006217799,0.022156704,66199,0,0.3283129,0.3935392,0.39073414,0.016409297,0.013987793,0.03289277,0.0,0.0,0.0,0.0,2490378,2490378,4028193,396321,0,0,831,2,1,2,0,3,0,0,0,0,1,0,0
242659832,242560665,0.0033461952,0.009157022,0.024670739,66199,0,0.32880846,0.3957365,0.38641816,0.064472675,0.016488677,0.048081774,0.0,0.0,0.0,0.0,2490378,2490378,4028193,396321,0,0,831,2,1,2,0,3,0,0,0,0,1,0,0
242857330,242758225,0.0025450764,0.012726721,0.042443205,66199,0,0.32844767,0.3947524,0.37717342,0.08006313,0.019195052,0.09614209,0.0,0.0,0.0,0.0,2490378,2490378,4028193,396321,0,0,831,2,1,2,0,3,0,0,0,0,1,0,0
243054881,242955785,0.00300427,0.010139037,0.029702522,66199,0,0.32809964,0.39378926,0.37586167,0.06437377,0.02139202,0.012822715,0.0,0.0,0.0,0.0,2490378,2490378,4028193,396321,0,0,831,2,1,2,0,3,0,0,0,0,1,0,0
243262329,243163223,0.0030729168,0.0073606092,0.017346656,66199,0,0.3286413,0.3935321,0.35620674,0.06724905,0.022651665,0.030610593,0.0,0.0,0.0,0.0,2490378,2490378,4028193,396321,0,0,831,2,1,2,0,3,0,0,0,0,1,0,0
243459916,243360783,0.0022959206,0.006927087,0.013267927,66199,0,0.32826394,0.39509067,0.35543504,0.07305123,0.02028536,0.017239,0.0,0.0,0.0,0.0,2490378,2490378,4028193,396321,0,0,831,2,1,2,0,3,0,0,0,0,1,0,0
243657587,243558342,0.0026162325,0.022211265,0.036114216,66199,0,0.31114897,0.38975993,0.33344164,0.0879632,0.019043693,0.013829759,0.0,0.0,0.0,0.0,2490378,2490378,4028193,396321,0,0,831,2,1,2,0,3,0,0,0,0,1,0,0
243855020,243755902,0.0029379984,0.011404375,0.031515278,66199,0,0.3276545,0.3932152,0.3452654,0.0879632,0.019043693,0.045667935,0.0,0.0,0.0,0.0,2490378,2490378,4028193,396321,0,0,831,2,1,2,0,3,0,0,0,0,1,0,0
244052621,243953462,0.0022773242,0.012854174,0.029103732,66199,0,0.32733375,0.3947716,0.32525054,0.10265747,0.017549701,0.058531303,0.0,0.0,0.0,0.0,2490378,2490378,4028193,396321,0,0,831,2,1,2,0,3,0,0,0,0,1,0,0
244260087,244160900,0.0023968106,0.011037664,0.032280684,66199,0,0.32782066,0.3945048,0.29744643,0.081245035,0.01685056,0.055350408,0.0,0.0,0.0,0.0,2490378,2490378,4028193,396321,0,0,831,2,1,2,0,3,0,0,0,0,1,0,0
244457612,244358460,0.002622182,0.008529892,0.020838026,66199,0,0.32747158,0.39355773,0.29370254,0.066211626,0.015726266,0.02222936,0.0,0.0,0.0,0.0,2490378,2490378,4028193,396321,0,0,831,2,1,2,0,3,0,0,0,0,1,0,0
244655146,244556020,0.0020799804,0.010279295,0.020469308,66199,0,0.32705426,0.39262104,0.2943962,0.100244984,0.014532372,0.004321469,0.0,0.0,0.0,0.0,2490378,2490378,4028193,396321,0,0,831,2,1,2,0,3,0,0,0,0,1,0,0
244852689,244753580,0.002520067,0.008425118,0.028061474,66199,0,0.32673293,0.3941864,0.3017403,0.06302609,0.012848759,0.08478363,0.0,0.0,0.0,0.0,2490378,2490378,4028193,396321,0,0,831,2,1,2,0,3,0,0,0,0,1,0,0
245060176,244961018,0.0025988799,0.018363193,0.033375666,66199,0,0.31053862,0.38955224,0.28135702,0.079616405,0.00845044,0.0883867,0.0,0.0,0.0,0.0,2490378,2490378,4028193,396321,0,0,831,2,1,2,0,3,0,0,0,0,1,0,0
245257710,245158579,0.0020305454,0.010962544,0.0428151,66199,0,0.32712632,0.39302555,0.2782074,0.079616405,0.00845044,0.15129043,0.0,0.0,0.0,0.0,2490378,2490378,4028193,396321,0,0,831,2,1,2,0,3,0,0,0,0,1,0,0
245455383,245356138,0.0024610418,0.03373142,0.054915983,66199,0,0.31001198,0.3902031,0.2937393,0.13574271,0.007224109,0.00645187,0.0,0.0,0.0,0.0,2490378,2490378,4028193,396321,0,0,831,2,1,2,0,3,0,0,0,0,1,0,0
245662743,245563576,0.002690648,0.031375233,0.05505425,66199,0,0.3106007,0.38998035,0.3038797,0.11694679,0.004703982,0.031951834,0.0,0.0,0.0,0.0,2490378,2490378,4028193,396321,0,0,831,2,1,2,0,3,0,0,0,0,1,0,0
245860500,245761136,0.0021214222,0.026031531,0.04956977,66199,0,0.3103604,0.38910553,0.29633075,0.07151316,0.00584894,0.04381164,0.0,0.0,0.0,0.0,2490378,2490378,4028193,396321,0,0,831,2,1,2,0,3,0,0,0,0,1,0,0
246058008,245958696,0.0024550958,0.024989532,0.05476281,66199,0,0.31014383,0.38822976,0.2995759,0.09002379,0.003765542,0.04631716,0.0,0.0,0.0,0.0,2490378,2490378,4028193,396321,0,0,831,2,1,2,0,3,0,0,0,0,1,0,0
246255545,246156256,0.0019130029,0.02563821,0.04403878,66199,0,0.30992755,0.38976344,0.30195335,0.09114782,0.0017523682,0.05459515,0.0,0.0,0.0,0.0,2490378,2490378,4028193,396321,0,0,831,2,1,2,0,3,0,0,0,0,1,0,0
246452916,246353816,0.0023160246,0.012749817,0.03526994,66199,0,0.3265493,0.39325944,0.30305505,0.09114782,0.0017523682,0.031327073,0.0,0.0,0.0,0.0,2490378,2490378,4028193,396321,0,0,831,2,1,2,0,3,0,0,0,0,1,0,0
246660513,246561257,0.0025261114,0.027758561,0.04691335,66199,0,0.3100342,0.38863117,0.30057472,0.073726594,0.001031861,0.019655906,0.0,0.0,0.0,0.0,2490378,2490378,4028193,396321,0,0,831,2,1,2,0,3,0,0,0,0,1,0,0
246858066,246758814,0.0016014065,0.028958216,0.049873948,66199,0,0.309817,0.39016885,0.23808505,0.094417594,0.0022970883,0.018908985,0.0,0.0,0.0,0.0,2490378,2490378,4028193,396321,0,0,831,2,1,2,0,3,0,0,0,0,1,0,0
247055471,246956374,0.00202496,0.013436688,0.030466711,66199,0,0.32640246,0.39368674,0.2890346,0.094417594,0.0022970883,0.04708411,0.0,0.0,0.0,0.0,2490378,2490378,4028193,396321,0,0,831,2,1,2,0,3,0,0,0,0,1,0,0
247263051,247163812,0.0024735776,0.037340906,0.064286016,66199,0,0.3100755,0.38905743,0.2969405,0.12950514,0.008011294,0.034868386,0.0,0.0,0.0,0.0,2490378,2490378,4028193,396321,0,0,831,2,1,2,0,3,0,0,0,0,1,0,0
247460612,247361373,0.0018302408,0.039475925,0.0702536,66199,0,0.3098474,0.390591,0.25675112,0.1234346,0.010829162,0.0204903,0.0,0.0,0.0,0.0,2490378,2490378,4028193,396321,0,0,831,2,1,2,0,3,0,0,0,0,1,0,0
247658114,247558933,0.0014787351,0.033018824,0.060471717,66199,0,0.30969644,0.38971233,0.19157451,0.079671405,0.009020456,0.027069885,0.0,0.0,0.0,0.0,2490378,2490378,4028193,396321,0,0,831,2,1,2,0,3,0,0,0,0,1,0,0
247855643,247756493,0.0011434357,0.014993443,0.028863432,66199,0,0.3262375,0.39321384,0.0,0.079671405,0.009020456,0.038631123,0.0,0.0,0.0,0.0,2490378,2490378,4028193,396321,0,0,831,2,1,2,0,3,0,0,0,0,1,0,0
248053154,247954053,0.0002315039,0.016112115,0.030217826,66199,0,0.3258895,0.39479014,0.0,0.081692085,0.0103544155,0.02032658,0.0,0.0,0.0,0.0,2490378,2490378,4028193,396321,0,0,831,2,1,2,0,3,0,0,0,0,1,0,0
248250720,248151613,0.00038907173,0.019802032,0.03619287,66199,0,0.32556877,0.3938691,0.0,0.13080443,0.012531757,0.012430947,0.0,0.0,0.0,0.0,2490378,2490378,4028193,396321,0,0,831,2,1,2,0,3,0,0,0,0,1,0,0
248458204,248359051,0.00025624983,0.018340843,0.03392946,66199,0,0.3260612,0.39361915,0.0,0.1177023,0.011576049,0.04011111,0.0,0.0,0.0,0.0,2490378,2490378,4028193,396321,0,0,831,2,1,2,0,3,0,0,0,0,1,0,0
248655716,248556612,0.00020219087,0.01615114,0.030759512,66199,0,0.3257164,0.395191,0.0,0.095345244,0.013205105,0.035003997,0.0,0.0,0.0,0.0,2490378,2490378,4028193,396321,0,0,831,2,1,2,0,3,0,0,0,0,1,0,0
248853267,248754172,0.00028868174,0.017350966,0.03223496,66199,0,0.32537654,0.39425838,0.0,0.12426987,0.015117061,0.034267046,0.0,0.0,0.0,0.0,2490378,2490378,4028193,396321,0,0,831,2,1,2,0,3,0,0,0,0,1,0,0
249060939,248961610,0.0010474427,0.044855714,0.07693383,66199,0,0.30926234,0.38958767,0.0,0.11912891,0.018873982,0.07200526,0.0,0.0,0.0,0.0,2490378,2490378,4028193,396321,0,0,831,2,1,2,0,3,0,0,0,0,1,0,0
249258312,249159170,0.00033670105,0.020626925,0.040886205,66199,0,0.32563028,0.3955408,0.0,0.11912891,0.018873982,0.030740717,0.0,0.0,0.0,0.0,2490378,2490378,4028193,396321,0,0,831,2,1,2,0,3,0,0,0,0,1,0,0
249455859,249356730,0.00030088326,0.018104818,0.034832843,66199,0,0.3252608,0.39457473,0.0,0.108022645,0.017455034,0.0011707089,0.0,0.0,0.0,0.0,2490378,2490378,4028193,396321,0,0,831,2,1,2,0,3,0,0,0,0,1,0,0
249653391,249554291,4.5358407e-05,0.008972661,0.01939262,66199,0,0.32493135,0.39609748,0.0,0.06870945,0.013150823,0.017567689,0.0,0.0,0.0,0.0,2490378,2490378,4028193,396321,0,0,831,2,1,2,0,3,0,0,0,0,1,0,0
249860972,249761729,0.0008951337,0.035772435,0.06390079,66199,0,0.3087955,0.39130527,0.0,0.13520375,0.014827174,0.027295385,0.0,0.0,0.0,0.0,2490378,2490378,4028193,396321,0,0,831,2,1,2,0,3,0,0,0,0,1,0,0
250058534,249959290,0.0010237986,0.040440056,0.06869507,66199,0,0.30857152,0.39033443,0.0,0.15651922,0.014614375,0.048228513,0.0,0.0,0.0,0.0,2490378,2490378,4028193,396321,0,0,831,2,1,2,0,3,0,0,0,0,1,0,0
250256139,250156849,0.0012901322,0.051235177,0.085256085,66199,0,0.3083703,0.38936815,0.0,0.2097047,0.012730015,0.02806962,0.0,0.0,0.0,0.0,2490378,2490378,4028193,396321,0,0,831,2,1,2,0,3,0,0,0,0,1,0,0
250453511,250354410,0.00045452733,0.022058984,0.042206522,66199,0,0.32477066,0.39528635,0.0,0.2097047,0.012730015,0.01833336,0.0,0.0,0.0,0.0,2490378,2490378,4028193,396321,0,0,831,2,1,2,0,3,0,0,0,0,1,0,0
250661091,250561848,0.0010543701,0.04363868,0.075532116,66199,0,0.30864352,0.39054006,0.0,0.168279,0.01427821,0.065297686,0.0,0.0,0.0,0.0,2490378,2490378,4028193,396321,0,0,831,2,1,2,0,3,0,0,0,0,1,0,0
250858507,250759408,0.00034989588,0.018152932,0.042337585,66199,0,0.32512477,0.3939853,0.0,0.168279,0.01427821,0.045511603,0.0,0.0,0.0,0.0,2490378,2490378,4028193,396321,0,0,831,2,1,2,0,3,0,0,0,0,1,0,0
251056119,250956969,0.00027034472,0.01578804,0.037330247,66199,0,0.32488105,0.3955133,0.0,0.08990071,0.01234423,0.055191927,0.0,0.0,0.0,0.0,2490378,2490378,4028193,396321,0,0,831,2,1,2,0,3,0,0,0,0,1,0,0
251253677,251154529,0.000524171,0.019633854,0.042562213,66199,0,0.32467854,0.3945248,0.0,0.18274292,0.01484158,0.024951203,0.0,0.0,0.0,0.0,2490378,2490378,4028193,396321,0,0,831,2,1,2,0,3,0,0,0,0,1,0,0
251461115,251361968,0.00024803664,0.015208989,0.035618447,66199,0,0.32536066,0.39419445,0.0,0.10802435,0.011786504,0.02310649,0.0,0.0,0.0,0.0,2490378,2490378,4028193,396321,0,0,831,2,1,2,0,3,0,0,0,0,1,0,0
251658836,251559528,0.0012222956,0.030872164,0.046707176,66199,0,0.3084068,0.39125678,0.0,0.15868863,0.015663799,0.0043256413,0.0,0.0,0.0,0.0,2490378,2490378,4028193,396321,0,0,831,2,1,2,0,3,0,0,0,0,1,0,0
251856276,251757088,0.000498482,0.0072504794,0.008608102,66199,0,0.324972,0.39469394,0.0,0.15868863,0.015663799,0.06366658,0.0,0.0,0.0,0.0,2490378,2490378,4028193,396321,0,0,831,2,1,2,0,3,0,0,0,0,1,0,0
252053776,251954649,0.0013764789,0.025384082,0.042407677,66199,0,0.32480854,0.3936772,0.0,0.31442612,0.020498205,0.037684128,0.0,0.0,0.0,0.0,2490378,2490378,4028193,396321,0,0,831,2,1,2,0,3,0,0,0,0,1,0,0
252251311,252152209,0.0014956691,0.033808187,0.05663385,66199,0,0.32466725,0.39517903,0.0,0.36403453,0.025232906,0.016402759,0.0,0.0,0.0,0.0,2490378,2490378,4028193,396321,0,0,831,2,1,2,0,3,0,0,0,0,1,0,0
252458802,252359648,0.0010311352,0.02924321,0.05471156,66199,0,0.32544872,0.39485228,0.0,0.34218252,0.026718521,0.0442193,0.0,0.0,0.0,0.0,2490378,2490378,4028193,396321,0,0,831,2,1,2,0,3,0,0,0,0,1,0,0
252656312,252557208,0.0012020044,0.027560357,0.051878247,66199,0,0.3250461,0.39383346,0.0,0.34774312,0.025448192,0.018808998,0.0,0.0,0.0,0.0,2490378,2490378,4028193,396321,0,0,831,2,1,2,0,3,0,0,0,0,1,0,0
252854119,252754768,0.0016087787,0.051768668,0.082595326,66199,0,0.30822253,0.39092946,0.0,0.17562702,0.021950629,0.0032428734,0.0,0.0,0.0,0.0,2490378,2490378,4028193,396321,0,0,831,2,1,2,0,3,0,0,0,0,1,0,0
253061353,252962207,0.0003807299,0.023371812,0.040634014,66199,0,0.3257114,0.395041,0.0,0.17562702,0.021950629,0.03263666,0.0,0.0,0.0,0.0,2490378,2490378,4028193,396321,0,0,831,2,1,2,0,3,0,0,0,0,1,0,0
253258866,253159767,0.00062322256,0.03563238,0.059178673,66199,0,0.3255722,0.3940468,0.0,0.21541433,0.018180976,0.109794416,0.0,0.0,0.0,0.0,2490378,2490378,4028193,396321,0,0,831,2,1,2,0,3,0,0,0,0,1,0,0
253456472,253357328,0.00092275604,0.045204632,0.07654477,66199,0,0.32548508,0.39553788,0.0,0.2989589,0.014533698,0.051109567,0.0,0.0,0.0,0.0,2490378,2490378,4028193,396321,0,0,831,2,1,2,0,3,0,0,0,0,1,0,0
253654162,253554888,0.0025794804,0.075156055,0.12803736,66199,0,0.32533917,0.39445218,0.0,0.5691723,0.016916294,0.026055004,0.0,0.0,0.0,0.0,2490378,2490378,4028193,396321,0,0,831,2,1,2,0,3,0,0,0,0,1,0,0
253851568,253752449,0.004739438,0.10847566,0.1802248,66199,0,0.32523468,0.39589936,0.0,0.6535132,0.026582306,0.029146554,0.0,0.0,0.0,0.0,2490378,2490378,4028193,396321,0,0,831,2,1,2,0,3,0,0,0,0,1,0,0
254058984,253959887,0.0062294733,0.13230555,0.21522103,66199,0,0.32607922,0.3955015,0.0,0.66272235,0.035119656,0.017958103,0.0,0.0,0.0,0.0,2490378,2490378,4028193,396321,0,0,831,2,1,2,0,3,0,0,0,0,1,0,0
254257125,254157448,0.008694882,0.1606099,0.25158927,66199,0,0.32609534,0.39695042,0.0,0.8017221,0.04184579,0.014038538,0.0,0.0,0.0,0.0,2490378,2490378,4028193,396321,0,0,831,2,1,2,0,3,0,0,0,0,1,0,0
254454125,254355008,0.0015254425,0.062007543,0.1252336,66199,0,0.33400404,0.39582893,0.0,1.0313026,0.06086499,0.0063751666,0.0,0.0,0.0,0.0,2490378,2490378,4028193,396321,0,1,1855,2,1,2,0,3,0,0,0,0,1,0,0
254661571,254562447,0.0001555052,0.028353443,0.0804129,66199,0,0.3438396,0.39532128,0.0,1.2586759,0.14008093,0.019844368,0.0,0.0,0.0,0.0,2490378,2490378,4028193,396321,0,1,1855,2,1,2,0,3,0,0,0,0,1,0,0
254859107,254760008,0.000585641,0.028666826,0.06983272,66199,0,0.35381854,0.39667287,0.0,1.4716012,0.22837025,0.021419829,0.0,0.0,0.0,0.0,2490378,2490378,4028193,396321,0,1,1855,2,1,2,0,3,0,0,0,0,1,0,0
255057321,254957568,0.0010362886,0.033999037,0.07925277,66199,0,0.36450562,0.39548004,0.0,1.6468995,0.32665542,0.009080666,0.0,0.0,0.0,0.0,2490378,2490378,4028193,396321,0,1,1855,2,1,2,0,3,0,0,0,0,1,0,0
255254330,255155129,0.0013811826,0.037364725,0.09911287,66199,0,0.37567276,0.39683077,0.0,1.6086143,0.41660416,0.03170888,0.0,0.0,0.0,0.0,2490378,2490378,4028193,396321,0,1,1855,2,1,2,0,3,0,0,0,0,1,0,0
255462224,255362567,0.0062203896,0.1263493,0.34713194,66199,0,0.37062263,0.3919254,0.0,1.5085713,0.5714738,0.041061766,0.0,0.0,0.0,0.0,2490378,2490378,4028193,396321,0,1,1855,2,1,2,0,3,0,0,0,0,1,0,0
255659339,255560128,0.0020963326,0.0499716,0.1396244,66199,0,0.3997045,0.3976665,0.0,1.5085713,0.5714738,0.02089465,0.0,0.0,0.0,0.0,2490378,2490378,4028193,396321,0,1,1855,2,1,2,0,3,0,0,0,0,1,0,0
255857463,255757689,0.0027592639,0.058347397,0.17117244,66199,0,0.4102774,0.39648396,0.0,1.4397008,0.62954724,0.09421069,0.0,0.0,0.0,0.0,2490378,2490378,4028193,396321,0,1,1855,2,1,2,0,3,0,0,0,0,1,0,0
256054448,255955249,0.0030166337,0.06332481,0.1926621,66199,0,0.42003688,0.39533454,0.0,1.1558183,0.6597173,0.081057504,0.0,0.0,0.0,0.0,2490378,2490378,4028193,396321,0,1,1855,2,1,2,0,3,0,0,0,0,1,0,0
256252315,256152810,0.014081232,0.2527402,0.533091,66199,0,0.4027739,0.3967216,0.0,0.9935037,0.66962653,0.06664652,0.0,0.0,0.0,0.0,2490378,2490378,4028193,396321,0,0,831,2,1,2,0,3,0,0,0,0,1,0,0
256459486,256360249,0.005441246,0.200615,0.4426712,66199,0,0.39163196,0.39625967,0.0,0.71252716,0.5278121,0.030391974,0.0,0.0,0.0,0.0,2490378,2490378,4028193,396321,0,0,831,2,1,2,0,3,0,0,0,0,1,0,0
256657761,256557809,0.01346399,0.29938033,0.56017154,66199,0,0.35334185,0.3908186,0.0,0.65790987,0.39338,0.04240194,0.0,0.0,0.0,0.0,2490378,2490378,4028193,396321,0,0,831,2,1,2,0,3,0,0,0,0,1,0,0
256854623,256755370,0.004023088,0.13105705,0.2504989,66199,0,0.37429696,0.39401856,0.0,0.65790987,0.39338,0.009678583,0.0,0.0,0.0,0.0,2490378,2490378,4028193,396321,0,0,831,2,1,2,0,3,0,0,0,0,1,0,0
257062597,256962809,0.016215345,0.2914976,0.4049064,66199,0,0.34464782,0.3917552,0.0,0.656238,0.32047376,0.063070305,0.0,0.0,0.0,0.0,2490378,2490378,4028193,396321,0,0,831,2,1,2,0,3,0,0,0,0,1,0,0
257259579,257160369,0.0051725497,0.16022845,0.29825222,66199,0,0.36376953,0.39502418,0.0,0.656238,0.32047376,0.0955337,0.0,0.0,0.0,0.0,2490378,2490378,4028193,396321,0,0,831,2,1,2,0,3,0,0,0,0,1,0,0
257457591,257357930,0.005902044,0.16775733,0.32456392,66199,0,0.35910568,0.39394602,0.0,0.72283494,0.29570666,0.07992161,0.0,0.0,0.0,0.0,2490378,2490378,4028193,396321,0,0,831,2,1,2,0,3,0,0,0,0,1,0,0
257654710,257555491,0.006108618,0.16337226,0.32551667,66199,0,0.35501587,0.39539945,0.0,0.73902434,0.27228478,0.0057251714,0.0,0.0,0.0,0.0,2490378,2490378,4028193,396321,0,0,831,2,1,2,0,3,0,0,0,0,1,0,0
257852554,257753052,0.0041446085,0.14474261,0.3099331,66199,0,0.35156727,0.39435226,0.0,0.7003383,0.24970244,0.0344061,0.0,0.0,0.0,0.0,2490378,2490378,4028193,396321,0,0,831,2,1,2,0,3,0,0,0,0,1,0,0
258059730,257960490,0.004935885,0.17801821,0.33031958,66199,0,0.32947782,0.3896737,0.0,0.44054967,0.21553904,0.021348692,0.0,0.0,0.0,0.0,2490378,2490378,4028193,396321,0,0,831,2,1,2,0,3,0,0,0,0,1,0,0
258257963,258158051,0.0036088943,0.17173904,0.3176875,66199,0,0.32728618,0.39109114,0.0,0.3562712,0.20513101,0.107429124,0.0,0.0,0.0,0.0,2490378,2490378,4028193,396321,0,0,831,2,1,2,0,3,0,0,0,0,1,0,0
258454808,258355612,0.0011828338,0.103189014,0.23317784,66199,0,0.34464964,0.39437887,0.0,0.3562712,0.20513101,0.021344634,0.0,0.0,0.0,0.0,2490378,2490378,4028193,396321,0,0,831,2,1,2,0,3,0,0,0,0,1,0,0
258662867,258563051,0.0078689875,0.21765055,0.37490302,66199,0,0.32421967,0.3896866,0.0,0.5333875,0.1855424,0.10948967,0.0,0.0,0.0,0.0,2490378,2490378,4028193,396321,0,0,831,2,1,2,0,3,0,0,0,0,1,0,0
258860039,258760612,0.009597367,0.23986329,0.3958456,66199,0,0.32269645,0.39110658,0.0,0.5978858,0.17896642,0.0066555934,0.0,0.0,0.0,0.0,2490378,2490378,4028193,396321,0,0,831,2,1,2,0,3,0,0,0,0,1,0,0
259057781,258958172,0.0032436189,0.12137272,0.22074294,66199,0,0.3397266,0.3944102,0.0,0.5978858,0.17896642,0.002102193,0.0,0.0,0.0,0.0,2490378,2490378,4028193,396321,0,0,831,2,1,2,0,3,0,0,0,0,1,0,0
259255143,259155733,0.009610059,0.2210754,0.36584306,66199,0,0.32019654,0.3891154,0.0,0.4548719,0.1600936,0.023400556,0.0,0.0,0.0,0.0,2490378,2490378,4028193,396321,0,0,831,2,1,2,0,3,0,0,0,0,1,0,0
259452726,259353294,0.0024046975,0.098540924,0.17253412,66199,0,0.3368975,0.39489704,0.0,0.4548719,0.1600936,0.113904245,0.0,0.0,0.0,0.0,2490378,2490378,4028193,396321,0,0,831,2,1,2,0,3,0,0,0,0,1,0,0
259660156,259560733,0.0050540487,0.1412326,0.23955375,66199,0,0.31893864,0.39024517,0.0,0.39147237,0.13446817,0.032460704,0.0,0.0,0.0,0.0,2490378,2490378,4028193,396321,0,0,831,2,1,2,0,3,0,0,0,0,1,0,0
259858273,259758294,0.004721669,0.12378478,0.20677753,66199,0,0.31811103,0.38929033,0.0,0.379911,0.12560518,0.077719994,0.0,0.0,0.0,0.0,2490378,2490378,4028193,396321,0,0,831,2,1,2,0,3,0,0,0,0,1,0,0
260055230,259955855,0.0038089782,0.10371212,0.17378166,66199,0,0.31734547,0.39076424,0.0,0.33793744,0.12110969,0.027720323,0.0,0.0,0.0,0.0,2490378,2490378,4028193,396321,0,0,831,2,1,2,0,3,0,0,0,0,1,0,0
260252723,260153416,0.0010276025,0.028005876,0.063748665,66199,0,0.33384255,0.39415184,0.0,0.33793744,0.12110969,0.011025948,0.0,0.0,0.0,0.0,2490378,2490378,4028193,396321,0,0,831,2,1,2,0,3,0,0,0,0,1,0,0
260460111,260360855,0.0006303386,0.012029402,0.05203692,66199,0,0.3339395,0.39385515,0.0,0.24263123,0.11116955,0.0043804017,0.0,0.0,0.0,0.0,2490378,2490378,4028193,396321,0,0,831,2,1,2,0,3,0,0,0,0,1,0,0
260658281,260558415,0.0012428729,0.024506276,0.05458198,66199,0,0.3160929,0.38857898,0.0,0.12332331,0.09552467,0.016694063,0.0,0.0,0.0,0.0,2490378,2490378,4028193,396321,0,0,831,2,1,2,0,3,0,0,0,0,1,0,0
260855156,260755976,0.0003518129,0.019215649,0.064112,66199,0,0.33246326,0.39443085,0.0,0.12332331,0.09552467,0.038337417,0.0,0.0,0.0,0.0,2490378,2490378,4028193,396321,0,0,831,2,1,2,0,3,0,0,0,0,1,0,0
261062937,260963415,0.003315097,0.08967309,0.15709396,66199,0,0.3158748,0.3898061,0.0,0.38254035,0.07212275,0.013167035,0.0,0.0,0.0,0.0,2490378,2490378,4028193,396321,0,0,831,2,1,2,0,3,0,0,0,0,1,0,0
261260236,261160976,0.0012025317,0.05448537,0.1289119,66199,0,0.33218947,0.3932038,0.0,0.38254035,0.07212275,0.07770279,0.0,0.0,0.0,0.0,2490378,2490378,4028193,396321,0,0,831,2,1,2,0,3,0,0,0,0,1,0,0
261458125,261358537,0.0024561065,0.069291085,0.15514866,66199,0,0.33165625,0.39473987,0.0,0.49052227,0.054976646,0.009884441,0.0,0.0,0.0,0.0,2490378,2490378,4028193,396321,0,0,831,2,1,2,0,3,0,0,0,0,1,0,0
261655234,261556098,0.003124055,0.07766714,0.16840804,66199,0,0.33121175,0.3937842,0.0,0.56560946,0.042752698,0.006967796,0.0,0.0,0.0,0.0,2490378,2490378,4028193,396321,0,0,831,2,1,2,0,3,0,0,0,0,1,0,0
261852907,261753659,0.0027359403,0.074568145,0.16522095,66199,0,0.33080736,0.39281654,0.0,0.5268448,0.031140976,0.0024945908,0.0,0.0,0.0,0.0,2490378,2490378,4028193,396321,0,0,831,2,1,2,0,3,0,0,0,0,1,0,0
262060491,261961098,0.005560972,0.12829643,0.23020901,66199,0,0.3146165,0.3906358,0.0,0.43092883,0.02526773,0.07441636,0.0,0.0,0.0,0.0,2490378,2490378,4028193,396321,0,0,831,2,1,2,0,3,0,0,0,0,1,0,0
262258091,262158660,0.0015785423,0.04813164,0.120451674,66199,0,0.33107615,0.39406875,0.0,0.43092883,0.02526773,0.012314114,0.0,0.0,0.0,0.0,2490378,2490378,4028193,396321,0,0,831,2,1,2,0,3,0,0,0,0,1,0,0
262455373,262356221,0.0017226055,0.041475188,0.10711584,66199,0,0.33072966,0.39310464,0.0,0.43533987,0.024604,0.011481227,0.0,0.0,0.0,0.0,2490378,2490378,4028193,396321,0,0,831,2,1,2,0,3,0,0,0,0,1,0,0
262663426,262563660,0.003823185,0.0800284,0.15720034,66199,0,0.31438088,0.39089054,0.0,0.3157701,0.02175464,0.010427524,0.0,0.0,0.0,0.0,2490378,2490378,4028193,396321,0,0,831,2,1,2,0,3,0,0,0,0,1,0,0
262860558,262761221,0.002670762,0.05992953,0.12420707,66199,0,0.31419095,0.3899638,0.0,0.2701376,0.019094082,0.014850549,0.0,0.0,0.0,0.0,2490378,2490378,4028193,396321,0,0,831,2,1,2,0,3,0,0,0,0,1,0,0
263058466,262958782,0.0021995932,0.043582603,0.097112514,66199,0,0.31401303,0.38905612,0.0,0.24748898,0.019386306,0.0074013756,0.0,0.0,0.0,0.0,2490378,2490378,4028193,396321,0,0,831,2,1,2,0,3,0,0,0,0,1,0,0
263255610,263156343,0.0016586429,0.025561508,0.06538237,66199,0,0.31384146,0.3881589,0.0,0.18176839,0.016824078,0.019304886,0.0,0.0,0.0,0.0,2490378,2490378,4028193,396321,0,0,831,2,1,2,0,3,0,0,0,0,1,0,0
263453060,263353904,0.00042427608,0.020386124,0.025694255,66199,0,0.33033738,0.3940255,0.0,0.18176839,0.016824078,0.022359258,0.0,0.0,0.0,0.0,2490378,2490378,4028193,396321,0,0,831,2,1,2,0,3,0,0,0,0,1,0,0
263650594,263551465,0.00049377413,0.02084831,0.020836776,66199,0,0.33010674,0.39306095,0.0,0.18760921,0.017884346,0.022339698,0.0,0.0,0.0,0.0,2490378,2490378,4028193,396321,0,0,831,2,1,2,0,3,0,0,0,0,1,0,0
263858589,263758904,0.0012464898,0.014917563,0.0313559,66199,0,0.31406912,0.39086038,0.0,0.14843306,0.020270966,0.006303352,0.0,0.0,0.0,0.0,2490378,2490378,4028193,396321,0,0,831,2,1,2,0,3,0,0,0,0,1,0,0
264055561,263956466,0.0003963822,0.029659953,0.091756836,66199,0,0.33058545,0.3943209,0.0,0.14843306,0.020270966,0.00065053144,0.0,0.0,0.0,0.0,2490378,2490378,4028193,396321,0,0,831,2,1,2,0,3,0,0,0,0,1,0,0
264253236,264154027,0.0010672532,0.03320536,0.10618042,66199,0,0.3303672,0.39335537,0.0,0.37676188,0.029311381,0.011061603,0.0,0.0,0.0,0.0,2490378,2490378,4028193,396321,0,0,831,2,1,2,0,3,0,0,0,0,1,0,0
264460637,264361466,0.0024636744,0.06488585,0.1454228,66199,0,0.33109662,0.39307153,0.0,0.5848461,0.03984105,0.021808252,0.0,0.0,0.0,0.0,2490378,2490378,4028193,396321,0,0,831,2,1,2,0,3,0,0,0,0,1,0,0
264658388,264559027,0.0077769253,0.12309526,0.20178765,66199,0,0.33075163,0.3945907,0.0,0.8877694,0.065657996,0.29363754,0.0,0.0,0.0,0.0,2490378,2490378,4028193,396321,0,0,831,2,1,2,0,3,0,0,0,0,1,0,0
264855743,264756588,0.00032354324,0.059372853,0.09265828,66199,0,0.3386093,0.39363116,0.0,1.008211,0.06843635,0.049858727,0.0,0.0,0.0,0.0,2490378,2490378,4028193,396321,0,1,1855,2,1,2,0,3,0,0,0,0,1,0,0
265053251,264954150,0.0002168444,0.043490525,0.07498077,66199,0,0.3480599,0.3951827,0.0,1.2270136,0.14005868,0.07932999,0.0,0.0,0.0,0.0,2490378,2490378,4028193,396321,0,1,1855,2,1,2,0,3,0,0,0,0,1,0,0
265260690,265161589,0.0005186218,0.04351061,0.075231,66199,0,0.360431,0.39492983,0.0,1.4467719,0.22278528,0.043896336,0.0,0.0,0.0,0.0,2490378,2490378,4028193,396321,0,1,1855,2,1,2,0,3,0,0,0,0,1,0,0
265458767,265359150,0.0046920874,0.104026735,0.24327089,66199,0,0.35785687,0.3895737,0.0,1.6693534,0.4001061,0.0910012,0.0,0.0,0.0,0.0,2490378,2490378,4028193,396321,0,1,1855,2,1,2,0,3,0,0,0,0,1,0,0
265655834,265556712,0.0016956208,0.051783346,0.10815732,66199,0,0.38737372,0.39309558,0.0,1.6693534,0.4001061,0.07347553,0.0,0.0,0.0,0.0,2490378,2490378,4028193,396321,0,1,1855,2,1,2,0,3,0,0,0,0,1,0,0
265853455,265754273,0.010784077,0.21657722,0.45409757,66199,0,0.38315934,0.39022213,0.0,1.882701,0.565876,0.05503224,0.0,0.0,0.0,0.0,2490378,2490378,4028193,396321,0,1,1855,2,1,2,0,3,0,0,0,0,1,0,0
266060901,265961712,0.013921296,0.2871643,0.5798359,66199,0,0.39811367,0.39000076,0.0,1.90635,0.6554218,0.060712144,0.0,0.0,0.0,0.0,2490378,2490378,4028193,396321,0,1,1855,2,1,2,0,3,0,0,0,0,1,0,0
266258820,266159274,0.018290406,0.3705194,0.72444767,66199,0,0.41126567,0.38912857,0.0,1.9635344,0.7194452,0.086017966,0.0,0.0,0.0,0.0,2490378,2490378,4028193,396321,0,1,1855,2,1,2,0,3,0,0,0,0,1,0,0
266455940,266356835,0.0061462037,0.14224844,0.29028016,66199,0,0.45101175,0.39525595,0.0,1.9635344,0.7194452,0.11218919,0.0,0.0,0.0,0.0,2490378,2490378,4028193,396321,0,1,1855,2,1,2,0,3,0,0,0,0,1,0,0
266663595,266564274,0.027365265,0.5444359,1.043527,66199,0,0.43699062,0.39042604,0.0,1.9704939,0.82996005,0.09687308,0.0,0.0,0.0,0.0,2490378,2490378,4028193,396321,0,1,1855,2,1,2,0,3,0,0,0,0,1,0,0
266861049,266761836,0.026113704,0.58225316,1.1336777,66199,0,0.44744447,0.38952172,0.35310814,1.9666884,0.86170644,0.14183436,0.0,0.0,0.0,0.0,2490378,2490378,4028193,396321,0,1,1855,2,1,2,0,3,0,0,0,0,1,0,0
267059019,266959397,0.027239526,0.61265177,1.211457,66199,0,0.45661655,0.38866255,0.29918757,1.9155445,0.8778473,0.166812,0.0,0.0,0.0,0.0,2490378,2490378,4028193,396321,0,1,1855,2,1,2,0,3,0,0,0,0,1,0,0
267256175,267156958,0.028949417,0.63618594,1.2701346,66199,0,0.46454617,0.3902568,0.28135076,1.8328315,0.8796952,0.10838916,0.0,0.0,0.0,0.0,2490378,2490378,4028193,396321,0,1,1855,2,1,2,0,3,0,0,0,0,1,0,0
267453624,267354520,0.0075396043,0.17175743,0.3985492,66199,0,0.50947464,0.3940549,0.27944714,1.8328315,0.8796952,0.13112359,0.0,0.0,0.0,0.0,2490378,2490378,4028193,396321,0,1,1855,2,1,2,0,3,0,0,0,0,1,0,0
267651262,267552081,0.008130221,0.15909122,0.3879916,66199,0,0.51543343,0.3931938,0.3041177,1.7501422,0.89656013,0.11118065,0.0,0.0,0.0,0.0,2490378,2490378,4028193,396321,0,1,1855,2,1,2,0,3,0,0,0,0,1,0,0
267858626,267759521,0.00721534,0.12301431,0.31763366,66199,0,0.5224289,0.395532,0.3237217,1.6652759,0.8726187,0.084852695,0.0,0.0,0.0,0.0,2490378,2490378,4028193,396321,0,1,1855,2,1,2,0,3,0,0,0,0,1,0,0
268056201,267957082,0.007160552,0.095903344,0.2718064,66199,0,0.5250202,0.39464384,0.36147693,1.532532,0.8657148,0.12597682,0.0,0.0,0.0,0.0,2490378,2490378,4028193,396321,0,1,1855,2,1,2,0,3,0,0,0,0,1,0,0
268253797,268154644,0.0063488088,0.058994796,0.20395093,66199,0,0.526569,0.3937464,0.35707447,1.4206146,0.8277022,0.12370347,0.0,0.0,0.0,0.0,2490378,2490378,4028193,396321,0,1,1855,2,1,2,0,3,0,0,0,0,1,0,0
268461304,268362083,0.019654898,0.36763513,0.88213754,66199,0,0.48711336,0.38891822,0.3706418,1.2528335,0.74349403,0.10893459,0.0,0.0,0.0,0.0,2490378,2490378,4028193,396321,0,1,1855,2,1,2,0,3,0,0,0,0,1,0,0
268658750,268559645,0.004398031,0.027250385,0.049908683,66199,0,0.52938807,0.3951528,0.36453372,1.2528335,0.74349403,0.13338728,0.0,0.0,0.0,0.0,2490378,2490378,4028193,396321,0,1,1855,2,1,2,0,3,0,0,0,0,1,0,0
268856351,268757206,0.0047290614,0.05550035,0.08458704,230295,0,0.52827764,0.39423695,0.3861907,1.166922,0.7213372,0.1684796,0.0,0.0,0.10129996,0.0,2490378,2490378,4028193,396321,0,1,1855,2,1,2,0,3,0,0,0,0,1,0,0
269053926,268954768,0.005537512,0.08138906,0.108004,9077655,0,0.5264608,0.39330226,7.63302e-08,1.0665014,0.6687917,0.041401476,0.7754889,0.0,0.096313775,0.0,2490378,2490378,4028193,396321,0,1,1855,2,1,2,0,3,0,0,0,0,0,0,0
269251452,269152329,0.0049503553,0.119127326,0.19496806,9143271,0,0.5239534,0.39485455,1.7626951,1.0418026,0.61221576,0.16877611,0.112931706,0.0,0.09277709,0.0,2490378,2490378,4028193,396321,0,41,831,2,1,2,0,3,0,0,0,0,1,0,0
269459033,269359769,0.01556467,0.23183118,0.61707693,9143271,0,0.42144385,0.3899544,3.4229753,0.32007155,0.4324233,0.15530942,0.10947656,0.0,0.09802108,0.0,2490378,2490378,4028193,396321,0,56,831,2,1,2,0,3,0,0,0,0,1,0,0
269656598,269557330,0.006725684,0.017910812,0.16416596,9143271,0,0.40423,0.38907155,2.901442,0.16531983,0.35679767,0.059238255,0.16426969,0.0,0.074678265,0.0,2490378,2490378,4028193,396321,0,56,831,2,1,2,0,3,0,0,0,0,1,0,0
269854024,269754892,0.0010532676,0.20066766,0.41991657,9143271,0,0.42884916,0.39502198,2.452907,0.16531983,0.35679767,0.14068943,0.09115999,0.0,0.054563396,0.0,2490378,2490378,4028193,396321,0,56,831,2,1,2,0,3,0,0,0,0,1,0,0
270061627,269962331,0.03359727,0.44640034,0.79919463,9143271,0,0.38321385,0.39033255,2.102651,0.517847,0.30230764,0.12720451,0.45471686,0.0,0.04512213,0.0,2490378,2490378,4028193,396321,0,40,831,2,1,2,0,3,0,0,0,0,1,0,0
270259155,270159893,0.122728474,0.674891,0.9096001,9143271,0,0.37470442,0.38935155,1.5860479,0.587639,0.28100443,0.036366377,0.3048234,0.0,0.036530733,0.0,2490378,2490378,4028193,396321,0,40,831,2,1,2,0,3,0,0,0,0,1,0,0
270456557,270357454,0.054873202,0.47900876,0.8640742,9143271,0,0.39317304,0.39502126,0.89225024,0.587639,0.28100443,0.078432165,0.5614019,0.0,0.027720299,0.0,2490378,2490378,4028193,396321,0,0,831,2,1,2,0,3,0,0,0,0,1,0,0
270654197,270555016,0.10455194,0.5515085,0.88768345,9143271,0,0.38453886,0.3939821,0.53639656,0.6499673,0.26995113,0.027339987,0.40590167,0.0,0.105408706,0.0,2490378,2490378,4028193,396321,0,0,831,2,1,2,0,3,0,0,0,0,1,0,0
270861557,270762456,0.041533507,0.38347772,0.7580174,9143271,0,0.37834814,0.39369425,0.44346726,0.43883696,0.26486215,0.0010180073,0.39689586,0.0,0.078654066,0.0,2490378,2490378,4028193,396321,0,0,831,2,1,2,0,3,0,0,0,0,1,0,0
271059299,270960017,0.030437833,0.4116284,0.68171597,9143271,0,0.35069934,0.38841295,0.65093493,0.592071,0.22551888,0.03412579,0.40011528,0.0,0.09063077,0.0,2490378,2490378,4028193,396321,0,0,831,2,1,2,0,3,0,0,0,0,1,0,0
271256699,271157579,0.02534844,0.2521184,0.56743866,9143271,0,0.366687,0.3942825,0.9792192,0.592071,0.22551888,0.07803473,0.27236754,0.0,0.096044,0.0,2490378,2490378,4028193,396321,0,0,831,2,1,2,0,3,0,0,0,0,1,0,0
271454265,271355140,0.08233077,0.34670287,0.5254083,9143271,0,0.36228687,0.39328554,0.9834748,0.6765749,0.2075354,0.02371068,0.48209044,0.0,0.05985419,0.0,2490378,2490378,4028193,396321,0,0,831,2,1,2,0,3,0,0,0,0,1,0,0
271651859,271552702,0.1173971,0.50985646,0.53700966,9143271,0,0.35894218,0.3923069,1.0053008,0.6730872,0.18568447,0.05981793,0.4498742,0.0,0.006075242,0.0,2490378,2490378,4028193,396321,0,8,831,2,1,2,0,3,0,0,0,0,1,0,0
271859282,271760142,0.06188221,0.44392067,0.5113169,9143271,0,0.35718158,0.39202362,1.3216953,0.45457798,0.1620396,0.041183986,0.13693498,0.0,0.08362236,0.0,2490378,2490378,4028193,396321,0,8,831,2,1,2,0,3,0,0,0,0,1,0,0
272056813,271957703,0.015115448,0.24679948,0.4278496,9143271,0,0.35484293,0.39355394,1.3558944,0.15757836,0.14680333,0.043439355,0.08233726,0.0,0.11886347,0.0,2490378,2490378,4028193,396321,0,8,831,2,1,2,0,3,0,0,0,0,1,0,0
272254446,272155265,0.006724705,0.10904945,0.3287514,9143271,0,0.35250276,0.3925878,1.3679616,0.18201885,0.1371089,0.03814831,0.107494615,0.0,0.12172436,0.0,2490378,2490378,4028193,396321,0,8,831,2,1,2,0,3,0,0,0,0,1,0,0
272461839,272362705,0.019397343,0.23292933,0.2913537,9143271,0,0.35157222,0.39228827,1.5462053,0.14830738,0.12075734,0.0297471,0.04128877,0.0,0.09465495,0.0,2490378,2490378,4028193,396321,0,8,831,2,1,2,0,3,0,0,0,0,1,0,0
272659546,272560266,0.04499345,0.44137427,0.350515,9143271,0,0.32912347,0.389508,1.5835605,0.32551363,0.089799725,0.17450102,0.022688346,0.0,0.068924434,0.0,2490378,2490378,4028193,396321,0,8,831,2,1,2,0,3,0,0,0,0,1,0,0
272856970,272757828,0.013852522,0.28821284,0.31355762,9143271,0,0.34735253,0.3928013,1.60609,0.32551363,0.089799725,0.035116043,0.20030583,0.0,0.042709734,0.0,2490378,2490378,4028193,396321,0,8,831,2,1,2,0,3,0,0,0,0,1,0,0
273054602,272955389,0.008916181,0.25496036,0.3045977,9143271,0,0.34574,0.39183003,1.71183,0.32037324,0.085102856,0.14638875,0.08472428,0.0,0.024292521,0.0,2490378,2490378,4028193,396321,0,8,831,2,1,2,0,3,0,0,0,0,1,0,0
273252057,273152951,0.008608326,0.22163725,0.2873638,9143271,0,0.34425238,0.39334118,1.7090695,0.29975468,0.074562736,0.061354842,0.003995931,0.0,0.0043656705,0.0,2490378,2490378,4028193,396321,0,8,831,2,1,2,0,3,0,0,0,0,1,0,0
273459651,273360391,0.020082982,0.2824464,0.35885313,9143271,0,0.3248311,0.388811,1.8195533,0.39556387,0.052974246,0.064085215,0.09758602,0.0,0.011652579,0.0,2490378,2490378,4028193,396321,0,40,831,2,1,2,0,3,0,0,0,0,1,0,0
