timestamp,timestamp_sample,ref_timestamp,ref_lat,ref_lon,x,y,z,delta_xy[0],delta_xy[1],delta_z,vx,vy,vz,z_deriv,delta_vxy[0],delta_vxy[1],delta_vz,ax,ay,az,heading,delta_heading,ref_alt,dist_bottom,eph,epv,evh,evv,vxy_max,vz_max,hagl_min,hagl_max,xy_valid,z_valid,v_xy_valid,v_z_valid,xy_reset_counter,z_reset_counter,vxy_reset_counter,vz_reset_counter,heading_reset_counter,heading_good_for_control,xy_global,z_global,dist_bottom_valid,dist_bottom_sensor_bitfield
217878817,217878292,19482731,36.660603099999996,126.342033,13.314175,0.6568322,4.4092536,0.00075414986,0.0026697728,0.0,0.012578987,-0.013907296,0.07433185,0.023122096,0.11503945,-0.07196041,0.1729673,0.0065559824,0.0062729195,-0.0036273205,1.0547371,-0.0021607112,13.964353,0.1,0.35300872,0.39184582,0.13750394,0.10484432,inf,inf,inf,inf,1,1,1,1,2,0,2,1,3,0,1,1,1,0
218378630,218378333,19482731,36.660603099999996,126.342033,13.332858,0.65459657,4.421237,0.00075414986,0.0026697728,0.0,0.01610053,-0.013533704,0.07432445,0.023884935,0.11503945,-0.07196041,0.1729673,0.0054464657,0.0060513215,0.03389919,1.0583266,-0.0021607112,13.964353,0.1,0.35996473,0.39404178,0.14187574,0.10636017,inf,inf,inf,inf,1,1,1,1,2,0,2,1,3,0,1,1,1,0
218878920,218878374,19482731,36.660603099999996,126.342033,13.349757,0.656429,4.440439,0.00075414986,0.0026697728,0.0,0.017391346,-0.010089972,0.07548065,0.030999288,0.11503945,-0.07196041,0.1729673,-0.009683377,-0.0023666215,-0.04770711,1.0619344,-0.0021607112,13.964353,0.1,0.3506389,0.3919986,0.13720115,0.104901955,inf,inf,inf,inf,1,1,1,1,2,0,2,1,3,0,1,1,1,0
219378764,219378416,19482731,36.660603099999996,126.342033,13.355013,0.6597979,4.4555073,0.00075414986,0.0026697728,0.0,0.008001426,-0.0053277574,0.07546184,0.030127766,0.11503945,-0.07196041,0.1729673,-0.037535947,-0.06149384,-0.23852961,1.0651251,-0.0021607112,13.964353,0.1,0.35764173,0.39434636,0.14172423,0.106440745,inf,inf,inf,inf,1,1,1,1,2,0,2,1,3,0,1,1,1,0
219878913,219878457,19482731,36.660603099999996,126.342033,13.364063,0.65457743,4.472504,0.00075414986,0.0026697728,0.0,-0.0026313832,-0.0016427079,0.08017374,0.03516813,0.11503945,-0.07196041,0.1729673,0.062437832,0.28109804,0.5102024,1.0663502,-0.0021607112,13.964353,0.1,0.34838676,0.38999858,0.13707845,0.10475752,inf,inf,inf,inf,1,1,1,1,2,0,2,1,3,0,1,1,1,0
220378914,220378498,19482731,36.660603099999996,126.342033,13.370684,0.64376795,4.47206,0.00075414986,0.0026697728,0.0,-0.015176237,-0.0038251264,0.074528545,0.017716557,0.11503945,-0.07196041,0.1729673,-0.14278603,0.26040387,0.4453986,1.0692284,-0.0021607112,13.964353,0.1,0.35542428,0.3924313,0.14158759,0.10629082,inf,inf,inf,inf,1,1,1,1,2,0,2,1,3,0,1,1,1,0
220878966,220878540,19482731,36.660603099999996,126.342033,13.379336,0.64167416,4.4787936,0.00075414986,0.0026697728,0.0,-0.006288664,-0.005335201,0.06995705,0.012931657,0.11503945,-0.07196041,0.1729673,0.19709767,-0.4372697,-0.9920265,1.0694555,-0.0021607112,13.964353,0.1,0.34616122,0.3905952,0.13696373,0.10487224,inf,inf,inf,inf,1,1,1,1,2,0,2,1,3,0,1,1,1,0
221378965,221378582,19482731,36.660603099999996,126.342033,13.396625,0.65127796,4.4692106,0.00075414986,0.0026697728,0.0,0.0011406244,-0.00052474684,0.06055469,-0.008205222,0.11503945,-0.07196041,0.1729673,0.74467397,0.42685464,-0.1023516,1.0676856,-0.0021607112,13.964353,0.10420799,0.35320917,0.39320987,0.1414164,0.106431454,inf,inf,inf,inf,1,1,1,1,2,0,2,1,3,0,1,1,1,0
221879052,221878624,19482731,36.660603099999996,126.342033,13.405982,0.6593265,4.4470224,0.00075414986,0.0026697728,0.0,-0.0023108537,-0.0024893791,0.054835,-0.022985026,0.11503945,-0.07196041,0.1729673,-0.042938735,0.20854697,0.33424842,1.0681959,-0.0021607112,13.964353,0.12639618,0.343884,0.39144078,0.13671674,0.1049985,inf,inf,inf,inf,1,1,1,1,2,0,2,1,3,0,1,1,1,0
222379080,222378665,19482731,36.660603099999996,126.342033,13.406525,0.6536545,4.4299955,0.00075414986,0.0026697728,0.0,-0.007355386,0.0017544102,0.06422111,-0.017744593,0.11503945,-0.07196041,0.1729673,-0.7571805,-0.45470914,-1.1464525,1.1008419,-0.0021607112,13.964353,0.14342308,0.3507251,0.39154485,0.14089933,0.10621974,inf,inf,inf,inf,1,1,1,1,2,0,2,1,3,0,1,1,1,0
222879145,222878708,19482731,36.660603099999996,126.342033,13.4179,0.6409861,4.4279943,0.00075414986,0.0026697728,0.0,-0.0005268126,-0.06590484,0.055963114,-0.015383692,0.11503945,-0.07196041,0.1729673,-0.14989373,0.1627762,-0.046606302,1.1285801,-0.0021607112,13.964353,0.14542437,0.34134635,0.3898404,0.13620253,0.104781225,inf,inf,inf,inf,1,1,1,1,2,0,2,1,3,0,1,1,1,0
223379092,223378750,19482731,36.660603099999996,126.342033,13.447615,0.5828476,4.3762245,0.00075414986,0.0026697728,0.0,0.17716967,-0.24143304,-0.085950136,-0.18757473,0.11503945,-0.07196041,0.1729673,1.8289938,0.5108101,0.042060666,1.1135561,-0.0021607112,13.964353,0.1971941,0.3485115,0.39243674,0.14098999,0.10631068,inf,inf,inf,inf,1,1,1,1,2,0,2,1,3,0,1,1,1,0
223879226,223878792,19482731,36.660603099999996,126.342033,13.489333,0.5049881,4.218802,0.00075414986,0.0026697728,0.0,-0.10817914,-0.110597506,-0.2823551,-0.3840512,0.11503945,-0.07196041,0.1729673,0.33937368,-0.63348573,-2.6218646,1.0902014,-0.0021607112,13.964353,0.35461664,0.33916733,0.39073977,0.13703972,0.104861826,inf,inf,inf,inf,1,1,1,1,2,0,2,1,3,0,1,1,1,0
224379235,224378834,19482731,36.660603099999996,126.342033,13.46566,0.45378932,4.0289416,0.00075414986,0.0026697728,0.0,-0.14880715,-0.046732232,-0.40168613,-0.48594126,0.11503945,-0.07196041,0.1729673,0.020303925,0.4447888,-1.6474886,1.0612024,-0.0021607112,13.964353,0.544477,0.34636733,0.39095122,0.1415859,0.10613736,inf,inf,inf,inf,1,1,1,1,2,0,2,1,3,0,1,1,0,0
224879525,224878877,19482731,36.660603099999996,126.342033,13.407323,0.46917918,3.7763166,0.00075414986,0.0026697728,0.0,-0.13980384,0.06980332,-0.5270578,-0.6040843,0.11503945,-0.07196041,0.1729673,-1.1550865,0.057435032,-0.27859315,1.0505269,-0.0021607112,13.964353,0.797102,0.33695585,0.38931292,0.13685456,0.10468838,inf,inf,inf,inf,1,1,1,1,2,0,2,1,3,0,1,1,0,0
225379335,225378919,19482731,36.660603099999996,126.342033,13.359622,0.50301385,3.4712324,0.00075414986,0.0026697728,0.0,-0.16058098,0.09799494,-0.5932441,-0.6569797,0.11503945,-0.07196041,0.1729673,-0.7229835,0.7118147,1.6816572,1.0400566,-0.0021607112,13.964353,1.1021862,0.34424385,0.39199892,0.14126958,0.106233254,inf,inf,inf,inf,1,1,1,1,2,0,2,1,3,0,1,1,0,0
225879345,225878962,19482731,36.660603099999996,126.342033,13.301369,0.5894957,3.1403756,0.00075414986,0.0026697728,0.0,-0.14108944,0.13612783,-0.6827439,-0.72396934,0.11503945,-0.07196041,0.1729673,0.08499866,0.040808443,-0.045713857,1.0163279,-0.0021607112,13.964353,1.433043,0.33502465,0.39039877,0.13664514,0.104830034,inf,inf,inf,inf,1,1,1,1,2,0,2,1,3,0,1,1,0,0
226379421,226379005,19482731,36.660603099999996,126.342033,13.209335,0.67117316,2.7542963,0.00075414986,0.0026697728,0.0,-0.114320986,0.12460448,-0.7972585,-0.83726376,0.11503945,-0.07196041,0.1729673,0.06624785,-0.286954,1.536508,1.0002882,-0.0021607112,13.964353,1.8191223,0.34233218,0.39068964,0.14096425,0.106107116,inf,inf,inf,inf,1,1,1,1,2,0,2,1,3,0,1,1,0,0
226879392,226879048,19482731,36.660603099999996,126.342033,13.164578,0.7472717,2.3227885,0.00075414986,0.0026697728,0.0,-0.0009127141,0.064991504,-0.84824747,-0.8855214,0.11503945,-0.07196041,0.1729673,1.3234105,0.4202239,1.6300625,0.9908922,-0.0021607112,13.964353,2.2506301,0.3331755,0.38912916,0.13619246,0.104709536,inf,inf,inf,inf,1,1,1,1,2,0,2,1,3,0,1,1,0,0
227379439,227379091,19482731,36.660603099999996,126.342033,13.16215,0.81930333,1.8685476,0.00075414986,0.0026697728,0.0,0.043603316,0.010501594,-0.8832521,-0.9242101,0.11503945,-0.07196041,0.1729673,0.121551394,0.5498417,1.7833904,0.9770934,-0.0021607112,13.964353,2.7048712,0.34054258,0.39187476,0.14039178,0.10626184,inf,inf,inf,inf,1,1,1,1,2,0,2,1,3,0,1,1,0,0
227879486,227879134,19482731,36.660603099999996,126.342033,13.175941,0.8391451,1.3824742,0.00075414986,0.0026697728,0.0,0.05744221,-0.013759524,-0.9400779,-0.98723763,0.11503945,-0.07196041,0.1729673,0.8514193,1.2993087,0.62359387,0.9906378,-0.0021607112,13.964353,3.1909444,0.3313926,0.39029557,0.13571276,0.10485635,inf,inf,inf,inf,1,1,1,1,2,0,2,1,3,0,1,1,0,0
228379590,228379178,19482731,36.660603099999996,126.342033,13.266337,0.8837705,0.9137863,0.00075414986,0.0026697728,0.0,0.08948798,-0.023949908,-0.946474,-0.9670129,0.11503945,-0.07196041,0.1729673,-0.32592583,1.286861,0.8645784,1.0205891,-0.0021607112,13.964353,3.6596322,0.33889058,0.3930413,0.14013281,0.10641795,inf,inf,inf,inf,1,1,1,1,2,0,2,1,3,0,1,1,0,0
228879563,228879221,19482731,36.660603099999996,126.342033,13.334529,0.88930416,0.3949072,0.00075414986,0.0026697728,0.0,0.07838003,-0.06133443,-0.981385,-1.0281258,0.11503945,-0.07196041,0.1729673,1.5601554,-0.21990275,0.24036439,1.0480857,-0.0021607112,13.964353,4.1785116,0.3296675,0.39128813,0.13535252,0.10495446,inf,inf,inf,inf,1,1,1,1,2,0,2,1,3,0,1,1,0,0
229379607,229379265,19482731,36.660603099999996,126.342033,13.414883,0.8745126,-0.14990765,0.00075414986,0.0026697728,0.0,0.09409044,-0.071823314,-0.9885401,-1.0555221,0.11503945,-0.07196041,0.1729673,-0.78502256,0.996055,2.9264867,1.0554031,-0.0021607112,13.964353,4.723326,0.3370705,0.39613283,0.13972425,0.10668042,inf,inf,inf,inf,1,1,1,1,2,0,2,1,3,0,1,1,0,0
229879728,229879309,19482731,36.660603099999996,126.342033,13.471835,0.8090716,-0.68336666,0.00075414986,0.0026697728,0.0,0.07231318,-0.13051967,-1.0003409,-1.0660334,0.11503945,-0.07196041,0.1729673,0.8221954,0.95189506,0.16786116,1.0514075,-0.0021607112,13.964353,5.2567854,0.3279661,0.3939812,0.13522303,0.10516893,inf,inf,inf,inf,1,1,1,1,2,0,2,1,3,0,1,1,0,0
230379742,230379352,19482731,36.660603099999996,126.342033,13.549774,0.73491025,-1.1804658,0.00075414986,0.0026697728,0.0,0.016353054,-0.11987724,-1.0043515,-1.0407186,0.11503945,-0.07196041,0.1729673,0.8221656,-0.53695,-0.38289353,1.0454079,-0.0021607112,13.964353,5.7538843,0.3353366,0.39370945,0.13956727,0.10634627,inf,inf,inf,inf,1,1,1,1,2,0,2,1,3,0,1,1,0,0
230879742,230879396,19482731,36.660603099999996,126.342033,13.580469,0.67167526,-1.6820536,0.00075414986,0.0026697728,0.0,-0.06107692,-0.072930016,-1.0218387,-1.0440379,0.11503945,-0.07196041,0.1729673,0.20299737,0.054569706,0.20257854,1.03893,-0.0021607112,13.964353,6.255472,0.3261252,0.3916729,0.13509698,0.10486772,inf,inf,inf,inf,1,1,1,1,2,0,2,1,3,0,1,1,0,0
231379918,231379441,19482731,36.660603099999996,126.342033,13.551022,0.65697765,-2.199993,0.00075414986,0.0026697728,0.0,-0.1533458,-0.047972184,-1.0056603,-1.0330561,0.11503945,-0.07196041,0.1729673,-0.6915356,-0.04587697,-0.4599814,1.0318491,-0.0021607112,13.964353,6.7734118,0.33355463,0.39394286,0.13935088,0.10633421,inf,inf,inf,inf,1,1,1,1,2,0,2,1,3,0,1,1,0,0
231879945,231879484,19482731,36.660603099999996,126.342033,13.459936,0.6226248,-2.7239115,0.00075414986,0.0026697728,0.0,-0.1520776,-0.034902047,-1.0091475,-1.0346493,0.11503945,-0.07196041,0.1729673,0.33307114,-0.94363415,-2.486254,1.0225538,-0.0021607112,13.964353,7.29733,0.3244733,0.3918668,0.13484219,0.104849696,inf,inf,inf,inf,1,1,1,1,2,0,2,1,3,0,1,1,0,0
232379940,232379529,19482731,36.660603099999996,126.342033,13.389642,0.55846983,-3.2381482,0.00075414986,0.0026697728,0.0,-0.13278523,-0.006990445,-1.0301803,-1.0498198,0.11503945,-0.07196041,0.1729673,-0.07730913,-0.09143371,-1.5317202,1.005805,-0.0021607112,13.964353,7.811567,0.33201262,0.3940876,0.13933925,0.10633095,inf,inf,inf,inf,1,1,1,1,2,0,2,1,3,0,1,1,0,0
232879924,232879573,19482731,36.660603099999996,126.342033,13.330328,0.5130871,-3.7608504,0.00075414986,0.0026697728,0.0,-0.09722299,0.032414693,-1.0104717,-1.0343385,0.11503945,-0.07196041,0.1729673,0.1647483,0.8706336,2.3612106,0.9692772,-0.0021607112,13.964353,8.334269,0.3228343,0.391974,0.13453208,0.104836166,inf,inf,inf,inf,1,1,1,1,2,0,2,1,3,0,1,1,0,0
233379966,233379620,19482731,36.660603099999996,126.342033,13.25732,0.47966367,-4.295363,0.00075414986,0.0026697728,0.0,-0.07269279,0.07189395,-1.0133483,-1.0487256,0.11503945,-0.07196041,0.1729673,0.02835084,-0.08688942,-0.16922347,0.9329455,-0.0021607112,13.964353,8.868782,0.3304116,0.39427823,0.13898827,0.106350005,inf,inf,inf,inf,1,1,1,1,2,0,2,1,3,0,1,1,0,0
233880044,233879662,19482731,36.660603099999996,126.342033,13.203536,0.49744424,-4.7528377,0.00075414986,0.0026697728,0.0,-0.02733713,0.12897556,-0.9951364,-0.97534597,0.11503945,-0.07196041,0.1729673,0.22861719,-0.41509295,-0.073069885,0.90349746,-0.0021607112,13.964353,9.326256,0.3214936,0.39230698,0.13444223,0.10490328,inf,inf,inf,inf,1,1,1,1,2,0,2,1,3,0,1,1,0,0
234380092,234379707,19482731,36.660603099999996,126.342033,13.194757,0.5414471,-5.1565585,0.00075414986,0.0026697728,0.0,0.042007197,0.15256086,-0.99174976,-0.90526843,0.11503945,-0.07196041,0.1729673,0.22165209,1.1129931,3.1191547,0.8773325,-0.0021607112,13.964353,9.729977,0.32925302,0.39471784,0.13903536,0.10643685,inf,inf,inf,inf,1,1,1,1,2,0,2,1,3,0,1,1,0,0
234880152,234879752,19482731,36.660603099999996,126.342033,13.227164,0.600431,-5.5625653,0.00075414986,0.0026697728,0.0,0.08113046,0.12119461,-1.002028,-0.87967587,0.11503945,-0.07196041,0.1729673,0.79048634,0.42709506,0.34483048,0.85977834,-0.0021607112,13.964353,10.135984,0.32043877,0.3902955,0.13463151,0.104722634,inf,inf,inf,inf,1,1,1,1,2,0,2,1,3,0,1,1,0,0
235380258,235379797,19482731,36.660603099999996,126.342033,13.260896,0.67165875,-6.077478,0.00075414986,0.0026697728,0.0,0.07476282,0.07205458,-1.6618135,-1.5208144,0.11503945,-0.07196041,0.1729673,0.10716269,-0.7157967,-4.058027,0.8508247,-0.0021607112,13.964353,10.650896,0.32832634,0.39274955,0.14063577,0.10627031,inf,inf,inf,inf,1,1,1,1,2,0,2,1,3,0,1,1,0,0
235880182,235879842,19482731,36.660603099999996,126.342033,13.296888,0.7096608,-7.1169796,0.00075414986,0.0026697728,0.0,0.079532586,-0.024821144,-2.8338456,-2.6699684,0.11503945,-0.07196041,0.1729673,-0.47834206,-0.4020124,-0.813764,0.83855987,-0.0021607112,13.964353,11.690398,0.31954756,0.39090633,0.13957034,0.104853876,inf,inf,inf,inf,1,1,1,1,2,0,2,1,3,0,1,1,0,0
236380305,236379887,19482731,36.660603099999996,126.342033,13.364926,0.71856886,-8.490158,0.00075414986,0.0026697728,0.0,0.072201125,-0.05441265,-2.8248537,-2.6701834,0.11503945,-0.07196041,0.1729673,0.05483496,0.6878578,1.2582586,0.83139646,-0.0021607112,13.964353,13.063577,0.327737,0.3933755,0.14346552,0.10638984,inf,inf,inf,inf,1,1,1,1,2,0,2,1,3,0,1,1,0,0
236880274,236879932,19482731,36.660603099999996,126.342033,13.421232,0.7287814,-9.861336,0.00075414986,0.0026697728,0.0,0.01737062,-0.032576885,-2.8048613,-2.7012537,0.11503945,-0.07196041,0.1729673,0.8505151,0.3860561,1.6331437,0.84331787,-0.0021607112,13.964353,14.434754,0.31890264,0.3915257,0.13676624,0.10495714,inf,inf,inf,inf,1,1,1,1,2,0,2,1,3,0,1,1,0,0
237380320,237379977,19482731,36.660603099999996,126.342033,13.436922,0.71581256,-11.28185,0.00075414986,0.0026697728,0.0,-0.035281677,-0.06704434,-2.825985,-2.7796757,0.11503945,-0.07196041,0.1729673,0.11232463,-0.023954548,0.4581403,0.86595726,-0.0021607112,13.964353,15.8552685,0.32697436,0.39409322,0.14057049,0.106515974,inf,inf,inf,inf,1,1,1,1,2,0,2,1,3,0,1,1,0,0
237880479,237880023,19482731,36.660603099999996,126.342033,13.423666,0.6839015,-12.741897,0.00075414986,0.0026697728,0.0,-0.09907881,-0.005637856,-2.809782,-2.8219092,0.11503945,-0.07196041,0.1729673,0.47849178,0.4918907,-1.2109876,0.86937255,-0.0021607112,13.964353,17.315315,0.31805357,0.3898792,0.13495252,0.10482774,inf,inf,inf,inf,1,1,1,1,2,0,2,1,3,0,1,1,0,0
238380470,238380068,19482731,36.660603099999996,126.342033,13.414011,0.65589267,-14.209395,0.00075414986,0.0026697728,0.0,-0.07951129,-0.012411106,-2.7862217,-2.8462996,0.11503945,-0.07196041,0.1729673,0.5637816,0.6947118,-0.1518627,0.85941446,-0.0021607112,13.964353,18.782814,0.32585284,0.39239556,0.13861711,0.10633932,inf,inf,inf,inf,1,1,1,1,2,0,2,1,3,0,1,1,0,0
238880557,238880114,19482731,36.660603099999996,126.342033,13.403671,0.6508324,-15.627148,0.00075414986,0.0026697728,0.0,-0.060076956,-0.0033780558,-2.8179557,-2.8588765,0.11503945,-0.07196041,0.1729673,0.20580506,-0.11267766,-0.62538624,0.85764706,-0.0021607112,13.964353,20.200565,0.31689832,0.39060763,0.13378821,0.10488,inf,inf,inf,inf,1,1,1,1,2,0,2,1,3,0,1,1,0,0
239380502,239380160,19482731,36.660603099999996,126.342033,13.384973,0.6455622,-17.092478,0.00075414986,0.0026697728,0.0,-0.08420833,0.021184705,-2.8627145,-2.9228346,0.11503945,-0.07196041,0.1729673,-0.04093986,-0.08014611,-2.303953,0.86141264,-0.0021607112,13.964353,21.665897,0.32464778,0.39319167,0.13811141,0.1063953,inf,inf,inf,inf,1,1,1,1,2,0,2,1,3,0,1,1,0,0
239880567,239880206,19482731,36.660603099999996,126.342033,13.359974,0.62173426,-18.59435,0.00075414986,0.0026697728,0.0,-0.05916989,0.03857645,-2.9281094,-3.0047228,0.11503945,-0.07196041,0.1729673,0.8451661,0.16603601,-0.6864067,0.8679386,-0.0021607112,13.964353,23.16777,0.31591338,0.39144608,0.13376594,0.10495859,inf,inf,inf,inf,1,1,1,1,2,0,2,1,3,0,1,1,0,0
240380717,240380252,19482731,36.660603099999996,126.342033,13.323834,0.62549084,-20.064852,0.00075414986,0.0026697728,0.0,-0.044615038,0.064030424,-2.9368877,-2.9814165,0.11503945,-0.07196041,0.1729673,0.7313642,-0.7383649,-0.6001227,0.87117696,-0.0021607112,13.964353,24.638271,0.32381704,0.39161345,0.13813943,0.10622615,inf,inf,inf,inf,1,1,1,1,2,0,2,1,3,0,1,1,0,0
240880672,240880298,19482731,36.660603099999996,126.342033,13.296325,0.65349567,-21.551704,0.00075414986,0.0026697728,0.0,-0.014758323,0.08045167,-2.936473,-2.9740603,0.11503945,-0.07196041,0.1729673,-0.722762,-0.1950478,0.15736659,0.8730798,-0.0021607112,13.964353,26.125122,0.31491426,0.3899103,0.13346444,0.10475518,inf,inf,inf,inf,1,1,1,1,2,0,2,1,3,0,1,1,0,0
241380764,241380344,19482731,36.660603099999996,126.342033,13.295475,0.6937863,-23.008863,0.00075414986,0.0026697728,0.0,0.024462396,0.08752806,-2.9661682,-2.9728396,0.11503945,-0.07196041,0.1729673,-0.6065773,0.18186475,0.47354114,0.868966,-0.0021607112,13.964353,27.582283,0.3228444,0.39255655,0.13802792,0.1062975,inf,inf,inf,inf,1,1,1,1,2,0,2,1,3,0,1,1,0,0
241880739,241880390,19482731,36.660603099999996,126.342033,13.347006,0.7543399,-24.489988,0.00075414986,0.0026697728,0.0,0.028559737,0.0693759,-2.9899848,-2.9943423,0.11503945,-0.07196041,0.1729673,0.17259833,-0.9686597,-2.8542514,0.860604,-0.0021607112,13.964353,29.063408,0.3143092,0.39087424,0.1338384,0.10488993,inf,inf,inf,inf,1,1,1,1,2,0,2,1,3,0,1,1,0,0
242381013,242380436,19482731,36.660603099999996,126.342033,13.386834,0.79384035,-25.97671,0.00075414986,0.0026697728,0.0,-0.006730605,0.0010736053,-2.9669619,-2.967344,0.11503945,-0.07196041,0.1729673,0.239703,-0.23262034,0.51379824,0.8589803,-0.0021607112,13.964353,30.550129,0.3221855,0.39343938,0.13818589,0.1063939,inf,inf,inf,inf,1,1,1,1,2,0,2,1,3,0,1,1,0,0
242880884,242880483,19482731,36.660603099999996,126.342033,13.427164,0.8051492,-27.424318,0.00075414986,0.0026697728,0.0,-0.040051866,-0.031399254,-2.9870749,-2.9546838,0.11503945,-0.07196041,0.1729673,-0.1328521,0.25801495,-0.50857186,0.84751946,-0.0021607112,13.964353,31.997738,0.31356683,0.389266,0.13386221,0.10470237,inf,inf,inf,inf,1,1,1,1,2,0,2,1,3,0,1,1,0,0
243380958,243380529,19482731,36.660603099999996,126.342033,13.451003,0.78909063,-28.899809,0.00075414986,0.0026697728,0.0,-0.11312495,-0.04746137,-2.9871745,-2.9543195,0.11503945,-0.07196041,0.1729673,-1.0737534,0.874872,0.34582064,0.82247627,-0.0021607112,13.964353,33.47323,0.3214731,0.39194858,0.13831271,0.10624204,inf,inf,inf,inf,1,1,1,1,2,0,2,1,3,0,1,1,0,0
243880932,243880576,19482731,36.660603099999996,126.342033,13.405574,0.72174424,-30.366755,0.00075414986,0.0026697728,0.0,-0.15741922,-0.06676923,-2.9782639,-2.93867,0.11503945,-0.07196041,0.1729673,-0.8232252,-0.5383688,-0.5511744,0.80209655,-0.0021607112,13.964353,34.940174,0.31293875,0.390341,0.13385607,0.10485379,inf,inf,inf,inf,1,1,1,1,2,0,2,1,3,0,1,1,0,0
244381090,244380622,19482731,36.660603099999996,126.342033,13.345995,0.6397341,-31.814396,0.00075414986,0.0026697728,0.0,-0.1315956,-0.023663847,-2.994888,-2.9406965,0.11503945,-0.07196041,0.1729673,0.36635435,-0.4933965,-2.862167,0.79592496,-0.0021607112,13.964353,36.387814,0.32087436,0.3930623,0.13830511,0.10639172,inf,inf,inf,inf,1,1,1,1,2,0,2,1,3,0,1,1,0,0
244881068,244880669,19482731,36.660603099999996,126.342033,13.290648,0.5932952,-33.285435,0.00075414986,0.0026697728,0.0,-0.094880104,0.037226483,-2.9869928,-2.9343817,0.11503945,-0.07196041,0.1729673,-1.3652383,0.2601755,-0.86594653,0.7978715,-0.0021607112,13.964353,37.858852,0.31225875,0.38901556,0.13385715,0.10471858,inf,inf,inf,inf,1,1,1,1,2,0,2,1,3,0,1,1,0,0
245381140,245380716,19482731,36.660603099999996,126.342033,13.237625,0.60149693,-34.7462,0.00075414986,0.0026697728,0.0,-0.033427197,0.0924553,-2.9821153,-2.926062,0.11503945,-0.07196041,0.1729673,-0.102470696,-1.3471817,-0.53598666,0.7999394,-0.0021607112,13.964353,39.31962,0.32044017,0.3917725,0.13841741,0.10629504,inf,inf,inf,inf,1,1,1,1,2,0,2,1,3,0,1,1,0,0
245881156,245880762,19482731,36.660603099999996,126.342033,13.167682,0.64882797,-36.18314,0.00075414986,0.0026697728,0.0,-0.0055532204,0.12096332,-2.9835615,-2.9054122,0.11503945,-0.07196041,0.1729673,-0.50557667,0.6114737,-1.4997767,0.8065419,-0.0021607112,13.964353,40.756557,0.31206912,0.39024165,0.13409828,0.10492478,inf,inf,inf,inf,1,1,1,1,2,0,2,1,3,0,1,1,0,0
246381247,246380809,19482731,36.660603099999996,126.342033,13.13671,0.7304486,-37.60226,0.00075414986,0.0026697728,0.0,0.07994075,0.09494743,-2.986486,-2.8842359,0.11503945,-0.07196041,0.1729673,1.8376956,-1.2764181,-2.4109387,0.80608535,-0.0021607112,13.964353,42.17568,0.32026693,0.3930479,0.13859284,0.10648621,inf,inf,inf,inf,1,1,1,1,2,0,2,1,3,0,1,1,0,0
246881208,246880856,19482731,36.660603099999996,126.342033,13.1376705,0.81337935,-39.019386,0.00075414986,0.0026697728,0.0,0.10767315,0.0631265,-2.797609,-2.6990569,0.11503945,-0.07196041,0.1729673,1.5099574,0.12424037,0.8217096,0.80096287,-0.0021607112,13.964353,43.592804,0.31164047,0.3890398,0.13363957,0.10478703,inf,inf,inf,inf,1,1,1,1,2,0,2,1,3,0,1,1,0,0
247381306,247380903,19482731,36.660603099999996,126.342033,13.196225,0.90800434,-40.415417,0.00075414986,0.0026697728,0.0,0.13429941,-0.0017363804,-2.7654166,-2.7108643,0.11503945,-0.07196041,0.1729673,-1.1821465,0.29941618,0.41711912,0.7890896,-0.0021607112,13.964353,44.988834,0.31982556,0.3918223,0.13794172,0.10634056,inf,inf,inf,inf,1,1,1,1,2,0,2,1,3,0,1,1,0,0
247881294,247880950,19482731,36.660603099999996,126.342033,13.303027,0.97038734,-41.647335,0.00075414986,0.0026697728,0.0,0.13027236,-0.11146609,-2.1832442,-2.1459043,0.11503945,-0.07196041,0.1729673,-0.8346125,-0.69227105,2.516621,0.7818096,-0.0021607112,13.964353,46.220753,0.31148782,0.39028272,0.13230559,0.10495417,inf,inf,inf,inf,1,1,1,1,2,0,2,1,3,0,1,1,0,0
248381420,248380997,19482731,36.660603099999996,126.342033,13.427904,0.9672633,-42.61126,0.00075414986,0.0026697728,0.0,0.054624088,-0.15662076,-1.7182243,-1.6851937,0.11503945,-0.07196041,0.1729673,0.7830283,1.385856,2.2165601,0.7805123,-0.0021607112,13.964353,47.184677,0.31949186,0.39305642,0.13562974,0.10648653,inf,inf,inf,inf,1,1,1,1,2,0,2,1,3,0,1,1,0,0
248881471,248881044,19482731,36.660603099999996,126.342033,13.521342,0.89636034,-43.356415,0.00075414986,0.0026697728,0.0,-0.04911939,-0.19996306,-1.2999736,-1.2733479,0.11503945,-0.07196041,0.1729673,0.115562625,-1.2439563,-0.53601503,0.78564215,-0.0021607112,13.964353,47.929832,0.3110221,0.38900918,0.13091479,0.104795374,inf,inf,inf,inf,1,1,1,1,2,0,2,1,3,0,1,1,0,0
249381469,249381091,19482731,36.660603099999996,126.342033,13.575581,0.7667033,-43.890083,0.00075414986,0.0026697728,0.0,-0.15018015,-0.18801022,-1.0122533,-0.9633046,0.11503945,-0.07196041,0.1729673,-0.33225885,0.5584634,-0.59932816,0.7966811,-0.0021607112,13.964353,48.4635,0.31891406,0.39169842,0.13526967,0.10630994,inf,inf,inf,inf,1,1,1,1,2,0,2,1,3,0,1,1,0,0
249881532,249881138,19482731,36.660603099999996,126.342033,13.533712,0.6534384,-44.331028,0.00075414986,0.0026697728,0.0,-0.22853392,-0.114669725,-0.7838953,-0.7495174,0.11503945,-0.07196041,0.1729673,-1.082587,-0.023789164,0.10302601,0.81315476,-0.0021607112,13.964353,48.904446,0.31042093,0.38998413,0.13143307,0.104861096,inf,inf,inf,inf,1,1,1,1,2,0,2,1,3,0,1,1,0,0
250381528,250381185,19482731,36.660603099999996,126.342033,13.445669,0.52087903,-44.66333,0.00075414986,0.0026697728,0.0,-0.2231103,-0.054311138,-0.5840907,-0.55697125,0.11503945,-0.07196041,0.1729673,-1.1639143,1.2232043,0.096783295,0.8318893,-0.0021607112,13.964353,49.236748,0.31859758,0.3926026,0.13622142,0.10638805,inf,inf,inf,inf,1,1,1,1,2,0,2,1,3,0,1,1,0,0
250881574,250881232,19482731,36.660603099999996,126.342033,13.335839,0.41130885,-44.895794,0.00075414986,0.0026697728,0.0,-0.17375061,0.052436214,-0.45058408,-0.40934327,0.11503945,-0.07196041,0.1729673,0.29421264,0.9126004,0.035660706,0.84961766,-0.0021607112,13.964353,49.46921,0.31030658,0.39087212,0.13252556,0.104939885,inf,inf,inf,inf,1,1,1,1,2,0,2,1,3,0,1,1,0,0
251381691,251381279,19482731,36.660603099999996,126.342033,13.197579,0.3416847,-45.054756,0.00075414986,0.0026697728,0.0,-0.35764402,-0.07665895,-0.31488088,-0.23961402,0.11503945,-0.07196041,0.1729673,-1.3292552,-2.0267935,0.4919115,0.87307596,-0.0021607112,13.964353,49.628174,0.31851304,0.39352265,0.13749346,0.10645282,inf,inf,inf,inf,1,1,1,1,2,0,2,1,3,0,1,1,0,0
251881673,251881327,19482731,36.660603099999996,126.342033,12.776327,0.13873571,-45.126152,0.00075414986,0.0026697728,0.0,-1.2143668,-0.40245944,-0.24176395,-0.15810029,0.11503945,-0.07196041,0.1729673,0.32665873,-0.97724336,-0.47308582,0.9111103,-0.0021607112,13.964353,49.69957,0.31030223,0.39173156,0.13434063,0.10495106,inf,inf,inf,inf,1,1,1,1,2,0,2,1,3,0,1,1,0,0
252381816,252381374,19482731,36.660603099999996,126.342033,12.320835,-0.2810167,-45.22594,0.00075414986,0.0026697728,0.0,-1.0147129,-0.38496932,-0.28605732,-0.20185842,0.11503945,-0.07196041,0.1729673,0.55021334,2.2999678,2.5985694,0.9536919,-0.0021607112,13.964353,49.79936,0.31876674,0.39184898,0.13918902,0.10619151,inf,inf,inf,inf,1,1,1,1,2,0,2,1,3,0,1,1,0,0
252881829,252881421,19482731,36.660603099999996,126.342033,12.022371,-0.6330636,-45.293972,0.00075414986,0.0026697728,0.0,-0.53959274,-0.1365667,-0.19958375,-0.10588566,0.11503945,-0.07196041,0.1729673,-0.16394281,1.7077317,1.2059553,0.9847576,-0.0021607112,13.964353,49.86739,0.31045532,0.39010036,0.13419905,0.10464825,inf,inf,inf,inf,1,1,1,1,2,0,2,1,3,0,1,1,0,0
253381811,253381469,19482731,36.660603099999996,126.342033,11.76963,-0.713616,-45.33832,0.00075414986,0.0026697728,0.0,0.31662592,0.23667572,-0.2646185,-0.17276978,0.11503945,-0.07196041,0.1729673,3.3362832,1.1789274,0.77459383,0.9823858,-0.0021607112,13.964353,49.91174,0.3189327,0.39268962,0.14038067,0.10609679,inf,inf,inf,inf,1,1,1,1,2,0,2,1,3,0,1,1,0,0
253881922,253881516,19482731,36.660603099999996,126.342033,11.951915,-0.45763722,-45.395813,0.00075414986,0.0026697728,0.0,1.69786,0.55414873,-0.15431944,-0.072696514,0.11503945,-0.07196041,0.1729673,3.8503592,0.93956196,0.48391154,0.9120527,-0.0021607112,13.964353,49.96923,0.31091234,0.39077124,0.1402273,0.10453559,inf,inf,inf,inf,1,1,1,1,2,0,2,1,3,0,1,1,0,0
254381886,254381564,19482731,36.660603099999996,126.342033,12.600676,0.29475906,-45.435936,0.00075414986,0.0026697728,0.0,2.5734677,0.3870831,-0.012896882,0.0714139,0.11503945,-0.07196041,0.1729673,-1.0869004,-2.7260158,1.5374439,0.78350633,-0.0021607112,13.964353,50.009354,0.3197542,0.39314875,0.14989847,0.106023625,inf,inf,inf,inf,1,1,1,1,2,0,2,1,3,0,1,1,0,0
254882012,254881612,19482731,36.660603099999996,126.342033,13.666456,0.90013385,-45.510414,0.00075414986,0.0026697728,0.0,3.0881772,-0.23573059,-0.172496,-0.12683544,0.11503945,-0.07196041,0.1729673,-2.519214,-1.5267227,-0.160494,0.75261647,-0.0021607112,13.964353,50.08383,0.32551062,0.39349174,0.16164623,0.10467067,inf,inf,inf,inf,1,1,1,1,2,0,2,1,3,0,1,1,0,0
255381959,255381659,19482731,36.660603099999996,126.342033,15.059012,0.9086624,-45.550964,0.00075414986,0.0026697728,0.0,2.7821858,-0.88388246,-0.16557232,-0.13131304,0.11503945,-0.07196041,0.1729673,-1.2912667,-1.1195565,-1.2119542,0.6673534,-0.0021607112,13.964353,50.124382,0.35533378,0.39567462,0.17902736,0.10600277,inf,inf,inf,inf,1,1,1,1,2,0,2,1,3,0,1,1,0,0
255882030,255881707,19482731,36.660603099999996,126.342033,16.292454,0.77614135,-45.6421,0.00075414986,0.0026697728,0.0,1.7903516,-1.1499106,-0.074006885,-0.07649932,0.11503945,-0.07196041,0.1729673,-2.386746,-1.6312199,-0.6150934,0.60336787,-0.0021607112,13.964353,50.21552,0.35586235,0.39105877,0.17234014,0.104179464,inf,inf,inf,inf,1,1,1,1,2,0,2,1,3,0,1,1,0,0
256382066,256381755,19482731,36.660603099999996,126.342033,17.580276,1.3354126,-45.749718,0.00075414986,0.0026697728,0.0,0.5954992,-0.6901878,0.0823211,0.017558275,0.11503945,-0.07196041,0.1729673,-4.2443557,0.29831204,0.8517042,0.57891107,-0.0021607112,13.964353,50.323135,0.35662726,0.39328948,0.16176505,0.10561813,inf,inf,inf,inf,1,1,1,1,2,0,2,1,3,0,1,1,0,0
256882098,256881802,19482731,36.660603099999996,126.342033,18.302977,1.4448034,-45.714317,0.00075414986,0.0026697728,0.0,-0.48590028,-0.552337,0.09813696,0.038525227,0.11503945,-0.07196041,0.1729673,-2.2501378,0.6033039,-1.3691194,0.4918363,-0.0021607112,13.964353,50.287735,0.33618897,0.3913122,0.14983854,0.10438804,inf,inf,inf,inf,1,1,1,1,2,0,2,1,3,0,1,1,0,0
257382143,257381850,19482731,36.660603099999996,126.342033,18.524015,0.8756636,-45.677532,0.00075414986,0.0026697728,0.0,-0.71271235,-0.8842905,0.13742042,0.080921285,0.11503945,-0.07196041,0.1729673,0.7288113,0.18384843,1.1581019,0.44262224,-0.0021607112,13.964353,50.25095,0.3402401,0.3936564,0.15167457,0.106124304,inf,inf,inf,inf,1,1,1,1,2,0,2,1,3,0,1,1,0,0
257882194,257881898,19482731,36.660603099999996,126.342033,18.671663,0.016951859,-45.715755,0.00075414986,0.0026697728,0.0,0.19611312,-0.7643957,0.03487391,-0.029154856,0.11503945,-0.07196041,0.1729673,0.8207031,2.2397556,1.2548283,0.41145515,-0.0021607112,13.964353,50.289173,0.3258923,0.3918047,0.13976692,0.10449503,inf,inf,inf,inf,1,1,1,1,2,0,2,1,3,0,1,1,0,0
258382344,258381946,19482731,36.660603099999996,126.342033,19.176432,-0.5282653,-45.67968,0.00075414986,0.0026697728,0.0,1.74181,0.016722206,0.008309443,-0.0045543644,0.11503945,-0.07196041,0.1729673,1.2772857,3.2750683,2.914356,0.41309887,-0.0021607112,13.964353,50.253098,0.33186063,0.3917777,0.14253487,0.1053211,inf,inf,inf,inf,1,1,1,1,2,0,2,1,3,0,1,1,0,0
258882293,258881994,19482731,36.660603099999996,126.342033,19.98549,-0.5152888,-45.59937,0.00075414986,0.0026697728,0.0,2.6132312,0.38402677,0.045813713,0.053024065,0.11503945,-0.07196041,0.1729673,1.5269439,-0.32112655,1.4738433,0.43159866,-0.0021607112,13.964353,50.172787,0.32030407,0.3899467,0.13884534,0.103931494,inf,inf,inf,inf,1,1,1,1,2,0,2,1,3,0,1,1,0,0
259382334,259382043,19482731,36.660603099999996,126.342033,20.809622,-0.07567323,-45.525192,0.00075414986,0.0026697728,0.0,2.1953542,0.67443943,0.0870328,0.11015431,0.11503945,-0.07196041,0.1729673,-0.3438066,-0.89953035,-0.972752,0.4757141,-0.0021607112,13.964353,50.09861,0.32743508,0.3924323,0.14218067,0.105589494,inf,inf,inf,inf,1,1,1,1,2,0,2,1,3,0,1,1,0,0
259882387,259882091,19482731,36.660603099999996,126.342033,21.507269,0.4974315,-45.466137,0.00075414986,0.0026697728,0.0,1.9814312,0.73309785,0.05136572,0.087111406,0.11503945,-0.07196041,0.1729673,0.007298814,-0.8623136,0.9345691,0.50498056,-0.0021607112,13.964353,50.039555,0.31774414,0.39071527,0.1364135,0.10432895,inf,inf,inf,inf,1,1,1,1,2,0,2,1,3,0,1,1,0,0
260382434,260382139,19482731,36.660603099999996,126.342033,22.255163,0.9406444,-45.448402,0.00075414986,0.0026697728,0.0,1.8881981,0.63794416,-0.038720928,0.0061611827,0.11503945,-0.07196041,0.1729673,-1.0767529,0.20405078,-1.1767868,0.49731976,-0.0021607112,13.964353,50.02182,0.32540932,0.3933267,0.14038135,0.10595532,inf,inf,inf,inf,1,1,1,1,2,0,2,1,3,0,1,1,0,0
260882494,260882188,19482731,36.660603099999996,126.342033,22.855564,1.3004901,-45.468353,0.00075414986,0.0026697728,0.0,0.88483405,0.74805015,-0.092841916,-0.055760175,0.11503945,-0.07196041,0.1729673,-4.428728,2.3290584,-0.38383967,0.5231441,-0.0021607112,13.964353,50.04177,0.31650925,0.3892392,0.13591635,0.104329616,inf,inf,inf,inf,1,1,1,1,2,0,2,1,3,0,1,1,0,0
261382532,261382236,19482731,36.660603099999996,126.342033,23.01145,1.5678638,-45.456284,0.00075414986,0.0026697728,0.0,-0.122503385,0.65822446,-0.01847028,-0.0074767615,0.11503945,-0.07196041,0.1729673,-3.0022502,0.4427815,-1.1731409,0.5671999,-0.0021607112,13.964353,50.0297,0.3244414,0.39189354,0.14246507,0.10587535,inf,inf,inf,inf,1,1,1,1,2,0,2,1,3,0,1,1,0,0
261882613,261882285,19482731,36.660603099999996,126.342033,22.951658,1.5348084,-45.485058,0.00075414986,0.0026697728,0.0,-0.15452105,0.2733577,-0.0757436,-0.0909058,0.11503945,-0.07196041,0.1729673,-0.3477142,-1.5266215,-2.107047,0.6219325,-0.0021607112,13.964353,50.058475,0.31601956,0.39025724,0.13690317,0.10456399,inf,inf,inf,inf,1,1,1,1,2,0,2,1,3,0,1,1,0,0
262382632,262382333,19482731,36.660603099999996,126.342033,22.885273,1.3776892,-45.496548,0.00075414986,0.0026697728,0.0,-0.25710893,0.1647136,0.07367504,0.055806853,0.11503945,-0.07196041,0.1729673,-1.712338,-0.36957818,-1.2188034,0.66537505,-0.0021607112,13.964353,50.069965,0.32422915,0.39291245,0.14013217,0.10614938,inf,inf,inf,inf,1,1,1,1,2,0,2,1,3,0,1,1,0,0
262882795,262882382,19482731,36.660603099999996,126.342033,22.815231,1.2230939,-45.498543,0.00075414986,0.0026697728,0.0,-0.18497284,0.110560425,0.056419536,0.055097044,0.11503945,-0.07196041,0.1729673,0.7523584,-1.3294165,-0.8638697,0.6936744,-0.0021607112,13.964353,50.07196,0.31581852,0.38881776,0.13492791,0.10449273,inf,inf,inf,inf,1,1,1,1,2,0,2,1,3,0,1,1,0,0
263382767,263382431,19482731,36.660603099999996,126.342033,22.744862,1.113505,-45.50848,0.00075414986,0.0026697728,0.0,-0.11035718,0.109390445,-0.016692536,-0.023491913,0.11503945,-0.07196041,0.1729673,0.14336842,1.1406657,2.2447932,0.7104631,-0.0021607112,13.964353,50.081898,0.32418808,0.39148542,0.1393472,0.10607677,inf,inf,inf,inf,1,1,1,1,2,0,2,1,3,0,1,1,0,0
263882862,263882480,19482731,36.660603099999996,126.342033,22.665958,1.0775211,-45.499653,0.00075414986,0.0026697728,0.0,0.09101394,0.3063585,0.1140494,0.09635056,0.11503945,-0.07196041,0.1729673,3.1541657,3.830062,3.9140847,0.72405,-0.0021607112,13.964353,50.07307,0.31596228,0.38982803,0.13435999,0.10470874,inf,inf,inf,inf,1,1,1,1,2,0,2,1,3,0,1,1,0,0
264382839,264382532,19482731,36.660603099999996,126.342033,23.006575,1.5998365,-45.61244,0.00075414986,0.0026697728,0.0,1.903452,2.1698816,0.09024209,-0.074144416,0.11503945,-0.07196041,0.1729673,6.23864,3.0516346,0.96534723,0.7604798,-0.0021607112,13.964353,50.185856,0.3242652,0.3924896,0.1456271,0.106769346,inf,inf,inf,inf,1,1,1,1,2,0,2,1,3,0,1,1,0,0
264883019,264882578,19482731,36.660603099999996,126.342033,23.832846,3.1899838,-45.85105,0.00075414986,0.0026697728,0.0,3.322614,3.8514435,-0.07353396,-0.35659114,0.11503945,-0.07196041,0.1729673,6.4322715,1.8091516,0.43724504,0.81071836,-0.0021607112,13.964353,50.42447,0.31582254,0.390814,0.15104559,0.106358245,inf,inf,inf,inf,1,1,1,1,2,0,2,1,3,0,1,1,0,0
265383054,265382627,19482731,36.660603099999996,126.342033,25.316618,5.676268,-46.08145,0.00075414986,0.0026697728,0.0,4.699362,5.11537,-0.3166683,-0.57696986,0.11503945,-0.07196041,0.1729673,3.656594,2.0294638,1.0272003,0.7504108,-0.0021607112,13.964353,50.65487,0.3413418,0.39111662,0.18662958,0.108968884,inf,inf,inf,inf,1,1,1,1,2,0,2,1,3,0,1,1,0,0
265873068,265872675,19482731,36.660603099999996,126.342033,27.795902,8.58384,-46.289333,0.00075414986,0.0026697728,0.0,6.398234,6.2149467,0.24094784,-0.06409649,0.11503945,-0.07196041,0.1729673,4.1907988,0.5786327,1.5533718,0.6708653,-0.0021607112,13.964353,50.86275,0.36229098,0.38889092,0.21515834,0.10850285,inf,inf,inf,inf,1,1,1,1,2,0,2,1,3,0,1,1,0,0
266383026,266382725,19482731,36.660603099999996,126.342033,31.143793,12.324772,-46.297195,0.00075414986,0.0026697728,0.0,8.252562,7.260846,0.507212,0.15253875,0.11503945,-0.07196041,0.1729673,-2.4265323,3.5893674,-9.237635,0.6644866,-0.0021607112,13.964353,50.870613,0.40817216,0.39244205,0.24563587,0.111844115,inf,inf,inf,inf,1,1,1,1,2,0,2,1,3,0,1,1,0,0
266883165,266882774,19482731,36.660603099999996,126.342033,34.90067,16.87805,-46.174835,0.00075414986,0.0026697728,0.0,9.724628,8.469211,0.3771119,0.074911505,0.11503945,-0.07196041,0.1729673,3.6104457,0.23754267,-5.8018665,0.64856297,-0.0021607112,13.964353,50.748253,0.4300531,0.39080295,0.25794676,0.110917196,inf,inf,inf,inf,1,1,1,1,2,0,2,1,3,0,1,1,0,0
267383124,267382824,19482731,36.660603099999996,126.342033,38.862083,22.641144,-46.255943,0.00075414986,0.0026697728,0.0,10.574511,9.944119,0.08147642,-0.22724758,0.11503945,-0.07196041,0.1729673,4.2168007,-0.28790194,6.710937,0.6772184,-0.0021607112,13.964353,50.82936,0.47415513,0.39140376,0.26986265,0.11264512,inf,inf,inf,inf,1,1,1,1,2,0,2,1,3,0,1,1,0,0
267883302,267882873,19482731,36.660603099999996,126.342033,42.91158,29.477148,-46.51829,0.00075414986,0.0026697728,0.0,10.898143,11.771805,-0.13357994,-0.49114743,0.11503945,-0.07196041,0.1729673,2.9797785,0.0998408,-3.1389885,0.7509105,-0.0021607112,13.964353,51.09171,0.47453338,0.38988632,0.25794914,0.11036006,inf,inf,inf,inf,1,1,1,1,2,0,2,1,3,0,1,1,0,0
268383224,268382923,19482731,36.660603099999996,126.342033,46.935413,37.39228,-46.961388,0.00075414986,0.0026697728,0.0,10.8851795,13.518307,-0.6934134,-1.077843,0.11503945,-0.07196041,0.1729673,0.76627374,2.411128,-0.21791425,0.76802117,-0.0021607112,13.964353,51.534805,0.50379264,0.39293322,0.25832704,0.111326866,inf,inf,inf,inf,1,1,1,1,2,0,2,1,3,0,1,1,0,0
268883281,268882972,19482731,36.660603099999996,126.342033,50.96861,45.96487,-47.59681,0.00075414986,0.0026697728,0.0,10.469424,14.634909,-0.94650316,-1.3674614,0.11503945,-0.07196041,0.1729673,-2.908904,-0.9144209,-1.854424,0.8068599,-0.0021607112,13.964353,52.170227,0.44341853,0.39122772,0.20864858,0.10799765,inf,inf,inf,inf,1,1,1,1,2,0,2,1,3,0,1,1,0,0
269373369,269373021,19482731,36.660603099999996,126.342033,53.97391,55.47997,-48.227028,0.00075414986,0.0026697728,0.0,8.576156,15.900347,-0.8236571,-1.1380264,0.11503945,-0.07196041,0.1729673,-2.0469015,2.837235,3.2437992,0.85198313,-0.0021607112,13.964353,52.800446,0.41319352,0.3908883,0.17548388,0.107014626,inf,inf,inf,inf,1,1,1,1,2,0,2,1,3,0,1,1,0,0
269883388,269883071,19482731,36.660603099999996,126.342033,57.118633,65.11378,-48.641876,0.00075414986,0.0026697728,0.0,4.544654,19.413113,-0.40689024,-0.8138562,0.11503945,-0.07196041,0.1729673,-15.4049015,6.3157706,-2.1984162,1.1524398,-0.0021607112,13.964353,53.215294,0.37206364,0.38992992,0.18614097,0.10560204,inf,inf,inf,inf,1,1,1,1,2,0,2,1,3,0,1,1,0,0
270383388,270383121,19482731,36.660603099999996,126.342033,58.118015,74.86794,-49.277008,0.00075414986,0.0026697728,0.0,-0.7371866,20.496593,-0.750092,-1.1664047,0.11503945,-0.07196041,0.1729673,-3.653352,0.24740309,3.686476,1.5216947,-0.0021607112,13.964353,53.850426,0.36876822,0.39240518,0.24003603,0.121164314,inf,inf,inf,inf,1,1,1,1,2,0,2,1,3,1,1,1,0,0
270883442,270883171,19482731,36.660603099999996,126.342033,57.56606,84.15005,-49.567398,0.00075414986,0.0026697728,0.0,-1.6415827,19.621056,0.6716969,0.21577355,0.11503945,-0.07196041,0.1729673,1.6588362,0.589856,5.326925,1.7899057,-0.0021607112,13.964353,54.140816,0.3464605,0.39065453,0.16318965,0.12078516,inf,inf,inf,inf,1,1,1,1,2,0,2,1,3,1,1,1,0,0
271383512,271383221,19482731,36.660603099999996,126.342033,56.746254,93.35402,-48.99948,0.00075414986,0.0026697728,0.0,-0.96819806,20.06785,1.8940837,1.5443541,0.11503945,-0.07196041,0.1729673,2.1802752,2.4807441,1.9004695,1.8150055,-0.0021607112,13.964353,53.5729,0.34775332,0.390984,0.2123033,0.107546315,inf,inf,inf,inf,1,1,1,1,2,0,2,1,3,1,1,1,0,0
271883570,271883271,19482731,36.660603099999996,126.342033,56.23026,102.62832,-47.972202,0.00075414986,0.0026697728,0.0,0.044069394,19.543388,2.0977821,1.8855032,0.11503945,-0.07196041,0.1729673,2.6569338,-0.11874406,-3.394072,1.3484464,-0.0021607112,13.964353,52.54562,0.3330433,0.38926685,0.22684073,0.10626888,inf,inf,inf,inf,1,1,1,1,2,0,2,1,3,1,1,1,0,0
272373618,272373319,19482731,36.660603099999996,126.342033,56.524307,111.58267,-47.11023,0.00075414986,0.0026697728,0.0,1.6084645,18.86147,1.3299522,1.2415615,0.11503945,-0.07196041,0.1729673,3.330494,-0.18306652,-2.0336125,1.216544,-0.0021607112,13.964353,51.683647,0.33800063,0.39115316,0.24743286,0.10694904,inf,inf,inf,inf,1,1,1,1,2,0,2,1,3,1,1,1,0,0
272873775,272873369,19482731,36.660603099999996,126.342033,57.71942,121.06847,-46.38824,0.00075414986,0.0026697728,0.0,2.7398522,19.012081,1.2779742,1.2443229,0.11503945,-0.07196041,0.1729673,1.3696997,1.1458433,-0.9254537,1.2420217,-0.0021607112,13.964353,50.96166,0.325852,0.3894931,0.19189839,0.10417103,inf,inf,inf,inf,1,1,1,1,2,0,2,1,3,1,1,1,0,0
273373714,273373419,19482731,36.660603099999996,126.342033,59.56012,130.86107,-45.764603,0.00075414986,0.0026697728,0.0,3.5078294,19.281328,1.2126709,1.1915201,0.11503945,-0.07196041,0.1729673,0.6538353,1.0241714,-0.47950894,1.2691509,-0.0021607112,13.964353,50.33802,0.3332687,0.38961852,0.18464015,0.10534285,inf,inf,inf,inf,1,1,1,1,2,0,2,1,3,1,1,1,0,0
273883808,273883470,19482731,36.660603099999996,126.342033,61.84059,140.86021,-45.222534,0.00075414986,0.0026697728,0.0,4.083708,19.449604,0.9250055,0.9233876,0.11503945,-0.07196041,0.1729673,0.5625289,0.042689737,-1.8037424,1.2879168,-0.0021607112,13.964353,49.79595,0.32393658,0.38872817,0.16324833,0.1041563,inf,inf,inf,inf,1,1,1,1,2,0,2,1,3,1,1,1,0,0
274383791,274383519,19482731,36.660603099999996,126.342033,64.33238,150.68509,-44.88098,0.00075414986,0.0026697728,0.0,4.4487386,19.587917,0.56055415,0.56606716,0.11503945,-0.07196041,0.1729673,0.29171765,-0.22169954,-0.42783505,1.3117191,-0.0021607112,13.964353,49.4544,0.3319784,0.39137036,0.16084842,0.105766356,inf,inf,inf,inf,1,1,1,1,2,0,2,1,3,1,1,1,0,0
274883834,274883569,19482731,36.660603099999996,126.342033,66.92239,160.51573,-44.711987,0.00075414986,0.0026697728,0.0,4.613308,19.65687,0.43796214,0.37371275,0.11503945,-0.07196041,0.1729673,-1.6129439,-0.19191866,-1.9558082,1.3585563,-0.0021607112,13.964353,49.285404,0.3222393,0.38987362,0.1474374,0.10447011,inf,inf,inf,inf,1,1,1,1,2,0,2,1,3,1,1,1,0,0
275383923,275383619,19482731,36.660603099999996,126.342033,69.518654,170.27112,-44.705894,0.00075414986,0.0026697728,0.0,4.9250507,19.4435,0.05755845,-0.020360867,0.11503945,-0.07196041,0.1729673,0.6755734,0.019584676,0.84276825,1.3965214,-0.0021607112,13.964353,49.279312,0.33021098,0.3902228,0.15184957,0.105865315,inf,inf,inf,inf,1,1,1,1,2,0,2,1,3,1,1,1,0,0
275883956,275883668,19482731,36.660603099999996,126.342033,72.685326,179.90218,-44.54269,0.00075414986,0.0026697728,0.0,7.41053,18.899115,1.0457631,0.9461689,0.11503945,-0.07196041,0.1729673,8.566913,-2.5573907,1.9658935,1.2694571,-0.0021607112,13.964353,49.116108,0.32068774,0.38876384,0.15322971,0.10440513,inf,inf,inf,inf,1,1,1,1,2,0,2,1,3,1,1,1,0,0
276374026,276373717,19482731,36.660603099999996,126.342033,77.77464,188.31859,-44.27703,0.00075414986,0.0026697728,0.0,14.199762,14.899616,-0.12132309,-0.21223785,0.11503945,-0.07196041,0.1729673,14.185653,-14.182291,-1.2762092,0.77857316,-0.0021607112,13.964353,48.85045,0.32907873,0.39067826,0.25444138,0.10920189,inf,inf,inf,inf,1,1,1,1,2,0,2,1,3,1,1,1,0,0
276874033,276873766,19482731,36.660603099999996,126.342033,85.75999,193.80957,-44.689625,0.00075414986,0.0026697728,0.0,18.85596,6.765934,-1.3880143,-1.4211829,0.11503945,-0.07196041,0.1729673,7.1616273,-19.27156,-3.5121741,0.27129358,-0.0021607112,13.964353,49.263042,0.3193816,0.388978,0.22431253,0.1149199,inf,inf,inf,inf,1,1,1,1,2,0,2,1,3,1,1,1,0,0
277374074,277373816,19482731,36.660603099999996,126.342033,95.256485,195.04395,-45.50807,0.00075414986,0.0026697728,0.0,19.611525,-2.167772,-1.7119004,-1.7416284,0.11503945,-0.07196041,0.1729673,-1.9018036,-16.903027,-0.4469406,-0.17776391,-0.0021607112,13.964353,50.08149,0.33075252,0.39191756,0.22595611,0.12866831,inf,inf,inf,inf,1,1,1,1,2,0,2,1,3,1,1,1,0,0
277884153,277883866,19482731,36.660603099999996,126.342033,104.40378,192.08134,-46.43026,0.00075414986,0.0026697728,0.0,16.64882,-10.179289,-1.5164481,-1.6157863,0.11503945,-0.07196041,0.1729673,-8.977494,-14.425371,0.5238,-0.62580603,-0.0021607112,13.964353,51.003677,0.3235244,0.3892122,0.18934627,0.13146569,inf,inf,inf,inf,1,1,1,1,2,0,2,1,3,1,1,1,0,0
278384179,278383916,19482731,36.660603099999996,126.342033,111.33489,185.70122,-47.33514,0.00075414986,0.0026697728,0.0,10.849367,-16.299934,-1.1408931,-1.3888971,0.11503945,-0.07196041,0.1729673,-13.709996,-10.072598,1.2546996,-1.0228834,-0.0021607112,13.964353,51.908558,0.33361062,0.39212087,0.18648493,0.14109287,inf,inf,inf,inf,1,1,1,1,2,0,2,1,3,1,1,1,0,0
278884231,278883965,19482731,36.660603099999996,126.342033,114.98045,176.95302,-48.16547,0.00075414986,0.0026697728,0.0,3.737993,-19.608139,-0.6397282,-1.0832232,0.11503945,-0.07196041,0.1729673,-12.674476,-5.592787,-0.7320028,-1.3851032,-0.0021607112,13.964353,52.738888,0.32561198,0.39008385,0.16621676,0.13831207,inf,inf,inf,inf,1,1,1,1,2,0,2,1,3,1,1,1,0,0
279384314,279384014,19482731,36.660603099999996,126.342033,114.96059,167.25633,-48.6542,0.00075414986,0.0026697728,0.0,-3.4637659,-20.203924,0.29792827,-0.21270823,0.11503945,-0.07196041,0.1729673,-12.850281,-0.85532737,2.51849,-1.760466,-0.0021607112,13.964353,53.22762,0.33722627,0.39186227,0.17154156,0.14627296,inf,inf,inf,inf,1,1,1,1,2,0,2,1,3,1,1,1,0,0
279874362,279874063,19482731,36.660603099999996,126.342033,112.07896,157.84743,-48.442307,0.00075414986,0.0026697728,0.0,-7.0810776,-19.413177,2.2096689,1.6624943,0.11503945,-0.07196041,0.1729673,-2.0126338,0.4895387,5.4030795,-1.855141,-0.0021607112,13.964353,53.015724,0.3322562,0.39164037,0.15594217,0.13736656,inf,inf,inf,inf,1,1,1,1,2,0,2,1,3,1,1,1,0,0
280374378,280374112,19482731,36.660603099999996,126.342033,108.11684,148.69044,-47.29928,0.00075414986,0.0026697728,0.0,-7.504691,-19.322678,3.2448125,2.642463,0.11503945,-0.07196041,0.1729673,1.9956441,-1.4423331,-0.9867407,-1.8627448,-0.0021607112,13.964353,51.872696,0.3415363,0.39484277,0.14589643,0.12789738,inf,inf,inf,inf,1,1,1,1,2,0,2,1,3,1,1,1,0,0
280874420,280874160,19482731,36.660603099999996,126.342033,104.49474,139.24727,-45.934853,0.00075414986,0.0026697728,0.0,-5.151233,-19.975794,2.5501647,2.1111698,0.11503945,-0.07196041,0.1729673,9.849615,-1.656671,-2.325562,-1.6780837,-0.0021607112,13.964353,50.50827,0.3338345,0.3930021,0.1335766,0.11209147,inf,inf,inf,inf,1,1,1,1,2,0,2,1,3,1,1,1,0,0
281374550,281374209,19482731,36.660603099999996,126.342033,102.580765,129.37625,-44.98335,0.00075414986,0.0026697728,0.0,-1.0167577,-19.910654,1.1642642,1.008946,0.11503945,-0.07196041,0.1729673,4.1390386,1.2406375,-1.5540129,-1.3881742,-0.0021607112,13.964353,49.556767,0.34151977,0.39208096,0.14551787,0.103553034,inf,inf,inf,inf,1,1,1,1,2,0,2,1,3,1,1,1,0,0
281884523,281884259,19482731,36.660603099999996,126.342033,102.54704,118.9628,-44.34068,0.00075414986,0.0026697728,0.0,1.9523484,-19.277414,0.5827864,0.626309,0.11503945,-0.07196041,0.1729673,5.8677115,2.4351673,-0.97912693,-1.2795653,-0.0021607112,13.964353,48.914097,0.33416796,0.38987347,0.15055422,0.100067385,inf,inf,inf,inf,1,1,1,1,2,0,2,1,3,1,1,1,0,0
282384571,282384308,19482731,36.660603099999996,126.342033,104.20286,108.860435,-43.99464,0.00075414986,0.0026697728,0.0,4.7281423,-18.555075,0.41497397,0.49894184,0.11503945,-0.07196041,0.1729673,6.1780024,3.594218,-0.46643135,-1.1039488,-0.0021607112,13.964353,48.568058,0.3420073,0.39070407,0.16165058,0.10187032,inf,inf,inf,inf,1,1,1,1,2,0,2,1,3,1,1,1,0,0
282884707,282884356,19482731,36.660603099999996,126.342033,107.425095,99.20068,-43.90893,0.00075414986,0.0026697728,0.0,7.495674,-17.418854,-0.18544066,-0.114911534,0.11503945,-0.07196041,0.1729673,4.4009595,4.283488,0.12135794,-0.96815276,-0.0021607112,13.964353,48.48235,0.33392382,0.385882,0.15849537,0.10210341,inf,inf,inf,inf,1,1,1,1,2,0,2,1,3,1,1,1,0,0
283374755,283374404,19482731,36.660603099999996,126.342033,111.85905,90.03796,-43.82584,0.00075414986,0.0026697728,0.0,9.266647,-16.760645,0.16025475,0.2058435,0.11503945,-0.07196041,0.1729673,4.130607,3.2034624,0.7283698,-0.90468234,-0.0021607112,13.964353,48.399258,0.34174427,0.38662195,0.15979433,0.10458948,inf,inf,inf,inf,1,1,1,1,2,0,2,1,3,1,1,1,0,0
283874731,283874452,19482731,36.660603099999996,126.342033,117.221664,81.25792,-43.613907,0.00075414986,0.0026697728,0.0,10.673923,-16.155033,0.41733992,0.44687974,0.11503945,-0.07196041,0.1729673,2.6243732,2.69453,-2.918226,-0.8072155,-0.0021607112,13.964353,48.187325,0.33445248,0.3849375,0.14870103,0.10393745,inf,inf,inf,inf,1,1,1,1,2,0,2,1,3,1,1,1,0,0
284374896,284374500,19482731,36.660603099999996,126.342033,123.25657,72.97862,-43.373684,0.00075414986,0.0026697728,0.0,11.720114,-15.489078,0.20863867,0.3088243,0.11503945,-0.07196041,0.1729673,-0.9965841,0.82998943,-1.6370184,-0.7575698,-0.0021607112,13.964353,47.9471,0.34326565,0.38698053,0.15159293,0.10621052,inf,inf,inf,inf,1,1,1,1,2,0,2,1,3,1,1,1,0,0
284874975,284874549,19482731,36.660603099999996,126.342033,129.59723,65.13468,-43.203564,0.00075414986,0.0026697728,0.0,12.176544,-15.177817,0.26963553,0.38619888,0.11503945,-0.07196041,0.1729673,1.0983568,1.7701851,-2.3543859,-0.72865146,-0.0021607112,13.964353,47.77698,0.33568835,0.38564917,0.14199632,0.10477596,inf,inf,inf,inf,1,1,1,1,2,0,2,1,3,1,1,1,0,0
285385075,285384597,19482731,36.660603099999996,126.342033,136.16179,57.44493,-43.139557,0.00075414986,0.0026697728,0.0,12.395963,-14.930652,0.056681473,0.11434949,0.11503945,-0.07196041,0.1729673,-1.5935708,-1.4675816,1.3905593,-0.7000747,-0.0021607112,13.964353,47.712975,0.34498966,0.38638195,0.1454612,0.106311284,inf,inf,inf,inf,1,1,1,1,2,0,2,1,3,1,1,1,0,0
285884905,285884645,19482731,36.660603099999996,126.342033,142.5943,50.02486,-43.06296,0.00075414986,0.0026697728,0.0,12.405868,-14.952526,0.35829964,0.37500086,0.11503945,-0.07196041,0.1729673,0.37808475,0.8632941,-0.6045843,-0.68991417,-0.0021607112,13.964353,47.63638,0.33725804,0.38521394,0.13836089,0.1047998,inf,inf,inf,inf,1,1,1,1,2,0,2,1,3,1,1,1,0,0
286385080,286384693,19482731,36.660603099999996,126.342033,148.937,42.71518,-42.94742,0.00075414986,0.0026697728,0.0,12.486538,-14.888505,0.31562692,0.32357684,0.11503945,-0.07196041,0.1729673,0.59585375,-0.43318143,1.5461172,-0.71845764,-0.0021607112,13.964353,47.520836,0.34541652,0.38793322,0.14286941,0.10643281,inf,inf,inf,inf,1,1,1,1,2,0,2,1,3,1,1,1,0,0
286875011,286874740,19482731,36.660603099999996,126.342033,155.0823,35.562023,-42.979847,0.00075414986,0.0026697728,0.0,12.281662,-15.053281,0.20548028,0.10989815,0.11503945,-0.07196041,0.1729673,-0.5168809,-0.64219934,0.9918312,-0.7411911,-0.0021607112,13.964353,47.553265,0.33665276,0.38613573,0.13837864,0.10481904,inf,inf,inf,inf,1,1,1,1,2,0,2,1,3,1,1,1,0,0
287375095,287374787,19482731,36.660603099999996,126.342033,161.25372,28.262405,-42.938423,0.00075414986,0.0026697728,0.0,12.259933,-15.089163,0.053236693,-0.01142454,0.11503945,-0.07196041,0.1729673,1.508684,0.9233764,1.4109681,-0.72090596,-0.0021607112,13.964353,47.51184,0.34458688,0.38897455,0.14378639,0.1064818,inf,inf,inf,inf,1,1,1,1,2,0,2,1,3,1,1,1,0,0
287875269,287874835,19482731,36.660603099999996,126.342033,167.37747,20.937487,-42.83146,0.00075414986,0.0026697728,0.0,12.29438,-15.092379,0.1888028,0.14963815,0.11503945,-0.07196041,0.1729673,-2.175615,-1.566826,0.70695,-0.7417184,-0.0021607112,13.964353,47.404877,0.33638826,0.3854423,0.13827462,0.10493218,inf,inf,inf,inf,1,1,1,1,2,0,2,1,3,1,1,1,0,0
288375163,288374882,19482731,36.660603099999996,126.342033,173.49937,13.561374,-42.721462,0.00075414986,0.0026697728,0.0,12.306087,-15.138644,0.10587387,0.07006981,0.11503945,-0.07196041,0.1729673,-0.25846386,-0.1108838,0.6931653,-0.74823874,-0.0021607112,13.964353,47.29488,0.34428042,0.3883719,0.14335784,0.1065969,inf,inf,inf,inf,1,1,1,1,2,0,2,1,3,1,1,1,0,0
288875199,288874929,19482731,36.660603099999996,126.342033,179.5558,6.1827803,-42.685272,0.00075414986,0.0026697728,0.0,12.326894,-15.166596,-0.07827378,-0.11269511,0.11503945,-0.07196041,0.1729673,-1.3843977,-0.941919,-0.7825254,-0.7389185,-0.0021607112,13.964353,47.25869,0.33588588,0.38720027,0.13869862,0.10519725,inf,inf,inf,inf,1,1,1,1,2,0,2,1,3,1,1,1,0,0
289385332,289384977,19482731,36.660603099999996,126.342033,185.76068,-1.4169143,-42.673893,0.00075414986,0.0026697728,0.0,12.386853,-15.1681595,0.041030318,-0.0021217994,0.11503945,-0.07196041,0.1729673,-0.5058575,-0.8788161,-0.195857,-0.74107414,-0.0021607112,13.964353,47.24731,0.344652,0.39087442,0.14329457,0.10701379,inf,inf,inf,inf,1,1,1,1,2,0,2,1,3,1,1,1,0,0
289885311,289885024,19482731,36.660603099999996,126.342033,191.81216,-8.823625,-42.664494,0.00075414986,0.0026697728,0.0,12.317783,-15.121004,0.022093737,-0.0512662,0.11503945,-0.07196041,0.1729673,-0.12655579,0.5996124,-2.7488275,-0.7469643,-0.0021607112,13.964353,47.23791,0.33629197,0.3872182,0.13829745,0.1053209,inf,inf,inf,inf,1,1,1,1,2,0,2,1,3,1,1,1,0,0
290375371,290375070,19482731,36.660603099999996,126.342033,197.75957,-16.101925,-42.707615,0.00075414986,0.0026697728,0.0,12.414706,-14.871302,-0.1220308,-0.16220629,0.11503945,-0.07196041,0.1729673,-1.2057201,0.47955006,-1.6081003,-0.70497835,-0.0021607112,13.964353,47.281033,0.34341654,0.3895043,0.14287816,0.10664271,inf,inf,inf,inf,1,1,1,1,2,0,2,1,3,1,1,1,0,0
290875404,290875116,19482731,36.660603099999996,126.342033,203.87772,-23.2709,-42.838863,0.00075414986,0.0026697728,0.0,12.666661,-14.294214,0.20015056,0.15607029,0.11503945,-0.07196041,0.1729673,2.339496,1.6719333,1.9007992,-0.6545808,-0.0021607112,13.964353,47.41228,0.33521277,0.38817382,0.13737753,0.10515727,inf,inf,inf,inf,1,1,1,1,2,0,2,1,3,1,1,1,0,0
291375419,291375163,19482731,36.660603099999996,126.342033,210.19522,-30.206944,-42.99431,0.00075414986,0.0026697728,0.0,12.919272,-13.678271,-0.10468082,-0.17898205,0.11503945,-0.07196041,0.1729673,0.66570044,1.5243316,0.1389343,-0.60828173,-0.0021607112,13.964353,47.567726,0.3433218,0.39116064,0.14258733,0.10672007,inf,inf,inf,inf,1,1,1,1,2,0,2,1,3,1,1,1,0,0
291875494,291875209,19482731,36.660603099999996,126.342033,216.65549,-36.904938,-43.109783,0.00075414986,0.0026697728,0.0,13.125832,-13.169884,0.052338395,-0.04472182,0.11503945,-0.07196041,0.1729673,0.80196935,0.75538814,1.400857,-0.5408217,-0.0021607112,13.964353,47.6832,0.3349808,0.38741255,0.13722119,0.10501488,inf,inf,inf,inf,1,1,1,1,2,0,2,1,3,1,1,1,0,0
292375538,292375257,19482731,36.660603099999996,126.342033,223.2349,-43.358246,-43.27128,0.00075414986,0.0026697728,0.0,13.371366,-12.746386,-0.025162756,-0.17664756,0.11503945,-0.07196041,0.1729673,1.6556736,1.864096,2.7306502,-0.52319825,-0.0021607112,13.964353,47.844696,0.34302512,0.3903391,0.14236596,0.106584445,inf,inf,inf,inf,1,1,1,1,2,0,2,1,3,1,1,1,0,0
292875569,292875302,19482731,36.660603099999996,126.342033,229.92543,-49.655914,-43.307217,0.00075414986,0.0026697728,0.0,13.570221,-12.574776,0.033100683,-0.13402668,0.11503945,-0.07196041,0.1729673,0.34262452,1.1829835,-0.9769455,-0.5404851,-0.0021607112,13.964353,47.880634,0.33450708,0.3889153,0.13667189,0.10508355,inf,inf,inf,inf,1,1,1,1,2,0,2,1,3,1,1,1,0,0
293385661,293385348,19482731,36.660603099999996,126.342033,236.8314,-56.04686,-43.24357,0.00075414986,0.0026697728,0.0,13.703914,-12.549945,-0.21168493,-0.2807705,0.11503945,-0.07196041,0.1729673,0.044770513,0.6928806,-1.7174194,-0.5416515,-0.0021607112,13.964353,47.816986,0.34331453,0.39250278,0.14239085,0.10678809,inf,inf,inf,inf,1,1,1,1,2,0,2,1,3,1,1,1,0,0
293875664,293875393,19482731,36.660603099999996,126.342033,243.50485,-62.17191,-43.289516,0.00075414986,0.0026697728,0.0,13.741042,-12.593954,-0.453453,-0.46563736,0.11503945,-0.07196041,0.1729673,1.5953578,0.2220674,0.074304275,-0.528932,-0.0021607112,13.964353,47.862934,0.33413947,0.39032382,0.13782616,0.105084956,inf,inf,inf,inf,1,1,1,1,2,0,2,1,3,1,1,1,0,0
294375778,294375439,19482731,36.660603099999996,126.342033,250.36246,-68.44333,-43.464046,0.00075414986,0.0026697728,0.0,13.781915,-12.463559,-0.6275988,-0.602333,0.11503945,-0.07196041,0.1729673,0.78331125,1.3942095,-1.8712987,-0.53952765,-0.0021607112,13.964353,48.037464,0.342196,0.3907243,0.14306372,0.10633375,inf,inf,inf,inf,1,1,1,1,2,0,2,1,3,1,1,1,0,0
294875750,294875484,19482731,36.660603099999996,126.342033,257.1816,-74.62913,-43.75074,0.00075414986,0.0026697728,0.0,13.711552,-12.547164,-0.14562958,-0.12925388,0.11503945,-0.07196041,0.1729673,0.32795396,-0.6696465,3.5474,-0.5575515,-0.0021607112,13.964353,48.324158,0.3337827,0.38921392,0.13700882,0.104839824,inf,inf,inf,inf,1,1,1,1,2,0,2,1,3,1,1,1,0,0
295375790,295375530,19482731,36.660603099999996,126.342033,264.00195,-80.881676,-43.86549,0.00075414986,0.0026697728,0.0,13.647959,-12.572567,0.08790511,0.022620821,0.11503945,-0.07196041,0.1729673,-0.88110703,-1.6377995,1.0491666,-0.5250302,-0.0021607112,13.964353,48.438908,0.34187394,0.3920284,0.1402276,0.10636307,inf,inf,inf,inf,1,1,1,1,2,0,2,1,3,1,1,1,0,0
295875834,295875575,19482731,36.660603099999996,126.342033,270.75882,-87.13396,-43.904934,0.00075414986,0.0026697728,0.0,13.641937,-12.553189,0.20529011,0.11630859,0.11503945,-0.07196041,0.1729673,0.488806,-0.41092712,1.8445845,-0.51385665,-0.0021607112,13.964353,48.47835,0.33376235,0.39049715,0.13588777,0.10495401,inf,inf,inf,inf,1,1,1,1,2,0,2,1,3,1,1,1,0,0
296375932,296375620,19482731,36.660603099999996,126.342033,277.5004,-93.34179,-43.755352,0.00075414986,0.0026697728,0.0,13.709896,-12.456569,-0.064311355,-0.03460949,0.11503945,-0.07196041,0.1729673,1.9221736,0.41784713,1.9202577,-0.5098053,-0.0021607112,13.964353,48.32877,0.34183568,0.3908759,0.1412477,0.10624054,inf,inf,inf,inf,1,1,1,1,2,0,2,1,3,1,1,1,0,0
296875933,296875665,19482731,36.660603099999996,126.342033,284.2443,-99.57426,-43.67879,0.00075414986,0.0026697728,0.0,13.649582,-12.4749975,-0.31967178,-0.20219992,0.11503945,-0.07196041,0.1729673,-1.2496628,-1.8705543,-0.13479853,-0.52684367,-0.0021607112,13.964353,48.25221,0.3334092,0.38933656,0.13696572,0.10479131,inf,inf,inf,inf,1,1,1,1,2,0,2,1,3,1,1,1,0,0
297376021,297375710,19482731,36.660603099999996,126.342033,290.9487,-105.78427,-43.858128,0.00075414986,0.0026697728,0.0,13.623453,-12.497658,-0.49454725,-0.43931273,0.11503945,-0.07196041,0.1729673,-0.40387928,-0.8788009,0.6905648,-0.519945,-0.0021607112,13.964353,48.431545,0.34159607,0.39213753,0.14204401,0.106339954,inf,inf,inf,inf,1,1,1,1,2,0,2,1,3,1,1,1,0,0
297876043,297875755,19482731,36.660603099999996,126.342033,297.69446,-112.01003,-43.92594,0.00075414986,0.0026697728,0.0,13.649502,-12.381765,-0.12512821,-0.03826385,0.11503945,-0.07196041,0.1729673,-0.6804926,-1.1258582,-0.047920074,-0.5111085,-0.0021607112,13.964353,48.49936,0.33321282,0.3905924,0.1358695,0.10490791,inf,inf,inf,inf,1,1,1,1,2,0,2,1,3,1,1,1,0,0
298376086,298375800,19482731,36.660603099999996,126.342033,304.43835,-118.19981,-44.030655,0.00075414986,0.0026697728,0.0,13.586361,-12.317981,-0.05901528,-0.0120462505,0.11503945,-0.07196041,0.1729673,0.41598278,-0.32158548,2.6442797,-0.5132683,-0.0021607112,13.964353,48.604073,0.34123585,0.39094812,0.1402747,0.10619737,inf,inf,inf,inf,1,1,1,1,2,0,2,1,3,1,1,1,0,0
298876124,298875845,19482731,36.660603099999996,126.342033,311.14542,-124.332375,-44.094322,0.00075414986,0.0026697728,0.0,13.512688,-12.275181,0.019642761,0.032746024,0.11503945,-0.07196041,0.1729673,0.77863663,1.4438008,-1.7966259,-0.52594364,-0.0021607112,13.964353,48.66774,0.33270067,0.38939714,0.1355599,0.10475912,inf,inf,inf,inf,1,1,1,1,2,0,2,1,3,1,1,1,0,0
299376166,299375889,19482731,36.660603099999996,126.342033,317.8817,-130.44244,-44.285347,0.00075414986,0.0026697728,0.0,13.4571705,-12.25224,-0.12584779,-0.18214712,0.11503945,-0.07196041,0.1729673,-1.4573284,-1.3274028,1.4597332,-0.5343532,-0.0021607112,13.964353,48.858765,0.34061083,0.3921923,0.14048666,0.106306955,inf,inf,inf,inf,1,1,1,1,2,0,2,1,3,1,1,1,0,0
