timestamp,timestamp_sample,baro_device_id,baro_alt_meter,baro_temp_celcius,baro_pressure_pa,rho,calibration_count
217459040,217436756,4028193,10.495293,40.239998,101199.0,1.1533802,0
217502333,217487289,4028193,10.384316,40.239998,101200.336,1.1533953,0
217621572,217602861,4028193,10.495293,40.239998,101199.0,1.1533802,0
217853749,217820094,4028193,10.545497,40.25,101198.4,1.1533732,0
217994318,217979226,4028193,10.495293,40.25,101199.0,1.1533802,0
218225134,218202872,4028193,10.474155,40.26,101199.25,1.1533829,0
218442156,218419702,4028193,10.28655,40.265,101201.5,1.1534085,0
218585998,218585308,4028193,10.410739,40.27,101200.0,1.1533915,0
218803223,218797214,4028193,10.53757,40.27,101198.5,1.1533744,0
219020787,219020177,4028193,10.495293,40.28,101199.0,1.1533802,0
219237111,219236502,4028193,10.410739,40.28,101200.0,1.1533915,0
219453592,219452915,4028193,10.743671,40.29,101196.0,1.1533458,0
219658992,219618767,4028193,10.439805,40.295002,101199.664,1.1533877,0
219781148,219780539,4028193,10.91278,40.3,101194.0,1.153323,0
220001968,220001343,4028193,10.495293,40.3,101199.0,1.1533802,0
220218348,220217740,4028193,10.743671,40.309998,101196.0,1.1533458,0
220434425,220433815,4028193,10.495293,40.32,101199.0,1.1533802,0
220628693,220606476,4028193,10.53757,40.3,101198.5,1.1533744,0
220827280,220807735,4028193,10.579848,40.3125,101198.0,1.1533687,0
221043727,221016123,4028193,10.64062,40.32,101197.25,1.1533601,0
221206373,221187761,4028193,10.743671,40.329998,101196.0,1.1533458,0
221433009,221414398,4028193,10.466228,40.329998,101199.336,1.1533839,0
221649614,221630933,4028193,10.632694,40.34,101197.336,1.1533611,0
221822674,221789589,4028193,10.762167,40.346,101195.8,1.1533436,0
222038804,222005697,4028193,10.611555,40.35,101197.6,1.1533641,0
222244143,222225526,4028193,11.05018,40.34,101192.336,1.1533041,0
222460476,222441791,4028193,10.466228,40.353333,101199.336,1.1533839,0
222630000,222603434,4028193,10.595701,40.36,101197.8,1.1533663,0
222782280,222770847,4028193,10.619483,40.37,101197.5,1.153363,0
222998576,222987168,4028193,11.412179,40.37,101188.0,1.1532546,0
223214745,223203267,4028193,11.620921,40.379997,101185.5,1.1532263,0
223430822,223419412,4028193,10.743671,40.379997,101196.0,1.1533458,0
223647279,223635817,4028193,11.079246,40.39,101192.0,1.1529317,0
223819812,223794095,4028193,11.356689,40.37,101188.664,1.1528937,0
224036162,224013908,4028193,11.327623,40.379997,101189.0,1.1528975,0
224252312,224230051,4028193,10.891641,40.394997,101194.25,1.1529573,0
224414499,224395891,4028193,11.412179,40.399998,101188.0,1.152886,0
224630659,224611996,4028193,11.607709,40.41,101185.664,1.1528594,0
224846930,224828322,4028193,11.634132,40.41,101185.336,1.1528558,0
225008758,224990120,4028193,10.965627,40.399998,101193.336,1.1529468,0
225214075,225198953,4028193,11.301201,40.399998,101189.336,1.1529013,0
225429930,225418509,4028193,11.7451105,40.41,101184.0,1.1528405,0
225646618,225635122,4028193,11.911576,40.425,101182.0,1.1528177,0
225830421,225793810,4028193,12.022554,40.425,101180.664,1.1528025,0
226057289,226013286,4028193,12.0067005,40.427143,101180.86,1.1528047,0
226176165,226175556,4028193,11.829664,40.44,101183.0,1.1528292,0
226392291,226391682,4028193,12.24451,40.44,101178.0,1.1527722,0
226608556,226607920,4028193,12.49553,40.45,101175.0,1.1527379,0
226824463,226823854,4028193,11.660556,40.44,101185.0,1.1528519,0
227040853,227040244,4028193,13.496968,40.45,101163.0,1.1526012,0
227257341,227256733,4028193,13.9963665,40.46,101157.0,1.1525328,0
227462618,227422399,4028193,13.216883,40.459995,101166.336,1.1526393,0
227660569,227638335,4028193,13.288225,40.46,101165.5,1.1526297,0
227823424,227804773,4028193,13.552458,40.469997,101162.336,1.1525936,0
228040734,228022126,4028193,13.829901,40.48,101159.0,1.1525556,0
228191392,228190783,4028193,14.329299,40.45,101153.0,1.1524874,0
228407670,228407059,4028193,14.828697,40.48,101147.0,1.152419,0
228637813,228637204,4028193,15.412649,40.469997,101140.0,1.1523392,0
228846544,228813476,4028193,15.108783,40.48,101143.664,1.152381,0
228990591,228989983,4028193,14.413854,40.48,101152.0,1.1524758,0
229236100,229235486,4028193,15.246184,40.5,101142.0,1.152362,0
229452954,229452344,4028193,16.081158,40.5,101132.0,1.152248,0
229659572,229615559,4028193,15.211834,40.50714,101142.43,1.1523669,0
229792563,229791953,4028193,15.996603,40.5,101133.0,1.1522595,0
230009489,230008796,4028193,15.996603,40.51,101133.0,1.1522595,0
230226550,230225941,4028193,16.329535,40.52,101129.0,1.1522138,0
230442842,230442232,4028193,17.079952,40.53,101120.0,1.1521113,0
230656364,230655755,4028193,17.164509,40.53,101119.0,1.1521,0
230861208,230823037,4028193,15.872414,40.519997,101134.5,1.1522765,0
230991020,230990412,4028193,16.41409,40.52,101128.0,1.1522025,0
231228520,231217111,4028193,16.66511,40.525,101125.0,1.1521683,0
231444621,231433194,4028193,16.913488,40.54,101122.0,1.1521341,0
231628750,231592047,4028193,17.468374,40.543335,101115.336,1.1520582,0
231779788,231779179,4028193,17.74846,40.53,101112.0,1.1520202,0
231996100,231995491,4028193,18.498878,40.55,101103.0,1.1519177,0
232212668,232212059,4028193,18.165947,40.559998,101107.0,1.1519631,0
232428817,232428209,4028193,18.583433,40.57,101102.0,1.1519063,0
232655574,232654956,4028193,17.41553,40.559998,101116.0,1.1520658,0
232850226,232817174,4028193,18.485668,40.570004,101103.164,1.1519195,0
232979970,232979345,4028193,18.414324,40.579998,101104.0,1.151929,0
233196280,233195672,4028193,19.415766,40.579998,101092.0,1.1514242,0
233412624,233412011,4028193,18.414324,40.59,101104.0,1.1515609,0
233628912,233628304,4028193,18.414324,40.59,101104.0,1.1515609,0
233845125,233844515,4028193,18.498878,40.6,101103.0,1.1515496,0
233953281,233952672,4028193,20.33529,40.59,101081.0,1.151299,0
234184355,234183731,4028193,18.665344,40.6,101101.0,1.1515268,0
234400909,234400299,4028193,19.999716,40.61,101085.0,1.1513445,0
234618227,234617619,4028193,20.250736,40.61,101082.0,1.1513103,0
234834610,234834000,4028193,20.417204,40.62,101080.0,1.1512876,0
235050814,235050205,4028193,20.250736,40.62,101082.0,1.1513103,0
235245773,235212628,4028193,20.514969,40.63,101078.836,1.1512743,0
235375776,235375166,4028193,21.167622,40.629997,101071.0,1.1511852,0
235602279,235601671,4028193,22.002594,40.62,101061.0,1.1510712,0
235818647,235818039,4028193,21.334087,40.629997,101069.0,1.1511623,0
236049879,236034574,4028193,22.169062,40.629997,101059.0,1.1510484,0
236237007,236200392,4028193,23.323755,40.64333,101045.164,1.1508908,0
236453407,236416640,4028193,23.878641,40.65333,101038.5,1.1508149,0
236583393,236582786,4028193,24.755892,40.66,101028.0,1.1506953,0
236800119,236799410,4028193,24.005474,40.66,101037.0,1.1507978,0
237026750,237015340,4028193,25.173378,40.655,101023.0,1.1506383,0
237253248,237233638,4028193,26.174816,40.647495,101011.0,1.1505016,0
237458581,237443573,4028193,27.091703,40.666668,101000.0,1.1503764,0
237646803,237609961,4028193,26.663647,40.67,101005.164,1.1504352,0
237861124,237834589,4028193,27.710005,40.67,100992.6,1.1502922,0
238014133,238002682,4028193,27.802486,40.68,100991.5,1.1502796,0
238230471,238219036,4028193,29.3456,40.69,100973.0,1.1500689,0
238446680,238435239,4028193,30.39196,40.69,100960.5,1.1499265,0
238662789,238651380,4028193,29.387878,40.7,100972.5,1.1496959,0
238846759,238810129,4028193,31.853163,40.701664,100943.0,1.1497271,0
238976386,238975778,4028193,30.682615,40.7,100957.0,1.1498866,0
239192822,239192140,4028193,30.933636,40.71,100954.0,1.1494852,0
239409093,239408484,4028193,31.684053,40.719997,100945.0,1.1493828,0
239629139,239628530,4028193,33.272087,40.71,100926.0,1.1491665,0
239845756,239845128,4028193,32.437115,40.719997,100936.0,1.1492803,0
240062896,240062274,4028193,32.939156,40.73,100930.0,1.149212,0
240257907,240224757,4028193,35.623753,40.73,100897.836,1.1488458,0
240387377,240386770,4028193,35.695095,40.719997,100897.0,1.1488363,0
240603774,240603166,4028193,36.194492,40.739998,100891.0,1.148768,0
240820392,240819766,4028193,34.35808,40.739998,100913.0,1.1490184,0
241036893,241036284,4028193,38.6175,40.739998,100862.0,1.1484377,0
241253008,241252369,4028193,36.863,40.75,100883.0,1.1486769,0
241458610,241418337,4028193,37.40732,40.756664,100876.5,1.1486028,0
241588280,241576840,4028193,39.788048,40.76,100848.0,1.1482784,0
241834510,241815634,4028193,39.579308,40.754997,100850.5,1.1483068,0
242050966,242032343,4028193,40.43013,40.766666,100840.336,1.1481911,0
242223962,242190886,4028193,40.490906,40.77,100839.6,1.1481827,0
242440345,242407303,4028193,41.310024,40.774002,100829.8,1.148071,0
242638216,242618517,4028193,41.849056,40.78,100823.336,1.1479975,0
242855368,242833158,4028193,41.66938,40.785,100825.5,1.1480222,0
242990141,242989533,4028193,43.55071,40.78,100803.0,1.1477659,0
243206803,243206176,4028193,41.793568,40.79,100824.0,1.148005,0
243424835,243424227,4028193,43.29969,40.8,100806.0,1.1478001,0
243641530,243640919,4028193,43.717175,40.8,100801.0,1.1477431,0
243857940,243857332,4028193,46.142826,40.809998,100772.0,1.1474129,0
244052549,244019508,4028193,47.131054,40.809998,100760.164,1.1472782,0
244182409,244181800,4028193,49.070515,40.809998,100737.0,1.1466482,0
244398681,244398072,4028193,49.070515,40.82,100737.0,1.1470145,0
244614896,244614275,4028193,46.811337,40.82,100764.0,1.1473218,0
244831315,244830690,4028193,48.063793,40.829998,100749.0,1.1467848,0
245047490,245046868,4028193,47.73086,40.829998,100753.0,1.1468303,0
245257499,245256890,4028193,49.99004,40.84,100726.0,1.1468892,0
245453863,245420510,4028193,49.667683,40.84,100729.836,1.1469328,0
245583578,245582944,4028193,50.576637,40.85,100719.0,1.1464432,0
245799823,245799215,4028193,51.245144,40.85,100711.0,1.1463522,0
246015946,246015279,4028193,52.917736,40.85,100691.0,1.1461245,0
246232501,246231889,4028193,49.739025,40.86,100729.0,1.1465572,0
246448627,246448015,4028193,52.83318,40.86,100692.0,1.146136,0
246654346,246610339,4028193,52.989075,40.860004,100690.14,1.1461147,0
246773281,246772672,4028193,54.090923,40.86,100677.0,1.1459652,0
246989446,246988838,4028193,55.76351,40.87,100657.0,1.1457375,0
247206010,247205375,4028193,54.090923,40.879997,100677.0,1.1459652,0
247422383,247421774,4028193,56.01453,40.879997,100654.0,1.1457033,0
247638612,247637911,4028193,55.929977,40.89,100655.0,1.1457149,0
247836548,247799349,4028193,56.801945,40.89,100644.6,1.1455965,0
248053337,248016670,4028193,56.780804,40.89,100644.836,1.1455991,0
248185020,248184413,4028193,57.771675,40.89,100633.0,1.1454644,0
248401182,248400540,4028193,58.022694,40.899998,100630.0,1.1454302,0
248617847,248617238,4028193,57.940784,40.899998,100631.0,1.1454415,0
248834306,248833697,4028193,58.273716,40.91,100627.0,1.1453961,0
249028794,249006561,4028193,58.400547,40.894997,100625.5,1.1453791,0
249245137,249222879,4028193,58.860313,40.91,100620.0,1.1453164,0
249453321,249452703,4028193,57.940784,40.899998,100631.0,1.1454415,0
249648172,249614811,4028193,58.693848,40.905003,100622.0,1.1453391,0
249778493,249777884,4028193,59.362354,40.92,100614.0,1.145248,0
249995212,249994603,4028193,59.02942,40.93,100618.0,1.1452937,0
250211352,250210671,4028193,58.358273,40.94,100626.0,1.1453848,0
250428018,250427411,4028193,59.697926,40.94,100610.0,1.1452026,0
250644554,250643945,4028193,59.613373,40.94,100611.0,1.145214,0
250860699,250860074,4028193,59.111332,40.94,100617.0,1.1452823,0
250979501,250968064,4028193,59.822117,40.945,100608.5,1.1451855,0
251195319,251194711,4028193,60.199966,40.94,100604.0,1.1451343,0
251411463,251410777,4028193,59.948944,40.95,100607.0,1.1451684,0
251628166,251627557,4028193,59.78248,40.96,100609.0,1.1451912,0
251848580,251847971,4028193,59.78248,40.96,100609.0,1.1451912,0
252043602,252010583,4028193,60.48005,40.965,100600.664,1.1447309,0
252260141,252227124,4028193,60.213177,40.969997,100603.836,1.1447669,0
252389860,252389251,4028193,60.0335,40.98,100606.0,1.1447916,0
252606566,252605914,4028193,60.78656,40.98,100597.0,1.1446892,0
252822885,252822276,4028193,59.948944,40.98,100607.0,1.1448029,0
253039110,253038472,4028193,59.362354,40.989998,100614.0,1.1448826,0
253262050,253198213,4028193,60.63331,40.996666,100598.836,1.1447101,0
253391774,253391165,4028193,61.373158,40.989998,100590.0,1.1446096,0
253608879,253608271,4028193,60.95567,40.989998,100595.0,1.1446664,0
253825285,253824676,4028193,59.613373,41.0,100611.0,1.1448485,0
254041710,254041009,4028193,59.948944,41.01,100607.0,1.1448029,0
254257565,254220826,4028193,60.857903,41.0,100596.164,1.1446797,0
254401517,254400909,4028193,61.624176,41.0,100587.0,1.1445754,0
254630281,254629672,4028193,61.20669,40.989998,100592.0,1.1446322,0
254847141,254846485,4028193,60.95567,41.02,100595.0,1.1446664,0
255055803,255010996,4028193,61.48413,41.024998,100588.664,1.1445943,0
255186523,255185915,4028193,60.0335,41.03,100606.0,1.1447916,0
255404332,255403642,4028193,61.539623,41.03,100588.0,1.1445868,0
255620534,255619925,4028193,61.539623,41.04,100588.0,1.1445868,0
255836764,255836155,4028193,61.79064,41.04,100585.0,1.1445526,0
256056283,256055675,4028193,61.708733,41.04,100586.0,1.144564,0
256175682,256164273,4028193,61.2886,41.045,100591.0,1.1446209,0
256458163,256431385,4028193,61.507915,41.056,100588.4,1.1445913,0
256609448,256597974,4028193,61.164413,41.055,100592.5,1.144638,0
256825724,256814294,4028193,61.2886,41.065,100591.0,1.1446209,0
257041912,257030477,4028193,62.044304,41.07,100582.0,1.1445185,0
257258130,257246715,4028193,62.25305,41.07,100579.5,1.14449,0
257442034,257405257,4028193,61.75101,41.076664,100585.5,1.1445583,0
257658681,257621960,4028193,61.233112,41.079998,100591.664,1.1446285,0
257788723,257788114,4028193,61.2886,41.079998,100591.0,1.1446209,0
258015575,258014967,4028193,61.037582,41.079998,100594.0,1.144655,0
258231298,258230690,4028193,61.2886,41.079998,100591.0,1.1446209,0
258447967,258447357,4028193,59.948944,41.09,100607.0,1.1448029,0
258642994,258609835,4028193,60.93982,41.100002,100595.164,1.1446682,0
258859611,258826507,4028193,61.27539,41.100002,100591.164,1.1446228,0
258989365,258988757,4028193,59.948944,41.1,100607.0,1.1448029,0
259205541,259204931,4028193,63.048386,41.11,100570.0,1.1443819,0
259421705,259421097,4028193,60.95567,41.11,100595.0,1.1446664,0
259638106,259637496,4028193,62.712814,41.11,100574.0,1.1444275,0
259854769,259854103,4028193,59.867035,41.12,100608.0,1.1448144,0
260060604,260016636,4028193,60.96624,41.12,100594.86,1.1446648,0
260179792,260179114,4028193,60.78656,41.129997,100597.0,1.1446892,0
260396098,260395489,4028193,61.624176,41.129997,100587.0,1.1445754,0
260612338,260611672,4028193,61.373158,41.14,100590.0,1.1446096,0
260828982,260828373,4028193,61.624176,41.14,100587.0,1.1445754,0
261045164,261044556,4028193,62.546345,41.149998,100576.0,1.1444502,0
261261369,261260760,4028193,62.461792,41.149998,100577.0,1.1444616,0
261456006,261422987,4028193,60.757496,41.149998,100597.336,1.144693,0
261596144,261595534,4028193,61.20669,41.14,100592.0,1.1446322,0
261812452,261811770,4028193,60.199966,41.149998,100604.0,1.1447688,0
262029100,262028492,4028193,60.28452,41.16,100603.0,1.1447575,0
262245579,262244969,4028193,60.78656,41.17,100597.0,1.1446892,0
262461686,262461077,4028193,59.446903,41.17,100613.0,1.1448712,0
262656428,262623330,4028193,60.93982,41.17,100595.164,1.1446682,0
262786436,262785827,4028193,60.620094,41.17,100599.0,1.144712,0
263002628,263002003,4028193,60.118053,41.18,100605.0,1.1447803,0
263229582,263228973,4028193,61.122135,41.16,100593.0,1.1446437,0
263445928,263445319,4028193,60.450985,41.18,100601.0,1.1447346,0
263651764,263611434,4028193,61.177628,41.18667,100592.336,1.144636,0
263781778,263770327,4028193,62.25305,41.19,100579.5,1.14449,0
263998493,263987027,4028193,61.373158,41.195,100590.0,1.1446096,0
264214793,264203378,4028193,61.95975,41.2,100583.0,1.1445299,0
264431009,264419571,4028193,62.044304,41.205,100582.0,1.1445185,0
264647417,264636008,4028193,62.044304,41.21,100582.0,1.1445185,0
264831090,264794443,4028193,64.12381,41.209995,100557.164,1.1442358,0
265047477,265010772,4028193,60.493263,41.213333,100600.5,1.144729,0
265177281,265176672,4028193,64.97464,41.219997,100547.0,1.1441202,0
265393391,265392782,4028193,61.373158,41.219997,100590.0,1.1446096,0
265609535,265608926,4028193,64.137024,41.23,100557.0,1.144234,0
265825939,265825330,4028193,67.15455,41.23,100521.0,1.1438245,0
266042352,266041744,4028193,61.95975,41.23,100583.0,1.1445299,0
266258708,266258098,4028193,61.373158,41.239998,100590.0,1.1446096,0
266453098,266430888,4028193,62.210773,41.225,100580.0,1.1444957,0
266629558,266601440,4028193,62.601833,41.236664,100575.336,1.1444427,0
266826031,266806227,4028193,63.193718,41.239998,100568.25,1.144362,0
267032391,267010171,4028193,63.949417,41.25,100559.25,1.144625,0
267248826,267226504,4028193,64.78703,41.25,100549.25,1.1445111,0
267411104,267392415,4028193,63.996983,41.256664,100558.664,1.1446182,0
267627397,267608788,4028193,64.27707,41.26,100555.336,1.1445804,0
267843866,267825218,4028193,64.808174,41.263332,100549.0,1.1445082,0
268060280,268041632,4028193,65.73034,41.27,100538.0,1.1443831,0
268233314,268200271,4028193,64.97464,41.27,100547.0,1.1444855,0
268449721,268416609,4028193,64.808174,41.28,100549.0,1.1445082,0
268590630,268575520,4028193,64.137024,41.28,100557.0,1.1445993,0
268807283,268792214,4028193,64.107956,41.28,100557.336,1.1449687,0
269023381,269008340,4028193,63.524006,41.29,100564.336,1.1450485,0
269239560,269224513,4028193,67.432,41.286667,100517.664,1.1445171,0
269383958,269383349,4028193,69.6674,41.29,100491.0,1.1442134,0
269600592,269594568,4028193,68.20091,41.3,100508.5,1.1444128,0
269817208,269816599,4028193,65.896805,41.29,100536.0,1.1447259,0
270047421,270032400,4028193,67.26553,41.3,100519.664,1.1445398,0
270220787,270198536,4028193,65.791115,41.305,100537.25,1.14474,0
270438084,270415632,4028193,65.60351,41.305,100539.5,1.1447656,0
270654155,270631927,4028193,64.366905,41.309998,100554.25,1.1449337,0
270816522,270797898,4028193,62.797367,41.32,100573.0,1.1455129,0
271032757,271014140,4028193,66.874466,41.32,100524.336,1.1449586,0
271248986,271230350,4028193,66.34336,41.32,100530.664,1.1450307,0
271422010,271388952,4028193,65.54538,41.32,100540.2,1.1451393,0
271638381,271605242,4028193,63.61649,41.328,100563.2,1.1454012,0
271854527,271821516,4028193,62.696957,41.329998,100574.2,1.1455266,0
271995018,271979988,4028193,63.410385,41.336666,100565.664,1.1454294,0
272211346,272196302,4028193,62.601833,41.336666,100575.336,1.1455395,0
272427536,272412505,4028193,64.081535,41.34,100557.664,1.1457043,0
272643682,272628672,4028193,61.539623,41.333332,100588.0,1.14605,0
272859752,272844741,4028193,64.248,41.343334,100555.664,1.1456815,0
273032651,273010404,4028193,63.1118,41.35,100569.25,1.1458364,0
273248891,273226607,4028193,63.048386,41.345,100570.0,1.1458448,0
273410972,273392340,4028193,63.49494,41.35,100564.664,1.145784,0
273626980,273608372,4028193,63.103874,41.35,100569.336,1.1458373,0
273857762,273824682,4028193,62.696957,41.351997,100574.2,1.1458927,0
273998987,273983944,4028193,60.424564,41.36,100601.336,1.146202,0
274215563,274200555,4028193,63.24392,41.36,100567.664,1.1458184,0
274431737,274416690,4028193,61.539623,41.366665,100588.0,1.1464164,0
274576476,274575831,4028193,65.47668,41.37,100541.0,1.1458807,0
274794624,274794012,4028193,58.191807,41.37,100628.0,1.1468723,0
275010751,275010141,4028193,62.546345,41.37,100576.0,1.1462797,0
275226948,275226340,4028193,64.05247,41.37,100558.0,1.1460745,0
275443124,275442516,4028193,61.8752,41.379997,100584.0,1.1463708,0
275659209,275658599,4028193,60.53554,41.379997,100600.0,1.1465532,0
275778034,275766615,4028193,61.415436,41.379997,100589.5,1.1464335,0
276004762,275993353,4028193,62.83964,41.379997,100572.5,1.1466062,0
276221024,276209615,4028193,60.28452,41.385,100603.0,1.146954,0
276437183,276425733,4028193,58.73612,41.39,100621.5,1.147165,0
276653198,276641790,4028193,59.53146,41.385,100612.0,1.1470566,0
276837116,276800460,4028193,61.48413,41.39,100588.664,1.1467905,0
277053356,277016735,4028193,61.359943,41.396664,100590.164,1.1468077,0
277183084,277182473,4028193,64.38805,41.399998,100554.0,1.1463953,0
277399192,277398582,4028193,64.808174,41.399998,100549.0,1.146705,0
277615412,277614790,4028193,66.64987,41.399998,100527.0,1.1464542,0
277824081,277823472,4028193,66.39885,41.399998,100530.0,1.1464884,0
278042202,278041585,4028193,58.860313,41.399998,100620.0,1.1475148,0
278259362,278258753,4028193,62.210773,41.41,100580.0,1.1470586,0
278367420,278366811,4028193,66.64987,41.41,100527.0,1.1464542,0
278583681,278583072,4028193,65.56123,41.41,100540.0,1.1466025,0
278799722,278799112,4028193,64.89008,41.42,100548.0,1.1470605,0
279029975,279011341,4028193,63.716896,41.42,100562.0,1.1472203,0
279247507,279228882,4028193,65.3657,41.42,100542.336,1.146996,0
279421414,279388396,4028193,64.38805,41.42,100554.0,1.147129,0
279637582,279604572,4028193,64.60735,41.42,100551.4,1.1470994,0
279853791,279820758,4028193,65.00899,41.427998,100546.6,1.1470447,0
279994225,279979215,4028193,64.27707,41.426666,100555.336,1.1471442,0
280220977,280201455,4028193,63.780308,41.4175,100561.25,1.1472117,0
280426374,280411364,4028193,63.18579,41.43,100568.336,1.1476599,0
280642490,280627478,4028193,63.80145,41.43,100561.0,1.1475762,0
280858818,280843802,4028193,60.48005,41.44,100600.664,1.1480289,0
281031728,281009492,4028193,63.4051,41.44,100565.75,1.1476303,0
281164644,281164034,4028193,60.871117,41.43,100596.0,1.1479756,0
281381281,281380672,4028193,59.948944,41.44,100607.0,1.1481011,0
281598697,281598057,4028193,61.624176,41.44,100587.0,1.1478728,0
281825206,281810196,4028193,59.72699,41.436665,100609.664,1.1481315,0
282041558,282026527,4028193,59.251373,41.446667,100615.336,1.1485639,0
282257789,282242699,4028193,61.344093,41.45,100590.336,1.1482785,0
282431114,282408835,4028193,61.645317,41.45,100586.75,1.1482376,0
282657709,282621086,4028193,59.166817,41.44833,100616.336,1.1485753,0
282787401,282786792,4028193,58.022694,41.45,100630.0,1.1487312,0
283003672,283003063,4028193,63.214855,41.46,100568.0,1.1480235,0
283220120,283219511,4028193,63.80145,41.46,100561.0,1.1479436,0
283436231,283435590,4028193,57.185078,41.46,100640.0,1.1488454,0
283608779,283593769,4028193,59.166817,41.453335,100616.336,1.1489433,0
283828334,283816882,4028193,59.48918,41.46,100612.5,1.1488994,0
284044856,284033411,4028193,62.25305,41.469997,100579.5,1.1485225,0
284229934,284192705,4028193,60.131268,41.469997,100604.836,1.1488119,0
284450444,284417340,4028193,59.17739,41.469997,100616.2,1.1489418,0
284635675,284629662,4028193,60.157692,41.46,100604.5,1.1488081,0
284851906,284851297,4028193,60.620094,41.469997,100599.0,1.1487453,0
285057178,285016946,4028193,58.162735,41.469997,100628.336,1.1490802,0
285186908,285175500,4028193,56.93406,41.469997,100643.0,1.1492476,0
285403067,285391613,4028193,59.15361,41.469997,100616.5,1.1489451,0
285619148,285607741,4028193,63.090664,41.475,100569.5,1.1484084,0
285835208,285823799,4028193,57.10317,41.48,100641.0,1.1492249,0
286051428,286039974,4028193,58.567013,41.48,100623.5,1.1493932,0
286234816,286198165,4028193,58.413757,41.47333,100625.336,1.1494142,0
286367963,286367355,4028193,61.539623,41.469997,100588.0,1.1489878,0
286585966,286585356,4028193,62.87928,41.48,100572.0,1.1488049,0
286802507,286801894,4028193,56.601128,41.48,100647.0,1.1496618,0
287029138,287014128,4028193,60.173546,41.48,100604.336,1.1491743,0
287245499,287230453,4028193,59.111332,41.486668,100617.0,1.1493189,0
287418349,287396139,4028193,58.25258,41.489998,100627.25,1.149436,0
287634400,287612182,4028193,58.818035,41.489998,100620.5,1.1497273,0
287850591,287828371,4028193,59.594875,41.495,100611.25,1.1496216,0
288012647,287994021,4028193,59.166817,41.489998,100616.336,1.1496798,0
288228947,288210278,4028193,58.05176,41.489998,100629.664,1.149832,0
288445028,288426396,4028193,59.475967,41.5,100612.664,1.1496378,0
288618157,288585027,4028193,58.79425,41.5,100620.8,1.1497307,0
288834279,288801260,4028193,58.778397,41.491997,100621.0,1.1497331,0
289050542,289017485,4028193,59.02942,41.5,100618.0,1.1500674,0
289194308,289182868,4028193,55.84807,41.489998,100656.0,1.1505017,0
289401211,289400602,4028193,62.295326,41.489998,100579.0,1.1496216,0
289617912,289617273,4028193,55.678955,41.489998,100658.0,1.1505246,0
289837990,289837379,4028193,61.95975,41.5,100583.0,1.1496674,0
290054519,290048492,4028193,59.362354,41.5,100614.0,1.1500217,0
290260756,290220462,4028193,59.85118,41.501667,100608.164,1.1499549,0
290458952,290436470,4028193,59.676785,41.5,100610.25,1.1499788,0
290621468,290602577,4028193,57.325123,41.506664,100638.336,1.1502999,0
290816857,290805429,4028193,59.753414,41.5,100609.336,1.1503371,0
290982799,290971087,4028193,56.474297,41.5,100648.5,1.150416,0
291199315,291187906,4028193,58.524734,41.51,100624.0,1.1505047,0
291416149,291404739,4028193,61.79064,41.51,100585.0,1.1500589,0
291571286,291556097,4028193,61.31767,41.51,100590.664,1.1501237,0
291791584,291780176,4028193,62.797367,41.504997,100573.0,1.1499218,0
292007747,291996338,4028193,60.157692,41.504997,100604.5,1.1502819,0
292223987,292212578,4028193,60.57782,41.51,100599.5,1.1502247,0
292440164,292428748,4028193,62.673176,41.51,100574.5,1.1499388,0
292656287,292644876,4028193,57.940784,41.515,100631.0,1.1505848,0
292840211,292803527,4028193,59.991222,41.51,100606.5,1.1503047,0
293056340,293019704,4028193,59.58695,41.518337,100611.336,1.15036,0
293189489,293188881,4028193,60.0335,41.51,100606.0,1.150299,0
293406973,293406343,4028193,58.273716,41.51,100627.0,1.1505392,0
293624030,293623421,4028193,61.539623,41.51,100588.0,1.1504623,0
293840127,293839519,4028193,55.597046,41.52,100659.0,1.1512742,0
294056352,294055743,4028193,56.099087,41.52,100653.0,1.1512057,0
294250847,294217790,4028193,60.255455,41.52,100603.336,1.1506376,0
294380586,294379978,4028193,56.601128,41.52,100647.0,1.1511371,0
294596707,294596098,4028193,61.539623,41.52,100588.0,1.1504623,0
294812830,294812222,4028193,57.185078,41.52,100640.0,1.151057,0
295029038,295028396,4028193,62.546345,41.52,100576.0,1.150325,0
295245431,295244793,4028193,63.46587,41.52,100565.0,1.150199,0
295450882,295407015,4028193,59.56581,41.52714,100611.57,1.1507318,0
295569734,295569126,4028193,59.446903,41.52,100613.0,1.1507481,0
295785998,295785368,4028193,57.35419,41.52,100638.0,1.1514034,0
296012598,295997583,4028193,58.638355,41.52,100622.664,1.151228,0
296228764,296213755,4028193,58.60929,41.52,100623.0,1.1512318,0
296444774,296429764,4028193,58.30278,41.52667,100626.664,1.1512737,0
296660893,296645854,4028193,59.02942,41.523335,100618.0,1.1511747,0
296833891,296811616,4028193,59.92781,41.525,100607.25,1.1510516,0
297050032,297027772,4028193,59.719063,41.52,100609.75,1.1510803,0
297212219,297193582,4028193,58.973927,41.53,100618.664,1.1511822,0
297428420,297409811,4028193,58.638355,41.52,100622.664,1.151228,0
297622664,297622055,4028193,55.76351,41.51,100657.0,1.1516209,0
297839122,297838512,4028193,57.940784,41.53,100631.0,1.151693,0
298055344,298054736,4028193,59.280437,41.52,100615.0,1.1515099,0
298260809,298220525,4028193,60.07578,41.525,100605.5,1.1514012,0
298390493,298379080,4028193,60.57782,41.53,100599.5,1.1513325,0
298606569,298595161,4028193,63.96791,41.53,100559.0,1.150869,0
298822627,298811216,4028193,64.51488,41.53,100552.5,1.1507946,0
299038996,299027579,4028193,63.716896,41.52,100562.0,1.1509033,0
299244012,299237997,4028193,60.662373,41.52,100598.5,1.151321,0
299438445,299405421,4028193,61.373158,41.528,100590.0,1.1512238,0
299654785,299621762,4028193,57.99099,41.53,100630.4,1.1516862,0
299795322,299780300,4028193,61.2886,41.523335,100591.0,1.1512352,0
300011531,299996486,4028193,60.506474,41.53,100600.336,1.1513422,0
300227711,300212688,4028193,60.702007,41.53,100598.0,1.1513153,0
300443809,300428759,4028193,59.50239,41.52667,100612.336,1.1514794,0
300660082,300645037,4028193,61.95975,41.53,100583.0,1.1511437,0
300832981,300810752,4028193,60.5144,41.53,100600.25,1.1517109,0
301049171,301026937,4028193,60.429848,41.53,100601.25,1.1517223,0
301211210,301192601,4028193,59.19589,41.53,100616.0,1.1518911,0
301427463,301408833,4028193,60.89754,41.53,100595.664,1.1516583,0
301643639,301625007,4028193,62.82643,41.53,100572.664,1.151395,0
301859770,301841161,4028193,61.764217,41.53,100585.336,1.1515402,0
302032723,301999671,4028193,60.118053,41.53,100605.0,1.1517652,0
302248984,302215946,4028193,60.303017,41.53,100602.8,1.15174,0
302389297,302383275,4028193,63.38396,41.52,100566.0,1.1513188,0
302637527,302604515,4028193,62.546345,41.52,100576.0,1.1514332,0
302777969,302762957,4028193,62.01524,41.52667,100582.336,1.1515057,0
302993877,302982426,4028193,66.356575,41.525,100530.5,1.1509124,0
303210169,303198761,4028193,60.913395,41.53,100595.5,1.1520264,0
303426289,303414845,4028193,65.39477,41.53,100542.0,1.1514137,0
303642402,303630994,4028193,59.322716,41.53,100614.5,1.152244,0
303858704,303847295,4028193,62.673176,41.53,100574.5,1.1517859,0
304042493,304005862,4028193,60.35322,41.53,100602.164,1.1521027,0
304258724,304222108,4028193,61.373158,41.53,100590.0,1.1519634,0
304398996,304398369,4028193,59.613373,41.52,100611.0,1.1522039,0
304615311,304614703,4028193,59.111332,41.53,100617.0,1.1522726,0
304831422,304830812,4028193,59.19589,41.53,100616.0,1.1522611,0
305061665,305061015,4028193,59.53146,41.53,100612.0,1.1522154,0
305181039,305169382,4028193,61.246323,41.53,100591.5,1.1519805,0
305397937,305386507,4028193,60.118053,41.525,100605.0,1.1521351,0
305614990,305603574,4028193,58.567013,41.53,100623.5,1.152347,0
305831197,305819781,4028193,59.53146,41.53,100612.0,1.1525856,0
306047405,306035976,4028193,61.75101,41.53,100585.5,1.152282,0
306231034,306194410,4028193,60.871117,41.53,100596.0,1.1524024,0
306447211,306410556,4028193,60.24224,41.53,100603.5,1.1524884,0
306576840,306576230,4028193,63.550426,41.53,100564.0,1.1520357,0
306793083,306792472,4028193,61.373158,41.53,100590.0,1.1523336,0
307009299,307008691,4028193,58.022694,41.53,100630.0,1.1527919,0
307225376,307224767,4028193,60.0335,41.52,100606.0,1.1525168,0
307441545,307440937,4028193,64.38805,41.53,100554.0,1.1519212,0
307657731,307657121,4028193,64.72362,41.53,100550.0,1.1518754,0
307776356,307775747,4028193,64.05247,41.51,100558.0,1.151967,0
307992577,307991966,4028193,56.01453,41.53,100654.0,1.1530668,0
308208694,308208086,4028193,59.53146,41.52,100612.0,1.1525856,0
308424806,308424197,4028193,57.60521,41.53,100635.0,1.1532196,0
308640987,308640378,4028193,60.199966,41.52,100604.0,1.1528645,0
308857290,308856671,4028193,57.60521,41.53,100635.0,1.1532196,0
308965310,308964701,4028193,58.022694,41.53,100630.0,1.1527919,0
309181495,309180886,4028193,57.940784,41.53,100631.0,1.1531738,0
309397725,309397115,4028193,56.601128,41.53,100647.0,1.1533571,0
309613961,309613353,4028193,55.929977,41.52,100655.0,1.1534488,0
309830077,309829469,4028193,54.843987,41.52,100668.0,1.1535977,0
310046173,310045563,4028193,56.099087,41.52,100653.0,1.1534258,0
310262360,310261751,4028193,54.25739,41.52,100675.0,1.1536779,0
310456811,310423785,4028193,53.781773,41.525,100680.664,1.1537429,0
310586483,310585875,4028193,53.419777,41.52,100685.0,1.1537926,0
310802621,310801987,4028193,52.58216,41.52,100695.0,1.1539072,0
311039962,311017745,4028193,52.206947,41.515,100699.5,1.1539588,0
311256080,311233853,4028193,51.327057,41.52,100710.0,1.1540791,0
311418183,311399559,4028193,51.049614,41.52,100713.336,1.1541173,0
311634292,311615680,4028193,50.322975,41.52,100722.0,1.1542166,0
311850454,311831786,4028193,50.185577,41.52,100723.664,1.1542357,0
312023497,311990423,4028193,49.75488,41.52,100728.8,1.1542945,0
312239779,312206744,4028193,48.985962,41.526,100738.0,1.1544,0
312455618,312420135,4028193,48.48392,41.517498,100744.0,1.1544688,0
312596161,312581149,4028193,47.759926,41.513332,100752.664,1.154568,0
312812383,312797362,4028193,47.284306,41.52,100758.336,1.154633,0
313028583,313013549,4028193,46.782265,41.52,100764.336,1.1547018,0
313244746,313229635,4028193,46.16925,41.523335,100771.664,1.1547858,0
313461028,313446005,4028193,45.500744,41.52667,100779.664,1.1548774,0
313633904,313611691,4028193,44.86659,41.52,100787.25,1.1549643,0
313850280,313828032,4028193,44.491375,41.52,100791.75,1.1550158,0
314012346,313993730,4028193,44.05275,41.52,100797.0,1.1550761,0
314228622,314210006,4028193,43.49522,41.52,100803.664,1.1551524,0
314444714,314426088,4028193,42.826714,41.52,100811.664,1.1552441,0
314660938,314642329,4028193,42.266544,41.52,100818.336,1.1553205,0
314833773,314800761,4028193,41.928326,41.52,100822.4,1.1553671,0
315017365,315011312,4028193,41.291527,41.51,100830.0,1.1554542,0
315236776,315236167,4028193,40.54111,41.51,100839.0,1.1555573,0
315454160,315453552,4028193,39.703495,41.52,100849.0,1.155672,0
315649135,315615888,4028193,39.703495,41.52,100849.0,1.155672,0
315843369,315831958,4028193,39.399628,41.5,100852.664,1.1557139,0
316005569,315990516,4028193,39.03763,41.51,100857.0,1.1557636,0
316221770,316206741,4028193,38.200016,41.51,100867.0,1.1558782,0
316438145,316423122,4028193,37.505085,41.52,100875.336,1.1559738,0
316654286,316639274,4028193,36.78109,41.52,100884.0,1.156073,0
316827120,316804901,4028193,36.50893,41.52,100887.25,1.1561103,0
317043347,317021051,4028193,36.173355,41.52,100891.25,1.1561562,0
317259769,317237513,4028193,35.50485,41.52,100899.25,1.1562477,0
317411038,317410430,4028193,35.35952,41.51,100901.0,1.1562679,0
317627346,317626738,4028193,34.775566,41.51,100908.0,1.1563481,0
317843388,317842779,4028193,33.60502,41.52,100922.0,1.1565084,0
318059282,318058673,4028193,33.272087,41.5,100926.0,1.1565543,0
318167438,318166829,4028193,32.60358,41.51,100934.0,1.156646,0
318383701,318383092,4028193,31.935074,41.52,100942.0,1.1567377,0
318614525,318603116,4028193,31.726332,41.52,100944.5,1.1567664,0
318815681,318815073,4028193,31.351122,41.52,100949.0,1.1568179,0
319033119,319032509,4028193,30.349682,41.5,100961.0,1.1569555,0
319260284,319259675,4028193,30.59806,41.51,100958.0,1.156921,0
319368495,319367886,4028193,30.265127,41.51,100962.0,1.1569669,0
319584764,319584155,4028193,29.263689,41.52,100974.0,1.1571044,0
319800958,319800346,4028193,28.595182,41.52,100982.0,1.157196,0
320017182,320016570,4028193,28.595182,41.52,100982.0,1.157196,0
320226279,320225671,4028193,27.844765,41.52,100991.0,1.1572992,0
320444120,320443510,4028193,33.187534,41.52,100927.0,1.1565658,0
320660212,320659595,4028193,27.593744,41.52,100994.0,1.1573335,0
320768298,320767672,4028193,28.262249,41.52,100986.0,1.1572418,0
320984463,320983855,4028193,28.761648,41.52,100980.0,1.1571732,0
321200680,321200071,4028193,23.92092,41.52,101038.0,1.1578377,0
321416922,321416281,4028193,24.256495,41.52,101034.0,1.157792,0
321633079,321632469,4028193,30.682615,41.52,100957.0,1.1569096,0
321849287,321848678,4028193,28.595182,41.52,100982.0,1.157196,0
322043745,322010724,4028193,25.0624,41.525,101024.336,1.1576812,0
322259976,322226954,4028193,23.017244,41.524998,101048.836,1.157962,0
322389624,322389014,4028193,27.342724,41.52,100997.0,1.157368,0
322620009,322619401,4028193,21.918041,41.51,101062.0,1.1581128,0
322836569,322835961,4028193,20.166183,41.52,101083.0,1.1583534,0
323053966,323053357,4028193,24.005474,41.52,101037.0,1.1578263,0
323259452,323215608,4028193,24.124378,41.52,101035.57,1.15781,0
323378458,323377837,4028193,28.262249,41.52,100986.0,1.1572418,0
323594169,323593560,4028193,21.500555,41.52,101067.0,1.1581701,0
323820804,323809366,4028193,23.336966,41.51,101045.0,1.157918,0
324037026,324025589,4028193,23.004034,41.52,101049.0,1.1579639,0
324253177,324241767,4028193,20.916601,41.52,101074.0,1.1582503,0
324436910,324400280,4028193,24.449385,41.52,101031.664,1.1577652,0
324653117,324616410,4028193,24.504871,41.53,101031.0,1.1577575,0
324782897,324782288,4028193,24.256495,41.52,101034.0,1.157792,0
324999083,324998475,4028193,21.334087,41.53,101069.0,1.158193,0
325215382,325214773,4028193,20.166183,41.53,101083.0,1.1583534,0
325431546,325430938,4028193,21.083067,41.53,101072.0,1.1582274,0
325647824,325647216,4028193,22.91948,41.53,101050.0,1.1579753,0
325846374,325812843,4028193,25.855097,41.53,101014.836,1.1575723,0
325977197,325976588,4028193,25.424398,41.53,101020.0,1.1576315,0
326194151,326193542,4028193,22.753014,41.53,101052.0,1.1579982,0
326410443,326409835,4028193,22.002594,41.53,101061.0,1.1581013,0
326626639,326626028,4028193,22.087149,41.53,101060.0,1.1580899,0
326842847,326842239,4028193,21.418642,41.53,101068.0,1.1581815,0
327059111,327058502,4028193,19.415766,41.53,101092.0,1.1584566,0
327167280,327166672,4028193,18.414324,41.53,101104.0,1.1585941,0
327383467,327382829,4028193,27.678297,41.53,100993.0,1.157322,0
327599735,327599126,4028193,24.589424,41.53,101030.0,1.1577461,0
327844971,327833550,4028193,24.713615,41.53,101028.5,1.1577289,0
328029187,327992523,4028193,23.183712,41.53,101046.836,1.1579391,0
328245366,328208749,4028193,24.15873,41.53,101035.164,1.1581776,0
328461632,328424978,4028193,22.377804,41.53,101056.5,1.1584222,0
328591429,328590821,4028193,20.166183,41.53,101083.0,1.158726,0
328807606,328806995,4028193,26.092907,41.53,101012.0,1.1579121,0
329023978,329023369,4028193,28.177696,41.53,100987.0,1.1576254,0
329240087,329239478,4028193,25.257933,41.54,101022.0,1.1580267,0
329445142,329405785,4028193,21.651167,41.530003,101065.2,1.158522,0
329661345,329624728,4028193,23.741241,41.53,101040.164,1.158235,0
329791053,329790395,4028193,19.333853,41.53,101093.0,1.1588405,0
330007359,330006750,4028193,20.33529,41.54,101081.0,1.1587031,0
330223529,330222904,4028193,19.999716,41.53,101085.0,1.1587489,0
330439722,330439114,4028193,28.761648,41.54,100980.0,1.1575452,0
330655800,330655192,4028193,23.085945,41.53,101048.0,1.1583247,0
330774642,330763219,4028193,22.459717,41.54,101055.5,1.1584107,0
330990845,330979423,4028193,28.595182,41.54,100982.0,1.1575682,0
331207004,331195561,4028193,25.464033,41.54,101019.5,1.1579981,0
331423372,331411963,4028193,26.217094,41.54,101010.5,1.1578948,0
331639465,331628036,4028193,25.297567,41.535,101021.5,1.158021,0
331855518,331844090,4028193,24.504871,41.54,101031.0,1.1581299,0
332039123,332002506,4028193,23.574776,41.540005,101042.164,1.1586304,0
332255281,332218620,4028193,23.241842,41.540005,101046.164,1.1583037,0
332385108,332384500,4028193,27.926676,41.54,100990.0,1.1580323,0
332601281,332600672,4028193,28.095785,41.54,100988.0,1.157637,0
332817399,332816790,4028193,26.674217,41.54,101005.0,1.1582042,0
333033279,333032671,4028193,18.998278,41.53,101097.0,1.1592592,0
333249079,333248470,4028193,27.26081,41.53,100998.0,1.158124,0
333443619,333410590,4028193,18.776323,41.535004,101099.664,1.1592897,0
333659710,333626685,4028193,21.764786,41.540005,101063.836,1.1588789,0
333789605,333788982,4028193,18.831812,41.54,101099.0,1.1592821,0
334005725,334005118,4028193,23.754454,41.54,101040.0,1.1586055,0
334221886,334221278,4028193,24.504871,41.54,101031.0,1.1585023,0
334438084,334437473,4028193,18.749899,41.54,101100.0,1.1592935,0
334654315,334653704,4028193,19.748695,41.54,101088.0,1.159156,0
334859717,334815811,4028193,22.216623,41.54429,101058.43,1.1588169,0
334978554,334977945,4028193,26.008352,41.54,101013.0,1.158296,0
335194740,335194130,4028193,27.844765,41.55,100991.0,1.1580437,0
335410845,335410236,4028193,25.257933,41.55,101022.0,1.1583991,0
335626997,335626389,4028193,26.092907,41.55,101012.0,1.1582845,0
335843010,335842399,4028193,19.249298,41.55,101094.0,1.1592247,0
336059133,336058525,4028193,27.844765,41.55,100991.0,1.1580437,0
336253747,336220682,4028193,22.79529,41.55,101051.5,1.1587374,0
336383419,336382811,4028193,26.259373,41.55,101010.0,1.1582615,0
336599632,336598967,4028193,21.001156,41.55,101073.0,1.158984,0
336815501,336814893,4028193,27.176258,41.54,100999.0,1.1581354,0
337031649,337031041,4028193,22.91948,41.55,101050.0,1.1587203,0
337247821,337247214,4028193,21.252176,41.55,101070.0,1.1589495,0
337442349,337409333,4028193,25.728266,41.55,101016.336,1.1583341,0
337658539,337625513,4028193,25.326633,41.55,101021.164,1.1583896,0
337788183,337787574,4028193,21.751575,41.55,101064.0,1.1588808,0
338004399,338003789,4028193,27.342724,41.55,100997.0,1.1581125,0
338220621,338220010,4028193,29.76573,41.55,100968.0,1.1577799,0
338447351,338446743,4028193,28.344162,41.54,100985.0,1.1579748,0
338652694,338608885,4028193,27.091703,41.55,101000.0,1.1581469,0
338771544,338770936,4028193,30.180574,41.55,100963.0,1.1577226,0
338987880,338987272,4028193,31.51759,41.55,100947.0,1.1579117,0
339203981,339203374,4028193,30.180574,41.55,100963.0,1.1580951,0
339420067,339419458,4028193,27.926676,41.559998,100990.0,1.158405,0
339636125,339635516,4028193,26.092907,41.559998,101012.0,1.1586572,0
339852413,339851805,4028193,30.265127,41.559998,100962.0,1.1580837,0
340057440,340011723,4028193,30.94949,41.553997,100953.8,1.1579896,0
340187243,340175805,4028193,32.479393,41.55,100935.5,1.1577797,0
340403361,340391946,4028193,30.806803,41.555,100955.5,1.1580092,0
340612741,340612131,4028193,34.524548,41.559998,100911.0,1.1574987,0
340829780,340829171,4028193,30.265127,41.559998,100962.0,1.1580837,0
341046392,341045783,4028193,36.194492,41.55,100891.0,1.1572692,0
341251817,341207930,4028193,34.751785,41.552856,100908.29,1.1574676,0
341370790,341370180,4028193,35.695095,41.559998,100897.0,1.1573381,0
341586956,341586273,4028193,32.939156,41.559998,100930.0,1.1577166,0
341803183,341802574,4028193,35.274967,41.559998,100902.0,1.1573955,0
342019385,342018774,4028193,40.374645,41.559998,100841.0,1.1566958,0
342235458,342234847,4028193,39.788048,41.559998,100848.0,1.1567761,0
342451617,342451006,4028193,35.52863,41.559998,100899.0,1.157361,0
342646169,342613143,4028193,39.970367,41.555,100845.836,1.1567513,0
342775997,342775389,4028193,37.700615,41.559998,100873.0,1.1570628,0
342992381,342991754,4028193,41.376083,41.559998,100829.0,1.1565582,0
343208563,343207954,4028193,42.964115,41.559998,100810.0,1.1567123,0
343424689,343424081,4028193,43.80173,41.559998,100800.0,1.1565975,0
343640997,343640385,4028193,42.964115,41.57,100810.0,1.1567123,0
343857172,343856563,4028193,42.29561,41.57,100818.0,1.1568041,0
343979380,343967950,4028193,42.380165,41.559998,100817.0,1.1567925,0
344197170,344185715,4028193,40.498833,41.559998,100839.5,1.1570507,0
344414395,344402960,4028193,43.34197,41.559998,100805.5,1.1566607,0
344630549,344619129,4028193,43.381603,41.559998,100805.0,1.156655,0
344846685,344835277,4028193,43.92592,41.565,100798.5,1.1565803,0
345030487,344993780,4028193,42.826714,41.559998,100811.664,1.1567314,0
345246746,345210112,4028193,43.270626,41.559998,100806.336,1.1566702,0
345376368,345375759,4028193,47.64895,41.559998,100754.0,1.1560698,0
345592555,345591945,4028193,48.568474,41.559998,100743.0,1.1559435,0
345808756,345808147,4028193,47.22882,41.559998,100759.0,1.1561271,0
346024890,346024281,4028193,46.22474,41.57,100771.0,1.1562648,0
346240994,346240383,4028193,45.13875,41.57,100784.0,1.1564139,0
346457210,346456600,4028193,44.803173,41.559998,100788.0,1.1564598,0
346662612,346622396,4028193,46.742634,41.559998,100764.836,1.1561941,0
346792355,346780844,4028193,46.560314,41.559998,100767.0,1.1562189,0
347008641,346997222,4028193,47.313377,41.559998,100758.0,1.1561155,0
347224853,347213423,4028193,48.526196,41.559998,100743.5,1.1559492,0
347441088,347429680,4028193,48.650387,41.559998,100742.0,1.1559321,0
347657460,347645936,4028193,48.819496,41.559998,100740.0,1.1559091,0
347841116,347804492,4028193,50.70083,41.555,100717.5,1.155651,0
347988593,347987984,4028193,53.75535,41.559998,100681.0,1.1552321,0
348205568,348204957,4028193,54.341946,41.559998,100674.0,1.1551517,0
348421753,348421145,4028193,54.172832,41.559998,100676.0,1.1551747,0
348637838,348637216,4028193,51.496162,41.559998,100708.0,1.1555419,0
348853984,348853375,4028193,49.152428,41.559998,100736.0,1.1558632,0
349048231,349015205,4028193,54.2706,41.55,100674.836,1.1551614,0
349177998,349177390,4028193,55.01045,41.559998,100666.0,1.155432,0
349400756,349400116,4028193,52.66671,41.55,100694.0,1.1557534,0
349617453,349616844,4028193,51.998203,41.55,100702.0,1.1558452,0
349833585,349832977,4028193,55.678955,41.559998,100658.0,1.1553401,0
350049788,350049180,4028193,55.76351,41.559998,100657.0,1.1553286,0
350244284,350211222,4028193,56.154575,41.559998,100652.336,1.1552751,0
350374084,350373477,4028193,58.358273,41.559998,100626.0,1.1549729,0
350590285,350589675,4028193,53.419777,41.559998,100685.0,1.15565,0
350806466,350805855,4028193,53.83726,41.559998,100680.0,1.1555927,0
351022657,351021962,4028193,59.02942,41.559998,100618.0,1.154881,0
351238829,351238220,4028193,54.508408,41.559998,100672.0,1.1555008,0
351448287,351447678,4028193,58.44282,41.55,100625.0,1.1549613,0
351643207,351610022,4028193,58.022694,41.55,100630.0,1.1550187,0
351860212,351827168,4028193,58.680634,41.559998,100622.164,1.1549288,0
351990040,351989410,4028193,57.60521,41.55,100635.0,1.1550761,0
352209461,352208838,4028193,58.524734,41.55,100624.0,1.1549498,0
352427793,352421699,4028193,59.19589,41.559998,100616.0,1.154858,0
352644844,352644236,4028193,54.843987,41.559998,100668.0,1.155827,0
352860898,352860289,4028193,59.02942,41.55,100618.0,1.155253,0
352979906,352968485,4028193,61.33088,41.555,100590.5,1.1549373,0
353210653,353199039,4028193,57.438744,41.55,100637.0,1.1554711,0
353427741,353416312,4028193,61.122135,41.55,100593.0,1.1549659,0
353644957,353633538,4028193,56.141365,41.559998,100652.5,1.1556491,0
353861017,353849583,4028193,59.57374,41.559998,100611.5,1.1551784,0
354044846,354008179,4028193,58.371483,41.55,100625.836,1.1553429,0
354260985,354224367,4028193,58.580227,41.55167,100623.336,1.1553143,0
354390640,354390009,4028193,63.048386,41.559998,100570.0,1.1547018,0
354606812,354606202,4028193,61.624176,41.55,100587.0,1.154897,0
354822953,354822289,4028193,63.634983,41.55,100563.0,1.1546215,0
355039151,355038541,4028193,62.044304,41.55,100582.0,1.1548396,0
355255426,355254768,4028193,54.925896,41.55,100667.0,1.1558156,0
355460803,355420572,4028193,58.60929,41.55,100623.0,1.1553104,0
355590558,355579101,4028193,62.87928,41.55,100572.0,1.1547248,0
355799281,355793255,4028193,59.822117,41.54,100608.5,1.1551439,0
356016906,356005484,4028193,59.808903,41.54,100608.664,1.1551458,0
356255148,356222139,4028193,60.503834,41.55,100600.4,1.155423,0
356395598,356380588,4028193,61.066647,41.55,100593.664,1.1553456,0
356647281,356617991,4028193,60.24224,41.535,100603.5,1.1550865,0
356777507,356776899,4028193,64.05247,41.55,100558.0,1.1549361,0
356995310,356994701,4028193,56.265553,41.55,100651.0,1.1556319,0
357211427,357210802,4028193,61.95975,41.55,100583.0,1.1548512,0
357427547,357426939,4028193,56.51657,41.55,100648.0,1.1559697,0
357643989,357643379,4028193,63.048386,41.55,100570.0,1.1550738,0
357860166,357859558,4028193,57.10317,41.54,100641.0,1.1558893,0
358047884,358019183,4028193,59.512966,41.55,100612.2,1.1555586,0
358254102,358229191,4028193,58.524734,41.55,100624.0,1.155694,0
358427499,358394483,4028193,61.2384,41.55,100591.6,1.155322,0
358611018,358610409,4028193,56.35011,41.54,100650.0,1.1559926,0
358827118,358826509,4028193,58.10725,41.54,100629.0,1.1557515,0
359043244,359042553,4028193,62.210773,41.54,100580.0,1.1551887,0
359259378,359258767,4028193,63.96791,41.54,100559.0,1.1549475,0
359367436,359366804,4028193,59.19589,41.55,100616.0,1.1556021,0
359597805,359586394,4028193,64.43032,41.53,100553.5,1.1548843,0
359815184,359803775,4028193,65.85453,41.54,100536.5,1.1546891,0
360031822,360020412,4028193,57.771675,41.54,100633.0,1.1557975,0
360248078,360236662,4028193,58.693848,41.54,100622.0,1.155671,0
360431926,360395300,4028193,63.38396,41.540005,100566.0,1.155028,0
360648363,360611571,4028193,62.979687,41.540005,100570.836,1.1550834,0
360778082,360777473,4028193,60.450985,41.54,100601.0,1.1554298,0
360994229,360993621,4028193,60.702007,41.55,100598.0,1.1553954,0
361210422,361209813,4028193,65.896805,41.54,100536.0,1.1546834,0
361426509,361425901,4028193,58.273716,41.54,100627.0,1.1557285,0
361642768,361642160,4028193,66.483406,41.54,100529.0,1.154603,0
361862782,361862174,4028193,58.524734,41.54,100624.0,1.155694,0
362057884,362024854,4028193,61.09307,41.535004,100593.336,1.1553419,0
362202182,362201564,4028193,57.940784,41.53,100631.0,1.1557744,0
362419746,362419136,4028193,58.10725,41.54,100629.0,1.1557515,0
362636355,362635671,4028193,59.362354,41.54,100614.0,1.1555792,0
362852414,362851806,4028193,59.78248,41.54,100609.0,1.1555218,0
363057698,363013882,4028193,62.68903,41.535713,100574.29,1.1551231,0
363176685,363176074,4028193,67.40557,41.54,100518.0,1.1544765,0
363392960,363392350,4028193,65.812256,41.54,100537.0,1.1546948,0
363609078,363608470,4028193,60.0335,41.53,100606.0,1.1554873,0
363825106,363824497,4028193,60.118053,41.53,100605.0,1.1558483,0
364041292,364040682,4028193,66.14783,41.53,100533.0,1.1546489,0
364257546,364256936,4028193,66.903534,41.54,100524.0,1.1545455,0
364452149,364419139,4028193,62.83964,41.540005,100572.5,1.1554748,0
364581934,364581315,4028193,59.867035,41.54,100608.0,1.1558827,0
364798154,364797544,4028193,58.358273,41.53,100626.0,1.1560895,0
365014280,365013672,4028193,65.05919,41.53,100546.0,1.1551704,0
365230376,365229766,4028193,66.73442,41.53,100526.0,1.1549406,0
365446772,365446162,4028193,62.37724,41.53,100578.0,1.155538,0
365652085,365608231,4028193,62.665253,41.53,100574.57,1.1554986,0
365781536,365780928,4028193,62.712814,41.52,100574.0,1.1554921,0
365997698,365997076,4028193,64.30349,41.53,100555.0,1.1552738,0
366213776,366213157,4028193,65.56123,41.53,100540.0,1.1551014,0
366430011,366429371,4028193,65.812256,41.53,100537.0,1.155067,0
366646279,366645671,4028193,63.96791,41.53,100559.0,1.1553198,0
366851504,366811282,4028193,62.239838,41.53,100579.664,1.1555572,0
366981141,366969726,4028193,59.19589,41.53,100616.0,1.1559746,0
367197228,367185815,4028193,56.93406,41.53,100643.0,1.1562848,0
367413343,367401930,4028193,63.25713,41.53,100567.5,1.1554174,0
367629454,367618004,4028193,57.523296,41.525,100636.0,1.1562045,0
367838177,367832131,4028193,60.411354,41.53,100601.5,1.155808,0
368056197,368044776,4028193,60.199966,41.53,100604.0,1.1558368,0
368218910,368203780,4028193,60.95567,41.523335,100595.0,1.1557335,0
368435033,368420008,4028193,61.930687,41.523335,100583.336,1.1555994,0
368651408,368636316,4028193,62.044304,41.53,100582.0,1.155584,0
368824424,368802198,4028193,60.680866,41.525,100598.25,1.1557707,0
369040603,369018350,4028193,60.598957,41.525,100599.25,1.1557822,0
369173775,369173166,4028193,60.199966,41.52,100604.0,1.1558368,0
369390637,369389997,4028193,64.97464,41.52,100547.0,1.1551819,0
369607833,369607224,4028193,64.137024,41.52,100557.0,1.1556691,0
369824027,369823353,4028193,59.948944,41.52,100607.0,1.1562438,0
370040247,370039638,4028193,64.55715,41.52,100552.0,1.1556118,0
370256523,370255879,4028193,61.8752,41.52,100584.0,1.1559794,0
370451181,370418119,4028193,62.07073,41.52,100581.664,1.1559526,0
370580811,370580203,4028193,63.46587,41.52,100565.0,1.155761,0
370797082,370796473,4028193,57.10317,41.52,100641.0,1.1566346,0
371013179,371012570,4028193,56.683037,41.52,100646.0,1.1566919,0
371229215,371228606,4028193,56.767593,41.52,100645.0,1.1566805,0
371445541,371444932,4028193,56.683037,41.52,100646.0,1.1566919,0
371661679,371661072,4028193,57.185078,41.52,100640.0,1.1566231,0
371769880,371769271,4028193,65.225655,41.52,100544.0,1.1555198,0
371986013,371985404,4028193,58.022694,41.52,100630.0,1.1565081,0
372223395,372222786,4028193,64.97464,41.51,100547.0,1.1555542,0
372439505,372438896,4028193,60.620094,41.52,100599.0,1.1561519,0
372616449,372601418,4028193,62.239838,41.51,100579.664,1.1559296,0
372838303,372826891,4028193,58.022694,41.51,100630.0,1.1565081,0
373056334,373044916,4028193,57.06089,41.504997,100641.5,1.1566403,0
373240905,373204288,4028193,62.364025,41.51166,100578.164,1.1559124,0
373456974,373420352,4028193,60.062565,41.51166,100605.664,1.1562284,0
373586756,373586114,4028193,65.812256,41.51,100537.0,1.1554394,0
373802824,373802215,4028193,62.210773,41.52,100580.0,1.1559334,0
374019083,374018474,4028193,59.111332,41.51,100617.0,1.1563587,0
374256613,374245204,4028193,57.229996,41.5,100639.5,1.1566173,0
374440280,374403630,4028193,61.653244,41.508327,100586.664,1.15601,0
374656551,374619880,4028193,61.470924,41.51,100588.836,1.1560351,0
374800291,374799682,4028193,60.53554,41.5,100600.0,1.1561633,0
375016909,375016271,4028193,64.97464,41.5,100547.0,1.1555542,0
375234280,375233672,4028193,56.43466,41.51,100649.0,1.1567265,0
375450538,375449917,4028193,64.808174,41.51,100549.0,1.1555772,0
375645103,375612040,4028193,60.020287,41.51,100606.164,1.1562343,0
375861184,375828160,4028193,61.94654,41.504997,100583.164,1.1563427,0
375990962,375990354,4028193,57.269634,41.5,100639.0,1.1569846,0
376207215,376206594,4028193,65.812256,41.51,100537.0,1.155812,0
376423427,376422818,4028193,57.185078,41.51,100640.0,1.1569961,0
376639735,376639114,4028193,62.126217,41.5,100581.0,1.1563178,0
376855953,376855317,4028193,60.369076,41.51,100602.0,1.1565592,0
376964019,376963392,4028193,56.93406,41.5,100643.0,1.1570306,0
377180212,377179604,4028193,65.47668,41.51,100541.0,1.1558579,0
377396386,377395777,4028193,57.269634,41.5,100639.0,1.1569846,0
377612682,377612073,4028193,65.56123,41.5,100540.0,1.1558465,0
377828992,377828382,4028193,57.10317,41.5,100641.0,1.1570076,0
378045171,378044482,4028193,65.64579,41.5,100539.0,1.1558349,0
378239626,378206592,4028193,59.711136,41.5,100609.836,1.1566494,0
378455725,378422699,4028193,62.44858,41.5,100577.164,1.1562737,0
378585463,378584854,4028193,59.19589,41.5,100616.0,1.1567202,0
378801548,378800940,4028193,62.295326,41.5,100579.0,1.1562948,0
379017740,379017131,4028193,62.712814,41.5,100574.0,1.1562374,0
379233885,379233276,4028193,58.60929,41.5,100623.0,1.1568006,0
379450180,379449552,4028193,61.373158,41.5,100590.0,1.1564213,0
379655534,379611653,4028193,60.739002,41.49714,100597.57,1.1565083,0
379774400,379773792,4028193,62.37724,41.5,100578.0,1.1562833,0
379990560,379989951,4028193,64.22157,41.5,100556.0,1.1560304,0
380206722,380206114,4028193,57.269634,41.5,100639.0,1.1569846,0
380422880,380422270,4028193,61.708733,41.5,100586.0,1.1563753,0
380639331,380638723,4028193,64.97464,41.5,100547.0,1.155927,0
380826407,380801414,4028193,60.892254,41.48,100595.75,1.1564873,0
381044322,381025700,4028193,61.95975,41.496666,100583.0,1.1563408,0
381217642,381184592,4028193,62.02581,41.489998,100582.2,1.1563317,0
381433894,381400835,4028193,62.59655,41.489998,100575.4,1.1562533,0
381650026,381617015,4028193,61.60568,41.489998,100587.2,1.1563891,0
381790587,381775531,4028193,60.89754,41.489998,100595.664,1.1564864,0
382006736,381991724,4028193,63.048386,41.489998,100570.0,1.1561913,0
382222938,382207912,4028193,60.255455,41.5,100603.336,1.1569476,0
382438978,382423967,4028193,62.852856,41.489998,100572.336,1.1565912,0
382655146,382640104,4028193,60.871117,41.483334,100596.0,1.1568633,0
382828099,382805845,4028193,61.100998,41.495,100593.25,1.1568316,0
383044205,383021993,4028193,61.2886,41.489998,100591.0,1.1568058,0
383260541,383238287,4028193,61.539623,41.485,100588.0,1.1567713,0
383422629,383404017,4028193,59.557884,41.489998,100611.664,1.1570433,0
383639110,383620443,4028193,60.64652,41.489998,100598.664,1.156894,0
383855828,383837145,4028193,59.557884,41.489998,100611.664,1.1570433,0
384043161,384042553,4028193,58.44282,41.489998,100625.0,1.1571968,0
384259527,384258917,4028193,59.280437,41.469997,100615.0,1.1570817,0
384368126,384367517,4028193,58.44282,41.469997,100625.0,1.1571968,0
384585643,384585030,4028193,59.362354,41.48,100614.0,1.1570703,0
384802280,384801671,4028193,59.613373,41.489998,100611.0,1.1570358,0
385019003,385018392,4028193,58.693848,41.48,100622.0,1.1571622,0
385235688,385235080,4028193,58.944862,41.48,100619.0,1.1571277,0
385452280,385451671,4028193,59.19589,41.489998,100616.0,1.1570932,0
385646800,385613779,4028193,59.58695,41.48,100611.336,1.1570396,0
385787078,385786470,4028193,60.199966,41.469997,100604.0,1.1569552,0
386003484,386002874,4028193,60.620094,41.48,100599.0,1.1568978,0
386235163,386223665,4028193,59.948944,41.475,100607.0,1.1569897,0
386453291,386441827,4028193,59.53146,41.48,100612.0,1.1570473,0
386637454,386600717,4028193,59.19589,41.48,100616.0,1.1570932,0
386853898,386817264,4028193,59.41784,41.48,100613.336,1.1570625,0
386983539,386982930,4028193,59.78248,41.48,100609.0,1.1566397,0
387200237,387199552,4028193,59.78248,41.48,100609.0,1.1566397,0
387416843,387416234,4028193,59.613373,41.48,100611.0,1.1570358,0
387633466,387632854,4028193,59.53146,41.48,100612.0,1.1570473,0
387849811,387849169,4028193,60.0335,41.469997,100606.0,1.1566052,0
388055124,388014879,4028193,59.85118,41.475,100608.164,1.15663,0
388184985,388173558,4028193,60.450985,41.475,100601.0,1.1569207,0
388411942,388400534,4028193,59.23816,41.464996,100615.5,1.1570874,0
388628016,388616606,4028193,60.24224,41.469997,100603.5,1.1565765,0
388844399,388832971,4028193,59.15361,41.48,100616.5,1.1567259,0
389060762,389049341,4028193,57.145447,41.469997,100640.5,1.1570019,0
389244443,389207804,4028193,57.158653,41.47333,100640.336,1.157,0
389374481,389373873,4028193,57.10317,41.48,100641.0,1.1570076,0
389591202,389590593,4028193,57.438744,41.469997,100637.0,1.1569616,0
389807903,389807236,4028193,56.51657,41.469997,100648.0,1.157088,0
390024525,390023916,4028193,55.176914,41.469997,100664.0,1.157272,0
390241098,390240490,4028193,54.341946,41.48,100674.0,1.1573869,0
390457371,390456761,4028193,53.921814,41.469997,100679.0,1.1574445,0
390576279,390564830,4028193,52.58216,41.469997,100695.0,1.1576284,0
390792651,390781227,4028193,52.500244,41.475,100696.0,1.1576399,0
391008824,390997409,4028193,53.75535,41.475,100681.0,1.1574675,0
391225495,391214003,4028193,50.616276,41.469997,100718.5,1.1578985,0
391441787,391430380,4028193,51.871376,41.469997,100703.5,1.157726,0
391658019,391646531,4028193,51.57808,41.469997,100707.0,1.1577663,0
391841965,391805330,4028193,50.854084,41.469997,100715.664,1.1578659,0
392058143,392021503,4028193,49.960976,41.475,100726.336,1.1579885,0
392188047,392187363,4028193,50.322975,41.48,100722.0,1.1579388,0
392404722,392404114,4028193,47.47984,41.48,100756.0,1.1583296,0
392621375,392620766,4028193,49.152428,41.469997,100736.0,1.1580997,0
392837567,392836960,4028193,49.152428,41.469997,100736.0,1.1580997,0
393053988,393053379,4028193,49.236984,41.469997,100735.0,1.1580882,0
393259721,393219426,4028193,49.5567,41.478333,100731.164,1.1580442,0
393389516,393378060,4028193,49.44573,41.48,100732.5,1.1580595,0
393605641,393594169,4028193,50.28334,41.475,100722.5,1.1579446,0
393822078,393810611,4028193,49.194706,41.469997,100735.5,1.1580939,0
394038788,394027325,4028193,50.95185,41.475,100714.5,1.1578526,0
394254830,394239778,4028193,51.57808,41.469997,100707.0,1.1577663,0
394428205,394405899,4028193,50.40753,41.469997,100721.0,1.1579273,0
394644608,394622355,4028193,52.05898,41.469997,100701.25,1.1577002,0
394860764,394838553,4028193,51.765682,41.469997,100704.75,1.1573672,0
395023019,395004408,4028193,52.637646,41.469997,100694.336,1.1576208,0
395239351,395220739,4028193,53.337864,41.469997,100686.0,1.157525,0
395455768,395437025,4028193,53.781773,41.47333,100680.664,1.1570904,0
395628866,395595737,4028193,53.65494,41.471996,100682.2,1.1571081,0
