timestamp,timestamp_sample,xyz[0],xyz[1],xyz[2]
217458968,217458880,-0.20979904,-0.34466064,-9.813479
217463831,217463744,-0.21137902,-0.34613666,-9.806895
217512466,217512382,-0.21302156,-0.36158714,-9.794332
217561106,217561020,-0.20886995,-0.33813977,-9.799552
217609747,217609662,-0.20905033,-0.353443,-9.774567
217658542,217658303,-0.2028537,-0.3443099,-9.807628
217711892,217711808,-0.21381909,-0.34366035,-9.780688
217760529,217760446,-0.19820029,-0.36254483,-9.788992
217809312,217809083,-0.20030674,-0.36650017,-9.798325
217862672,217862586,-0.18358329,-0.34719217,-9.792534
217911304,217911221,-0.20355548,-0.36019245,-9.761709
217959954,217959856,-0.19605519,-0.33957022,-9.801684
218008580,218008490,-0.21371076,-0.33401978,-9.806707
218062072,218061984,-0.20675772,-0.36024573,-9.78827
218110703,218110619,-0.21722728,-0.33068666,-9.79358
218159343,218159257,-0.2096296,-0.3483999,-9.818451
218207976,218207891,-0.20441344,-0.3509329,-9.784265
218261479,218261390,-0.19747329,-0.36490816,-9.797235
218310109,218310024,-0.21681532,-0.32773343,-9.793838
218358742,218358660,-0.21307945,-0.3559177,-9.785856
218407374,218407292,-0.2053831,-0.34416115,-9.793557
218456093,218455928,-0.20227411,-0.34031007,-9.787646
218509993,218509910,-0.19982012,-0.341292,-9.792274
218558646,218558539,-0.21688482,-0.3446433,-9.7753
218607250,218607167,-0.21618883,-0.34039274,-9.786343
218655892,218655797,-0.20838045,-0.35596204,-9.765026
218709377,218709294,-0.19943698,-0.35082117,-9.811789
218758011,218757930,-0.205783,-0.3336385,-9.812232
218806648,218806565,-0.21594296,-0.35009497,-9.794621
218860140,218860053,-0.19675763,-0.3504755,-9.796663
218908771,218908680,-0.20226453,-0.35266885,-9.796219
218957394,218957305,-0.22321506,-0.3421592,-9.787539
219006106,219005931,-0.20217164,-0.35491106,-9.803724
219059516,219059418,-0.20297031,-0.35478982,-9.788759
219108245,219108045,-0.21063735,-0.34568605,-9.806277
219156756,219156674,-0.21811266,-0.3411741,-9.799469
219205384,219205301,-0.2369187,-0.35221383,-9.805804
219258907,219258790,-0.19911774,-0.3340761,-9.80744
219307506,219307425,-0.25584164,-0.3339581,-9.841781
219356138,219356057,-0.17338221,-0.27815056,-9.79592
219409631,219409548,-0.21242172,-0.3767874,-9.823096
219458260,219458177,-0.19833036,-0.29389665,-9.806377
219506889,219506807,-0.20317963,-0.3246894,-9.776377
219555523,219555439,-0.17035967,-0.33182856,-9.892016
219609550,219609421,-0.16908258,-0.41061422,-9.744972
219658139,219658046,-0.230602,-0.24335167,-9.605258
219706754,219706672,-0.22145668,-0.38316688,-9.976742
219760251,219760162,-0.1964326,-0.31181607,-9.801839
219808874,219808791,-0.20142938,-0.20413639,-9.729341
219857499,219857418,-0.26854062,-0.3075777,-9.806003
219906180,219906049,-0.23262373,-0.22290023,-9.621364
219959631,219959545,-0.1574834,-0.3719994,-9.943223
220008260,220008175,-0.18335941,-0.26544335,-9.728661
220056885,220056804,-0.14526172,-0.2848794,-9.669938
220110397,220110297,-0.09744166,-0.44983077,-9.797741
220159086,220158928,-0.14519615,-0.1903036,-9.736979
220207642,220207558,-0.2158949,-0.38886863,-9.754144
220256269,220256189,-0.10435017,-0.19882657,-9.823624
220309766,220309684,-0.2745838,-0.27104852,-9.64943
220358396,220358313,-0.18717699,-0.2144483,-9.793606
220407189,220406942,-0.19251534,-0.25518203,-9.745359
220460515,220460432,-0.12928279,-0.32092315,-10.097161
220509143,220509061,-0.34060615,-0.2940554,-9.841853
220557824,220557692,-0.06088009,-0.17421837,-9.777264
220606429,220606322,-0.085637175,-0.29031256,-9.868822
220659902,220659818,-0.28533447,-0.14817822,-9.75403
220708546,220708447,-0.11858147,-0.20084256,-9.971626
220757658,220757567,-0.15963474,-0.19768104,-9.732369
220806283,220806200,-0.23171692,-0.15930925,-9.611709
220859784,220859697,-0.35343015,-0.3495656,-9.940567
220908490,220908328,-0.12194413,0.02129873,-9.907263
220957038,220956956,-0.12294892,-0.24121165,-10.132013
221010532,221010451,-0.1300446,-0.13980879,-9.663285
221059164,221059083,-0.10546832,0.040695913,-9.750967
221107800,221107717,-0.25340012,-0.37821046,-9.776542
221161296,221161215,-0.23944357,-0.13069256,-10.014376
221209934,221209853,-0.03188007,-0.2102257,-9.717586
221258571,221258488,-0.11409992,-0.07792864,-9.847074
221307208,221307126,-0.19157045,-0.18967927,-10.1503
221360704,221360622,-0.21414785,-0.31294858,-9.750006
221409338,221409255,-0.19505122,-0.13297035,-9.916903
221457970,221457888,0.0032185277,-0.14199519,-9.416153
221511480,221511381,-0.18205173,-0.27873382,-9.85359
221560098,221560014,-0.05020029,0.039614554,-9.744648
221608832,221608646,0.16672543,-0.1416352,-9.621067
221657360,221657277,0.00011052813,-0.03214046,-9.4631405
221710862,221710772,0.17269957,-0.09879714,-9.61539
221759482,221759399,-0.037153073,-0.13292223,-9.733134
221808112,221808029,0.3099968,-0.14225255,-10.097166
221861707,221861525,0.32408646,-0.23261979,-10.157928
221910725,221910643,0.14294289,0.130004,-9.837837
221959359,221959276,0.38556194,0.2751788,-9.864186
222007985,222007904,0.4290015,0.17148839,-9.568264
222061471,222061389,0.31629547,-0.08832673,-9.48583
222110099,222110016,0.1377021,-0.43556675,-10.164749
222158738,222158642,-0.01048797,-0.4254567,-10.018802
222212369,222212131,0.06180549,-0.4612569,-10.17879
222260841,222260758,0.38465723,-0.07681001,-9.747643
222309471,222309388,0.20251253,0.0017448103,-9.508405
222358095,222358013,0.4076321,-0.21878758,-10.04387
222411583,222411502,-0.006706247,0.021758664,-10.273781
222460211,222460129,0.19955514,-0.022892851,-9.879207
222508909,222508757,0.3461949,0.26475224,-9.663259
222562330,222562248,0.0849895,-0.30946767,-9.633143
222610958,222610875,0.0052631986,-0.9196056,-10.387071
222659584,222659501,0.4918906,-0.4041419,-9.5241165
222708208,222708126,0.45914552,-0.11864523,-9.641851
222761697,222761613,-0.017410906,0.31362006,-9.275212
222810324,222810242,0.007511017,0.037663966,-11.186641
222858969,222858872,0.17258713,0.13647981,-8.962955
222912434,222912353,-0.10272501,-0.03765066,-8.537996
222961060,222960976,-0.38027635,-0.11557381,-9.685655
223009683,223009597,-0.16534542,0.021827968,-10.483165
223058806,223058711,-0.33677766,-0.21901219,-9.034934
223112283,223112201,-0.5292289,-0.4229774,-10.760689
223160909,223160823,-0.20360248,-0.18076327,-9.540535
223209530,223209447,-0.128693,-0.4296022,-10.149446
223263010,223262929,-0.23153748,-0.6140644,-10.077091
223311645,223311550,-0.1133345,-0.5612764,-10.262494
223360256,223360173,-0.3068853,-0.4462734,-10.410053
223408982,223408797,-0.40715823,-0.41413498,-10.444987
223462367,223462284,-0.075968176,-0.43844348,-9.509713
223510993,223510911,-0.19062348,-0.38050932,-10.398995
223559624,223559538,-0.029339697,-0.24153203,-10.421663
223613111,223613029,-0.40129322,-0.058927108,-10.250295
223661750,223661661,-0.27478677,-0.2930923,-10.245561
223710375,223710292,-0.3019935,0.031069623,-9.908493
223759008,223758925,-0.449055,0.03331061,-10.17688
223812589,223812421,-0.3815182,0.04637922,-9.96649
223861133,223861047,-0.25272936,-0.2580441,-9.94656
223909757,223909675,-0.27488193,-0.07015827,-9.838667
223958384,223958303,-0.1868046,-0.14882159,-9.771373
224011878,224011797,-0.36872464,-0.37669304,-8.848695
224060509,224060427,-0.26559588,-0.20326068,-9.111342
224109133,224109046,-0.25537625,-0.45679563,-10.012551
224162623,224162539,-0.32472402,0.0548625,-9.81715
224211723,224211642,-0.14435758,-0.18017112,-9.627527
224260350,224260267,-0.38861996,0.10809385,-9.930701
224309091,224308896,-0.30803367,-0.2924416,-10.393876
224357604,224357523,-0.2885383,-0.095145054,-10.082821
224411092,224411009,-0.5897377,-0.11429996,-9.945659
224459711,224459629,-0.46971023,-0.03159426,-9.951699
224508332,224508251,-0.39903536,-0.21464042,-10.161395
224556966,224556885,-0.54759794,-0.22287281,-9.93338
224610458,224610377,-0.24958186,-0.28804904,-9.799736
224659096,224659007,-0.19855109,-0.36088088,-10.156895
224707722,224707638,-0.106477894,-0.34465387,-9.852919
224761219,224761134,-0.5679812,-0.15198769,-10.247839
224809847,224809765,-0.53284395,-0.28379565,-10.488509
224858479,224858398,-0.41517177,0.026025238,-10.328282
224907111,224907029,-0.39439446,-0.37142214,-10.230291
224960609,224960525,-0.35976633,-0.34503174,-10.2644825
225009278,225009159,-0.34305727,-0.3493548,-9.884616
225057870,225057787,-0.36762604,-0.36295018,-9.913556
225106734,225106419,-0.33965415,-0.21710746,-10.214473
225159994,225159911,-0.32430056,-0.15320411,-9.736663
225208625,225208540,-0.37253407,-0.20708495,-9.884899
225257252,225257171,-0.38573843,-0.21506117,-9.790825
225305882,225305799,-0.25855762,-0.13179329,-9.644715
225360348,225360265,-0.77048856,-0.29834133,-10.359919
225408990,225408895,-0.55233747,-0.18719359,-10.441619
225457607,225457523,-0.44501585,-0.23120514,-10.51341
225506239,225506155,-0.5105012,-0.28980392,-10.384904
225559732,225559649,-0.43259904,-0.14754702,-10.099232
225608362,225608281,-0.41990057,-0.20310509,-9.963536
225656990,225656908,-0.41327587,-0.2760235,-10.081544
225705624,225705537,-0.36695024,-0.30351532,-10.008129
225759182,225759028,-0.32461095,-0.14180548,-9.801561
225807760,225807662,-0.38647228,-0.22106363,-9.825551
225856373,225856291,-0.41419306,-0.2777901,-9.842815
225909866,225909782,-0.38814196,-0.09305661,-9.827578
225958556,225958414,-0.40800512,-0.01220172,-9.853754
226007125,226007044,-0.44386676,0.0001802083,-9.938644
226060623,226060536,-0.46583068,-0.030654257,-10.301076
226109346,226109168,-0.4654452,-0.13940108,-10.292302
226157881,226157799,-0.3426914,-0.14698444,-10.157249
226206539,226206431,-0.3101047,-0.20438613,-10.149112
226260012,226259930,-0.43670937,-0.18711722,-10.036464
226308647,226308563,-0.40964288,-0.13817397,-9.93956
226357281,226357195,-0.42873338,-0.14277357,-9.903662
226410769,226410686,-0.34149027,-0.22869273,-10.050697
226459409,226459318,-0.33760163,-0.18176267,-10.051898
226508517,226508435,-0.4268283,-0.3279651,-10.026168
226557151,226557066,-0.4918533,-0.1652745,-9.9723835
226610639,226610557,-0.38968933,-0.08460109,-9.80613
226659261,226659181,-0.38209984,-0.19492412,-9.847758
226707887,226707804,-0.37942508,-0.15483156,-9.887818
226761371,226761290,-0.47803947,-0.16514573,-9.705416
226809998,226809915,-0.3609221,-0.17835405,-9.842133
226858624,226858538,-0.4020286,-0.20730539,-9.717642
226907240,226907158,-0.44010675,-0.15849712,-9.603221
226960721,226960638,-0.5981998,-0.07147007,-10.199257
227009349,227009258,-0.686543,-0.03172365,-10.10272
227057962,227057880,-0.70986706,0.0021604258,-10.118797
227111446,227111362,-0.30479324,-0.33022705,-9.737872
227160064,227159982,-0.29072458,-0.19643515,-9.833318
227208682,227208598,-0.34336004,-0.13552514,-9.920591
227257305,227257214,-0.31027257,-0.1402084,-9.948261
227305912,227305829,-0.39583573,-0.15547381,-9.951374
227359395,227359307,-0.39620316,-0.1320734,-9.7980585
227408142,227407920,-0.411847,-0.1502877,-9.8589325
227461480,227461398,-0.46286616,-0.16633889,-10.191704
227510096,227510012,-0.4528834,-0.14756534,-10.124812
227558778,227558627,-0.5424923,-0.03501494,-9.988415
227607324,227607242,-0.55104476,0.005636685,-10.131034
227661288,227661206,-0.283491,-0.06843006,-9.498218
227709903,227709820,-0.2251346,-0.14794888,-9.562222
227758546,227758441,-0.24672939,-0.0721739,-9.660276
227812034,227811924,-0.48554942,-0.016727848,-9.940335
227860629,227860545,-0.45953247,0.024786834,-9.987335
227909376,227909162,-0.49031362,0.09535321,-9.795429
227957859,227957778,-0.28195706,0.08080395,-9.853331
228011341,228011259,-0.35378674,-0.10741136,-10.027117
228060099,228059876,-0.25878417,-0.02913157,-9.947164
228108575,228108493,-0.18347402,-0.06355498,-9.757964
228162059,228161978,-0.34591317,-0.35989085,-10.014179
228210724,228210599,-0.41165924,-0.13524878,-9.878133
228259398,228259220,-0.25379905,0.01600309,-9.671094
228307927,228307844,-0.20213738,-0.31651667,-9.531712
228361415,228361333,-0.33270305,-0.087024726,-10.082006
228410038,228409954,-0.2135483,0.0381586,-9.666346
228458658,228458578,-0.20141055,-0.08660899,-9.8243685
228512147,228512066,-0.35443437,-0.041846156,-10.028071
228560778,228560694,-0.3405198,-0.012105876,-9.681258
228609428,228609318,-0.08638998,-0.096383356,-9.796543
228658024,228657942,-0.22510427,-0.0059872433,-9.621491
228711515,228711431,-0.36470038,-0.054085072,-10.124518
228760144,228760061,-0.21098533,-0.038354162,-9.851403
228809261,228809167,-0.2004317,0.042087432,-9.587851
228857869,228857788,-0.19648723,-0.21019527,-9.418932
228911359,228911274,-0.40471843,-0.27866724,-9.911416
228959984,228959900,-0.2512316,-0.113903165,-9.729532
229008608,229008523,0.014535863,-0.1931816,-9.962745
229062089,229062008,-0.2256883,-0.05086668,-9.918721
229110713,229110628,-0.27450454,-0.05505303,-9.682909
229159475,229159250,-0.15085837,-0.046988584,-9.68482
229212819,229212738,-0.22487836,-0.17063704,-9.958462
229261444,229261360,-0.3715603,-0.14603503,-9.793527
229310055,229309973,-0.12525035,-0.1791237,-9.573213
229358673,229358589,-0.16480286,-0.1289068,-9.362926
229412161,229412065,-0.2880877,-0.15061963,-10.058984
229460756,229460675,-0.31381443,-0.051668804,-9.8649235
229509530,229509289,-0.27686232,-0.10117823,-9.47411
229557984,229557901,0.0035473956,-0.21190982,-9.562861
229611467,229611373,-0.210277,-0.16496032,-9.857722
229660083,229659986,-0.3990454,-0.06900657,-9.6314
229708686,229708599,-0.115741014,-0.35663074,-9.774711
229762153,229762070,-0.12320889,-0.21633728,-9.7941885
229810773,229810681,-0.00916514,-0.28594518,-9.47896
229859394,229859296,-0.024237696,-0.4336022,-9.413433
229912858,229912775,-0.27130148,-0.3426001,-9.822199
229962035,229961873,-0.22317427,-0.12808196,-9.732968
230010569,230010486,-0.07815509,-0.38240817,-9.834779
230059192,230059102,-0.09921506,-0.37735462,-9.891046
230112667,230112583,-0.27496058,-0.17599511,-9.583343
230161296,230161207,-0.18199274,-0.17124239,-9.6724615
230209911,230209828,-0.04073401,-0.28080884,-9.630013
230258530,230258447,0.054742027,-0.31469765,-9.620817
230312076,230311925,-0.11141225,-0.17806089,-9.9549465
230360628,230360543,-0.12880386,-0.123849735,-9.588306
230409247,230409167,-0.14017966,-0.21730533,-9.693815
230457947,230457785,-0.13240959,-0.39619127,-9.704512
230511351,230511269,-0.19364105,-0.25604445,-9.616708
230559974,230559889,-0.16853538,-0.20971191,-9.510195
230608593,230608511,0.011595428,-0.46000442,-9.575853
230662104,230661997,-0.344451,-0.21672349,-10.148855
230710704,230710620,-0.26932845,-0.25938645,-10.040204
230759318,230759237,-0.2369165,-0.20037627,-9.866968
230807949,230807856,-0.22505586,-0.14512691,-9.7669735
230861421,230861338,-0.13922557,-0.35872298,-9.906462
230910040,230909957,-0.22817264,-0.23883675,-9.89109
230958656,230958573,-0.2671222,-0.33484554,-9.831243
231012135,231012052,-0.30250144,-0.3537353,-10.129448
231060758,231060674,-0.4097815,-0.39146453,-10.109526
231109932,231109787,-0.45148593,-0.19488089,-9.945593
231158492,231158410,-0.3087315,-0.2480301,-9.8434305
231207147,231207031,-0.3025193,-0.3437063,-9.84227
231260596,231260508,-0.2555404,-0.22486529,-9.745743
231309202,231309121,-0.25271162,-0.21774971,-9.692163
231357818,231357736,-0.22103728,-0.2704716,-9.744396
231406434,231406353,-0.15303518,-0.3428836,-9.861866
231460009,231459831,-0.14729385,-0.22945456,-9.870166
231508529,231508446,-0.16333292,-0.29988968,-9.756752
231557186,231557061,-0.045069102,-0.5035965,-9.702908
231610624,231610536,-0.39625856,-0.30665493,-10.079076
231659236,231659155,-0.3216128,-0.21901618,-9.809966
231707853,231707771,-0.29036647,-0.4090819,-9.6372595
231756470,231756387,-0.23881695,-0.27912012,-9.704336
231809956,231809862,-0.1383126,-0.33015707,-9.429142
231858559,231858477,-0.122611836,-0.42501816,-9.70529
231907214,231907092,-0.1700334,-0.340163,-9.845351
231960653,231960569,-0.08543594,-0.33753464,-9.502161
232009264,232009183,-0.049572427,-0.39082348,-9.649723
232057878,232057795,-0.08288221,-0.37990803,-9.8678465
232106493,232106410,-0.15752624,-0.3456911,-9.897353
232159998,232159882,-0.123018906,-0.31688356,-9.982025
232208595,232208492,-0.20890947,-0.26756337,-9.828141
232257670,232257589,-0.2264626,-0.35922426,-9.871002
232306285,232306201,-0.2677582,-0.2633123,-9.829566
232359766,232359683,-0.31669566,-0.2655037,-10.039597
232408386,232408304,-0.43277386,-0.29595125,-9.988819
232457006,232456923,-0.45399255,-0.30389038,-9.973329
232505632,232505546,-0.23587659,-0.2751152,-9.485775
232559117,232559034,-0.44739372,-0.23704872,-10.154587
232607748,232607659,-0.42448607,-0.20996201,-9.939101
232656366,232656285,-0.35558313,-0.22807975,-9.689614
232709894,232709775,-0.5042158,-0.17230979,-10.105577
232758480,232758399,-0.39223868,-0.10790934,-9.88341
232807122,232807027,-0.35364518,-0.27062863,-9.705538
232855820,232855657,-0.1949089,-0.32312796,-9.535382
232909234,232909150,-0.5077073,-0.124099724,-10.117163
232957861,232957780,-0.32832143,-0.11893978,-9.646271
233006485,233006404,-0.06997913,-0.2769468,-9.295006
233060005,233059894,-0.37776574,-0.18471782,-9.881724
233108603,233108519,-0.28257713,-0.1919873,-9.504332
233157321,233157143,-0.087798655,-0.14372188,-9.297424
233205850,233205767,-0.08536017,-0.22367108,-9.3855915
233259331,233259250,-0.262141,-0.17896976,-9.5614805
233307962,233307868,-0.21522337,-0.09377962,-9.435627
233356567,233356485,-0.20915669,-0.20164257,-9.64404
233405671,233405589,-0.3364271,-0.20422225,-9.807149
233459187,233459072,-0.26103684,-0.17200041,-9.715555
233507774,233507692,-0.3969614,-0.11378798,-9.845827
233556400,233556314,-0.4105672,-0.12597722,-9.9618225
233609872,233609792,-0.3413468,-0.19875675,-9.991311
233658492,233658411,-0.49453795,-0.18870631,-10.190377
233707111,233707028,-0.57906294,-0.116618596,-10.054743
233755731,233755648,-0.392874,-0.22657903,-9.767297
233809216,233809130,-0.5410962,-0.24158348,-10.238445
233857829,233857747,-0.54022557,-0.2514313,-10.085247
233906451,233906365,-0.34111002,-0.21123806,-9.928195
233959934,233959843,-0.41617826,-0.23027544,-10.160041
234008544,234008462,-0.408737,-0.2827762,-10.1771555
234057166,234057082,-0.36788747,-0.2793844,-10.02334
234110647,234110565,-0.36303023,-0.26925167,-9.924551
234159298,234159185,-0.35734665,-0.24247918,-9.9942
234207890,234207805,-0.2584927,-0.28197405,-9.826489
234256509,234256427,-0.1763493,-0.18935788,-9.575766
234309990,234309903,-0.42240614,-0.18156318,-9.863992
234358603,234358519,-0.29924172,-0.23821552,-9.664419
234407234,234407134,-0.1701516,-0.28381518,-9.557056
234460695,234460608,-0.40311983,-0.33955044,-10.103355
234509303,234509220,-0.38907698,-0.28467682,-9.9149065
234558398,234558317,-0.30445838,-0.29818928,-9.740889
234607014,234606929,-0.19297983,-0.22746351,-9.686445
234660506,234660405,-0.28192428,-0.3204158,-9.879423
234709115,234709016,-0.18921077,-0.39677498,-9.937467
234757726,234757628,-0.2322775,-0.36256313,-9.833367
234811189,234811105,-0.2764754,-0.29307535,-9.793543
234859815,234859721,-0.11495023,-0.3088991,-9.766084
234908419,234908338,-0.058260612,-0.28709257,-9.674038
234957037,234956954,-0.17544529,-0.30078104,-9.69306
235010517,235010434,-0.3087796,-0.20141007,-10.112579
235059135,235059052,-0.25411317,-0.25265235,-10.515443
235107761,235107670,-0.2500262,-0.22209466,-11.020806
235161229,235161147,-0.38662457,-0.22128657,-11.289864
235209860,235209764,-0.3671854,-0.34447092,-11.638692
235258629,235258391,-0.43378597,-0.42496124,-12.338551
235307099,235307015,-0.42003986,-0.23504731,-12.086727
235360585,235360500,-0.37984014,-0.2831518,-12.678059
235409267,235409115,-0.31370196,-0.3782089,-11.870274
235457805,235457724,-0.4444353,-0.3210938,-12.549379
235511282,235511199,-0.48245072,-0.18271711,-12.190404
235560051,235559815,-0.39277294,-0.31568405,-12.915595
235608509,235608427,-0.43084022,-0.41123435,-12.455592
235657130,235657041,-0.44817677,-0.37144944,-12.929348
235711087,235711006,-0.4922633,-0.3482357,-12.5514145
235759710,235759617,-0.26567125,-0.38189033,-11.948388
235808314,235808229,-0.35391256,-0.38261774,-11.639824
235861787,235861704,-0.35926768,-0.34699523,-11.219765
235910575,235910324,-0.2606816,-0.44086394,-10.748909
235959021,235958939,-0.39406422,-0.3058964,-10.424229
236007639,236007557,-0.2927685,-0.38311648,-10.357188
236061213,236061035,-0.3264668,-0.2678742,-10.088107
236109729,236109648,-0.2285983,-0.26972553,-9.911219
236158347,236158265,-0.4487134,-0.37321636,-9.785481
236211852,236211749,-0.13160133,-0.14671311,-9.040115
236260454,236260370,-0.25638953,-0.21325119,-8.918874
236309086,236308993,-0.20925134,-0.26609933,-9.060571
236357701,236357618,-0.14685194,-0.278153,-9.118218
236411187,236411102,-0.24417748,-0.28885767,-9.321178
236459806,236459725,-0.34151095,-0.3682498,-9.640882
236508434,236508353,-0.18265992,-0.43861857,-9.735071
236561938,236561842,-0.32187307,-0.38512084,-9.6708765
236610548,236610466,-0.3726265,-0.41854587,-10.102818
236659199,236659091,-0.19191794,-0.4607285,-10.279553
236707826,236707717,-0.10893004,-0.3661613,-9.757755
236761280,236761196,-0.29330304,-0.36789963,-10.535858
236809896,236809812,-0.20671563,-0.42027327,-10.282955
236859484,236859402,-0.14538084,-0.122662604,-9.45973
236912967,236912879,-0.1889931,-0.54520965,-10.243968
236961578,236961492,-0.13309446,-0.4763509,-9.704679
237010185,237010102,-0.17958303,-0.18550494,-9.332115
237058897,237058715,-0.26711193,-0.19576177,-9.438989
237112273,237112189,-0.19353642,-0.5436824,-9.920376
237160886,237160802,-0.1709771,-0.34900105,-9.54754
237209527,237209411,-0.311186,-0.32441035,-9.588138
237262966,237262885,-0.23378082,-0.38092464,-9.882726
237311578,237311495,-0.1110268,-0.34135208,-9.492252
237360308,237360106,-0.27613157,-0.35410863,-9.824262
237408796,237408714,-0.29288054,-0.29203373,-10.0465
237462266,237462185,-0.35675684,-0.40364712,-9.902014
237510887,237510804,-0.19872595,-0.33554342,-9.779662
237559516,237559425,-0.118164316,-0.06929603,-9.733341
237612985,237612904,-0.3517314,-0.27219778,-9.677324
237661610,237661522,-0.17403126,-0.098146215,-9.752611
237710243,237710141,-0.13681462,-0.25761187,-9.83191
237758854,237758761,-0.11434251,-0.22680011,-9.518354
237812330,237812241,-0.19643115,-0.30661023,-9.871967
237860943,237860860,-0.14930792,-0.32171664,-9.636909
237909562,237909480,-0.25206944,-0.30334297,-9.658266
237958186,237958104,-0.14740492,-0.1248683,-9.85916
238012157,238012073,0.00063951965,-0.3832224,-9.833301
238060781,238060696,-0.24415648,-0.08862228,-9.60259
238109399,238109317,-0.3342756,-0.28120247,-9.666182
238158020,238157940,0.07749113,-0.33253488,-9.463379
238211508,238211426,-0.28397188,-0.41851056,-9.857039
238260144,238260049,-0.04431311,-0.3594101,-9.586109
238308759,238308670,-0.25676593,-0.1808725,-10.061465
238357377,238357294,-0.29925117,-0.2874302,-10.313242
238410866,238410783,-0.4121139,-0.25674516,-10.21298
238459489,238459408,-0.041565582,-0.26506412,-9.871206
238508111,238508031,-0.21944065,-0.28509483,-9.781824
238561598,238561515,-0.2329897,-0.16998005,-9.375338
238610336,238610138,-0.34336874,-0.33371305,-10.128235
238658842,238658762,-0.1491707,-0.4532985,-9.5532675
238707467,238707385,-0.13370216,-0.2806577,-9.709359
238760960,238760866,-0.09975656,-0.32879195,-9.560009
238809571,238809483,-0.30691183,-0.09818689,-9.7533865
238858190,238858105,-0.24191445,-0.5173036,-10.131636
238911681,238911593,-0.32327586,-0.18269947,-9.769744
238960548,238960218,-0.24668379,-0.44334012,-10.042714
239008928,239008846,-0.1478269,-0.27587476,-9.386086
239057554,239057473,-0.37211335,-0.2636747,-9.957188
239106182,239106101,-0.2690867,-0.30844995,-9.944775
239160164,239160065,-0.23263347,-0.25905553,-10.233789
239208770,239208690,-0.1568465,-0.30316377,-9.515344
239257400,239257315,-0.34323925,-0.26628944,-10.157669
239306140,239305941,-0.13302206,-0.4075824,-9.939472
239359510,239359428,-0.36394355,-0.31708115,-10.094862
239408132,239408051,-0.14497098,-0.4786464,-9.649231
239456764,239456677,-0.14878853,-0.22167131,-9.951173
239505399,239505302,-0.50021356,-0.19537635,-9.968681
239558872,239558789,-0.3045984,-0.1206195,-9.725381
239607499,239607414,-0.1571667,-0.35169342,-10.331977
239660986,239660902,-0.2832208,-0.39511618,-10.43296
239709604,239709522,-0.18909733,-0.3396301,-9.866924
239758227,239758145,-0.19956729,-0.3599848,-9.88561
239806842,239806759,-0.3338476,-0.3865994,-10.020852
239855468,239855372,-0.23057398,-0.28654605,-9.784406
239908927,239908846,-0.22950564,-0.38478333,-9.957365
239957545,239957462,-0.14810415,-0.40973678,-10.005762
240006161,240006079,-0.2610045,-0.19303055,-9.440101
240059647,240059565,-0.24499018,-0.2532904,-9.777565
240108269,240108188,-0.10615575,-0.276182,-9.541748
240156897,240156806,-0.36172232,-0.3543951,-10.026994
240205523,240205425,-0.29476666,-0.31670478,-9.934618
240259473,240259388,-0.3207699,-0.044960104,-9.774176
240308087,240308006,-0.08990445,-0.41620654,-9.764839
240356709,240356626,-0.20894219,-0.3333071,-9.704636
240410192,240410111,-0.36422184,-0.33409435,-9.711729
240458820,240458736,0.002129817,-0.40932053,-9.876454
240507452,240507361,-0.3237612,-0.10502356,-9.631614
240556075,240555986,-0.36647856,-0.44162992,-10.115573
240609554,240609471,-0.46373487,-0.16358449,-9.826374
240658189,240658093,-0.31644863,-0.2467838,-9.903101
240706794,240706714,0.02568505,-0.53102094,-9.457847
240760281,240760197,-0.10885971,-0.36640716,-9.598701
240808896,240808814,-0.18805757,-0.32940638,-9.723882
240857506,240857424,-0.3280084,-0.1556057,-9.793735
240906126,240906035,-0.2675845,-0.3958419,-9.762037
240959589,240959506,-0.32542306,-0.3097909,-9.876123
241008207,241008117,-0.11274653,-0.41482824,-9.975123
241056822,241056730,-0.13388427,-0.18614967,-9.47778
241110286,241110204,-0.22862795,-0.26454878,-9.723978
241158903,241158820,-0.23210497,-0.21596634,-9.736896
241207641,241207439,-0.18274204,-0.3411005,-10.187106
241256137,241256054,-0.210559,-0.4481479,-9.809315
241309618,241309531,-0.24659055,-0.28251413,-9.727803
241358295,241358144,-0.06906209,-0.27161226,-9.774805
241407323,241407241,-0.27157164,-0.95074177,-9.811062
241460811,241460716,-0.13322556,-0.2566491,-9.726247
241509410,241509329,-0.117009535,-0.33800972,-9.766791
241558090,241557941,-0.5698663,-0.26993757,-9.694435
241606641,241606555,-0.00019280636,-0.5026124,-9.877835
241660111,241660029,-0.035520714,-0.46571097,-10.026589
241708732,241708642,-0.21684484,-0.20891859,-9.615416
241757346,241757262,-0.20871162,-0.42464814,-9.975585
241810884,241810750,-0.27076533,-0.15074298,-9.544417
241859583,241859369,-0.3241422,-0.45660478,-10.175951
241908114,241907988,-0.18666048,-0.2808039,-9.537178
241956690,241956603,-0.13293262,-0.3038432,-9.42421
242010220,242010085,-0.15264699,-0.33199447,-9.329739
242058787,242058705,-0.09186162,-0.28377655,-9.740667
242107425,242107324,-0.25430894,-0.38287115,-10.066082
242160895,242160811,-0.20659146,-0.2140156,-9.73777
242209514,242209432,-0.23241541,-0.38632578,-10.000246
242258148,242258050,-0.20494835,-0.3178566,-9.640259
242306754,242306670,-0.17618898,-0.28956282,-9.834389
242360240,242360154,-0.22919947,-0.31096506,-9.755192
242408857,242408774,-0.14235166,-0.15138377,-9.837036
242457480,242457397,-0.23717727,-0.3657483,-9.832858
242510976,242510883,-0.20618178,-0.13244721,-9.73771
242560080,242559993,0.08755818,-1.2623703,-10.319953
242608717,242608619,-0.23423102,-0.04428469,-9.784251
242657327,242657245,-0.21120293,-0.36219093,-9.821917
242710820,242710737,-0.01795401,-0.18382281,-9.699262
242759450,242759367,-0.19251476,-0.2911273,-10.037272
242808202,242807994,-0.35533595,-0.11162911,-9.612114
242861577,242861480,-0.1997039,-0.25719133,-9.963469
242910183,242910102,-0.095889755,-0.3024565,-9.823575
242958805,242958724,-0.27292427,-0.031284608,-9.790151
243007430,243007347,-0.19812228,-0.20050846,-9.851374
243060916,243060828,-0.30715197,-0.20446467,-9.852743
243109529,243109446,-0.12231747,-0.21563624,-9.694175
243158231,243158069,-0.27526963,-0.11155863,-9.821038
243211640,243211555,-0.20087151,-0.2585496,-9.644988
243260260,243260179,-0.3450414,-0.000703483,-9.975989
243308884,243308802,-0.09604058,-0.21025087,-9.817352
243357507,243357425,-0.10977861,-0.23174706,-9.590683
243411058,243410906,0.014152355,-0.306828,-9.719907
243459622,243459531,-0.30891255,-0.03335644,-9.446488
243508267,243508156,-0.26518,-0.12612753,-10.207926
243561724,243561641,-0.1276205,-0.19433443,-9.83598
243610456,243610262,-0.27037287,-0.17255627,-9.894043
243658967,243658886,-0.14752513,-0.1843286,-9.653108
243708090,243707993,-0.4096552,0.17152311,-9.7673025
243761557,243761472,-0.13787293,-0.023719462,-9.530982
243810176,243810093,-0.13788298,-0.2702815,-10.067735
243858796,243858715,-0.29794687,-0.16820233,-9.742301
243912293,243912206,-0.3638313,-0.19343224,-10.036366
243960920,243960828,0.035611935,-0.17913671,-9.779773
244009534,244009452,-0.324482,-0.11166156,-9.6967
244058168,244058074,-0.19103481,-0.24906956,-10.118162
244111768,244111556,-0.2397751,-0.27966616,-10.086151
244160260,244160177,-0.29784662,-0.23254251,-9.92412
244208881,244208800,0.055211827,-0.1715874,-9.574316
244262402,244262287,0.091263846,-0.3202854,-9.782726
244311007,244310905,-0.3159314,-0.12133848,-9.725416
244359610,244359526,-0.16685218,-0.28095964,-10.269659
244408354,244408148,-0.28972888,-0.09389601,-9.397097
244461717,244461634,-0.2871842,-0.16347021,-9.686595
244510347,244510264,-0.08507053,-0.2229124,-9.598932
244558974,244558893,-0.42857713,-0.16858235,-10.074222
244612466,244612384,-0.3041229,-0.09818031,-9.7022085
244661123,244661016,-0.09395688,-0.25755352,-10.271641
244709729,244709648,-0.36340576,-0.1269645,-9.36171
244758379,244758274,-0.034151495,-0.09512528,-9.836003
244811848,244811766,0.09416411,-0.35203135,-9.787685
244860959,244860878,-0.45229796,0.064672396,-9.937017
244909587,244909506,-0.068790734,-0.24662831,-9.91246
244963084,244963000,-0.07439306,-0.32717854,-10.074645
245011711,245011628,-0.32819283,-0.15636408,-9.533087
245060342,245060257,-0.11876096,-0.24436507,-9.948173
245108964,245108883,-0.28924558,-0.13078697,-9.80119
245162460,245162377,-0.27770382,-0.06024201,-9.857475
245211110,245211005,-0.25294125,-0.26490897,-9.8420925
245259711,245259630,-0.12334602,-0.27540576,-9.607069
245313204,245313120,-0.34974504,-0.2801553,-9.752008
245361833,245361747,-0.091004774,-0.3113462,-9.872042
245410457,245410375,-0.19266717,-0.18227911,-9.590898
245459089,245459001,-0.39705402,-0.29687518,-10.058354
245512578,245512487,-0.27457884,-0.17686975,-9.743849
245561405,245561117,-0.23897453,-0.3053455,-10.086929
245609824,245609744,-0.16452639,-0.116789185,-9.348239
245658461,245658376,-0.23100673,-0.19356601,-9.935222
245712002,245711871,-0.15381858,-0.18493998,-9.549194
245760583,245760502,-0.33004716,-0.17052601,-10.163135
245809214,245809132,-0.023768138,-0.339644,-9.910534
245862711,245862627,-0.30819753,-0.17552885,-10.089153
245911335,245911252,-0.15498103,-0.40588868,-9.598835
245959954,245959871,-0.20668887,-0.2267588,-9.975854
246009061,246008978,-0.34663108,0.02358738,-9.821489
246057730,246057601,-0.1786653,-0.24680766,-9.802829
246111182,246111089,-0.22721344,-0.30509743,-9.994804
246159791,246159711,-0.27246588,-0.28134626,-9.691796
246208510,246208337,-0.2377083,-0.30062702,-9.734848
246257046,246256963,-0.3251004,-0.30058262,-9.974529
246310538,246310455,-0.32060418,-0.33642322,-10.037284
246359164,246359082,-0.2504615,-0.1060466,-9.874115
246407790,246407707,-0.1509766,-0.2751044,-9.451899
246461365,246461194,-0.15061437,-0.2669819,-9.638141
246509902,246509821,-0.2575406,0.018477492,-9.607378
246558545,246558450,-0.22500035,-0.18662578,-10.240575
246607162,246607076,-0.13386297,-0.25587553,-9.524175
246660653,246660568,-0.22324064,-0.18847758,-9.627881
246709276,246709195,-0.32862276,-0.13701448,-8.834742
246757903,246757821,-0.2374547,-0.14637986,-9.016579
246811396,246811311,-0.24128138,-0.09023665,-8.955522
246860023,246859940,-0.009173961,-0.33518353,-9.030689
246908650,246908569,-0.25594142,-0.12784836,-9.092789
246957282,246957196,-0.19414428,-0.058828603,-9.758451
247006049,247005823,-0.31558138,-0.15703668,-9.763077
247059405,247059310,-0.2588331,0.02476007,-9.956075
247108017,247107936,-0.28291023,-0.22441547,-9.826373
247157133,247157048,-0.2794379,-0.29989484,-9.821973
247205760,247205678,-0.25901973,-0.1252962,-9.9782505
247259254,247259168,-0.17090912,-0.014960092,-10.020312
247307877,247307795,-0.2585334,-0.14559975,-9.8115425
247356508,247356417,-0.17546609,-0.35478017,-9.324416
247409989,247409906,-0.26945174,-0.023209667,-9.111261
247458632,247458531,-0.1555806,-0.24754505,-8.690245
247507326,247507161,-0.17861444,-0.19564089,-8.277809
247555875,247555793,-0.13205838,-0.30012378,-8.467569
247609371,247609288,-0.32819384,-0.1992218,-8.502705
247657999,247657916,-0.24408978,-0.3042351,-8.817924
247706629,247706544,-0.20698267,-0.20208907,-8.599126
247760119,247760038,-0.086851545,-0.33423743,-8.6584835
247808749,247808663,-0.13904546,-0.27675012,-8.62355
247857365,247857283,-0.2247483,-0.13704862,-8.643099
247906004,247905901,-0.30334926,-0.015621082,-8.62151
247959467,247959380,-0.121011265,-0.17492606,-8.812355
248008088,248007993,-0.3243433,-0.12482766,-8.649776
248056698,248056611,-0.22187659,-0.15255992,-8.803281
248110179,248110090,-0.21366303,-0.034610745,-8.765652
248158790,248158708,-0.1906386,-0.010877597,-8.812074
248207409,248207327,-0.38108256,0.017483823,-8.791709
248256043,248255949,-0.4923074,-0.06764063,-8.972425
248310010,248309925,-0.014181246,-0.3056288,-8.841401
248358718,248358550,-0.02174754,-0.26770332,-8.740773
248407262,248407176,-0.0874702,-0.25913665,-8.752747
248460745,248460664,-0.38136882,-0.13121109,-8.867244
248509372,248509289,-0.31388924,-0.18379702,-8.922832
248557999,248557916,-0.23211828,-0.14385973,-8.826857
248606641,248606543,-0.14410974,-0.08118595,-8.700569
248660112,248660030,-0.4198297,-0.1170249,-9.275097
248708763,248708657,-0.4806878,-0.045086496,-9.153947
248757368,248757285,-0.47022513,-0.07317764,-9.106836
248810856,248810773,-0.20731306,-0.22771361,-9.093814
248859480,248859397,-0.18194512,-0.17184941,-9.151727
248908108,248908025,-0.13852884,-0.2736831,-9.235569
248956741,248956650,-0.09732386,-0.23724914,-9.286795
249010220,249010138,-0.32163987,-0.033976726,-9.232596
249058846,249058766,-0.35366634,-0.09964885,-9.433357
249107566,249107395,-0.4299089,-0.010287505,-9.503103
249160967,249160883,-0.13608018,-0.2003791,-9.356743
249209587,249209505,-0.24519426,-0.10505913,-9.469335
249258209,249258127,-0.3071089,-0.13625312,-9.547199
249306840,249306757,-0.2799375,-0.22712903,-9.590175
249360331,249360248,-0.15238245,-0.084945,-9.214615
249408982,249408875,-0.2584871,-0.07547719,-9.282201
249458236,249457990,-0.31949142,-0.1448373,-9.5133095
249511612,249511483,-0.023746857,-0.12625542,-9.274092
249560192,249560111,-0.10086337,-0.13148426,-9.346181
249609014,249608736,-0.15859096,-0.114995226,-9.377007
249657444,249657360,-0.2825254,-0.21550407,-9.516351
249710929,249710848,-0.06858256,0.029410552,-8.948957
249759555,249759474,-0.20107996,-0.038328838,-9.133181
249808184,249808101,-0.24042977,-0.034139078,-9.274561
249861674,249861590,-0.15532948,-0.25937733,-9.309393
249910303,249910217,-0.2355561,-0.20281272,-9.497015
249958926,249958846,-0.31334224,-0.14811443,-9.495765
250007563,250007480,-0.43840694,-0.16086824,-9.663077
250061052,250060971,2.618983e-05,-0.16659386,-9.196101
250109685,250109600,-0.13563365,-0.2263388,-9.4073715
250158309,250158227,-0.29260868,-0.080948494,-9.582166
250211797,250211713,0.04687865,-0.2289774,-8.926209
250260415,250260334,-0.03944652,-0.22902846,-9.106217
250309063,250308956,-0.14906952,-0.29143855,-9.373415
250357666,250357582,-0.36301824,-0.14225969,-9.607618
250411156,250411071,-0.16601183,-0.14075068,-9.247688
250459774,250459692,-0.27968898,-0.17130794,-9.620065
250508398,250508317,-0.26216254,-0.018935971,-9.592693
250561892,250561802,-0.15960075,-0.3086951,-9.505921
250611000,250610916,-0.17668799,-0.11779337,-9.403238
250659623,250659539,-0.26425362,-0.2754855,-9.525551
250708241,250708159,-0.38717222,-0.19335103,-9.753472
250761772,250761641,-0.05236682,-0.15937646,-8.99734
250810343,250810260,-0.1336816,-0.21392748,-9.313292
250858957,250858876,-0.1402082,-0.17634693,-9.622814
250912438,250912355,-0.07095097,-0.18046361,-9.3202305
250961057,250960972,-0.080604,-0.14464173,-9.620429
251009669,251009587,-0.15272878,-0.14010283,-9.965385
251058300,251058204,-0.3149687,-0.22110596,-10.099839
251111770,251111687,-0.28237188,-0.4126372,-10.139587
251160388,251160307,-0.4541977,-0.35990685,-9.74748
251209162,251208923,-0.27383325,-0.33599538,-9.505861
251262488,251262405,-0.43819857,-0.19797617,-8.754926
251311109,251311026,-0.2793088,-0.38462564,-8.819461
251359769,251359643,-0.42625192,-0.20578907,-9.059795
251408344,251408261,-0.24360076,-0.2661334,-9.095305
251461892,251461741,-0.22990955,-0.15216392,-9.217266
251510444,251510361,-0.03733195,-0.12495846,-9.53499
251559056,251558975,-0.38160634,0.080272004,-10.089776
251612545,251612457,-0.18482947,-0.07994518,-10.025625
251661152,251661071,-0.33454245,-0.07559552,-10.003535
251709768,251709688,-0.24905808,0.013395321,-9.938426
251758886,251758791,-0.20379692,-0.28087208,-9.99196
251812355,251812271,-0.2691371,-0.28945252,-9.905793
251861062,251860891,-0.27395487,-0.44563934,-9.987774
251909595,251909514,-0.16980715,-0.43277678,-10.021995
251963079,251962997,-0.23751827,-0.3966692,-9.777981
252011737,252011615,-0.23030949,-0.50135046,-10.087904
252060314,252060233,-0.24496183,-0.37402984,-10.112765
252109072,252108853,-0.14230411,-0.39355546,-10.137087
252162421,252162335,-0.15025255,-0.2808533,-10.019419
252211035,252210953,-0.057014685,-0.3264316,-9.929396
252259657,252259573,-0.17449501,-0.3056079,-10.030576
252313144,252313061,-0.31388783,-0.10511943,-9.78359
252361776,252361681,-0.24204952,-0.18913254,-9.307305
252410386,252410302,-0.093968496,-0.36388105,-9.152895
252459105,252458923,-0.1030876,-0.4513732,-9.522353
252512489,252512407,-0.20036761,-0.48767173,-9.627315
252561109,252561027,-0.1457741,-0.54325014,-9.715418
252609729,252609648,-0.20312393,-0.56806946,-10.152177
252663218,252663133,-0.08165938,-0.59899974,-9.67072
252711898,252711753,-0.12588546,-0.43243387,-9.867819
252760457,252760375,-0.1961563,-0.29051834,-9.741832
252809144,252808996,-0.11379517,-0.20142972,-9.388072
252862572,252862478,-0.32751665,0.03583501,-9.123768
252911664,252911583,-0.3878694,-0.012892821,-9.100296
252960285,252960204,-0.38347146,0.019407094,-9.350191
253008907,253008824,-0.25403157,-0.04390761,-9.761395
253057524,253057442,-0.53178394,-0.07650535,-10.339044
253111006,253110924,-0.16775097,-0.4046758,-10.216898
253159637,253159542,-0.24437083,-0.5921284,-10.654027
253208248,253208165,-0.234879,-0.5740159,-11.118023
253261757,253261649,-0.3514532,-0.5705431,-10.8142
253310352,253310271,-0.13149649,-0.5132773,-10.207443
253358995,253358895,-0.20339905,-0.40247193,-10.09528
253407599,253407517,-0.19932458,-0.29424578,-10.053574
253461094,253461004,-0.22505875,-0.26153332,-9.704762
253509705,253509623,-0.20769969,-0.21784344,-9.5042095
253558326,253558245,-0.251732,-0.13464764,-9.501178
253611982,253611728,-0.48111677,-0.22943728,-10.112972
253660432,253660351,-0.5423978,-0.24183998,-10.209948
253709069,253708974,-0.54176116,-0.15499592,-10.35903
253757686,253757598,-0.646407,-0.18219288,-10.633101
253811162,253811079,-0.4922553,-0.35484904,-10.182992
253859784,253859703,-0.30077076,-0.27178773,-10.223566
253908403,253908323,-0.3420697,-0.22551513,-10.30859
253959468,253959374,-0.54408973,0.34341064,-10.3781395
254008083,254007996,-0.7981474,0.15467547,-10.703936
254062050,254061966,-0.29538655,0.52127916,-10.829402
254110779,254110589,-0.3052476,-0.0013558638,-11.346973
254159290,254159209,-0.7902383,0.3373564,-9.727333
254207913,254207827,-1.0199248,0.036750138,-9.291424
254261421,254261313,-0.8034343,0.59219104,-8.714564
254310018,254309937,-0.69377196,0.6104881,-9.0070505
254358642,254358558,-0.79022914,0.73144203,-8.770615
254412125,254412043,-0.63030976,1.3623054,-10.00398
254460748,254460665,-0.10752169,0.11601084,-10.385647
254509366,254509284,-0.40636092,0.98978937,-10.733618
254557990,254557909,-0.23818623,1.1339333,-11.509765
254611480,254611398,-0.35895568,0.52725923,-11.639097
254660109,254660026,-0.5041956,0.42685854,-10.79925
254708735,254708653,-0.6962748,0.32327396,-10.412584
254762225,254762143,-0.48601574,0.7706904,-10.06625
254810850,254810765,-0.41695938,0.7106794,-9.753217
254859471,254859389,-0.74612683,0.8719111,-9.451223
254908104,254908016,-0.6226424,0.9705979,-8.999616
254961588,254961505,-0.49353993,0.91780233,-9.002896
255010217,255010135,-0.9048055,1.2249248,-8.954622
255058855,255058763,-0.9143174,1.3970817,-9.2384615
255112333,255112250,-0.70567256,1.0971751,-9.738215
255160956,255160874,-0.59005815,1.4012163,-9.600182
255210068,255209987,-0.84133893,1.3929539,-9.938135
255258699,255258612,-0.48344812,0.80325633,-10.4453
255312183,255312101,-0.3482446,1.0285282,-10.6626425
255360811,255360730,-0.8765344,1.4662771,-9.739572
255409436,255409354,-0.60520905,0.9734446,-11.054747
255462924,255462841,-0.83856845,1.7216465,-9.988464
255511548,255511465,-0.052358437,1.0823612,-9.24094
255560180,255560090,-0.5119269,1.4691726,-10.184335
255608800,255608716,-0.6972352,1.2541958,-9.765988
255662289,255662206,-0.77078116,1.3899171,-10.034205
255711018,255710833,-0.5498445,1.2175096,-10.051567
255759540,255759459,-0.026260396,0.9076794,-9.366347
255813028,255812946,-0.429679,1.1216227,-10.181836
255861664,255861576,-0.4581705,1.0615582,-10.038172
255910290,255910208,-0.5616113,1.0682751,-10.341144
255958925,255958840,-0.15725145,0.9676567,-9.729755
256012413,256012330,-0.090031475,0.99773246,-10.315027
256061040,256060958,-0.04478455,0.92587155,-10.429594
256109712,256109590,-0.5382795,1.2682421,-10.206758
256163168,256163083,-0.17981054,1.3101475,-10.205656
256211822,256211710,-0.37272143,1.0503448,-10.173743
256260422,256260339,-0.11964377,1.0483752,-9.568271
256309048,256308966,-0.11891182,1.0109196,-9.338278
256358648,256358566,0.31269392,0.91897255,-9.279829
256407423,256407195,-0.11278526,1.0090666,-9.494713
256455904,256455822,-0.26679903,0.978519,-10.112148
256509490,256509319,-0.84410363,1.2501178,-9.835374
256558068,256557951,-0.07081412,1.0833514,-9.990282
256606666,256606583,0.25910544,0.84369034,-10.162229
256660162,256660078,-0.040062446,1.2317576,-10.727158
256708789,256708709,0.04507447,0.8595238,-10.543413
256757425,256757339,-0.2083484,1.1231176,-10.447185
256806049,256805966,-0.109084085,0.68642527,-10.083999
256859535,256859455,-0.040367264,1.1440855,-10.08177
256908169,256908086,-0.08039246,0.44990665,-9.834284
256956798,256956717,-0.4449777,1.0688434,-10.111231
257005430,257005346,0.007048752,0.36814296,-9.718405
257058920,257058837,-0.24865542,1.2120994,-9.364464
257107549,257107466,-0.15137295,0.8204321,-9.537382
257156179,257156098,-0.20585495,0.8389512,-9.516017
257209673,257209591,-0.2791134,0.3577902,-9.446596
257258302,257258220,-0.065031305,0.8879601,-9.393794
257307072,257306856,-0.20926991,0.6891377,-9.776283
257355716,257355492,-0.42543614,0.8111491,-10.329372
257409070,257408987,-0.39970157,0.85074264,-10.363218
257457705,257457619,-0.07528146,0.626528,-10.2144
257506824,257506740,-0.37173378,0.5956201,-10.913588
257560317,257560235,-0.36354443,0.4835252,-11.1261215
257608950,257608867,-0.32326964,0.5559577,-10.725364
257657582,257657497,-0.14759672,0.6500778,-10.116682
257706231,257706129,-0.04511631,0.84241605,-9.968746
257759708,257759626,0.003213758,0.4697253,-9.640027
257808344,257808261,-0.07664876,0.8523623,-9.55693
257857036,257856892,-0.37379545,0.8583145,-9.925286
257910466,257910384,-0.3943853,0.8164264,-9.659025
257959095,257959012,-0.4312831,0.5920033,-10.283966
258007725,258007642,-0.27009228,0.6840828,-10.74114
258056354,258056272,-0.10789797,0.92954236,-11.124799
258109860,258109764,-0.32611585,0.528482,-11.337246
258158479,258158394,-0.46137533,0.9159109,-11.641285
258207158,258207024,-0.42390198,1.1839503,-11.378781
258260598,258260514,-0.8399122,0.59595466,-10.674993
258309228,258309147,-0.13330528,1.1462513,-10.139166
258357881,258357778,-0.18679188,0.5322463,-9.265489
258406494,258406410,-0.7270518,0.8583269,-8.956205
258459985,258459904,-0.42007902,0.40911326,-9.2595
258508619,258508531,-0.7016202,0.41538897,-8.699346
258557253,258557163,-0.29793593,0.056966737,-9.449807
258611252,258611161,-0.5846258,0.6511665,-10.053563
258659855,258659773,-0.7474203,0.25437397,-10.452377
258708489,258708407,-0.27030355,0.3521824,-10.523867
258757212,258757038,-0.37094137,0.5437124,-10.7664
258810613,258810528,-0.6443176,0.7509476,-10.950154
258859243,258859158,-0.65383005,1.0734347,-9.922691
258907865,258907782,-1.0819032,0.90852946,-10.367007
258961350,258961267,-0.8122726,0.71179336,-10.403136
259009972,259009891,-1.0514432,0.5952541,-9.628274
259058594,259058512,-0.8446011,0.62550324,-8.99525
259107250,259107133,-0.93437123,0.8033894,-8.609033
259160711,259160620,-0.9509432,0.92123675,-8.648494
259209325,259209243,-0.6365747,0.8238085,-9.256364
259257947,259257861,-0.47367883,0.48066482,-9.972964
259311564,259311348,-0.6168199,0.9261275,-10.164988
259360063,259359978,-1.0437876,1.1864287,-10.316926
259408697,259408612,-0.6860664,0.98520887,-10.647885
259457424,259457248,-0.72335184,0.82922906,-10.172124
259510825,259510744,-0.30832857,0.65434897,-9.465261
259559457,259559375,-0.69038093,0.7443494,-9.946785
259608089,259608005,-0.86230433,0.91362077,-9.329896
259656718,259656635,-0.44289628,0.6515015,-8.778323
259710223,259710132,-0.43979377,0.06764558,-9.961567
259759330,259759248,-1.0217192,0.8135082,-9.900496
259807962,259807877,-0.529054,0.2348339,-10.145215
259861452,259861371,-0.86876667,0.36018488,-10.364764
259910080,259909999,-0.8004979,0.4428478,-10.825771
259958713,259958630,-0.9599863,0.54901206,-10.40043
260012334,260012125,-0.7193824,0.6677479,-10.488303
260060835,260060753,-0.82665044,0.4916376,-10.095513
260109463,260109381,-0.4064713,0.580469,-9.5948105
260158114,260158006,-0.735875,0.8654108,-10.102473
260211571,260211490,-0.86297584,0.7446915,-10.293306
260260199,260260117,-0.9803823,0.8762505,-9.169406
260308823,260308739,-0.6581248,0.5093577,-9.82187
260362369,260362229,-0.8857761,0.5577064,-10.19713
260410943,260410861,-0.9255137,0.48436537,-9.543581
260459579,260459495,-0.710116,0.4192594,-9.8895
260508204,260508122,-0.5860795,0.48424008,-10.203965
260561697,260561613,-0.90153706,0.7644272,-10.240343
260610331,260610243,-0.5569815,1.0097173,-10.232808
260658957,260658872,-0.4086412,1.1533104,-10.342827
260712449,260712366,-0.4646198,0.9023057,-10.549424
260761171,260760996,-0.6296011,1.2172785,-9.942861
260809723,260809628,-0.5793957,0.71921104,-9.87419
260858339,260858255,-0.3611704,0.9093326,-9.524674
260912420,260912233,-0.3000885,0.092630774,-9.481675
260960943,260960861,-0.50733507,0.67559564,-9.437071
261009570,261009488,-0.7568704,0.6765735,-9.5409355
261063065,261062980,-0.39065206,0.39440066,-9.282668
261111840,261111606,-0.7503127,0.9014425,-9.161692
261160325,261160235,-0.67174023,0.42346272,-10.103169
261208968,261208864,-0.49921542,0.35668138,-10.366828
261262637,261262354,-0.10969108,0.42854747,-10.543183
261311067,261310986,-0.42232925,-0.013228331,-10.42541
261359700,261359618,-0.37760106,0.15641378,-10.431151
261413191,261413103,-0.14169216,0.24013296,-10.073266
261461806,261461722,-0.41117525,0.19501363,-9.801523
261510421,261510340,-0.5228681,0.18292847,-9.736248
261559044,261558962,-0.5071627,-0.03676469,-9.616541
261612528,261612445,-0.35728127,0.16517124,-9.457782
261661172,261661072,-0.3554243,-0.26348817,-9.458025
261709792,261709692,-0.2923085,0.006538408,-9.72398
261758398,261758315,-0.41030815,-0.078660615,-10.034438
261811888,261811805,-0.43253383,-0.2748013,-10.718353
261860511,261860429,-0.37279406,-0.16832505,-10.857747
261909137,261909054,-0.4710359,-0.02631851,-10.485134
261962629,261962542,-0.30858266,0.04146877,-9.985246
262011254,262011172,-0.34276083,0.052487236,-9.747627
262060372,262060287,-0.3384062,1.1207525,-9.204667
262108994,262108912,-0.4888281,0.2279222,-8.757546
262157638,262157538,-0.62087405,0.40703633,-9.09055
262211108,262211027,-0.30101013,0.1414913,-8.914763
262259739,262259654,-0.1807011,0.18636519,-9.290767
262308367,262308284,-0.40253624,-0.009212466,-9.926145
262356998,262356909,-0.35144562,0.041333973,-9.994589
262410473,262410393,-0.4388534,-0.057814192,-11.046373
262459102,262459016,-0.43310094,-0.11627893,-11.015585
262507737,262507637,-0.2956273,-0.10878009,-10.454251
262561214,262561120,-0.22433724,-0.124296226,-10.329385
262609822,262609740,-0.3183338,-0.0049570217,-9.904779
262663305,262663221,-0.4272191,0.15191618,-9.663572
262707146,262706982,-0.10356553,-0.031503085,-9.140703
262760546,262760465,-0.4253746,0.16216804,-8.987772
262809169,262809089,-0.52916324,0.28782094,-9.231877
262857797,262857714,-0.38949406,0.07833406,-9.117266
262906421,262906339,-0.6158764,0.28084946,-9.63537
262959925,262959829,-0.39059898,-0.21362448,-10.138856
263008549,263008464,-0.406867,-0.38626838,-10.331063
263057182,263057096,-0.29262188,-0.09754963,-10.300557
263110677,263110590,-0.3611323,-0.21702911,-10.621862
263159298,263159216,-0.37341,-0.080013946,-10.526598
263208473,263208334,-0.46801823,0.045138776,-9.893349
263257042,263256960,-0.31232345,-0.058241256,-9.925683
263305672,263305586,-0.23131217,-0.05503082,-9.548548
263359168,263359076,-0.1900477,-0.20727523,-9.342831
263407782,263407699,-0.10990222,0.03828493,-9.150628
263456408,263456327,-0.34309718,0.0055545983,-9.45177
263509901,263509815,-0.43055066,0.08496458,-9.593505
263558526,263558443,-0.22391166,-0.00757074,-9.414306
263607153,263607070,-0.1903293,0.09267813,-9.789219
263655780,263655698,0.06068394,-0.018094007,-9.804537
263709275,263709190,0.34782186,0.054974288,-9.765343
263757918,263757818,1.3243394,0.031062514,-9.382295
263806531,263806449,1.8978165,0.11077187,-9.236017
263860038,263859943,2.8485713,0.0063486076,-9.490204
263908658,263908574,4.312158,0.0005196444,-9.103982
263957292,263957209,5.8658195,-0.037268125,-8.553111
264005934,264005845,6.329141,-0.004343405,-8.724645
264059425,264059341,6.2044396,0.30964348,-9.116092
264108063,264107979,6.115103,0.2739156,-9.113687
264156749,264156617,6.345908,0.24932992,-9.288832
264210246,264210121,6.121811,0.21592881,-9.531084
264258842,264258758,5.8830085,0.47552747,-9.668855
264307471,264307389,6.0406137,0.15900354,-10.173197
264356594,264356506,5.6539655,-1.6986345,-10.05619
264410100,264410004,5.4359026,0.64480555,-9.754357
264458724,264458638,5.6035275,0.17464396,-9.562293
264507425,264507274,5.6740565,0.1731004,-9.713614
264560849,264560766,5.2741084,0.23517977,-9.8596
264609480,264609396,5.695825,0.19545731,-9.658217
264658225,264658029,5.434779,0.08466974,-10.625919
264706752,264706664,5.4249263,0.324547,-9.782808
264760297,264760156,5.494895,-0.3734863,-9.890934
264808874,264808785,5.135519,-0.14361331,-9.664991
264857497,264857414,5.2018914,-0.17227224,-9.79455
264910984,264910903,5.138618,0.20958205,-10.151457
264959614,264959531,5.214065,-0.2831272,-9.706994
265008249,265008155,5.3576365,0.5849725,-9.43657
265056863,265056779,5.3238063,0.066812284,-10.528367
265110349,265110268,4.928317,-0.27981943,-10.265072
265158975,265158892,5.086328,0.19312388,-10.027144
265207600,265207517,4.7614174,-0.21380115,-9.9214525
265261087,265261004,4.9867682,0.13577752,-9.738948
265309716,265309634,4.7921968,0.15598169,-9.5910425
265358347,265358263,4.740128,-0.22037989,-9.926553
265406969,265406887,5.141254,-0.0029916852,-8.927015
265460466,265460377,5.0481443,0.16600566,-7.6536875
265509573,265509489,5.10356,-0.5307519,-7.9674277
265558234,265558115,5.0140357,-0.06948403,-6.899137
265611687,265611603,4.869252,-0.44454402,-8.49112
265660384,265660228,5.094959,-0.68004125,-9.092978
265708934,265708849,4.909522,-0.4723203,-8.59107
265757554,265757474,5.501808,0.19755667,-6.9134245
265811039,265810958,5.378385,0.3678777,-6.3668795
265859664,265859580,5.317847,-0.5000812,-9.774719
265908290,265908205,4.868216,-0.3081152,-8.602488
265961788,265961696,5.4040613,-0.07898481,-7.0145197
266010418,266010321,4.840651,-0.35121343,-9.109412
266059027,266058944,4.479348,-0.10180103,-9.855568
266107668,266107568,5.6906123,-0.44183543,-7.4949527
266161132,266161046,5.1307454,-0.38153654,-10.684522
266209744,266209661,4.8254995,-0.50053,-9.164744
266258365,266258281,4.5911217,0.013724884,-8.933479
266311840,266311757,4.9143214,-0.45214486,-11.608185
266360466,266360370,4.510972,-0.024913853,-9.721451
266409065,266408984,5.1005282,-0.6927264,-8.667343
266457688,266457598,5.034412,-0.8225841,-8.934835
266511161,266511077,4.0838633,0.4750392,-9.41428
266559783,266559701,4.562943,-0.71509784,-7.069826
266608449,266608321,4.3356905,0.40907136,-9.452954
266662369,266662287,5.087615,-0.37173772,-10.494918
266710990,266710909,4.6255527,0.4897195,-8.958237
266759621,266759534,4.2260046,0.5871926,-6.93138
266808239,266808156,3.7344844,-0.71654046,-11.200591
266861720,266861635,4.088673,-0.39126962,-8.830951
266910352,266910255,3.3761973,-0.4952536,-11.249995
266958962,266958879,3.7602217,-0.5385663,-10.810464
267012446,267012364,3.9717908,-0.116709225,-10.630378
267061072,267060985,4.083104,0.14504424,-9.442016
267109691,267109606,4.351484,-1.042036,-10.071215
267158417,267158232,4.038312,0.10052798,-8.339288
267211802,267211716,3.5654912,-0.8563832,-12.219298
267260541,267260338,3.8589997,-0.06275351,-9.664088
267309042,267308960,2.8720152,-0.329346,-11.370281
267362523,267362441,4.0072985,0.5338475,-11.910956
267411141,267411061,4.272532,-0.26211822,-6.9792714
267459765,267459681,3.6244545,0.14066872,-11.812679
267508388,267508304,4.428863,-0.13413844,-9.025788
267561873,267561792,3.7877338,0.36239615,-13.127738
267610575,267610419,3.112424,-0.8530379,-10.971951
267659125,267659042,2.7598755,-0.2745802,-7.4277754
267712628,267712533,3.2866402,-0.036668684,-9.647821
267761232,267761150,2.8862898,-0.47772303,-9.341828
267810852,267810747,2.7924533,-0.15134534,-10.294713
267859457,267859373,4.522049,0.06257559,-8.462728
267908123,267907998,2.6225924,-0.11494714,-12.548306
267961570,267961487,1.8983256,-0.10766416,-9.201773
268010193,268010112,2.4240692,0.32797056,-13.014158
268058819,268058737,2.671116,0.04164431,-12.506794
268107440,268107358,2.4239862,0.1543545,-14.103188
268160926,268160845,2.538894,-0.520364,-11.890279
268209553,268209471,2.282449,0.08762319,-10.635807
268258179,268258097,2.1647933,0.22588532,-9.474868
268311669,268311587,2.4279754,0.15283144,-10.109447
268360297,268360216,2.020158,-0.24352072,-11.539309
268408930,268408847,2.1219335,-0.41775542,-11.0164585
268457557,268457475,1.914191,-0.2415248,-9.55931
268511042,268510961,1.8805597,-0.3836681,-9.831385
268559676,268559583,1.6705947,-0.28229502,-9.143701
268608301,268608209,1.3776407,-0.48804954,-10.777052
268656916,268656834,1.2534115,-0.6769997,-9.556072
268710557,268710320,1.0791597,-0.40275568,-9.4555435
268759025,268758943,1.5038732,-0.11906927,-10.450785
268807645,268807562,0.99998796,-0.4256807,-10.545994
268861187,268861048,-1.3989933,-0.5502648,-11.957844
268909754,268909671,-2.0853407,-0.47239405,-11.058624
268958867,268958782,-2.6495633,-0.14512442,-10.123159
269007489,269007408,-2.7214673,-0.10694487,-12.075251
269056269,269056033,-2.4691398,-0.076047,-11.65326
269109606,269109520,-1.9044484,-0.38084766,-11.948904
269158240,269158146,-1.2459359,-0.07253077,-10.590087
269206916,269206775,0.37070283,-0.22053994,-9.411706
269255487,269255405,1.0162951,-0.45923942,-8.995416
269308973,269308890,1.3503197,-0.40848294,-7.5023866
269357592,269357511,1.3093429,-0.5228027,-7.378478
269406217,269406136,1.0483198,-0.27170575,-7.1803994
269459705,269459621,0.93528366,-0.21416454,-7.0123053
269508324,269508243,1.1378641,-0.22397037,-8.36967
269556948,269556866,0.9485175,-0.43007827,-10.211862
269605581,269605487,0.99658185,-0.07018364,-12.610465
269659051,269658969,0.9330972,-0.25221103,-15.382818
269707676,269707591,0.86649805,-0.12371816,-16.638939
269756291,269756209,0.54662466,0.10069836,-17.92788
269809779,269809695,0.199874,0.031934913,-19.345104
269858404,269858320,0.25573376,-0.08119717,-20.637367
269907025,269906944,0.24726783,-0.12195926,-18.488821
269955663,269955567,0.38275948,-0.077183396,-19.264238
270009140,270009056,0.122405626,0.58831805,-19.60671
270057759,270057676,0.09271215,0.40188742,-18.7311
270106868,270106787,-0.053052053,0.4765204,-17.111322
270160361,270160276,-0.37845483,0.7326402,-15.218686
270208986,270208904,-0.32725087,1.0487759,-13.133291
270257613,270257531,-0.43899512,1.214043,-12.27922
270306246,270306159,-0.5917072,1.6143234,-10.968712
270359744,270359649,-1.0485862,1.5278245,-9.53879
270408352,270408272,-1.1063437,1.4466716,-7.862755
270456984,270456901,-1.1674434,1.4350511,-7.4799705
270510472,270510390,-1.272306,0.7215184,-6.1935663
270559105,270559018,-1.4423026,0.7660137,-5.803005
270607729,270607647,-1.339462,0.60600233,-6.9150696
270656519,270656274,-1.3452973,0.26925725,-7.3382416
270709848,270709765,-1.2411957,0.2115645,-6.571062
270758478,270758394,-1.2932333,0.16856189,-6.695737
270807174,270807021,-1.1841819,-0.19693385,-6.7860265
270860597,270860514,-1.1038582,0.039567623,-6.6816373
270909224,270909141,-0.93611854,-0.12115095,-6.2007856
270957852,270957770,-0.9499426,-0.17585346,-6.1698704
271006479,271006398,-0.62001175,-0.14398666,-6.0895085
271059976,271059892,-0.4481763,-0.53106123,-6.259293
271108626,271108518,-0.28782883,-0.27159515,-6.72072
271157229,271157139,-0.37767392,-0.07256221,-7.357041
271210722,271210621,0.01364179,0.070749134,-8.155345
271259814,271259728,0.008511384,-0.22332893,-9.374973
271308576,271308356,-0.14563528,0.099191785,-9.647454
271357062,271356976,-0.218657,-0.17755637,-9.744162
271410546,271410464,-0.14537124,-0.11419287,-9.848939
271459174,271459091,-0.04809713,0.3144899,-9.563914
271507796,271507713,-0.12840883,-0.06963863,-8.738322
271561279,271561197,-0.18555497,-0.036443383,-8.814794
271609908,271609825,0.017896667,0.21593884,-8.249728
271658543,271658453,-0.06323275,0.06703874,-8.627496
271707168,271707086,0.0292555,-0.16068558,-9.20034
271760662,271760577,-0.048723493,-0.29184645,-10.091277
271809286,271809204,0.2622241,-0.22047333,-10.7941065
271857909,271857826,0.14598224,-0.44039086,-12.2749195
271911394,271911313,0.24829656,-0.5096508,-12.371874
271960014,271959931,0.04188299,-0.5586274,-12.61738
272008636,272008549,0.03518877,-0.7936019,-12.539661
272057248,272057163,-0.012962806,-0.5982565,-11.722359
272110725,272110641,-0.124799736,-0.77833074,-11.108866
272159339,272159256,0.12784356,-0.6139168,-11.23184
272207950,272207869,0.11423629,-0.6378233,-11.62929
272261429,272261346,-0.022415254,-0.69728965,-11.922855
272310051,272309967,-0.011204612,-0.42620188,-12.033369
272358669,272358584,0.03294176,-0.54263365,-11.67909
272407770,272407688,-0.019718636,-0.5600403,-10.96612
272461249,272461167,0.10863278,-0.3782844,-10.425831
272509867,272509782,0.12193795,-0.17583731,-10.155949
272558540,272558397,-0.13184576,-0.4635241,-9.432041
