timestamp,timestamp_sample,xyz[0],xyz[1],xyz[2]
217458348,217458259,0.00035006402,0.00011430727,0.0014132466
217463346,217463258,0.0007545542,-0.00017188885,0.0021423758
217480878,217480760,0.0027836077,0.0056510656,-0.0040098527
217500851,217500762,-0.0019871613,-0.0024806191,0.0010125581
217520849,217520763,0.0035018902,0.0030312557,-0.0010813749
217538348,217538264,0.0006307877,0.0004844973,0.001290929
217560851,217560766,-0.00025144988,-9.966944e-05,0.0036557354
217580850,217580768,0.0006850896,-0.0046446146,0.0021900886
217598352,217598269,0.0033812192,0.0014823664,-0.0016042457
217620855,217620771,-0.0018392901,0.0016107731,0.0019139056
217640859,217640773,-0.00084866513,-0.0015789905,0.0025593212
217660889,217660775,0.0039587836,0.00018830551,-0.0019237336
217678433,217678276,-0.00039002032,-0.002921076,0.00094287016
217700864,217700778,0.0007659268,-0.00029963278,-0.0012786211
217720862,217720779,0.004136484,0.00030132616,-0.0018341828
217738366,217738281,-0.00029731554,-0.0015966222,0.000556997
217760865,217760783,0.0019049704,-0.0023217534,0.0014632456
217780868,217780784,0.00052871776,0.0022801817,0.001629534
217800869,217800786,0.0004047266,0.00011666003,-0.0006713842
217818372,217818287,-0.002000115,-0.0014254606,-0.0013325433
217840873,217840789,-6.236683e-05,0.0026890598,-0.0017061122
217860873,217860791,0.0002662508,0.00076409476,0.00041788968
217878453,217878292,0.00029725663,0.002069598,0.000858144
217900879,217900794,-0.00301671,-0.0033608866,0.0013528422
217920882,217920796,-0.0010818134,-0.002161257,0.00049564993
217940880,217940797,0.0022951043,-0.0014588928,-0.00046910264
217958383,217958299,0.0015664109,0.0035996046,0.00019288491
217980886,217980801,0.0012759188,0.0016630506,0.0005637916
218000887,218000802,0.0008128054,-0.0019191998,-0.000840926
218018387,218018305,0.0023569544,0.0010110538,0.0026183422
218040890,218040806,0.0016991998,0.0024257894,-0.0010219181
218060891,218060807,0.0020698998,-0.0026759957,0.0015384455
218080953,218080809,-0.00092625176,-0.0010817011,0.003077348
218098394,218098310,0.0030980972,-0.002325722,0.00083509844
218120894,218120812,0.00040617364,0.0016367354,-0.0004035883
218140896,218140814,-0.0021097215,0.0024494918,-0.0001259424
218158400,218158315,0.003232906,0.0011796758,-0.0032997248
218180901,218180817,0.00011436187,0.00075455266,-0.0031386227
218200902,218200819,0.0010130397,-0.0012621577,-0.0001666455
218220907,218220820,-3.0709663e-05,-0.00014765677,-5.0815986e-05
218238405,218238322,0.003116564,-1.904089e-06,0.0011377342
218260908,218260824,-0.0009059309,-0.0010235602,-0.00028200418
218280982,218280825,0.0025954247,-0.00043250213,-0.0007798331
218298409,218298327,-0.0015115617,0.0004982543,0.00092075276
218320915,218320829,-0.00025722454,-0.00049190235,-8.305599e-05
218340914,218340830,0.00019788358,-0.0032629285,-0.0003976148
218360915,218360832,-0.00056181813,-0.0014687942,-0.00018129376
218379521,218378333,5.777192e-05,0.0005951328,0.0021336584
218400916,218400835,0.0017230079,-0.0038457345,-0.0018210271
218420919,218420837,0.0021350738,-0.00097346865,-0.0023235178
218438420,218438338,-0.0004927489,0.0007654296,-0.003964178
218460923,218460840,0.0011346418,0.000111778034,0.00092168583
218481050,218480842,-0.00038241816,-0.001757744,0.00057595177
218500923,218500843,-0.0009941864,-0.0007522892,-0.0011624356
218518429,218518345,0.0013671304,0.0002125313,-0.0006998076
218540929,218540847,-0.000403599,-7.878244e-05,-0.0015632715
218560931,218560848,0.0015292704,0.0023967281,-0.0022819103
218578431,218578350,-0.0003938242,0.00021379907,0.0015950322
218600932,218600852,-0.0006980016,-0.0016719358,0.0015247057
218620935,218620853,0.0005490602,0.0025756194,0.0013119748
218640938,218640855,-0.0002903482,-0.00092387106,0.00031216827
218658436,218658356,0.0016438173,-0.0014245939,-0.00079448515
218681027,218680858,0.001146928,-1.5006866e-05,0.0015970273
218700941,218700860,-0.00074339786,0.0041636257,0.00043041518
218718442,218718361,0.0007647752,0.0003396892,-0.0007055967
218740945,218740863,0.0026808698,-0.0019119154,0.00037322487
218760947,218760865,-0.000982292,0.0035656018,-0.00057028496
218780947,218780866,-0.00043501623,0.0002528706,-0.0025894376
218798450,218798368,8.352136e-05,-0.0010787292,-0.0020058441
218820951,218820870,0.0021322533,0.0010406184,-0.0011356999
218840951,218840871,-0.000779836,-0.0018420453,-0.0013670549
218858453,218858373,-0.000653913,0.0017121152,0.00069768855
218881053,218880875,0.0005601683,-0.002896883,-0.0014488571
218900960,218900876,-0.00090973347,-0.0024674723,0.0015921674
218920982,218920878,0.0028029252,0.0020733967,0.0010295188
218938460,218938379,0.0025448115,-0.0022758327,-0.00043729687
218960963,218960881,-8.3064195e-05,0.001191682,-0.0008862727
218980966,218980883,0.00024408137,-0.0025607562,0.00065239053
218998468,218998384,-0.00035317882,3.2735988e-07,-0.0014628046
219020969,219020886,-0.002281622,-0.0015231853,0.0036271415
219040972,219040888,0.0009247678,-0.002480835,0.0008177268
219060971,219060889,0.00039043103,0.00035299128,-0.00059182517
219078612,219078391,-0.0006719589,0.001972567,-0.0017540599
219100976,219100893,0.0044115027,-0.0026219538,-0.0011558577
219120978,219120894,0.0015157763,0.0025212474,-0.0027646003
219138477,219138396,0.0030584116,0.00064513553,-0.00074575545
219160980,219160898,-0.0015125523,0.0018120764,0.004456748
219180983,219180899,-0.00092894514,0.0015645556,0.0037574153
219200984,219200901,0.0007223805,-0.0037480132,0.0053170146
219218483,219218402,0.0010957554,-0.0024647627,0.005880246
219240984,219240904,-0.0052707703,0.0016994157,0.0018081977
219260989,219260906,-0.008140087,0.002193554,0.00338454
219278640,219278407,-0.0063357465,-0.0028004656,-0.0032023787
219300990,219300909,-0.0031047754,0.0018890665,-0.004671349
219320992,219320911,-0.0064559937,0.004750138,-0.0039571784
219340994,219340913,-0.004173906,0.00084090093,-0.0050911093
219358499,219358414,-0.0021971224,0.0021672577,6.3337386e-05
219380996,219380916,0.0016999511,0.002800796,0.00539074
219400998,219400918,-0.0031904862,-0.0064509837,0.006444081
219418501,219418419,-0.0026119559,-0.00079360197,0.0057551046
219441004,219440921,-0.0055325,0.0058559543,0.0021421087
219461003,219460922,-0.0076071033,0.0032490797,0.0022137447
219481138,219480924,-0.012320513,0.000327182,-0.0008675544
219498506,219498425,-0.0074897343,0.010330157,-0.0037972373
219521009,219520927,-0.010227612,0.0003443826,0.00022019012
219541008,219540929,-0.0048178486,-0.0046436563,0.0024074896
219558509,219558430,-0.0046629035,-0.0011802388,0.011555277
219581014,219580932,-0.005775679,-0.0054336805,0.0066216313
219601016,219600934,-0.007050329,-0.0044684974,0.005889901
219621018,219620936,-0.0060535395,0.01117639,0.0010830399
219638523,219638437,-0.00064799155,-0.0050451844,0.0022478942
219661019,219660939,0.0015723751,-0.0064093014,-0.006632705
219681159,219680940,-0.0010980102,0.0072618667,-0.0027125352
219698523,219698442,0.00721839,-0.007450359,-0.004751905
219721025,219720944,0.0018403843,-0.0047287224,-0.0006296237
219741025,219740946,0.0022695,0.0017451306,0.00644063
219761027,219760947,-0.0010217461,-0.0045586275,0.00481462
219778533,219778451,0.0019868235,-0.002859036,0.0021444447
219801035,219800950,-0.007769796,0.00024307915,0.0030577292
219821100,219820952,-0.012254771,0.0031865763,0.0010757048
219838534,219838454,-0.0014677455,0.0037677863,-0.0012752798
219861037,219860956,-0.0066883103,-0.0041314214,0.0043767043
219881190,219880957,-0.0027284347,0.0008772735,-0.0006040411
219901045,219900959,-0.020166747,0.0016276487,0.004985526
219921045,219920961,-0.00052559376,-0.005226367,0.015715646
219941045,219940962,-0.008239962,-0.001262296,0.017066285
219961046,219960964,0.001539566,-0.0018582763,0.016097441
219978546,219978465,-0.00031047198,0.010141889,0.015492291
220001046,220000967,0.00088629604,-0.0016923256,0.015767552
220021049,220020969,-0.0010521004,0.0068471394,0.0127771245
220041051,220040970,0.0010851925,-0.0007740153,0.004221756
220058553,220058472,0.004825999,-0.0006094427,4.5136432e-05
220081221,220080974,-0.0068777045,0.004328304,0.0015207557
220101056,220100975,-0.022951309,0.0058576697,-0.0036713947
220118560,220118477,-0.02455641,0.009030097,-0.001401772
220141063,220140979,-0.008106025,-0.004375302,-0.0064942
220161062,220160980,-0.012842616,-0.004109105,-0.009635413
220181062,220180982,-0.012371968,-0.0010931159,-0.010337684
220198566,220198483,-0.0134953,0.006502158,-0.0040623597
220221065,220220985,-0.0122825,0.022929035,-0.0039223945
220241071,220240987,-0.010834568,0.01656902,-0.0018785612
220258572,220258488,-0.02046378,0.012609786,0.003742534
220281072,220280990,-0.017699935,0.007286965,0.006807127
220301073,220300992,-0.014556513,0.005313894,0.011713081
220321079,220320994,-0.018788468,-0.002783508,0.011375416
220338576,220338495,-0.012115707,0.0027181676,0.016054124
220361077,220360997,-0.01923098,0.011212988,0.015102956
220381082,220380998,-0.017358473,0.0031625784,0.015167566
220398581,220398500,-0.015079189,0.01246692,0.013677716
220416084,220416001,-0.014879829,0.0089109335,0.01838278
220441136,220441003,-0.0133438,0.013828516,0.0081698345
220461086,220461005,-0.021760292,0.023459822,0.00995984
220478588,220478507,-0.02928641,0.0045950674,0.00970025
220501091,220501008,-0.021247692,0.01535858,0.0063660173
220521092,220521010,-0.024897132,0.01394617,0.0042814068
220538591,220538512,-0.0343709,0.02103188,-6.6262786e-05
220561095,220561013,-0.034624223,0.006322328,0.0030090744
220581096,220581015,-0.031900927,0.0054463996,0.0074385763
220601099,220601017,-0.02953653,0.0034878638,-0.00020248344
220618631,220618518,-0.013358918,0.009454194,0.0015626564
220641102,220641020,-0.013574886,0.008869232,0.0019402613
220661103,220661022,-0.019316405,0.007592682,-0.0001302475
220678605,220678523,-0.0059114723,0.00044272467,0.0054413956
220701110,220701025,-0.009920394,0.017845409,0.0033648536
220721110,220721027,-0.010894466,0.0092126,-0.003150219
220741117,220741029,-0.011634689,0.023748048,-0.004686328
220758611,220758530,-0.023705017,0.0015159319,0.0042685433
220781117,220781034,-0.021469094,0.011681776,0.0010954943
220801117,220801034,-0.011815596,0.021759113,0.00076144043
220818618,220818535,-0.0022709332,-0.013361938,0.007458803
220841118,220841037,-0.02148657,0.012101309,0.0004709062
220858622,220858538,-0.020580001,-0.0021391574,0.0009051782
220881124,220881040,-0.018428538,0.01004049,0.0015893057
220898628,220898541,-0.018225126,0.0003799314,0.0049408586
220921129,220921043,-0.016691463,0.008284468,0.0065070097
220941126,220941045,-0.015682967,0.009749076,0.0023036841
220958632,220958546,-0.0034013432,0.011441569,0.0070453635
220981133,220981048,-0.00030678487,0.009311883,0.009007604
221001130,221001050,-0.0019366357,0.0041076327,0.0059283217
221021131,221021052,0.0088818455,0.008058717,-0.0003609695
221038641,221038556,0.0067594554,0.017595846,0.00410196
221061139,221061055,0.003382347,0.023891354,0.00077169994
221081136,221081057,0.0045672795,0.018895809,0.0015263422
221098640,221098559,0.0024969443,0.019659609,-0.00083585555
221121145,221121063,0.0044080587,0.006594521,-0.0039053787
221141148,221141062,-0.0022890808,0.0071472498,-0.0053628627
221161148,221161064,-0.024070337,0.023233257,0.00013979746
221178644,221178565,-0.0104497,0.0073428173,0.003359932
221201148,221201067,-0.013909839,0.022217996,0.005198471
221221150,221221069,-0.011424147,0.03470164,0.0065752757
221238654,221238570,-0.015663002,0.024391245,0.01046911
221261152,221261072,-0.0029712156,0.030898713,0.019357506
221281160,221281074,-0.0047974894,0.025080675,0.013280691
221301156,221301075,-0.0028993015,0.0201727,0.016563663
221318659,221318577,0.0054626754,0.015252193,0.015189681
221341161,221341078,0.006263455,0.033686016,0.010080925
221361160,221361080,-0.003754262,0.021071399,0.0058184145
221378663,221378582,-0.014362267,0.04514905,0.00034221512
221401167,221401084,-0.01841534,0.051638804,0.0031586427
221421166,221421085,-0.014905913,0.05479785,-0.00052512187
221441167,221441087,-0.013063893,0.047252614,-0.00687593
221458671,221458588,-0.0012331347,0.04129558,0.0060766893
221481173,221481090,-0.006666031,0.057281543,0.00503421
221501175,221501092,-0.022345863,0.07116954,0.008808746
221518677,221518593,-0.038457952,0.08812154,0.010678534
221541177,221541095,-0.032116007,0.057737306,0.0072967303
221561179,221561097,-0.04210883,0.0730452,0.0031093624
221581181,221581099,-0.030969106,0.070248395,0.0142217325
221598685,221598600,-0.03438536,0.0704693,0.0041407184
221621181,221621102,-0.025884792,0.08632633,0.012213662
221641190,221641103,-0.023219485,0.07304052,0.0055908547
221658688,221658605,-0.013226028,0.044335883,-0.0016065608
221681195,221681107,-0.02116273,0.0927672,0.0114251375
221701257,221701109,-0.023800481,0.098611146,0.015630526
221721191,221721110,-0.017917112,0.06151751,0.016142197
221738698,221738612,-0.0038232426,0.07627833,0.019885382
221761196,221761113,0.028751109,0.044099644,0.023770114
221781196,221781115,0.014524656,0.05025401,0.03426209
221798698,221798617,0.0050070058,0.038607612,0.03730127
221821205,221821119,-0.009030858,0.04927808,0.03361676
221841203,221841120,-0.035885375,0.046550192,0.030983485
221861204,221861122,-0.06513243,0.048349187,0.04012996
221878704,221878624,-0.06923128,0.050852958,0.04157539
221901215,221901125,-0.05819303,0.029906828,0.05071096
221921209,221921127,-0.02964009,0.059219006,0.05759735
221938709,221938628,-0.003968638,0.05543907,0.060899463
221961212,221961130,0.009024646,0.03814542,0.07638825
221981214,221981132,0.035893295,0.019965917,0.08239621
222001215,222001134,0.04434814,0.013671615,0.084917024
222018716,222018635,0.06647861,0.023355845,0.0905431
222041220,222041137,0.100328326,-0.0014490198,0.090717465
222061223,222061139,0.09689451,0.011681382,0.08217271
222078721,222078640,0.086776614,-0.00025805482,0.090210795
222098790,222098642,0.058176164,0.019275904,0.08918347
222121225,222121144,0.05291784,-0.0053315265,0.09361189
222141226,222141145,0.039369274,0.011501055,0.089159675
222158794,222158647,0.053462576,-0.023381213,0.091222696
222181230,222181149,-0.015444267,-0.027376277,0.092704944
222201233,222201151,-0.07730885,0.011295585,0.08179073
222218734,222218652,-0.079910174,-0.020546393,0.0796214
222238737,222238654,-0.05381032,-0.016885981,0.080649
222261235,222261156,-0.032933533,-0.038829062,0.08267576
222281239,222281157,-0.0444005,-0.018451268,0.09779455
222298796,222298659,-0.038906094,-0.0060788207,0.096003994
222321247,222321161,-0.04997044,-0.023825109,0.098066606
222341244,222341162,-0.035551377,-0.028436612,0.100214556
222358745,222358664,0.006846117,-0.017698035,0.09693525
222378749,222378665,0.0118542425,-0.038564593,0.09452956
222401251,222401167,0.027049493,-0.025835793,0.09617773
222418751,222418669,0.020235088,-0.015808575,0.084500484
222438752,222438670,0.05991421,-0.04131454,0.09543276
222461253,222461172,0.066399224,-0.019645207,0.08663306
222481257,222481174,0.020469971,-0.013597805,0.082656756
222498826,222498675,-0.0018158265,-0.031224765,0.082621224
222518761,222518677,-0.044747923,0.009927846,0.084757656
222541260,222541179,-0.049867034,0.014480875,0.07511062
222561263,222561181,-0.032949883,0.029250437,0.0768514
222578765,222578682,-0.035653826,0.049557038,0.07858034
222601300,222601184,-0.05668989,0.06570142,0.08068661
222621266,222621186,-0.050338585,0.06865565,0.0692032
222638768,222638687,-0.055215344,0.040495623,0.07975897
222658772,222658689,-0.042284258,0.056589812,0.073031604
222681273,222681191,-0.052182183,0.03118494,0.07963178
222701321,222701192,-0.10210621,0.029246816,0.07615335
222718776,222718694,-0.088910036,0.018691944,0.07613082
222741277,222741196,-0.069080845,-0.041350543,0.084095776
222761279,222761198,-0.044203773,-0.0434616,0.0816311
222778783,222778699,-0.045813598,-0.063688114,0.076990545
222798781,222798701,-0.050436314,-0.024714401,0.0765496
222821284,222821202,-0.05838962,-0.05971095,0.06598307
222841287,222841204,-0.044612028,-0.00814501,0.064093456
222858788,222858706,-0.011216872,-0.10726234,0.055596553
222881288,222881208,-0.01888423,-0.06331262,0.052779563
222901348,222901209,0.00036030472,-0.1007227,0.05153228
222918794,222918711,-0.016796416,-0.14577952,0.034856558
222938795,222938713,-0.027216189,-0.14451072,0.030210849
222961296,222961214,0.013537472,-0.10790478,0.016049618
222981297,222981216,-0.0007084968,-0.16052155,0.016837634
222998799,222998718,-0.023500409,-0.1477784,0.011699752
223021303,223021220,-0.01789088,-0.13485081,0.010719806
223041356,223041221,-0.019169465,-0.07662372,-0.005006673
223058862,223058723,-0.011274421,-0.15065217,0.00090918236
223078804,223078724,-0.091160476,-0.13574587,-0.0065312353
223101376,223101226,-0.19087902,-0.023224793,-0.019469136
223121313,223121228,-0.23687375,-0.049633887,-0.012288868
223138811,223138729,-0.17998888,-0.03795118,-0.021916365
223161312,223161231,-0.065621,-0.07591095,-0.019728823
223181316,223181233,-0.099359185,-0.02991911,-0.020901514
223198818,223198735,-0.117095105,-0.09662405,-0.02340344
223218818,223218736,-0.11379163,-0.089315966,-0.018896114
223241319,223241238,0.059042502,-0.059633896,-0.012270569
223261323,223261240,0.10323383,-0.036431376,-0.028166536
223278822,223278741,0.14172213,-0.10443691,-0.023834297
223301406,223301243,0.12133555,-0.086902745,-0.022255588
223321329,223321245,0.11207795,0.006629138,-0.0091341585
223338829,223338746,0.2142415,-0.029849922,-0.009867155
223358832,223358748,0.2729269,-0.07536748,-0.006762938
223381331,223381250,0.4203273,-0.0052508777,0.0043914015
223401333,223401252,0.4156868,0.021452963,0.006213486
223418834,223418753,0.44610578,-0.08946068,0.0087057045
223441337,223441255,0.5054697,-0.08788512,0.0029543133
223461337,223461257,0.6080727,-0.034004893,0.010589411
223473840,223473758,0.59259945,-0.016918441,0.0070743416
223499026,223498760,0.53583676,-0.035826605,0.003674811
223521343,223521262,0.48704848,-0.050465386,0.0030479047
223541344,223541263,0.36821145,-0.0043569934,-0.006225344
223558846,223558765,0.31813392,0.0076546264,-0.008774487
223581348,223581267,0.3306106,-0.061796192,-0.003677042
223601348,223601268,0.2978692,-0.047448255,-0.006234792
223618850,223618770,0.22396064,0.0002755965,-0.017530907
223638853,223638772,0.14937156,-0.056298763,-0.01881697
223661356,223661273,0.09318724,-0.024183784,-0.018107153
223681355,223681275,-0.021543436,0.0369613,-0.0340723
223698988,223698777,-0.08660592,0.0007329632,-0.040873345
223721359,223721278,-0.1586606,0.00022369158,-0.037123837
223741362,223741280,-0.2126371,0.009257227,-0.037381463
223758863,223758782,-0.26115704,0.044060327,-0.03516332
223778866,223778784,-0.3259078,0.011204226,-0.04215787
223801367,223801285,-0.3190032,0.04378508,-0.048666548
223821369,223821287,-0.31676975,0.047488354,-0.03831004
223838872,223838789,-0.3810235,0.032998342,-0.045876466
223861370,223861290,-0.4334351,0.049055684,-0.046161003
223881372,223881292,-0.42144364,0.070124224,-0.046996675
223899016,223898794,-0.37148318,0.036640897,-0.05104448
223921381,223921296,-0.29894283,0.05052881,-0.051610895
223941434,223941297,-0.2746363,0.0538036,-0.04733848
223961384,223961299,-0.22294533,0.0073777963,-0.045831244
223978883,223978800,-0.19757149,0.020246457,-0.048454426
224001385,224001302,-0.10916596,-0.03193609,-0.038717855
224021388,224021304,-0.058545772,-0.026100256,-0.044616535
224038886,224038805,-0.0005713027,-0.055829503,-0.041423913
224058888,224058807,0.020046888,-0.09296028,-0.03186573
224081390,224081309,0.048119243,-0.122590706,-0.024618857
224099044,224098811,0.068354346,-0.10498026,-0.026787858
224118924,224118812,0.1143038,-0.13541536,-0.020186914
224141394,224141314,0.19040924,-0.17378755,-0.020087566
224161399,224161316,0.17573905,-0.16570894,-0.025652362
224178900,224178817,0.14683792,-0.13810931,-0.020350944
224198903,224198819,0.16472483,-0.21766701,-0.015017571
224221403,224221321,0.14844704,-0.17875385,-0.025599001
224241403,224241323,0.20160653,-0.12562227,-0.022095313
224258905,224258824,0.17857058,-0.1473247,-0.024669435
224281409,224281326,0.12749305,-0.15864028,-0.020958321
224301543,224301328,0.08638379,-0.09116551,-0.02167467
224318909,224318829,0.07480682,-0.056637965,-0.022746209
224338916,224338831,0.02876276,-0.05587512,-0.025958056
224361417,224361333,-0.04171996,-0.04613094,-0.021059668
224381418,224381334,-0.07593694,0.026773846,-0.013957614
224398919,224398836,-0.090320535,0.027808286,-0.015116172
224421417,224421338,-0.10566598,0.009915028,-0.019014813
224441421,224441340,-0.16937484,0.10247826,-0.024289148
224458924,224458841,-0.15547872,0.11059687,-0.018136797
224478924,224478843,-0.23171955,0.088481046,-0.017083095
224498927,224498845,-0.1678209,0.051476978,-0.0074027632
224521428,224521346,-0.13273913,0.089347884,-0.0063010985
224538930,224538848,-0.10366078,0.113409765,-0.007695153
224561432,224561350,-0.085715465,0.058726143,-0.0050385254
224581431,224581351,-0.06613177,0.020541312,0.0030508125
224598934,224598853,-0.051283374,0.043319307,0.0024327058
224618935,224618855,0.0053011817,0.021309713,0.0071887462
224641441,224641357,0.042798746,-0.036452617,0.010668019
224661444,224661359,0.002560418,-0.0030913576,0.010387089
224678940,224678860,-0.012200961,0.005709031,0.011095837
224701595,224701362,-0.018423354,-0.041994594,0.017548926
224721449,224721364,-0.031770833,-0.060058422,0.015862139
224738947,224738867,-0.040577963,-0.016287003,0.013700834
224758946,224758866,-0.040783837,-0.066374,0.021872649
224781452,224781369,-0.088048905,-0.073255114,0.010543929
224801453,224801370,-0.062207576,-0.02795803,0.022871906
224818955,224818872,-0.027578631,-0.016386222,0.00801297
224841457,224841374,-0.00044238637,-0.0203508,0.010181797
224861455,224861375,-0.016722707,0.0024887733,0.015968118
224878959,224878877,-0.0053201346,0.017670916,0.010329378
224898961,224898879,-0.051762354,0.044756375,0.01398786
224921462,224921380,-0.010400517,0.039799403,0.017607765
224941463,224941382,-0.008061395,0.05411723,0.0070826747
224958967,224958884,0.0027795413,0.08542473,0.008169576
224981466,224981386,0.010661717,0.08035399,0.0050204718
225001470,225001387,0.024352904,0.06589388,0.002186797
225019039,225018889,0.03548059,0.092445865,0.0031233723
225038972,225038891,0.05839884,0.07815291,0.0021701786
225061474,225061392,0.062030226,0.07494937,0.0005796538
225081477,225081394,0.08581609,0.0819201,0.0049853036
225098978,225098896,0.10334308,0.066959426,-0.0005910246
225121479,225121397,0.11321726,0.067054085,0.006554368
225141482,225141399,0.11198397,0.056934357,0.008476188
225158982,225158901,0.12072517,0.033671863,0.006315732
225178984,225178903,0.13375168,0.050864533,0.0131593095
225201484,225201404,0.1366226,0.026500488,0.008354629
225221487,225221406,0.13273051,-0.009112076,0.0013929118
225238990,225238908,0.11193056,0.01442397,0.004420414
225261491,225261410,0.10429259,-0.006061038,-9.6066855e-05
225281496,225281411,0.08214789,-0.03198824,-0.0031833947
225298993,225298913,0.049122598,-0.03521334,-0.0023226843
225318996,225318914,0.050190076,-0.06779042,-0.0024514587
225341497,225341416,0.009317765,-0.07085089,-0.008660385
225361500,225361418,-0.007043794,-0.05665104,-0.0068208957
225379001,225378919,-0.0063759526,-0.09084117,-0.0088610845
225401503,225401421,-0.08307308,-0.053152297,-0.011485099
225421504,225421423,-0.07024535,-0.058473352,-0.017451098
225439008,225438925,-0.09636826,-0.07247479,-0.01191113
225459008,225458926,-0.1346266,-0.01878866,-0.02334054
225481510,225481428,-0.14840329,-0.015488128,-0.022345997
225501510,225501430,-0.16331442,-0.05555606,-0.020669682
225519013,225518932,-0.19420907,-0.0153915025,-0.029133
225541518,225541434,-0.17571743,0.010226664,-0.02537674
225561519,225561435,-0.19893014,-0.0051855,-0.029565973
225579018,225578937,-0.19413197,0.017739136,-0.033029824
225599019,225598938,-0.16675615,0.013713342,-0.023795964
225621522,225621440,-0.18213697,0.050680347,-0.025651624
225641524,225641442,-0.14880866,0.029767426,-0.03041895
225659026,225658944,-0.13807067,0.057196353,-0.022773325
225681525,225681445,-0.12563096,0.08512917,-0.025852654
225701529,225701447,-0.087720305,0.061398078,-0.028357059
225719030,225718948,-0.084480375,0.07446725,-0.024955867
225739035,225738950,-0.048335254,0.050897747,-0.027330045
225761533,225761452,-0.033465996,0.06396611,-0.029346883
225781534,225781454,0.006524695,0.043722954,-0.0145531
225799038,225798956,0.014904945,0.03980281,-0.023272699
225821539,225821457,0.034455534,0.053010214,-0.023670958
225841543,225841459,0.050054867,0.031933818,-0.012114806
225859041,225858961,0.04907837,0.030296275,-0.020839654
225879042,225878962,0.08789128,0.0020721287,-0.008358162
225901545,225901464,0.061657004,0.011083628,-0.013638455
225921548,225921466,0.07939521,-0.026002353,-0.013981623
225939112,225938967,0.06318266,-0.021300012,-0.0083170915
225961551,225961469,0.024745768,-0.017141817,-0.011725695
225981552,225981471,0.038719967,-0.045791745,-0.010529884
225999053,225998973,0.017143533,-0.047302753,-0.0073305676
226019057,226018974,0.021144215,-0.06254357,-0.009319038
226041557,226041476,-0.015062562,-0.06715401,-0.011953242
226061559,226061478,-0.04171008,-0.02835054,-0.011289394
226079061,226078979,-0.033515923,-0.056567162,-0.007439049
226101563,226101481,-0.05788278,-0.06664198,-0.010051064
226121610,226121483,-0.079301745,-0.010279418,-0.0107764015
226139066,226138984,-0.084947355,-0.034588896,-0.009247396
226159072,226158986,-0.12101366,0.0011311341,-0.01469732
226181570,226181488,-0.1149942,0.0042690067,-0.018609952
226201576,226201490,-0.10891037,-0.0024086633,-0.0047701797
226219075,226218992,-0.12864174,0.008117818,-0.016581763
226241575,226241493,-0.10586764,0.028756637,-0.011918513
226261578,226261495,-0.10973193,0.02025791,-0.0031370171
226279082,226278997,-0.11055506,0.035590418,-0.01335088
226299078,226298998,-0.07383004,0.017290542,-0.0006437866
226321583,226321500,-0.07957161,0.036412932,0.0007153001
226341587,226341502,-0.056252543,0.021412207,-0.005811501
226359084,226359003,-0.06398045,0.019783357,0.0066550593
226381594,226381505,-0.034496374,0.033102725,0.0052789757
226401587,226401507,-0.04708456,0.026053255,-0.006439725
226419090,226419009,-0.025222348,0.025729995,0.0075141974
226439092,226439010,-0.013629063,0.0030183133,0.003679063
226461596,226461512,-0.012291981,0.035694793,0.0024347666
226479094,226479014,0.009106678,0.019693416,0.013522916
226499095,226499015,-0.011652137,0.010410581,0.0032112843
226521598,226521517,0.023803156,0.01285686,0.011122303
226541602,226541519,0.0054870215,-0.0008328387,0.017250093
226551602,226551520,0.04268609,-0.017001566,0.011399962
226579105,226579024,-0.0045479704,-0.031360906,0.010917755
226601605,226601524,0.016054912,-0.021015797,0.0115611525
226621609,226621526,-0.020659484,-0.021262556,0.005409006
226639113,226639028,0.0014415875,-0.03034835,0.013032109
226661618,226661529,0.008392275,-0.043707907,0.005681388
226681613,226681531,-0.015715973,-0.014661544,0.0021335792
226699113,226699033,-0.0086509455,-0.036442943,0.008684608
226719153,226719034,-0.031352352,-0.019495288,-0.00065315363
226741623,226741536,-0.014309202,-0.017293332,-0.0008665903
226761622,226761538,-0.017886082,-0.021892913,0.0012149629
226779120,226779040,-0.017753134,0.0036182369,-0.0043805484
226801627,226801541,0.00012085936,0.002387705,0.0037015371
226821628,226821543,0.0046021636,0.00542784,-0.000978979
226839129,226839045,0.015761128,0.02958837,-0.0049682874
226859129,226859046,0.0056818603,0.02147476,-0.009930501
226881633,226881548,0.030931864,0.02541101,-0.0030771033
226901639,226901550,0.0013462792,0.065831505,-0.012538287
226919184,226919052,0.033484396,0.033360526,-0.006270726
226941636,226941553,0.019974804,0.047193512,-0.010221084
226961639,226961555,0.035699744,0.058354963,-0.010166002
226979138,226979057,0.03740273,0.036577724,-0.009602206
226999143,226999061,0.023677565,0.06583082,-0.010526836
227021643,227021560,0.050125625,0.04893415,-0.008347223
227041646,227041562,0.041642204,0.028224763,-0.011468769
227059145,227059064,0.047731496,0.038089503,-0.011436559
227081648,227081566,0.028269947,0.025601063,-0.011589912
227101653,227101567,0.040037528,0.005565796,-0.0073598353
227119211,227119071,0.039165236,0.008131505,-0.0063215364
227139152,227139070,0.039257027,-0.017657902,-0.004808467
227161658,227161573,0.011447532,0.009206385,-0.00926825
227181658,227181574,0.032446656,-0.005224463,-0.0077017676
227199156,227199076,0.014945878,-0.011253763,-0.0041140183
227221660,227221578,-0.01814191,0.00051146955,-0.0063098553
227241661,227241579,0.022532886,-0.013853348,-0.00052496884
227259162,227259081,-0.0048525273,-0.010109745,-0.00048594316
227279166,227279083,0.008232493,-0.011370593,0.0048792185
227301666,227301585,0.009417715,-0.02959982,0.011608096
227319238,227319086,-0.027504656,-0.009183926,0.0072084228
227339174,227339088,0.025453439,-0.022305468,0.011639744
227361671,227361590,-0.01952087,-0.019401055,0.01445222
227381672,227381591,0.020944027,-0.021703394,0.02411898
227399175,227399093,0.009782713,-0.016282085,0.023337916
227419178,227419095,0.027742436,-0.012248369,0.024763335
227441685,227441597,0.011646029,-0.012757845,0.023525324
227461683,227461598,0.03404543,0.008350398,0.026565121
227479181,227479100,0.04004746,-0.017326707,0.032324206
227501688,227501602,0.0017300795,0.014204349,0.025244243
227521740,227521603,0.042392846,-0.007128235,0.03803649
227539189,227539105,0.024062969,-0.0071012387,0.034816533
227559187,227559107,0.054990314,0.0045834566,0.0440003
227581696,227581609,0.026680566,0.008886085,0.042583667
227601696,227601611,0.063216835,-0.01120091,0.05191108
227619193,227619112,0.04962407,-0.0018768543,0.051668186
227641704,227641614,0.021702297,0.0121131055,0.052308682
227661699,227661618,0.027949538,-0.010039292,0.05475856
227679197,227679117,0.016001904,-0.0048496607,0.05749062
227699200,227699119,0.04814009,-0.028088553,0.062304817
227721763,227721621,-0.008166069,0.006970374,0.05871473
227741702,227741622,0.03272497,-0.0146316895,0.06429934
227759206,227759124,0.011300854,-0.015241258,0.06458109
227781711,227781626,-0.003111523,0.0056345416,0.067479715
227801709,227801628,0.01294793,-0.019861704,0.0741193
227819212,227819129,-0.0008172444,-0.0021044118,0.07178394
227839213,227839131,-0.018347312,0.004344792,0.0744505
227861713,227861633,0.016986657,-0.004791972,0.0747892
227881718,227881635,-0.017959174,0.012439306,0.076507226
227899219,227899136,-0.01557547,0.03010111,0.073999
227921796,227921638,0.03354935,-0.0041238624,0.08349835
227941725,227941640,-0.012071975,0.04291369,0.080011345
227959223,227959141,0.011315638,0.035191897,0.077181146
227979224,227979143,-0.032211483,0.052759115,0.07764616
228001725,228001645,0.0015057409,0.043111082,0.08388704
228019228,228019147,-0.008046512,0.049913764,0.071843274
228039230,228039148,-0.0014373392,0.046427887,0.07794642
228061734,228061651,-0.021073045,0.0688701,0.08198301
228081736,228081652,0.0029163298,0.045192625,0.07320172
228099233,228099154,-0.0104491,0.074380286,0.078174636
228119349,228119155,0.0065826485,0.060103163,0.079033926
228141738,228141657,-0.003416391,0.09568902,0.077507384
228161740,228161659,0.018039126,0.08134215,0.08716675
228179241,228179160,0.034443274,0.09686075,0.08069642
228199245,228199162,0.032242052,0.09151362,0.08350194
228221747,228221664,0.060126852,0.06390262,0.08404685
228239250,228239166,0.05672916,0.0675246,0.08640968
228259251,228259167,0.06809755,0.048212267,0.08470963
228281750,228281670,0.039324287,0.05486052,0.080710016
228301754,228301671,0.032905582,0.053496547,0.086693555
228319375,228319173,0.048497796,0.036122322,0.082453035
228339255,228339174,0.052830767,0.02753653,0.091014676
228361756,228361676,0.058786012,0.017624622,0.08775573
228379264,228379178,0.06591969,-0.0020374884,0.09084622
228399263,228399180,0.04727185,0.005882673,0.08610208
228421765,228421682,0.026590116,-0.018530816,0.08212495
228441763,228441683,0.019208511,-0.0050160363,0.087900236
228459265,228459185,-0.0025618672,-0.013285785,0.08064447
228479268,228479186,0.028589657,-0.01701977,0.09111664
228501770,228501689,-0.03053898,-0.0050458056,0.0853059
228519405,228519190,-0.031727836,0.013890298,0.07999228
228539274,228539192,-0.036159653,-0.00051095337,0.08428909
228561775,228561694,-0.048319366,0.0055351965,0.08337122
228581777,228581696,-0.06595945,0.004784926,0.0791868
228599279,228599197,-0.05311831,0.0044909576,0.087300524
228619279,228619199,-0.06362612,-0.004163812,0.07647451
228641782,228641701,-0.038810365,0.011555524,0.08409474
228659285,228659202,-0.033923093,-0.004203077,0.07614817
228679286,228679204,-0.053366344,0.02901391,0.077962235
228701859,228701710,-0.014383623,-0.0002241095,0.081140004
228719429,228719207,-0.037040334,-0.0043955087,0.07371765
228739290,228739209,-0.035748284,0.018458793,0.075289436
228759292,228759211,-0.02089542,-0.0014657419,0.07185488
228781798,228781713,-0.032288913,0.0040522395,0.05895075
228799296,228799214,-0.009752352,0.0191083,0.07176347
228819296,228819216,-0.018844346,0.006519721,0.06006842
228841800,228841718,0.014720174,-0.008196155,0.06497908
228859301,228859220,0.020928854,-0.021925572,0.063199826
228879302,228879221,0.038182214,-0.010573649,0.069189735
228899302,228899223,0.05179676,-0.03284476,0.06408908
228921927,228921725,0.07086423,-0.06510451,0.05859555
228939312,228939227,0.044158034,-0.011582896,0.05943583
228959311,228959228,0.049396776,-0.04668049,0.052110232
228981813,228981730,0.04094115,-0.02248982,0.049444728
229001812,229001732,0.032728747,-0.01111425,0.054839924
229019318,229019234,0.022731392,0.009718992,0.04035044
229039319,229039235,0.036697753,0.0023217134,0.045913704
229061821,229061737,0.03805665,0.0002758617,0.044114314
229079319,229079239,0.0127306525,0.014275009,0.038737547
229099322,229099240,0.029066227,0.007101967,0.040788587
229121959,229121742,0.0036877384,0.011931588,0.036568094
229141826,229141744,0.03555579,0.029670015,0.034051433
229159329,229159246,0.025798414,0.010544459,0.029430933
229179327,229179247,0.008096462,0.03158139,0.02596108
229201834,229201750,-0.03044942,0.0555463,0.024664242
229219332,229219251,-0.012416687,0.053673565,0.019885058
229239335,229239253,-0.033943087,0.05089468,0.021892581
229261835,229261755,0.022081418,0.0694143,0.021944202
229279340,229279256,0.037909154,0.05046953,0.021555671
229299340,229299258,0.0059414767,0.05404254,0.021499168
229319344,229319260,-0.0036427842,0.052351892,0.01827336
229339352,229339262,-0.0052052867,0.038699403,0.01789859
229359345,229359263,0.03958613,0.007936916,0.018561007
229379347,229379265,0.05735536,0.027652998,0.025140757
229401848,229401767,-0.0029099425,0.040485915,0.016885966
229419351,229419268,-0.0015337765,0.03724058,0.013045235
229439350,229439270,0.020636197,0.019474356,0.018722741
229459353,229459272,0.04290794,-0.010769042,0.008613592
229481854,229481774,0.05019877,0.026074447,0.013340274
229499359,229499275,0.06812678,0.012819362,0.021732073
229519360,229519277,0.008586298,0.01937743,0.012695219
229541865,229541779,0.069451354,-0.016180823,0.019406965
229559362,229559281,0.041922346,-0.028124606,0.015149148
229579364,229579282,0.039061937,-0.007658297,0.013681255
229599369,229599284,0.053712815,-0.02004264,0.018899502
229621866,229621786,0.0038148637,-0.036768015,0.014166048
229639373,229639288,-0.0053879367,0.009845982,0.014151787
229659373,229659290,0.016950192,-0.039258283,0.0101308655
229681877,229681791,0.0145314885,-0.003582594,0.0088564195
229699374,229699293,0.027403304,-0.024320498,0.010471361
229719376,229719295,0.024370173,-0.017050082,0.011857143
229739381,229739297,0.006759937,-0.0072811013,0.017712621
229761879,229761798,0.04797872,-0.03759104,0.015944747
229779380,229779300,0.033745013,-0.02949234,0.012333591
229799384,229799302,0.043718543,-0.04994784,0.017851956
229821884,229821804,0.03783221,-0.015885936,0.0087909885
229839388,229839305,0.05525641,-0.008918382,0.014914734
229859448,229859307,0.043693297,-0.012786312,0.008863911
229879390,229879309,0.04497014,-0.00520842,0.014830915
229901891,229901811,0.056288052,-0.017075326,0.008522533
229919394,229919312,0.05849669,-0.015114659,0.014210189
229939396,229939314,0.06451496,-0.021622086,0.012262287
229961897,229961816,0.06360997,-0.030079745,0.005352805
229981900,229981818,0.083953485,-0.014074813,0.012669181
229999401,229999319,0.060432974,-0.023586525,0.01239703
230019402,230019321,0.082634404,-0.019054271,0.010724124
230041907,230041823,0.038452335,-0.017776482,0.018629946
230059404,230059324,0.037764836,0.0104350485,0.0048461226
230079406,230079326,0.057802085,-0.012556937,0.013849403
230101909,230101828,0.064752355,-0.0058746757,0.014364201
230119411,230119330,0.0697678,-0.015123873,0.0135782985
230139474,230139331,0.055595413,-0.0024268164,0.010700526
230159415,230159333,0.035902027,0.0012398497,0.010724099
230181916,230181835,0.051887803,0.0020884797,0.010767078
230199419,230199337,0.057322092,-0.011137607,0.01296676
230219420,230219338,0.03545085,0.0152984895,0.00761122
230241920,230241840,0.036806677,0.01753539,0.01536719
230259422,230259342,0.008622867,-0.000118291704,0.00822126
230279425,230279344,0.02207136,0.013455505,0.010094122
230299428,230299345,0.04629245,0.01566162,0.008734946
230321927,230321847,-0.00088095013,0.0072829863,-0.0026588808
230339429,230339349,0.005209119,0.03643407,0.010142588
230359433,230359351,-0.009169155,0.026848875,0.0016040644
230381936,230381853,0.025598116,0.015512444,0.0007029041
230399435,230399354,0.016168475,-0.009611497,0.011266911
230419437,230419356,0.0063653104,0.006776396,0.0010085246
230439438,230439358,-0.013274881,0.0102947885,0.0110206595
230461943,230461860,-0.0036743449,-0.017033463,0.013407941
230479447,230479361,0.01127124,-0.026085572,0.011303713
230499443,230499363,0.017407183,-0.027265502,0.011108335
230521947,230521865,-0.009672575,-0.054804288,0.008064232
230539450,230539369,-0.02315368,-0.042122148,0.0046542743
230559455,230559368,-0.02102305,-0.07015554,0.008180501
230579488,230579370,-0.013678253,-0.04881312,0.010993595
230601953,230601872,-0.0082865525,-0.035666376,0.005146051
230619456,230619374,0.008439091,-0.0508212,0.009365388
230639459,230639375,-0.0104700625,-0.023116436,0.011360325
230661963,230661882,-0.0036080899,-0.054128893,0.009958922
230679459,230679379,-0.0037281886,-0.057575665,0.013490765
230699462,230699381,0.014519954,-0.0437608,0.014056045
230719466,230719382,0.00068643107,-0.043133326,0.008465767
230741965,230741884,0.02824024,-0.038046464,0.009831026
230759465,230759386,0.018939923,-0.04497415,0.009173064
230779469,230779387,0.029817972,-0.027407281,0.007962
230801971,230801890,0.016684761,-0.016550906,0.015465158
230819474,230819391,0.017929321,-0.0005437962,0.0075315265
230839480,230839393,0.03959036,0.00022724294,0.013822491
230859475,230859395,0.02254883,0.010455297,0.01199017
230881978,230881897,0.0061493544,0.014359063,0.009943072
230899479,230899398,0.0037622426,0.033261098,0.010480064
230919482,230919400,0.00092732604,0.026406178,0.008960146
230941982,230941902,0.009204772,0.052938625,0.008089682
230959486,230959403,0.003174159,0.046400957,0.011753167
230979487,230979405,-0.0071645845,0.056276165,0.008636897
230999489,230999407,-0.02542669,0.086309426,0.0069041485
231021988,231021909,0.012719532,0.07170093,0.0047062645
231039492,231039410,0.0009166349,0.07653303,0.0071959207
231059492,231059412,0.0053802636,0.064910516,0.0071897125
231081994,231081914,-0.021240998,0.05095944,0.0039906623
231099496,231099416,-0.047132406,0.08763334,0.0014582505
231119499,231119417,-0.024362225,0.034091316,-0.00025895238
231139523,231139421,-0.024890635,0.04327566,0.005606937
231162007,231161921,-0.035920866,0.049785104,0.0037160544
231179503,231179423,-0.023503002,0.022809278,0.0023300247
231199506,231199425,-0.03168968,0.009575086,0.0035363398
231222006,231221926,-0.03945768,0.0005106216,0.007444705
231239512,231239428,-0.039732333,-0.016640099,0.006153413
231259511,231259430,-0.04615584,-0.037697356,0.0042011347
231279514,231279431,-0.024720503,-0.058040164,0.0030919192
231302014,231301934,-0.0452921,-0.05204827,0.006904836
231319516,231319435,-0.04635826,-0.045042213,-0.00048380718
231339553,231339437,-0.03657977,-0.07778287,0.008357003
231362020,231361939,-0.03176877,-0.07732529,0.009430529
231379524,231379441,-0.026044736,-0.08049671,0.0019918708
231399522,231399442,-0.029544469,-0.083004825,0.013247799
231419526,231419444,-0.04002008,-0.09356277,0.004567785
231442027,231441946,-0.027433442,-0.07575064,0.010057274
231459531,231459447,-0.02645523,-0.102734804,0.011371214
231479529,231479449,-0.02769756,-0.07527451,0.008630145
231502031,231501951,-0.056627437,-0.06635256,0.007390997
231519533,231519453,-0.03212352,-0.06914311,0.0055927285
231539580,231539454,-0.054584127,-0.039456286,0.0072776168
231559540,231559459,-0.026886752,-0.06610215,0.003317053
231582039,231581958,-0.040030096,-0.028867079,-0.0012062662
231599540,231599460,-0.047238007,-0.002074128,0.0010733111
231619543,231619462,-0.04062866,-0.012453696,0.0013072873
231634546,231634463,-0.030194903,-0.008067663,-0.0019186533
231659544,231659465,-0.027896032,0.0010817314,-0.0024558785
231679548,231679467,-0.043067604,0.02545448,0.00091305515
231699551,231699469,-0.04490266,0.040644616,-0.0011677872
231722054,231721971,-0.060206752,0.031055007,-0.007896356
231739678,231739472,-0.053146932,0.037572302,-0.0010236495
231759555,231759474,-0.06798113,0.03768127,-0.005862695
231782056,231781976,-0.016617645,0.036408756,-0.007875659
231799560,231799477,-0.018616015,0.0035786696,0.003256692
231819561,231819479,-0.012872152,0.019286128,-0.0068342523
231839560,231839481,-0.0050954493,0.01166525,0.0033789645
231862066,231861983,-0.0065631866,-0.022542538,1.4417339e-05
231879567,231879484,0.0038229201,-0.006440717,-0.002772544
231899569,231899486,0.008371661,-0.030510355,-0.001180856
231922072,231921988,0.03620061,-0.024257587,0.0011894107
231939635,231939490,0.027853029,-0.050010815,-0.00024149707
231959572,231959491,0.043945726,-0.04495584,0.00015921984
231979575,231979493,0.042366743,-0.032181647,0.0018648882
232002075,232001995,0.055845376,-0.069207765,8.350145e-05
232019576,232019497,0.038563196,-0.047023457,0.0012931447
232039584,232039499,0.0495441,-0.06867294,-0.004775884
232062084,232062000,0.0564353,-0.057551555,-0.0050772084
232079584,232079502,0.03782569,-0.04724717,0.0024447767
232099583,232099504,0.053366415,-0.061949026,-0.0051493705
232119585,232119506,0.024511311,-0.049825408,-0.0011718534
232142135,232142008,0.015404513,-0.045748305,-0.004380042
232159596,232159509,0.011051954,-0.04566678,-0.0107342955
232179592,232179511,-0.0012204984,-0.042326327,-0.009377284
232202094,232202013,-0.026310012,-0.033237487,-0.020236187
232219597,232219515,-0.04382048,-0.025774125,-0.0169566
232239601,232239516,-0.06348364,-0.025715366,-0.026524315
232259603,232259518,-0.045151513,-0.041262362,-0.027186316
232282101,232282020,-0.07780664,-0.006895663,-0.02967173
232299603,232299522,-0.06878086,0.00034140376,-0.036760043
232319606,232319524,-0.0753906,-0.0032899026,-0.035530914
232342172,232342025,-0.06501662,-0.02971299,-0.035232425
232359608,232359527,-0.06500206,-0.012415296,-0.044086184
232379609,232379529,-0.05332004,-0.01814126,-0.039139584
232399612,232399530,-0.06747336,0.018872995,-0.0500223
232422114,232422032,-0.056865465,-0.0067971386,-0.043129094
232439619,232439534,-0.039677825,-0.0010040251,-0.050137825
232459619,232459536,-0.039738532,0.01151881,-0.049800992
232482119,232482038,-0.007990268,-0.010980105,-0.049213126
232499623,232499540,-0.024449179,0.013319574,-0.050667465
232519626,232519541,0.016327605,-0.009448905,-0.04890435
232539725,232539543,0.024045384,0.0012278787,-0.048295684
232562127,232562045,0.0041118935,0.010621473,-0.052666083
232579632,232579547,0.020109495,-0.005111856,-0.056185484
232599633,232599548,0.019511214,0.010351455,-0.0528492
232622132,232622050,0.042666893,0.0069468417,-0.052543227
232639634,232639552,0.057141982,-0.014788138,-0.05195803
232659637,232659554,0.043591354,-0.0065175043,-0.057398476
232679639,232679555,0.0414667,-0.024742885,-0.06515854
232702143,232702061,0.06583442,-0.024344414,-0.053437795
232719649,232719559,0.05993705,-0.041194633,-0.06245263
232739747,232739561,0.053375132,-0.030553622,-0.05218042
232762147,232762063,0.023367232,-0.009740479,-0.057015404
232779644,232779564,0.03622248,-0.029590273,-0.06182698
232799647,232799566,0.0076857456,-0.0020543365,-0.05650735
232819648,232819568,0.01919825,-0.037372652,-0.06047526
232842152,232842070,0.0055366103,-0.022688953,-0.06103507
232859651,232859571,0.007036013,-0.018356921,-0.055916782
232879655,232879573,-0.011165582,-0.023589678,-0.06178689
232902155,232902075,-0.030698178,-0.000607328,-0.061178423
232919658,232919577,-0.03428653,-0.015291238,-0.061703965
232939780,232939578,-0.04991771,0.016210714,-0.061580107
232959666,232959580,-0.040435165,-0.0053735087,-0.05336233
232982165,232982082,-0.056361403,-0.011913992,-0.060379826
232999667,232999584,-0.06520197,0.02180406,-0.062144797
233019670,233019586,-0.054269247,-0.006212956,-0.06246057
233042171,233042088,-0.06396603,-0.0042938218,-0.059755985
233059673,233059589,-0.047801305,-0.01561754,-0.05680725
233079673,233079591,-0.054258622,-0.0013619148,-0.061308295
233099674,233099593,-0.03730573,-0.0015642876,-0.055224814
233122176,233122095,-0.021819731,-0.025635371,-0.053600397
233139804,233139596,-0.037324067,0.0006139497,-0.05790045
233159721,233159598,-0.010599967,-0.03577335,-0.054527145
233182186,233182100,-0.005067858,-0.0426773,-0.056819987
233199692,233199603,-0.004804349,-0.026383147,-0.052690137
233219688,233219603,0.0030833548,-0.04287392,-0.053446505
233239691,233239605,-0.007897798,-0.033859525,-0.052298263
233262188,233262107,0.0158796,-0.024478907,-0.047774225
233279693,233279609,0.0018867287,-0.022973364,-0.055414412
233299696,233299610,0.021389056,-0.035613563,-0.045710403
233322199,233322112,0.027453221,-0.044758033,-0.044248037
233342301,233342114,0.013453664,-0.015497603,-0.055124257
233359701,233359618,0.02811143,-0.04167602,-0.043035947
233379703,233379620,0.02130958,-0.016392022,-0.049820825
233402201,233402120,0.009349143,-0.028149512,-0.04785721
233419706,233419621,0.005660751,-0.011030457,-0.050579753
233439713,233439623,0.012789205,-0.017891657,-0.046222534
233462205,233462125,0.016940935,-0.00906298,-0.042783402
233479712,233479626,0.02324452,-0.012213023,-0.04590164
233499713,233499628,0.007981464,-0.0013731341,-0.04036368
233519714,233519630,-0.0058335923,-0.0108288545,-0.04605196
233542339,233542132,0.009558795,0.003779711,-0.048902415
233559717,233559633,-0.009174996,0.006933825,-0.03880964
233579719,233579635,-0.00033115712,0.00052291877,-0.048365984
233602221,233602137,-0.01840369,0.008997615,-0.044750262
233622219,233622139,-0.0413285,0.034746613,-0.04241747
233639723,233639641,-0.026469762,0.015873073,-0.04391487
233659726,233659643,-0.05223216,0.048195116,-0.044375453
233682227,233682144,-0.035742037,0.004185563,-0.04307367
233699731,233699647,-0.057676405,0.033989474,-0.04605055
233719728,233719648,-0.044052903,0.010310816,-0.041686334
233739895,233739650,-0.057507675,0.008805334,-0.04426508
233759736,233759651,-0.06807197,0.04779604,-0.04521551
233779738,233779653,-0.038545378,0.0053840326,-0.0406566
233799735,233799655,-0.053426575,0.028550439,-0.044376217
233822238,233822157,-0.050473765,0.037112746,-0.04259688
233839741,233839659,-0.037298035,0.008228362,-0.043486025
233859743,233859660,-0.036322966,0.03111756,-0.041584734
233879773,233879662,-0.013972362,-0.001858029,-0.038771987
233902245,233902164,-0.035280198,-0.0006802381,-0.046358917
233919746,233919666,-0.0215212,-5.337037e-05,-0.04140842
233939750,233939668,-0.028073557,-0.008870396,-0.043613248
233962253,233962170,-0.024327107,0.00430061,-0.04516807
233979751,233979671,0.010586164,-0.027972635,-0.035143852
233999754,233999673,-0.014552076,-0.0013898707,-0.045112
234019757,234019675,0.002916611,-0.010222205,-0.03927928
234042259,234042176,0.02416087,-0.008614239,-0.035269957
234059758,234059678,0.022154992,-0.007522078,-0.039424393
234079761,234079680,0.031907175,-0.007485658,-0.035319682
234102262,234102182,0.022322018,-0.010533551,-0.037890073
234119766,234119684,0.023089375,0.007736971,-0.034529794
234139770,234139685,0.030105412,0.0053343824,-0.033524375
234159770,234159688,0.034522865,0.010596238,-0.038690623
234182270,234182189,0.028674733,0.0051660333,-0.036415745
234199773,234199691,0.011078332,0.018240301,-0.038017858
234219775,234219693,0.026545253,0.0142341815,-0.034304406
234242274,234242194,0.01377016,0.026889259,-0.032449882
234259778,234259696,0.010181378,0.01993989,-0.039223872
234279778,234279698,0.008564458,0.026701812,-0.03260154
234299782,234299700,0.00813072,0.03587321,-0.033831883
234322282,234322202,0.008509884,0.033507977,-0.036161907
234339789,234339703,-0.018294761,0.06674572,-0.029355623
234359786,234359705,-0.0005798198,0.030180184,-0.034106806
234382293,234382207,-0.008487432,0.04310295,-0.032664333
234399789,234399709,-0.016026549,0.06614984,-0.032717284
234419794,234419711,-0.016553095,0.03758737,-0.030109942
234439794,234439712,-0.03386997,0.05734953,-0.028816046
234462298,234462214,-0.03269779,0.05319302,-0.031276766
234479796,234479716,-0.030874351,0.03506487,-0.02846515
234499798,234499718,-0.034192547,0.039477173,-0.029542767
234522300,234522220,-0.01923786,0.027899537,-0.021802815
234539801,234539721,-0.03159326,0.03185387,-0.027580554
234559807,234559723,-0.014391298,0.02566957,-0.025297906
234579808,234579725,-0.018856984,0.025191631,-0.028727276
234602306,234602227,-0.0135643855,0.025244184,-0.028038079
234619811,234619728,0.0015660254,0.007837393,-0.017551264
234639815,234639730,-0.013403095,0.01588762,-0.025280597
234662315,234662232,0.009560521,-0.0012463713,-0.021196412
234679816,234679734,0.005622561,0.005316564,-0.01863924
234699815,234699736,0.027923424,-0.006558447,-0.018756224
234719817,234719737,0.027813941,0.0042444225,-0.014315762
234742322,234742239,0.025103347,0.006682978,-0.011754921
234759822,234759741,0.030263556,-0.002497002,-0.014771236
234779824,234779743,0.042495795,0.00445766,-0.010981803
234802327,234802245,0.04112747,0.0047512306,-0.018290425
234819826,234819746,0.044425968,0.018647723,-0.009271919
234839830,234839748,0.039613914,0.013355107,-0.014709085
234859871,234859750,0.044342756,0.013076225,-0.014337467
234882331,234882252,0.033216733,0.008404505,-0.008079999
234899837,234899754,0.0418067,0.005996232,-0.011492329
234919840,234919755,0.024634236,0.015381762,-0.0073377234
234942342,234942257,0.002143636,0.042542458,-0.0064862613
234959841,234959759,0.004248039,0.015714103,-0.010301121
234979843,234979761,-0.009521498,0.040446423,-0.005330459
234999845,234999763,0.008785815,0.022350095,-0.0074605
235022346,235022264,-0.009294269,0.0056418674,-0.00776341
235039848,235039766,-0.041882332,0.04146469,-0.0058341436
235059850,235059768,-0.014765535,0.0022030307,-0.0013496955
235082351,235082270,-0.037360672,0.0107174,-0.004878007
235099853,235099771,-0.04388034,0.031136924,-0.0029299979
235119856,235119773,-0.027367754,0.009507733,-0.0045149997
235139857,235139775,-0.037969586,0.005797643,-0.001492009
235162361,235162277,-0.036054805,0.006612393,-0.0014391174
235179859,235179779,-0.045428112,0.020117888,-0.0053355666
235199863,235199780,-0.024195908,-0.0011162439,0.0031711594
235222363,235222282,-0.02238048,-0.008353065,0.0052293665
235239863,235239784,-0.025632026,0.020861916,-0.0029797566
235259866,235259786,-0.040300272,0.029208543,-0.0028697234
235279871,235279788,-0.013478524,0.011622816,0.0053920224
235302369,235302290,-0.004713087,0.0132510215,0.0056214053
235319872,235319791,-0.007893114,0.034057826,0.00088218506
235339876,235339793,-0.00054949045,0.035935093,0.0028595375
235362375,235362295,0.01128506,0.044008847,-0.0011640112
235379880,235379797,0.019524386,0.0034721934,0.008479851
235399881,235399798,-0.00028644933,0.025779286,0.0015257429
235419884,235419800,0.022732053,0.03850106,0.0014074165
235442384,235442302,0.019304922,0.03556593,-0.0024096542
235459886,235459804,-0.0007076317,0.03599169,0.002945248
235479886,235479806,0.009604877,0.015521545,0.0030034482
235502388,235502308,0.008411989,0.016911719,0.00015622657
235519891,235519809,0.010180292,0.022936767,-0.0035228103
235539893,235539811,0.012667408,0.030441916,0.0011324626
235559908,235559813,0.0035478724,0.026405826,0.002405621
235582397,235582315,0.017685084,0.009731584,0.003542861
235599896,235599816,0.002970573,-0.02200681,-0.0053736554
235619902,235619818,0.010395253,-0.03223749,-0.0033850253
235642403,235642320,0.008348472,-0.04452025,-0.007130361
235659903,235659822,0.009539196,-0.030308696,-0.003983809
235679903,235679823,0.02298038,-0.033798974,-0.0056765485
235699907,235699826,0.021957438,-0.0477679,-0.0025072773
235722408,235722328,0.0152368015,-0.051268246,-0.0018336694
235739911,235739829,0.02349674,-0.06765632,-0.010687385
235759942,235759831,-0.018803276,-0.04418411,-0.023249444
235782414,235782333,-0.025940046,-0.05007586,-0.019280441
235799916,235799834,-0.00013104966,-0.0426797,-0.013328616
235819919,235819836,-0.015909996,-0.044314988,-0.0125453165
235839978,235839838,0.020015705,-0.04451878,-0.006536667
235862421,235862340,0.004247861,-0.027210277,-0.011077991
235879924,235879842,-0.017750017,-0.007505775,-0.02730915
235899925,235899843,0.04469961,-0.0024223763,-0.019224463
235922428,235922345,0.037203733,0.00890927,-0.021147626
235939927,235939847,0.026594013,0.006116257,-0.011455882
235959959,235959849,0.042008813,0.014465564,-0.017020311
235982436,235982351,0.053232986,0.013147232,-0.0133759165
236002437,236002353,0.010938709,0.07025985,-0.022671923
236019934,236019854,0.0155433705,0.06964984,-0.0080927005
236039937,236039856,0.055979922,0.054784454,-0.0062845415
236062440,236062358,0.058964286,0.06474356,-0.008701388
236079940,236079859,0.05938992,0.07501963,-0.010229463
236099946,236099862,0.056919392,0.08171996,-0.004532122
236119944,236119863,0.088224925,0.05504502,-0.0005773287
236142446,236142365,0.083607726,0.057520296,0.0055407737
236159991,236159867,0.08930376,0.06447313,0.003959998
236179954,236179869,0.09062571,0.043109868,0.009748608
236202450,236202370,0.08712431,0.03187019,0.015545145
236219954,236219872,0.062261466,0.07166338,0.0031571868
236239959,236239874,0.07063851,0.021419447,0.013296114
236259958,236259876,0.074390054,-0.0031727436,0.017160896
236282458,236282378,0.054444756,-0.0027861644,0.010961613
236299960,236299880,0.029303249,0.017372053,0.02035124
236319963,236319881,0.049163338,-0.022294227,0.02269121
236342466,236342384,0.007164021,-0.009628472,0.018356578
236360017,236359885,0.0007032063,-0.00033716112,0.018142883
236379968,236379887,0.015883159,-0.018164769,0.018968308
236399969,236399888,0.016418349,-0.023918752,0.021147348
236422473,236422391,0.012883216,-0.021549013,0.020573156
236439973,236439892,-0.0019564508,-0.010276849,0.023401793
236459973,236459894,-0.00053576205,-0.005150768,0.019912986
236482477,236482396,0.00047003734,-0.019436669,0.024314344
236499978,236499898,-0.0050927214,-0.024385069,0.026429579
236519980,236519899,-0.00029218162,0.0020874417,0.02045491
236539987,236539901,-0.00044893846,-0.031741973,0.03333114
236562517,236562403,0.00024108263,-0.018595945,0.031936545
236579987,236579905,-0.012082795,0.009682454,0.023780858
236599988,236599907,0.031503133,-0.015827151,0.036071632
236622489,236622409,0.02850306,-0.01636203,0.03725042
236639991,236639910,0.026618335,-0.016584527,0.033725683
236659994,236659912,0.02576932,0.013445738,0.036087763
236679995,236679914,0.04114669,-0.012540385,0.044202004
236702503,236702416,0.055484496,-0.020384554,0.048315335
236720020,236719918,0.054508302,0.0021890593,0.041043654
236735000,236734919,0.068399824,-0.021828387,0.05117636
236762546,236762421,0.06598687,0.023066327,0.047393024
236780005,236779923,0.07887262,-0.0053060735,0.05169443
236800009,236799925,0.037612326,0.05696567,0.043764886
236820008,236819926,0.051928177,0.052735474,0.054621026
236842539,236842429,0.043771774,0.059486404,0.05856767
236860010,236859930,0.03976095,0.034342997,0.058894295
236880012,236879932,-0.014997749,0.08880929,0.046808973
236902520,236902434,-0.023079526,0.0882993,0.053804126
236920017,236919936,-0.005819047,0.039415725,0.06407899
236940018,236939938,-0.055097613,0.055399075,0.053051196
236960105,236959939,-0.024837306,0.057555616,0.055937156
236982522,236982441,-0.03836363,0.036010865,0.06272278
237000026,236999943,-0.030104276,-0.008325631,0.06547038
237020024,237019945,-0.10578353,0.028373372,0.05123358
237042530,237042447,-0.08653434,0.015820663,0.05425619
237060031,237059948,-0.064164475,-0.035718758,0.06663006
237080034,237079950,-0.06485882,-0.042233605,0.059794404
237100037,237099952,-0.08348111,-0.027511915,0.05572184
237122537,237122454,-0.074922316,-0.048350453,0.06268116
237140037,237139956,-0.06548286,-0.0910097,0.063252404
237160135,237159957,-0.08467793,-0.05868952,0.05818004
237182546,237182460,-0.08608751,-0.046781193,0.058245786
237200046,237199961,-0.04936695,-0.08571166,0.06945569
237220045,237219963,-0.052351743,-0.092408925,0.06294499
237240045,237239965,-0.027399892,-0.039309166,0.06173289
237262554,237262467,-0.030081825,-0.032466356,0.05986196
237280047,237279968,-0.006318557,-0.076474056,0.066025056
237300051,237299970,-0.023666374,-0.041642215,0.061204266
237322561,237322472,0.0113115255,-0.032813724,0.056827713
237340054,237339974,0.0193586,-0.016691016,0.059372615
237360163,237359975,0.04927918,-0.046565227,0.050927967
237380058,237379977,0.07056065,-0.026055353,0.05820859
237402571,237402479,0.0915715,-0.027361125,0.055614945
237420064,237419981,0.11089414,-0.012020372,0.055793915
237440067,237439983,0.08014819,0.011326598,0.045074973
237462575,237462485,0.1046121,0.017545741,0.04383165
237480067,237479986,0.10876812,0.027045634,0.04504209
237500069,237499988,0.08877696,0.02876418,0.036410447
237520075,237519990,0.091918595,0.027265988,0.031905893
237542578,237542492,0.103433385,0.02062574,0.035466753
237560187,237559993,0.09184221,0.012989663,0.03552017
237580079,237579996,0.009220815,0.030673709,0.018528607
237602591,237602502,-0.02643872,0.02814634,0.015906028
237620082,237619999,-0.033100553,0.021512197,0.019404814
237640082,237640001,-0.010242351,-0.0062434264,0.025518548
237660083,237660003,-0.085264504,-0.007981898,0.009030729
237682591,237682509,-0.10414882,-0.01602314,0.0037010773
237700090,237700006,-0.11247846,-0.008328144,0.013426853
237720088,237720008,-0.07134525,-0.04108004,0.016759248
237742597,237742516,-0.08585178,-0.058497865,0.014237903
237755096,237755011,-0.1257364,-0.04049177,0.010183623
237780099,237780014,-0.13989875,-0.041260313,0.0038277092
237800100,237800016,-0.10873188,-0.044586353,0.003600963
237822605,237822523,-0.09962317,-0.042253144,0.0029292763
237840102,237840019,-0.1070645,-0.039977882,-0.00365209
237860105,237860021,-0.11011271,-0.025219847,-0.0027521444
237882608,237882524,-0.08873468,-0.021023571,-0.0025685625
237900105,237900025,-0.06806984,-0.017545385,-0.007454555
237920107,237920027,-0.073360905,0.007892074,-0.011721157
