timestamp,time_utc_usec,lat,lon,alt,alt_ellipsoid,s_variance_m_s,c_variance_rad,eph,epv,hdop,vdop,noise_per_ms,jamming_indicator,vel_m_s,vel_n_m_s,vel_e_m_s,vel_d_m_s,cog_rad,timestamp_time_relative,heading,heading_offset,fix_type,jamming_state,vel_ned_valid,satellites_used,selected
217850613,1693632361400291,366607228,1263420409,6442,24098,0.28500003,0.71726114,1.079,1.6100001,0.57,0.87,95,80,0.027,0.013,-0.023000002,0.08400001,5.7874765,0,nan,0.0,3,0,1,20,0
218251638,1693632361800291,366607229,1263420409,6469,24124,0.27100003,0.7172821,1.0730001,1.6,0.57,0.87,94,74,0.049000002,0.048,-0.010000001,0.106000006,5.7874765,0,nan,0.0,3,0,1,20,0
218850613,1693632362400291,366607232,1263420409,6445,24101,0.238,0.71731216,1.064,1.5870001,0.57,0.87,94,74,0.034,-0.028,-0.020000001,0.080000006,5.7874765,0,nan,0.0,3,0,1,20,0
219254137,1693632362800291,366607233,1263420409,6449,24104,0.273,0.7173331,1.059,1.5780001,0.57,0.87,94,83,0.034,0.024,-0.025,0.101,5.7874765,0,nan,0.0,3,0,1,20,0
219854612,1693632363400291,366607235,1263420407,6427,24082,0.25300002,0.7173631,1.051,1.5660001,0.57,0.87,94,83,0.014,0.013,-0.007,0.012,5.7874765,0,nan,0.0,3,0,1,20,0
220247613,1693632363800292,366607237,1263420406,6418,24073,0.238,0.71738195,1.046,1.557,0.57,0.87,95,82,0.032,-0.016,-0.028,0.065000005,5.7874765,0,nan,0.0,3,0,1,20,0
220845614,1693632364400292,366607238,1263420406,6435,24091,0.264,0.717412,1.0380001,1.5460001,0.57,0.87,95,82,0.027,0.022000002,-0.015000001,0.035,5.7874765,0,nan,0.0,3,0,1,20,0
221250614,1693632364800292,366607239,1263420408,6454,24110,0.23200001,0.7174311,1.033,1.5380001,0.57,0.87,95,75,0.039,0.029000001,0.026,0.013,5.7874765,0,nan,0.0,3,0,1,20,0
221851621,1693632365400292,366607240,1263420408,6477,24132,0.18400002,0.71745646,1.026,1.5280001,0.57,0.87,95,75,0.068,-0.018000001,-0.066,0.006,5.7874765,0,nan,0.0,3,0,1,20,0
222245613,1693632365800292,366607240,1263420407,6463,24118,0.209,0.7174724,1.021,1.521,0.57,0.87,95,81,0.046000004,-0.046000004,0.001,0.067,5.7874765,0,nan,0.0,3,0,1,20,0
222847613,1693632366400292,366607242,1263420407,6429,24084,0.24100001,0.71750116,1.014,1.5120001,0.57,0.87,95,81,0.049000002,0.006,-0.049000002,0.066,5.7874765,0,nan,0.0,3,0,1,20,0
223251627,1693632366800293,366607243,1263420404,6428,24083,0.185,0.7175174,1.01,1.5070001,0.57,0.87,95,89,0.15300001,0.014,-0.15200001,0.044000003,5.7874765,0,nan,0.0,3,0,1,20,0
223853612,1693632367400293,366607251,1263420393,6492,24147,0.202,0.5825345,1.0020001,1.496,0.57,0.87,95,89,0.19500001,0.044000003,-0.18900001,-0.27400002,5.5845723,0,nan,0.0,3,0,1,20,0
224241612,1693632367800293,366607250,1263420388,6636,24291,0.25500003,0.5825628,0.99700004,1.4900001,0.57,0.87,95,75,0.162,-0.134,-0.09200001,-0.275,5.5845723,0,nan,0.0,3,0,1,20,0
224864620,1693632368400293,366607243,1263420386,6918,24574,0.263,0.5927515,0.99200004,1.4820001,0.57,0.87,95,75,0.086,-0.082,-0.026,-0.39100003,4.450703,0,nan,0.0,3,0,1,20,0
225254614,1693632368800293,366607239,1263420390,7158,24814,0.26200002,0.5928042,0.98700005,1.475,0.57,0.87,95,80,0.165,-0.142,0.085,-0.535,4.450703,0,nan,0.0,3,0,1,20,0
225851656,1693632369400293,366607232,1263420401,7551,25206,0.27600002,0.55726844,0.98100007,1.4690001,0.57,0.87,95,80,0.35900003,-0.3,0.19700001,-0.68100005,3.4472923,0,nan,0.0,3,0,1,20,0
226254614,1693632369800293,366607224,1263420408,7867,25522,0.27100003,0.6474182,0.97800004,1.465,0.57,0.87,95,83,0.303,-0.20300001,0.22600001,-0.74700004,2.7010958,0,nan,0.0,3,0,1,20,0
226841622,1693632370400294,366607218,1263420421,8406,26061,0.257,0.6475252,0.97200006,1.457,0.57,0.87,95,83,0.172,-0.047000002,0.16600001,-0.81900007,2.7010958,0,nan,0.0,3,0,1,20,0
227255614,1693632370800294,366607217,1263420427,8744,26399,0.27400002,0.6476045,0.96800005,1.4530001,0.57,0.87,95,78,0.082,-0.07,0.042000003,-0.89400005,2.7010958,0,nan,0.0,3,0,1,20,0
227850612,1693632371400294,366607221,1263420429,9270,26925,0.24400002,0.5889505,0.96300006,1.447,0.57,0.87,95,78,0.25100002,0.224,0.112,-0.86500007,1.4770992,0,nan,0.0,3,0,1,20,0
228246613,1693632371800294,366607228,1263420436,9691,27346,0.256,0.7120617,0.96000004,1.4440001,0.57,0.87,95,66,0.23500001,0.127,0.19800001,-0.943,1.283128,0,nan,0.0,3,0,1,20,0
228849909,1693632372400294,366607236,1263420435,10280,27935,0.261,0.7121776,0.95400006,1.437,0.57,0.87,95,66,0.14,0.14,-0.002,-0.98600006,1.283128,0,nan,0.0,3,0,1,20,0
229248619,1693632372800294,366607242,1263420435,10738,28393,0.25500003,0.71225905,0.95000005,1.432,0.57,0.87,95,68,0.141,0.141,-0.007,-1.098,1.283128,0,nan,0.0,3,0,1,20,0
229850614,1693632373400295,366607250,1263420424,11294,28949,0.238,0.7058499,0.94400007,1.424,0.57,0.87,95,68,0.246,0.208,-0.132,-0.85200006,0.35168645,0,nan,0.0,3,0,1,20,0
230253621,1693632373800295,366607257,1263420418,11690,29345,0.23600002,0.57126474,0.94000006,1.419,0.57,0.87,95,77,0.316,0.15100001,-0.27800003,-0.97700006,5.7733054,0,nan,0.0,3,0,1,20,0
230848613,1693632374400295,366607262,1263420411,12330,29985,0.263,0.5714056,0.93600005,1.414,0.57,0.87,95,77,0.056,0.053000003,-0.020000001,-1.0120001,5.7733054,0,nan,0.0,3,0,1,20,0
231254908,1693632374800295,366607259,1263420408,12805,30460,0.28,0.5955877,0.934,1.4100001,0.57,0.87,95,83,0.263,-0.24800001,-0.087000005,-1.0810001,4.67336,0,nan,0.0,3,0,1,20,0
231851614,1693632375400295,366607251,1263420401,13429,31084,0.27100003,0.7360177,0.93000007,1.4030001,0.57,0.87,95,83,0.22600001,-0.157,-0.162,-1.0450001,3.999778,0,nan,0.0,3,0,1,20,0
232255613,1693632375800295,366607245,1263420393,13851,31506,0.252,0.7294293,0.92600006,1.3980001,0.57,0.87,95,82,0.19900002,-0.148,-0.134,-1.054,3.8635876,0,nan,0.0,3,0,1,20,0
232855613,1693632376400296,366607236,1263420386,14515,32170,0.256,0.64065015,0.92100006,1.391,0.57,0.87,95,82,0.22600001,-0.208,-0.08800001,-1.105,3.6317384,0,nan,0.0,3,0,1,20,0
233250613,1693632376800296,366607230,1263420381,14979,32634,0.27800003,0.60786724,0.919,1.389,0.59,0.93,95,66,0.133,-0.104,-0.082,-1.052,3.690303,0,nan,0.0,3,0,1,19,0
233854613,1693632377400296,366607223,1263420382,15566,33221,0.28500003,0.6080011,0.91800004,1.389,0.59,0.93,95,66,0.079,-0.076000005,0.022000002,-0.98700005,3.690303,0,nan,0.0,3,0,1,19,0
234249613,1693632377800296,366607222,1263420388,15949,33604,0.28300002,0.60808456,0.91600007,1.389,0.59,0.93,95,58,0.14500001,-0.051000003,0.136,-0.91,3.690303,0,nan,0.0,3,0,1,19,0
234850613,1693632378400296,366607225,1263420397,16538,34193,0.27600002,0.6082085,0.91300005,1.3900001,0.59,0.93,95,58,0.143,0.019000001,0.142,-0.933,3.690303,0,nan,0.0,3,0,1,19,0
235246613,1693632378800296,366607228,1263420405,16865,34520,0.286,0.6898581,0.91,1.3900001,0.59,0.93,95,101,0.119,-0.017,0.11800001,-0.97700006,2.632013,0,nan,0.0,3,0,1,19,0
235847613,1693632379400296,366607231,1263420415,17961,35616,0.28500003,0.7571669,0.90700006,1.3900001,0.59,0.93,95,101,0.08400001,0.082,0.017,-2.457,1.8170205,0,nan,0.0,3,0,1,19,0
236250613,1693632379800297,366607235,1263420416,19125,36781,0.282,0.75737864,0.90500003,1.3900001,0.59,0.93,95,80,0.116000004,0.113000005,-0.026,-2.9840002,1.8170205,0,nan,0.0,3,0,1,19,0
236846611,1693632380400297,366607243,1263420416,20882,38537,0.282,0.75769037,0.90200007,1.3900001,0.59,0.93,95,80,0.106000006,0.060000002,-0.087000005,-2.8690002,1.8170205,0,nan,0.0,3,0,1,19,0
237234613,1693632380800297,366607245,1263420415,22077,39733,0.282,0.757901,0.90000004,1.3900001,0.59,0.93,95,77,0.074,0.007,-0.074,-2.8990002,1.8170205,0,nan,0.0,3,0,1,19,0
237850613,1693632381400297,366607244,1263420407,23882,41537,0.28,0.7582201,0.897,1.3900001,0.62,0.93,95,77,0.112,-0.001,-0.112,-2.9540002,1.8170205,0,nan,0.0,3,0,1,18,0
238248612,1693632381800297,366607243,1263420405,25071,42726,0.28,0.7584293,0.89500004,1.389,0.62,0.93,96,70,0.065000005,-0.060000002,-0.025,-2.8620002,1.8170205,0,nan,0.0,3,0,1,18,0
238854613,1693632382400297,366607241,1263420404,26880,44535,0.284,0.75874907,0.89400005,1.389,0.62,0.93,96,70,0.080000006,-0.076000005,-0.025,-2.9810002,1.8170205,0,nan,0.0,3,0,1,18,0
239253618,1693632382800297,366607241,1263420401,28099,45754,0.28500003,0.7589681,0.892,1.389,0.62,0.93,96,79,0.104,-0.056,-0.08800001,-3.0640001,1.8170205,0,nan,0.0,3,0,1,18,0
239854615,1693632383400298,366607237,1263420396,29941,47596,0.28100002,0.75930077,0.89100003,1.389,0.62,0.93,96,79,0.12200001,-0.12100001,-0.010000001,-3.1000001,1.8170205,0,nan,0.0,3,0,1,18,0
240251636,1693632383800298,366607234,1263420396,31165,48820,0.277,0.7595172,0.89000005,1.389,0.62,0.93,96,76,0.098000005,-0.098000005,0.004,-2.9880002,1.8170205,0,nan,0.0,3,0,1,18,0
240854612,1693632384400298,366607230,1263420400,32984,50639,0.275,0.7598413,0.8880001,1.389,0.62,0.93,96,76,0.08800001,-0.075,0.045,-2.9770002,1.8170205,0,nan,0.0,3,0,1,18,0
241254625,1693632384800298,366607230,1263420405,34231,51886,0.268,0.7600593,0.88600004,1.389,0.62,0.93,96,82,0.096,-0.006,0.096,-3.0790002,1.8170205,0,nan,0.0,3,0,1,18,0
241850050,1693632385400298,366607237,1263420417,36131,53786,0.27,0.738491,0.88400006,1.389,0.59,0.93,96,82,0.12900001,0.068,0.109000005,-3.0690002,1.0769348,0,nan,0.0,3,0,1,19,0
242258612,1693632385800298,366607241,1263420421,37337,54993,0.272,0.73871684,0.882,1.389,0.59,0.93,96,80,0.078,0.051000003,0.059000004,-3.012,1.0769348,0,nan,0.0,3,0,1,19,0
242849624,1693632386400299,366607249,1263420424,39187,56842,0.26900002,0.73905164,0.88000005,1.388,0.59,0.93,96,80,0.093,0.09200001,-0.012,-3.048,1.0769348,0,nan,0.0,3,0,1,19,0
243253612,1693632386800299,366607251,1263420421,40461,58116,0.27400002,0.7392816,0.87900007,1.389,0.62,0.93,96,60,0.143,-0.038000003,-0.13800001,-3.0900002,1.0769348,0,nan,0.0,3,0,1,18,0
243851612,1693632387400299,366607245,1263420409,42276,59931,0.26900002,0.6039413,0.87700003,1.3870001,0.62,0.93,96,60,0.27800003,-0.18100001,-0.21200001,-2.9800003,3.4235992,0,nan,0.0,3,0,1,18,0
244254612,1693632387800299,366607240,1263420401,43503,61158,0.275,0.72426295,0.87600005,1.386,0.62,0.93,96,99,0.22200002,-0.16800001,-0.14600001,-3.0400002,3.7795248,0,nan,0.0,3,0,1,18,0
244849614,1693632388400299,366607232,1263420393,45407,63062,0.275,0.6699481,0.874,1.386,0.62,0.93,96,99,0.136,-0.12900001,-0.045,-3.1330001,3.8373346,0,nan,0.0,3,0,1,18,0
245249613,1693632388800299,366607226,1263420394,46627,64282,0.28,0.67020243,0.873,1.386,0.62,0.93,96,63,0.23300001,-0.22200002,0.071,-3.1390002,3.8373346,0,nan,0.0,3,0,1,18,0
245844612,1693632389400300,366607217,1263420402,48488,66143,0.27600002,0.76059926,0.873,1.3870001,0.62,0.93,96,63,0.22000001,-0.10700001,0.192,-3.0430002,3.4280212,0,nan,0.0,3,0,1,18,0
246244613,1693632389800300,366607213,1263420410,49719,67374,0.27400002,0.76081795,0.87200004,1.3870001,0.62,0.93,96,78,0.21100001,-0.072000004,0.19900002,-3.0260003,3.4280212,0,nan,0.0,3,0,1,18,0
246845612,1693632390400300,366607213,1263420424,51546,69201,0.268,0.7611428,0.87100005,1.3870001,0.62,0.93,96,78,0.24100001,0.05,0.23600002,-2.9540002,3.4280212,0,nan,0.0,3,0,1,18,0
247247621,1693632390800300,366607219,1263420436,52733,70388,0.264,0.50861734,0.87100005,1.3870001,0.59,0.93,96,94,0.33400002,0.223,0.24900001,-2.772,1.3072112,0,nan,0.0,3,0,1,19,0
247847614,1693632391400300,366607232,1263420447,54395,72050,0.264,0.6147619,0.87000006,1.3870001,0.62,0.93,96,94,0.28,0.27800003,0.040000003,-2.426,0.44881663,0,nan,0.0,3,0,1,18,0
248253656,1693632391800300,366607243,1263420447,55332,72987,0.26200002,0.6066801,0.87000006,1.388,0.62,0.93,96,79,0.307,0.282,-0.12100001,-2.032,6.256097,0,nan,0.0,3,0,1,18,0
248847619,1693632392400300,366607256,1263420436,56427,74082,0.25100002,0.5462126,0.869,1.388,0.62,0.93,96,79,0.347,0.23500001,-0.256,-1.4540001,5.5806155,0,nan,0.0,3,0,1,18,0
249253611,1693632392800301,366607261,1263420422,56977,74633,0.254,0.57824796,0.86700004,1.3870001,0.62,0.93,96,62,0.326,0.07,-0.319,-1.199,5.133067,0,nan,0.0,3,0,1,18,0
249849613,1693632393400301,366607256,1263420403,57774,75429,0.28,0.5150899,0.86600006,1.386,0.62,0.93,96,62,0.365,-0.16600001,-0.32500002,-1.0380001,4.340418,0,nan,0.0,3,0,1,18,0
250237612,1693632393800301,366607249,1263420387,58147,75802,0.27600002,0.37936857,0.86700004,1.386,0.62,0.93,96,80,0.48700002,-0.272,-0.404,-0.87100005,4.167892,0,nan,0.0,3,0,1,18,0
250849614,1693632394400301,366607235,1263420369,58536,76191,0.293,0.5692405,0.86800003,1.389,0.62,0.93,96,80,0.31800002,-0.29500002,-0.11800001,-0.588,3.7867842,0,nan,0.0,3,0,1,18,0
251252613,1693632394800301,366607224,1263420364,58746,76401,0.287,0.5717288,0.86800003,1.3900001,0.62,0.93,96,82,0.314,-0.314,-0.017,-0.48000002,3.5159664,0,nan,0.0,3,0,1,18,0
251849614,1693632395400301,366607199,1263420343,58939,76594,0.23600002,0.17940623,0.869,1.3900001,0.62,0.93,96,82,1.051,-0.74600005,-0.74,-0.19100001,3.864793,0,nan,0.0,3,0,1,18,0
252245611,1693632395800301,366607168,1263420302,59016,76671,0.22800002,0.14691414,0.87000006,1.391,0.62,0.93,96,79,1.358,-0.89400005,-1.023,-0.19600001,3.9586217,0,nan,0.0,3,0,1,18,0
252844614,1693632396400302,366607120,1263420252,59206,76861,0.23500001,0.23740247,0.87200004,1.391,0.62,0.93,96,79,0.90700006,-0.786,-0.45200002,-0.16800001,3.7999682,0,nan,0.0,3,0,1,18,0
253258614,1693632396800302,366607089,1263420245,59332,76987,0.23600002,0.2634054,0.874,1.3920001,0.62,0.93,96,79,0.786,-0.786,-0.011000001,-0.17400001,3.3889456,0,nan,0.0,3,0,1,18,0
253854612,1693632397400302,366607070,1263420292,59529,77184,0.19800001,0.14228238,0.87700003,1.3980001,0.62,0.93,96,79,1.406,0.27400002,1.3790001,-0.141,1.6650989,0,nan,0.0,3,0,1,18,0
254252039,1693632397800302,366607099,1263420378,59649,77304,0.2,0.084008105,0.87900007,1.4030001,0.59,0.93,96,80,2.594,1.3100001,2.239,-0.074,1.1582228,0,nan,0.0,3,0,1,19,0
254866634,1693632398400302,366607210,1263420523,59770,77425,0.17,0.0491174,0.87900007,1.4080001,0.59,0.93,96,80,3.3850002,2.785,1.9250001,-0.13800001,0.6873047,0,nan,0.0,3,0,1,19,0
255253613,1693632398800302,366607322,1263420599,59895,77550,0.179,0.04288396,0.87700003,1.411,0.59,0.93,96,73,3.647,3.371,1.3920001,0.123,0.4606229,0,nan,0.0,3,0,1,19,0
255849634,1693632399400303,366607504,1263420659,60010,77665,0.21800001,0.04930014,0.874,1.409,0.62,0.93,96,73,3.2580001,3.2480001,0.259,-0.031000001,0.19093344,0,nan,0.0,3,0,1,18,0
256252731,1693632399800303,366607607,1263420659,60070,77725,0.19600001,0.07340715,0.874,1.406,0.62,0.93,96,98,2.4650002,2.4280002,-0.42600003,-0.022000002,0.002951177,0,nan,0.0,3,0,1,18,0
256849613,1693632400400303,366607691,1263420595,59952,77607,0.192,0.1764903,0.87600005,1.4050001,0.62,0.93,96,98,1.5910001,0.642,-1.455,0.256,5.6019607,0,nan,0.0,3,0,1,18,0
257255613,1693632400800303,366607703,1263420521,59857,77512,0.17500001,0.09539428,0.87700003,1.4030001,0.59,0.93,96,80,1.94,0.051000003,-1.94,0.18,4.8833985,0,nan,0.0,3,0,1,19,0
257851614,1693632401400303,366607703,1263420389,59769,77424,0.18400002,0.12630406,0.87700003,1.4020001,0.59,0.93,96,80,1.8610001,0.046000004,-1.8600001,0.082,4.7264276,0,nan,0.0,3,0,1,19,0
258245613,1693632401800303,366607715,1263420327,59718,77373,0.185,0.21636078,0.87900007,1.406,0.59,0.93,96,81,1.115,0.568,-0.96000004,0.15900001,4.966846,0,nan,0.0,3,0,1,19,0
258845613,1693632402400303,366607778,1263420320,59601,77256,0.266,0.10455447,0.882,1.4130001,0.59,0.93,96,81,1.626,1.5350001,0.536,0.28300002,0.15004456,0,nan,0.0,3,0,1,19,0
259242631,1693632402800304,366607839,1263420356,59505,77160,0.268,0.088884555,0.88400006,1.417,0.62,0.93,96,79,1.9770001,1.7720001,0.87700003,0.22700001,0.39668438,0,nan,0.0,3,0,1,18,0
259844620,1693632403400304,366607925,1263420416,59368,77023,0.26000002,0.10766081,0.8880001,1.4210001,0.62,0.93,96,79,1.6710001,1.411,0.89500004,0.112,0.52183354,0,nan,0.0,3,0,1,18,0
260244621,1693632403800304,366607983,1263420452,59273,76928,0.245,0.097270854,0.88900006,1.4230001,0.59,0.93,96,78,1.825,1.6980001,0.66800004,0.095000006,0.42846382,0,nan,0.0,3,0,1,19,0
260852880,1693632404400304,366608071,1263420490,59157,76812,0.23,0.119852796,0.89000005,1.424,0.59,0.93,96,78,1.3470001,1.296,0.36600003,0.062000003,0.32470697,0,nan,0.0,3,0,1,19,0
261253613,1693632404800304,366608101,1263420503,59164,76819,0.293,0.49988726,0.892,1.4230001,0.64,1.01,96,76,0.34600002,0.32700002,0.115,0.12200001,0.32507506,0,nan,0.0,3,0,1,18,0
261847915,1693632405400304,366608098,1263420494,59185,76840,0.21800001,0.6480589,0.89400005,1.4210001,0.69,1.01,96,76,0.314,-0.13100001,-0.28500003,0.076000005,4.9484243,0,nan,0.0,3,0,1,17,0
262252998,1693632405800304,366608092,1263420479,59191,76846,0.23,0.53563505,0.89400005,1.4210001,0.69,1.01,96,81,0.386,-0.141,-0.35900003,-0.119,4.462613,0,nan,0.0,3,0,1,17,0
262845613,1693632406400305,366608084,1263420458,59154,76810,0.223,0.57593995,0.89500004,1.4230001,0.64,1.01,96,81,0.24100001,-0.101,-0.21900001,-0.036000002,4.2659693,0,nan,0.0,3,0,1,18,0
263238087,1693632406800305,366608078,1263420450,59163,76818,0.223,0.58389115,0.89500004,1.4250001,0.59,0.93,96,79,0.18800001,-0.15200001,-0.11100001,-0.026,4.0780106,0,nan,0.0,3,0,1,19,0
263845623,1693632407400305,366608066,1263420444,59210,76865,0.24100001,0.5654514,0.89500004,1.427,0.62,0.93,96,79,0.284,-0.28100002,-0.039,-0.026,3.5120714,0,nan,0.0,3,0,1,18,0
264248408,1693632407800305,366608062,1263420463,59203,76858,0.192,0.15849526,0.896,1.4280001,0.62,0.93,97,70,1.353,0.277,1.3240001,0.134,1.5207329,0,nan,0.0,3,0,1,18,0
264854612,1693632408400305,366608103,1263420653,59176,76832,0.193,0.043438803,0.896,1.4260001,0.62,0.93,97,70,4.498,1.302,4.3050003,-0.052,1.2915119,0,nan,0.0,3,0,1,18,0
265253636,1693632408800305,366608162,1263420881,59244,76899,0.185,0.030321952,0.89500004,1.4230001,0.62,0.93,97,89,6.262,2.148,5.8820004,-0.19800001,1.2398462,0,nan,0.0,3,0,1,18,0
265837612,1693632409400306,366608315,1263421343,59451,77106,0.19000001,0.018418983,0.892,1.419,0.62,0.93,97,89,8.667001,3.548,7.9080005,0.119,1.1490813,0,nan,0.0,3,0,1,18,0
266248785,1693632409800306,366608466,1263421729,59341,76996,0.192,0.01577062,0.89000005,1.417,0.62,0.93,97,90,10.491,4.7920003,9.332001,0.507,1.0964273,0,nan,0.0,3,0,1,18,0
266851621,1693632410400306,366608769,1263422418,59064,76720,0.21800001,0.014403853,0.88900006,1.4150001,0.62,0.93,97,90,12.952001,6.425,11.246,0.55,1.0517651,0,nan,0.0,3,0,1,18,0
267243614,1693632410800306,366609022,1263422950,58909,76564,0.22500001,0.012872675,0.88900006,1.414,0.62,0.93,97,90,14.476001,7.4100003,12.436001,0.22100002,1.0334454,0,nan,0.0,3,0,1,18,0
267849612,1693632411400306,366609457,1263423838,58826,76481,0.2,0.010168986,0.88900006,1.4130001,0.59,0.93,97,90,16.424002,8.547,14.025001,-0.057000004,1.0234656,0,nan,0.0,3,0,1,19,0
268250613,1693632411800306,366609773,1263424492,58876,76532,0.21000001,0.009562309,0.88900006,1.4120001,0.59,0.93,97,96,17.635,8.941,15.200001,-0.273,1.0390766,0,nan,0.0,3,0,1,19,0
268848762,1693632412400306,366610270,1263425548,59177,76833,0.21100001,0.009729163,0.89000005,1.4120001,0.62,0.93,97,96,18.744001,9.439,16.195002,-0.559,1.0431085,0,nan,0.0,3,0,1,18,0
269248614,1693632412800307,366610603,1263426270,59549,77205,0.202,0.009597391,0.89000005,1.411,0.62,0.93,97,96,18.246,8.928,15.912001,-0.99600005,1.0595052,0,nan,0.0,3,0,1,18,0
269857613,1693632413400307,366611049,1263427376,59941,77597,0.273,0.0136563275,0.897,1.4120001,0.62,0.93,97,96,18.902,7.07,17.53,-0.021000002,1.1874533,0,nan,0.0,3,0,1,18,0
270249613,1693632413800307,366611211,1263428204,60160,77817,0.21300001,0.0110699255,0.901,1.4120001,0.59,0.93,97,95,19.177,1.8920001,19.084002,-1.148,1.4719708,0,nan,0.0,3,0,1,19,0
270854613,1693632414400307,366611181,1263429468,60720,78377,0.21300001,0.0130168395,0.90300006,1.4120001,0.59,0.93,97,95,18.475,-1.7360001,18.393002,0.12100001,1.6649164,0,nan,0.0,3,0,1,19,0
271248679,1693632414800307,366611117,1263430291,60361,78018,0.23200001,0.010835527,0.906,1.416,0.62,0.93,97,94,18.478,-1.7110001,18.398,1.6070001,1.6635491,0,nan,0.0,3,0,1,18,0
271850622,1693632415400307,366611057,1263431535,59181,76838,0.24200001,0.01083099,0.91,1.422,0.59,0.93,97,94,18.805,-0.46500003,18.800001,2.447,1.5955443,0,nan,0.0,3,0,1,19,0
272253885,1693632415800307,366611067,1263432387,58365,76022,0.23500001,0.010164273,0.9110001,1.4260001,0.59,0.93,97,99,19.213001,1.23,19.174002,1.9430001,1.506728,0,nan,0.0,3,0,1,19,0
272855612,1693632416400308,366611191,1263433681,57359,75017,0.21800001,0.009522516,0.91,1.429,0.59,0.93,97,99,19.604,3.1280003,19.353,1.8290001,1.4105525,0,nan,0.0,3,0,1,19,0
273247612,1693632416800308,366611318,1263434547,56729,74387,0.209,0.009974033,0.91,1.4300001,0.59,0.93,97,78,19.793001,3.9880002,19.387001,1.4920001,1.3679265,0,nan,0.0,3,0,1,19,0
273844042,1693632417400308,366611553,1263435847,55865,73523,0.21300001,0.009726196,0.90900004,1.432,0.62,0.93,97,78,20.005001,4.721,19.44,1.2670001,1.3325515,0,nan,0.0,3,0,1,18,0
274246612,1693632417800308,366611729,1263436716,55452,73110,0.2,0.009428268,0.90900004,1.434,0.59,0.93,97,76,20.126001,5.097,19.469002,0.86700004,1.3147345,0,nan,0.0,3,0,1,19,0
274843613,1693632418400308,366612004,1263438030,55073,72731,0.18900001,0.0087351985,0.90700006,1.4350001,0.59,0.93,97,76,20.387001,5.164,19.722,0.53000003,1.3147187,0,nan,0.0,3,0,1,19,0
275246613,1693632418800308,366612188,1263438907,54949,72608,0.19700001,0.01052608,0.906,1.4330001,0.59,0.93,97,95,20.289001,5.202,19.611,0.24300002,1.3115013,0,nan,0.0,3,0,1,19,0
275851613,1693632419400308,366612492,1263440210,54804,72462,0.19000001,0.008252963,0.90400004,1.4330001,0.59,0.93,97,95,20.242,6.6050005,19.134,0.448,1.2384245,0,nan,0.0,3,0,1,19,0
276232636,1693632419800309,366612776,1263441035,54326,71985,0.256,0.010744072,0.90400004,1.4380001,0.59,0.93,97,90,20.145,10.031,17.470001,1.2360001,1.0495892,0,nan,0.0,3,0,1,19,0
276841614,1693632420400309,366613538,1263441958,54265,71925,0.273,0.010695377,0.906,1.439,0.59,0.93,97,90,19.800001,17.419,9.4140005,-0.822,0.4955023,0,nan,0.0,3,0,1,19,0
277238614,1693632420800309,366614208,1263442215,54758,72418,0.323,0.013692981,0.9110001,1.4410001,0.59,0.93,97,95,19.403002,19.299002,2.0110002,-1.519,0.10384325,0,nan,0.0,3,0,1,19,0
277841614,1693632421400309,366615220,1263442025,56003,73662,0.29700002,0.019649614,0.9250001,1.4430001,0.62,0.93,97,95,19.17,17.646,-7.4890003,-1.7720001,5.881816,0,nan,0.0,3,0,1,18,0
278240649,1693632421800309,366615790,1263441557,56936,74595,0.256,0.023735778,0.94000006,1.4460001,0.59,0.93,97,86,18.79,13.672001,-12.89,-1.973,5.5272093,0,nan,0.0,3,0,1,19,0
278831622,1693632422400309,366616313,1263440481,58101,75760,0.287,0.022403046,0.9620001,1.4610001,0.62,0.93,97,86,19.053001,5.6920004,-18.183,-1.4890001,5.0157375,0,nan,0.0,3,0,1,18,0
279242614,1693632422800309,366616401,1263439630,58603,76262,0.363,0.015981456,0.9710001,1.475,0.63,0.93,97,97,19.542002,-0.418,-19.538,-1.126,4.6910043,0,nan,0.0,3,0,1,17,0
279837614,1693632423400310,366616175,1263438337,58771,76430,0.30600002,0.009667902,0.98,1.4890001,0.62,0.93,97,97,19.990002,-7.1010003,-18.686,0.509,4.349227,0,nan,0.0,3,0,1,18,0
280243613,1693632423800310,366615893,1263437516,58138,75796,0.30200002,0.008949699,0.98100007,1.496,0.62,0.93,97,81,20.092001,-8.103001,-18.385,2.7440002,4.297245,0,nan,0.0,3,0,1,18,0
280836621,1693632424400310,366615467,1263436262,56259,73917,0.298,0.009745918,0.984,1.4990001,0.64,0.94,97,81,20.696001,-6.9950004,-19.478,3.0830002,4.3676033,0,nan,0.0,3,0,1,17,0
281244669,1693632424800310,366615270,1263435364,55305,72963,0.275,0.011485662,0.98700005,1.4970001,0.64,0.94,97,95,21.037,-3.5540001,-20.734001,1.9100001,4.5426517,0,nan,0.0,3,0,1,17,0
281839801,1693632425400310,366615212,1263433946,54573,72231,0.21700001,0.010998716,0.989,1.493,0.61,0.94,97,95,20.917002,1.4380001,-20.868002,1.0020001,4.781168,0,nan,0.0,3,0,1,18,0
282239837,1693632425800310,366615300,1263433012,54316,71973,0.22900002,0.012858887,0.99000007,1.4920001,0.59,0.93,97,95,20.815,3.7800002,-20.469002,0.75000006,4.89502,0,nan,0.0,3,0,1,19,0
282841613,1693632426400311,366615602,1263431663,54052,71709,0.27100003,0.018587232,0.99500006,1.498,0.59,0.93,97,95,20.937,7.564,-19.523,0.43300003,5.082005,0,nan,0.0,3,0,1,19,0
283246614,1693632426800311,366615906,1263430814,54140,71797,0.23300001,0.015438832,1.003,1.503,0.59,0.93,97,101,20.675001,9.508,-18.359001,0.45000002,5.1902566,0,nan,0.0,3,0,1,19,0
283846614,1693632427400311,366616459,1263429620,54035,71691,0.22700001,0.01617187,1.008,1.5100001,0.59,0.93,97,101,20.427,11.237,-17.059,0.869,5.2948785,0,nan,0.0,3,0,1,19,0
284251612,1693632427800311,366616877,1263428871,53878,71534,0.215,0.01393401,1.0120001,1.5130001,0.59,0.93,97,96,20.261002,12.221001,-16.16,0.307,5.3598886,0,nan,0.0,3,0,1,19,0
284862613,1693632428400311,366617549,1263427804,53788,71444,0.20700002,0.013304121,1.013,1.516,0.59,0.93,97,96,19.978,12.858001,-15.290001,0.266,5.4116035,0,nan,0.0,3,0,1,19,0
285248612,1693632428800311,366618007,1263427119,53819,71475,0.20700002,0.0115272,1.0120001,1.5150001,0.59,0.93,97,77,19.761002,12.910001,-14.961,0.067,5.424313,0,nan,0.0,3,0,1,19,0
285849613,1693632429400311,366618700,1263426126,53808,71464,0.223,0.012381016,1.013,1.5170001,0.62,0.93,97,77,19.427,12.773001,-14.6380005,0.155,5.429848,0,nan,0.0,3,0,1,18,0
286247612,1693632429800312,366619155,1263425471,53712,71367,0.216,0.011827049,1.0120001,1.5180001,0.65,0.94,97,95,19.27,12.7300005,-14.467001,0.264,5.434008,0,nan,0.0,3,0,1,17,0
286852626,1693632430400312,366619833,1263424497,53607,71262,0.201,0.012922243,1.011,1.5200001,0.62,0.93,97,95,19.167002,12.574,-14.466001,0.17300001,5.4279203,0,nan,0.0,3,0,1,18,0
287252613,1693632430800312,366620277,1263423836,53612,71267,0.20600002,0.011410264,1.0090001,1.5200001,0.59,0.93,98,95,19.101002,12.378,-14.548,0.18900001,5.417365,0,nan,0.0,3,0,1,19,0
287844613,1693632431400312,366620935,1263422843,53726,71381,0.21700001,0.01159108,1.005,1.521,0.59,0.93,98,95,19.119001,12.39,-14.561001,0.272,5.4173985,0,nan,0.0,3,0,1,19,0
288244619,1693632431800312,366621374,1263422184,53692,71347,0.20600002,0.011915187,1.0040001,1.5220001,0.62,0.93,98,99,19.128,12.287001,-14.659,0.36,5.4099736,0,nan,0.0,3,0,1,18,0
288846613,1693632432400312,366622028,1263421185,53691,71345,0.202,0.011492294,1.0020001,1.5220001,0.61,0.94,98,99,19.231,12.282001,-14.798,0.106000006,5.4051375,0,nan,0.0,3,0,1,18,0
289236613,1693632432800312,366622463,1263420515,53815,71469,0.208,0.0119261835,1.0,1.524,0.59,0.93,98,97,19.160002,12.200001,-14.774001,-0.15900001,5.4026694,0,nan,0.0,3,0,1,19,0
289846614,1693632433400313,366623118,1263419517,53764,71418,0.209,0.012007167,0.9990001,1.5270001,0.61,0.94,98,97,19.222,12.338,-14.740001,0.26200002,5.4093385,0,nan,0.0,3,0,1,18,0
290246612,1693632433800313,366623551,1263418844,53843,71497,0.20700002,0.011852006,0.99700004,1.5270001,0.59,0.93,98,86,19.085001,12.152,-14.716001,-0.287,5.402636,0,nan,0.0,3,0,1,19,0
290842637,1693632434400313,366624209,1263417872,53983,71637,0.20600002,0.011786558,0.99700004,1.5320001,0.61,0.94,98,86,18.772001,12.436001,-14.062,-0.377,5.4365106,0,nan,0.0,3,0,1,18,0
291243612,1693632434800313,366624661,1263417245,54078,71731,0.20500001,0.01152598,0.99600005,1.5270001,0.65,0.95,98,90,18.841002,12.865001,-13.764001,-0.56100005,5.4640193,0,nan,0.0,3,0,1,17,0
291837613,1693632435400313,366625359,1263416336,54326,71979,0.21200001,0.011691087,0.99500006,1.5250001,0.59,0.93,98,90,18.574001,13.065001,-13.202001,-0.333,5.4925404,0,nan,0.0,3,0,1,19,0
292246619,1693632435800313,366625832,1263415754,54374,72027,0.23,0.011481473,0.99500006,1.524,0.61,0.94,98,93,18.380001,13.251,-12.738001,-0.157,5.5175242,0,nan,0.0,3,0,1,18,0
292852612,1693632436400313,366626553,1263414903,54413,72066,0.22200002,0.012295321,0.99300003,1.524,0.59,0.93,98,93,18.284,13.445001,-12.391001,0.171,5.5385394,0,nan,0.0,3,0,1,19,0
293252618,1693632436800314,366627041,1263414340,54451,72104,0.21100001,0.010808475,0.99200004,1.5250001,0.59,0.93,98,92,18.551,13.687,-12.521001,0.18300001,5.5422454,0,nan,0.0,3,0,1,19,0
293852672,1693632437400314,366627782,1263413503,54514,72167,0.20400001,0.013673781,0.99100006,1.5280001,0.59,0.93,98,92,18.557001,13.691001,-12.527,-0.046000004,5.5421667,0,nan,0.0,3,0,1,19,0
294247614,1693632437800314,366628275,1263412941,54655,72308,0.22500001,0.011534183,0.99000007,1.529,0.59,0.93,98,93,18.588001,13.776001,-12.478001,-0.287,5.5471897,0,nan,0.0,3,0,1,19,0
294844614,1693632438400314,366629019,1263412109,55104,72756,0.215,0.014103306,0.989,1.5300001,0.59,0.93,98,93,18.470001,13.709001,-12.378,-0.823,5.5487742,0,nan,0.0,3,0,1,19,0
295247611,1693632438800314,366629508,1263411557,55253,72905,0.21900001,0.014129487,0.99000007,1.5330001,0.59,0.93,98,78,18.331001,13.434001,-12.473001,-0.23600002,5.5348773,0,nan,0.0,3,0,1,19,0
295846612,1693632439400314,366630236,1263410719,55261,72912,0.20700002,0.012212941,0.99000007,1.536,0.59,0.93,98,78,18.327002,13.437,-12.464001,-0.116000004,5.535325,0,nan,0.0,3,0,1,19,0
296250635,1693632439800314,366630722,1263410163,55196,72848,0.21300001,0.012823631,0.989,1.5370001,0.59,0.93,98,94,18.348001,13.466001,-12.462001,0.22100002,5.536499,0,nan,0.0,3,0,1,19,0
296847614,1693632440400315,366631449,1263409327,55188,72839,0.23400001,0.014044315,0.98800004,1.5410001,0.59,0.93,98,94,18.373001,13.547001,-12.412001,-0.061000004,5.5414867,0,nan,0.0,3,0,1,19,0
297251613,1693632440800315,366631936,1263408772,55326,72977,0.21000001,0.011757759,0.98800004,1.542,0.59,0.93,98,93,18.398,13.504001,-12.494,-0.40300003,5.536621,0,nan,0.0,3,0,1,19,0
297851613,1693632441400315,366632663,1263407937,55500,73151,0.21200001,0.012169831,0.9850001,1.5380001,0.57,0.87,98,93,18.367,13.469001,-12.487,-0.15,5.5356317,0,nan,0.0,3,0,1,20,0
298244614,1693632441800315,366633151,1263407385,55534,73185,0.21900001,0.012169307,0.984,1.5350001,0.57,0.87,98,96,18.383001,13.548,-12.425,-0.41200003,5.5409884,0,nan,0.0,3,0,1,20,0
298849612,1693632442400315,366633880,1263406560,55570,73221,0.21100001,0.012597089,0.98200005,1.5330001,0.57,0.87,98,96,18.258001,13.530001,-12.26,-0.303,5.5469847,0,nan,0.0,3,0,1,20,0
299248614,1693632442800315,366634367,1263406015,55575,73226,0.20500001,0.0116542615,0.98,1.5300001,0.57,0.87,98,81,18.17,13.394001,-12.278001,-0.45000002,5.5412226,0,nan,0.0,3,0,1,20,0
299861614,1693632443400315,366635092,1263405197,55652,73302,0.20300001,0.010979866,0.97700006,1.5220001,0.57,0.87,98,81,18.151001,13.316001,-12.334001,-0.019000001,5.536036,0,nan,0.0,3,0,1,20,0
300246612,1693632443800316,366635572,1263404649,55675,73325,0.20600002,0.010893996,0.975,1.516,0.57,0.87,98,85,18.134,13.330001,-12.294001,-0.148,5.5381966,0,nan,0.0,3,0,1,20,0
300844619,1693632444400316,366636291,1263403830,55686,73336,0.238,0.011415849,0.97200006,1.5090001,0.57,0.87,98,85,18.068,13.327001,-12.201,0.12200001,5.541865,0,nan,0.0,3,0,1,20,0
301243729,1693632444800316,366636776,1263403293,55694,73344,0.21700001,0.011142181,0.9710001,1.5040001,0.57,0.87,98,90,18.036001,13.569,-11.882001,-0.194,5.563975,0,nan,0.0,3,0,1,20,0
301847613,1693632445400316,366637543,1263402562,55818,73468,0.238,0.011998439,0.96900004,1.491,0.57,0.87,98,90,17.79,15.003,-9.559,-0.259,5.7159157,0,nan,0.0,3,0,1,20,0
302236632,1693632445800316,366638129,1263402243,56133,73783,0.24900001,0.014145719,0.96800005,1.488,0.59,0.87,98,92,18.066,17.409,-4.8250003,-1.1140001,6.0127993,0,nan,0.0,3,0,1,19,0
302860613,1693632446400316,366639077,1263402241,57118,74767,0.289,0.014946301,0.97300005,1.4900001,0.62,0.95,98,92,17.604,17.17,3.8850002,-2.01,0.22251847,0,nan,0.0,3,0,1,19,0
303253611,1693632446800316,366639677,1263402482,57746,75396,0.277,0.013477258,0.9760001,1.491,0.62,0.95,98,97,17.404001,16.145,6.5000005,-0.99500006,0.3827678,0,nan,0.0,3,0,1,19,0
303847614,1693632447400317,366640508,1263403050,57959,75608,0.28100002,0.012506505,0.97800004,1.4840001,0.62,0.95,98,97,17.613,14.501,9.997001,-0.001,0.6036055,0,nan,0.0,3,0,1,19,0
304253612,1693632447800317,366641018,1263403527,57668,75318,0.25300002,0.011852879,0.97900003,1.4770001,0.62,0.95,98,98,17.693,13.723001,11.169001,0.77500004,0.6831428,0,nan,0.0,3,0,1,19,0
304846889,1693632448400317,366641718,1263404336,57222,74872,0.24400002,0.010873924,0.97900003,1.4660001,0.62,0.95,98,98,17.558,12.254001,12.574,0.758,0.79827833,0,nan,0.0,3,0,1,19,0
305262613,1693632448800317,366642156,1263404911,57004,74653,0.24300002,0.010891029,0.97800004,1.4640001,0.62,0.95,98,87,17.653002,11.88,13.057,0.333,0.83255976,0,nan,0.0,3,0,1,19,0
305847077,1693632449400317,366642765,1263405798,56440,74090,0.22800002,0.011571533,0.97900003,1.457,0.66999996,0.96,98,87,16.898,10.3,13.397,1.5300001,0.9153588,0,nan,0.0,3,0,1,18,0
306247613,1693632449800317,366643092,1263406430,55690,73340,0.256,0.01411884,0.98,1.4540001,0.62,0.95,98,79,17.02,8.0060005,15.02,2.071,1.0810796,0,nan,0.0,3,0,1,19,0
306847757,1693632450400318,366643316,1263407579,54916,72566,0.252,0.011779401,0.98600006,1.4510001,0.58,0.87,98,79,18.547,-0.094000004,18.547,0.526,1.5758598,0,nan,0.0,3,0,1,19,0
307246618,1693632450800318,366643206,1263408407,54879,72530,0.19900002,0.010617884,0.98600006,1.4510001,0.57,0.87,98,95,19.212002,-6.0670004,18.229,-0.21700001,1.8920907,0,nan,0.0,3,0,1,20,0
307842612,1693632451400318,366642671,1263409534,55242,72893,0.296,0.0152492905,0.99100006,1.4580001,0.57,0.87,98,95,19.921001,-12.971001,15.119,-0.469,2.2798772,0,nan,0.0,3,0,1,20,0
308249613,1693632451800318,366642149,1263410132,55381,73032,0.18100001,0.012989612,0.99500006,1.462,0.57,0.87,98,91,19.646002,-15.864,11.588,0.085,2.5107045,0,nan,0.0,3,0,1,20,0
308842762,1693632452400318,366641223,1263410711,55204,72855,0.22200002,0.01648254,0.9990001,1.4740001,0.58,0.87,98,91,18.719002,-17.855001,5.622,0.70600003,2.8365602,0,nan,0.0,3,0,1,19,0
309243613,1693632452800318,366640571,1263410893,54663,72314,0.201,0.012576668,1.001,1.4770001,0.57,0.87,98,82,18.298,-18.104,2.6580002,1.5320001,2.9958065,0,nan,0.0,3,0,1,20,0
309841612,1693632453400318,366639605,1263410973,53700,71351,0.20700002,0.01234576,0.9990001,1.475,0.57,0.87,98,82,17.504002,-17.504002,-0.052,2.095,3.144559,0,nan,0.0,3,0,1,20,0
310245614,1693632453800319,366638978,1263410966,52761,70412,0.202,0.01066815,0.99700004,1.4720001,0.57,0.87,98,98,17.168001,-17.165,-0.326,2.707,3.1605628,0,nan,0.0,3,0,1,20,0
310845613,1693632454400319,366638053,1263410974,51031,68682,0.192,0.010032153,0.99200004,1.4710001,0.57,0.87,98,98,16.92,-16.905,0.702,2.9180002,3.100095,0,nan,0.0,3,0,1,20,0
311246612,1693632454800319,366637445,1263411039,49880,67531,0.20400001,0.010536902,0.989,1.4720001,0.57,0.87,98,80,16.852001,-16.725,2.0670002,2.9,3.018625,0,nan,0.0,3,0,1,20,0
311855613,1693632455400319,366636554,1263411230,48116,65768,0.209,0.01234227,0.98600006,1.4760001,0.57,0.87,98,80,16.640001,-16.232,3.6620002,2.673,2.9197109,0,nan,0.0,3,0,1,20,0
312246613,1693632455800319,366635974,1263411411,46936,64588,0.19100001,0.011564901,0.984,1.4770001,0.57,0.87,98,95,16.487001,-15.900001,4.361,3.0340002,2.8739278,0,nan,0.0,3,0,1,20,0
312861613,1693632456400319,366635128,1263411744,45237,62889,0.21100001,0.011624766,0.98100007,1.48,0.57,0.87,98,95,16.341002,-15.457001,5.3030005,2.3530002,2.8111074,0,nan,0.0,3,0,1,20,0
313246612,1693632456800319,366634576,1263411993,44250,61901,0.18900001,0.011122284,0.97900003,1.4790001,0.57,0.87,98,96,16.303001,-15.302001,5.624,2.6480002,2.7893822,0,nan,0.0,3,0,1,20,0
313843613,1693632457400320,366633767,1263412388,42371,60023,0.21300001,0.011386179,0.97700006,1.4770001,0.57,0.87,98,96,15.933001,-14.740001,6.05,3.164,2.7520814,0,nan,0.0,3,0,1,20,0
314246613,1693632457800320,366633237,1263412664,41155,58807,0.209,0.011862304,0.97700006,1.4770001,0.57,0.87,98,90,15.907001,-14.658001,6.1790004,2.887,2.7426178,0,nan,0.0,3,0,1,20,0
314860614,1693632458400320,366632448,1263413079,39246,56898,0.20600002,0.011953585,0.97700006,1.4740001,0.57,0.87,98,90,15.842001,-14.622001,6.0950003,2.9310002,2.746638,0,nan,0.0,3,0,1,20,0
315237631,1693632458800320,366631923,1263413355,38050,55703,0.20600002,0.012657127,0.97700006,1.47,0.57,0.87,98,94,15.787001,-14.544001,6.1390004,2.887,2.7422092,0,nan,0.0,3,0,1,20,0
315842862,1693632459400320,366631134,1263413765,36212,53864,0.21400002,0.01243198,0.9760001,1.4640001,0.57,0.87,98,94,15.663001,-14.523001,5.866,2.986,2.757718,0,nan,0.0,3,0,1,20,0
316250628,1693632459800320,366630609,1263414030,35047,52700,0.22000001,0.012981061,0.9760001,1.4610001,0.57,0.87,98,93,15.661001,-14.568001,5.749,2.8830001,2.7657287,0,nan,0.0,3,0,1,20,0
316843840,1693632460400321,366629826,1263414422,33298,50951,0.21700001,0.012898856,0.97700006,1.4560001,0.57,0.87,98,93,15.545001,-14.412001,5.8240004,2.7310002,2.757539,0,nan,0.0,3,0,1,20,0
317246611,1693632460800321,366629310,1263414679,32251,49904,0.208,0.01268959,0.97700006,1.452,0.57,0.87,98,87,15.575001,-14.446001,5.8230004,2.8420002,2.7584476,0,nan,0.0,3,0,1,20,0
317834613,1693632461400321,366628537,1263415058,30505,48158,0.22500001,0.013350197,0.97800004,1.4480001,0.57,0.87,98,87,15.165001,-14.216001,5.2790003,2.8620002,2.7860546,0,nan,0.0,3,0,1,20,0
318243613,1693632461800321,366628021,1263415284,29385,47037,0.20700002,0.0130828135,0.97800004,1.4460001,0.57,0.87,98,95,14.982,-14.291,4.498,3.0670002,2.8367002,0,nan,0.0,3,0,1,20,0
318835630,1693632462400321,366627224,1263415498,27466,45119,0.201,0.014232986,0.97700006,1.4430001,0.57,0.87,98,95,15.27,-15.190001,1.559,2.8500001,3.0393243,0,nan,0.0,3,0,1,20,0
319241613,1693632462800321,366626674,1263415529,26391,44044,0.21900001,0.015327831,0.97800004,1.44,0.57,0.87,98,94,15.325001,-15.325001,0.023000002,2.7470002,3.1401167,0,nan,0.0,3,0,1,20,0
319846815,1693632463400321,366625838,1263415496,24972,42625,0.21900001,0.01229567,0.975,1.44,0.57,0.87,98,94,15.373001,-15.357,-0.707,2.196,3.1876075,0,nan,0.0,3,0,1,20,0
320246612,1693632463800322,366625290,1263415497,23931,41584,0.21800001,0.011321601,0.97200006,1.4410001,0.57,0.87,98,97,15.028001,-15.012001,0.68,2.9570003,3.0963242,0,nan,0.0,3,0,1,20,0
320846613,1693632464400322,366624487,1263415716,22037,39690,0.19600001,0.011005173,0.96800005,1.44,0.57,0.87,98,97,15.7300005,-14.543,5.9950004,3.2580001,2.7505872,0,nan,0.0,3,0,1,20,0
321245622,1693632464800322,366623978,1263416051,20712,38365,0.23200001,0.011770675,0.96900004,1.442,0.57,0.87,98,82,16.156,-13.635,8.666,3.0330002,2.5754447,0,nan,0.0,3,0,1,20,0
321845617,1693632465400322,366623267,1263416706,19051,36704,0.22500001,0.011805581,0.97300005,1.447,0.64,0.96,98,82,16.701,-13.054001,10.417001,1.8210001,2.468091,0,nan,0.0,3,0,1,18,0
322240613,1693632465800322,366622793,1263417176,18435,36088,0.20400001,0.011617959,0.9760001,1.447,0.58,0.87,98,100,16.986,-13.455001,10.368,1.455,2.485042,0,nan,0.0,3,0,1,19,0
322851612,1693632466400322,366622034,1263417845,17640,35294,0.224,0.011678696,0.97900003,1.447,0.58,0.87,98,100,17.512001,-14.807001,9.351001,1.1450001,2.578318,0,nan,0.0,3,0,1,19,0
323240614,1693632466800322,366621480,1263418238,17344,34998,0.19600001,0.009762324,0.97900003,1.4430001,0.58,0.87,98,93,17.928001,-15.913001,8.257,0.48700002,2.6629484,0,nan,0.0,3,0,1,19,0
323846612,1693632467400323,366620590,1263418745,17396,35050,0.21400002,0.011388447,0.97800004,1.439,0.57,0.87,98,93,18.124,-16.669,7.1150002,0.098000005,2.7381444,0,nan,0.0,3,0,1,20,0
324241613,1693632467800323,366619987,1263419054,17501,35155,0.223,0.011818497,0.97900003,1.4360001,0.57,0.87,98,96,18.072,-16.803001,6.6530004,-0.076000005,2.7645993,0,nan,0.0,3,0,1,20,0
324841613,1693632468400323,366619085,1263419497,17678,35332,0.224,0.011346909,0.97900003,1.432,0.58,0.87,98,96,17.814001,-16.585001,6.5020003,-0.569,2.7679417,0,nan,0.0,3,0,1,19,0
325244637,1693632468800323,366618492,1263419790,17813,35467,0.21700001,0.011476587,0.97900003,1.4280001,0.58,0.87,98,82,17.561,-16.337,6.4410005,-0.648,2.7660246,0,nan,0.0,3,0,1,19,0
325843664,1693632469400323,366617616,1263420216,17981,35636,0.215,0.011150035,0.97800004,1.422,0.57,0.87,98,82,17.206001,-16.055,6.188,0.136,2.7737043,0,nan,0.0,3,0,1,20,0
326245635,1693632469800323,366617042,1263420500,17840,35495,0.21200001,0.011125949,0.97700006,1.419,0.58,0.87,98,110,17.044,-15.834001,6.3050003,0.492,2.7626455,0,nan,0.0,3,0,1,19,0
326841612,1693632470400323,366616192,1263420931,17415,35070,0.20400001,0.011298388,0.97800004,1.4150001,0.58,0.87,98,110,17.027,-15.751,6.4690003,0.72,2.7518933,0,nan,0.0,3,0,1,19,0
327246613,1693632470800324,366615625,1263421225,17135,34790,0.22100002,0.011671191,0.97800004,1.4130001,0.58,0.87,98,94,17.143002,-15.786001,6.6850004,0.35700002,2.7410314,0,nan,0.0,3,0,1,19,0
327845614,1693632471400324,366614772,1263421682,16858,34513,0.231,0.011273256,0.97700006,1.4070001,0.57,0.87,98,94,17.231,-15.768001,6.9470005,0.73300004,2.726594,0,nan,0.0,4,0,1,20,0
328231614,1693632471800324,366614200,1263421993,16625,34280,0.20500001,0.011039208,0.97700006,1.4020001,0.57,0.87,98,99,17.389,-15.956,6.9140005,0.505,2.7326875,0,nan,0.0,4,0,1,20,0
328845619,1693632472400324,366613327,1263422465,16517,34173,0.192,0.010366383,0.975,1.393,0.57,0.87,98,99,17.777,-16.25,7.2070003,-0.335,2.724154,0,nan,0.0,4,0,1,20,0
329248771,1693632472800324,366612740,1263422788,16701,34356,0.21100001,0.011220197,0.975,1.389,0.57,0.87,98,92,17.76,-16.247002,7.1740003,-0.499,2.7257864,0,nan,0.0,4,0,1,20,0
329859614,1693632473400324,366611862,1263423269,17081,34736,0.224,0.010105456,0.97300005,1.3790001,0.57,0.87,98,92,17.684,-16.174002,7.1500006,-0.32900003,2.725369,0,nan,0.0,4,0,1,20,0
330242613,1693632473800324,366611283,1263423590,17290,34946,0.21800001,0.0102094775,0.97200006,1.3740001,0.57,0.87,98,89,17.499,-15.940001,7.221,-0.49600002,2.7162492,0,nan,0.0,4,0,1,20,0
330839613,1693632474400325,366610431,1263424073,17713,35368,0.19700001,0.011417944,0.97200006,1.368,0.57,0.87,98,89,17.19,-15.651001,7.1110005,-0.91,2.7151303,0,nan,0.0,4,0,1,20,0
331246614,1693632474800325,366609872,1263424392,17923,35579,0.21700001,0.012124976,0.9710001,1.365,0.57,0.87,98,82,16.936,-15.437,6.9680004,-0.38900003,2.717603,0,nan,0.0,4,0,1,20,0
331846613,1693632475400325,366609043,1263424855,18049,35705,0.209,0.011343941,0.9710001,1.36,0.57,0.87,98,82,16.636002,-15.223001,6.7110004,0.141,2.7263536,0,nan,0.0,4,0,1,20,0
332246613,1693632475800325,366608499,1263425155,18012,35668,0.21300001,0.011785684,0.97,1.355,0.57,0.87,98,93,16.432001,-15.041,6.617,0.019000001,2.7271562,0,nan,0.0,4,0,1,20,0
332851630,1693632476400325,366607695,1263425595,17790,35446,0.22100002,0.012474567,0.96900004,1.35,0.57,0.87,98,93,16.079,-14.727,6.453,0.46800002,2.7286499,0,nan,0.0,4,0,1,20,0
333248614,1693632476800325,366607164,1263425883,17594,35250,0.19800001,0.012647004,0.96900004,1.3470001,0.57,0.87,98,92,15.996,-14.627001,6.4760003,0.605,2.724799,0,nan,0.0,4,0,1,20,0
333844613,1693632477400326,366606369,1263426321,17334,34991,0.21100001,0.011479205,0.96800005,1.3390001,0.57,0.87,98,92,16.063002,-14.656001,6.5740004,0.441,2.7199378,0,nan,0.0,4,0,1,20,0
334244636,1693632477800326,366605839,1263426623,17161,34818,0.21100001,0.01189372,0.96700007,1.332,0.57,0.87,98,98,16.269001,-14.780001,6.7980003,0.58000004,2.7105203,0,nan,0.0,4,0,1,20,0
334844613,1693632478400326,366605034,1263427082,16768,34424,0.192,0.011963185,0.96700007,1.3290001,0.57,0.87,98,98,16.589,-15.106001,6.8550005,0.88000005,2.7155986,0,nan,0.0,4,0,1,20,0
335245618,1693632478800326,366604485,1263427390,16517,34173,0.22200002,0.011683757,0.96700007,1.327,0.57,0.87,98,100,16.880001,-15.3550005,7.011,0.55,2.713235,0,nan,0.0,4,0,1,20,0
335845612,1693632479400326,366603639,1263427863,16232,33889,0.20700002,0.011005173,0.966,1.3180001,0.57,0.87,98,100,17.461,-15.961,7.0800004,0.071,2.7240787,0,nan,0.0,4,0,1,20,0
336244613,1693632479800326,366603051,1263428187,16451,34108,0.22500001,0.010928204,0.96500003,1.314,0.57,0.87,98,83,18.043001,-16.517,7.2630005,-1.179,2.7273297,0,nan,0.0,4,0,1,20,0
336841614,1693632480400326,366602148,1263428685,17152,34809,0.216,0.009896889,0.96400005,1.304,0.57,0.87,98,83,18.387001,-16.749,7.5880003,-0.86,2.7162278,0,nan,0.0,4,0,1,20,0
337241713,1693632480800327,366601547,1263429042,17452,35109,0.201,0.010044021,0.9620001,1.3050001,0.57,0.87,98,95,18.59,-16.626001,8.318001,-0.897,2.6777055,0,nan,0.0,4,0,1,20,0
337848612,1693632481400327,366600657,1263429669,18332,35989,0.201,0.0088306675,0.957,1.2770001,0.58,0.87,98,95,19.161001,-15.858001,10.754001,-1.4200001,2.5456853,0,nan,0.0,4,0,1,19,0
338246690,1693632481800327,366600108,1263430195,19025,36683,0.216,0.009378177,0.957,1.2780001,0.58,0.87,98,100,19.393002,-14.636001,12.722001,-2.1780002,2.4260502,0,nan,0.0,4,0,1,19,0
338839613,1693632482400327,366599364,1263431131,20336,37994,0.23200001,0.009258796,0.95800006,1.2850001,0.64,0.96,98,100,19.819,-13.066001,14.901001,-2.121,2.2906663,0,nan,0.0,4,0,1,18,0
339240612,1693632482800327,366598916,1263431830,21235,38893,0.231,0.009106255,0.96000004,1.2900001,0.64,0.96,98,95,20.11,-11.788,16.293001,-2.315,2.197114,0,nan,0.0,4,0,1,18,0
339841612,1693632483400327,366598355,1263432989,22691,40349,0.25100002,0.010333745,0.96400005,1.2980001,0.58,0.87,98,95,20.215,-8.884001,18.158,-2.799,2.0258048,0,nan,0.0,4,0,1,19,0
340249613,1693632483800327,366598070,1263433823,23944,41602,0.26000002,0.010226058,0.96700007,1.302,0.58,0.87,98,78,20.191002,-6.8810005,18.983002,-3.147,1.9185376,0,nan,0.0,4,0,1,19,0
340847613,1693632484400328,366597801,1263435118,26240,43899,0.263,0.0115183005,0.975,1.3100001,0.62,0.88,98,78,19.777,-3.551,19.456001,-3.657,1.7513456,0,nan,0.0,4,0,1,18,0
341240632,1693632484800328,366597709,1263435992,27483,45142,0.24000001,0.011688819,0.97700006,1.3130001,0.58,0.87,98,95,19.762001,-1.9640001,19.664001,-2.8300002,1.6703355,0,nan,0.0,4,0,1,19,0
341840613,1693632485400328,366597688,1263437304,29006,46665,0.23200001,0.011757062,0.97900003,1.3080001,0.58,0.87,98,95,19.570002,1.1780001,19.534,-2.4060001,1.5105693,0,nan,0.0,4,0,1,19,0
342240613,1693632485800328,366597784,1263438160,30108,47767,0.20300001,0.0111641735,0.97700006,1.302,0.57,0.87,98,79,19.213001,3.8860002,18.816,-2.8950002,1.3671293,0,nan,0.0,4,0,1,20,0
342850613,1693632486400328,366598078,1263439387,31803,49463,0.19100001,0.00990579,0.97,1.299,0.57,0.87,98,79,19.114,6.7120004,17.896,-2.7770002,1.2119724,0,nan,0.0,4,0,1,20,0
343247619,1693632486800328,366598350,1263440169,32820,50479,0.18800001,0.009086882,0.96400005,1.2950001,0.57,0.87,98,95,19.146002,8.238,17.283,-2.4520001,1.1259974,0,nan,0.0,4,0,1,20,0
343835613,1693632487400329,366598854,1263441277,34062,51722,0.19100001,0.00843954,0.95300007,1.2870001,0.57,0.87,98,95,19.168001,10.554001,16.0,-2.084,0.9876743,0,nan,0.0,4,0,1,20,0
344245613,1693632487800329,366599270,1263441950,34929,52589,0.19700001,0.007917686,0.947,1.2820001,0.57,0.87,98,91,19.037,12.275001,14.551001,-2.358,0.8700229,0,nan,0.0,4,0,1,20,0
344862618,1693632488400329,366599990,1263442852,36245,53905,0.21200001,0.008229227,0.93700004,1.2770001,0.57,0.87,98,91,18.848001,14.185,12.411,-2.217,0.71879756,0,nan,0.0,4,0,1,20,0
345250612,1693632488800329,366600528,1263443367,37219,54880,0.24400002,0.0081669185,0.933,1.2750001,0.57,0.87,98,93,19.050001,15.628001,10.894,-2.5040002,0.60877883,0,nan,0.0,4,0,1,20,0
345840614,1693632489400329,366601411,1263444017,38692,56353,0.27,0.0087345,0.92700005,1.2720001,0.57,0.87,98,93,18.844002,16.806002,8.524,-2.467,0.46937975,0,nan,0.0,4,0,1,20,0
346244631,1693632489800329,366602031,1263444362,39518,57179,0.27100003,0.008544957,0.9250001,1.271,0.57,0.87,98,89,18.691,17.393002,6.8430004,-2.3160002,0.37485918,0,nan,0.0,4,0,1,20,0
346847614,1693632490400329,366603004,1263444720,41099,58759,0.24200001,0.008375136,0.92200005,1.268,0.57,0.87,98,89,18.645,18.283,3.66,-3.3270001,0.19755992,0,nan,0.0,4,0,1,20,0
347248612,1693632490800330,366603668,1263444840,42350,60011,0.252,0.008979544,0.92,1.268,0.57,0.87,98,74,18.508001,18.427,1.7270001,-3.5010002,0.09347425,0,nan,0.0,4,0,1,20,0
347840660,1693632491400330,366604660,1263444882,44154,61814,0.25800002,0.008977275,0.919,1.2700001,0.57,0.87,98,74,18.529001,18.525002,-0.393,-2.901,6.2619743,0,nan,0.0,4,0,1,20,0
348241613,1693632491800330,366605330,1263444825,45291,62952,0.216,0.008499579,0.91800004,1.2700001,0.59,0.89,98,96,18.531,18.406,-2.1430001,-2.9080002,6.167267,0,nan,0.0,4,0,1,19,0
348837612,1693632492400330,366606310,1263444588,46992,64652,0.21000001,0.0087889545,0.91600007,1.271,0.59,0.89,98,96,18.266,17.628,-4.7860003,-2.7960002,6.018095,0,nan,0.0,4,0,1,19,0
349240620,1693632492800330,366606933,1263444330,48061,65721,0.224,0.009954311,0.915,1.273,0.61,0.93,98,94,18.219002,16.917002,-6.762,-2.8530002,5.9029493,0,nan,0.0,3,0,1,18,0
349842667,1693632493400330,366607816,1263443789,49800,67460,0.224,0.011202745,0.91400003,1.276,0.57,0.87,98,94,18.162,15.599001,-9.302,-3.032,5.7454853,0,nan,0.0,4,0,1,20,0
350238612,1693632493800330,366608366,1263443342,50922,68582,0.223,0.011459133,0.91400003,1.2800001,0.57,0.87,98,89,18.213001,14.879001,-10.504001,-2.2470002,5.668486,0,nan,0.0,4,0,1,20,0
350841614,1693632494400331,366609125,1263442558,52142,69801,0.202,0.011833507,0.91200006,1.2850001,0.57,0.87,98,89,18.321001,13.311001,-12.589001,-1.8320001,5.525667,0,nan,0.0,4,0,1,20,0
351244614,1693632494800331,366609578,1263441959,52851,70511,0.20500001,0.010736044,0.9110001,1.2850001,0.57,0.87,98,95,18.303001,11.93,-13.8810005,-1.4950001,5.4223237,0,nan,0.0,4,0,1,20,0
351841614,1693632495400331,366610157,1263440965,53639,71299,0.16600001,0.008583878,0.90700006,1.2830001,0.57,0.87,98,95,18.508001,9.656,-15.790001,-0.89800006,5.26124,0,nan,0.0,4,0,1,20,0
352235620,1693632495800331,366610473,1263440240,54005,71665,0.19100001,0.009366134,0.90500003,1.2830001,0.59999996,0.88,98,82,18.533,8.06,-16.688002,-0.90300006,5.162317,0,nan,0.0,4,0,1,18,0
352847611,1693632496400331,366610840,1263439069,54400,72059,0.185,0.008323301,0.90200007,1.2830001,0.58,0.87,98,82,18.960001,5.544,-18.131,-0.61800003,5.0091515,0,nan,0.0,4,0,1,19,0
353250662,1693632496800331,366611003,1263438244,54626,72285,0.17600001,0.008171631,0.89900005,1.2820001,0.57,0.87,98,94,18.957,3.7470002,-18.583,-0.342,4.911355,0,nan,0.0,4,0,1,20,0
353829614,1693632497400332,366611118,1263436970,54810,72468,0.23300001,0.008963836,0.897,1.2870001,0.59,0.87,98,94,19.080002,0.8880001,-19.060001,-0.356,4.7589507,0,nan,0.0,4,0,1,19,0
354224613,1693632497800332,366611108,1263436113,54890,72548,0.22100002,0.008183325,0.897,1.292,0.59,0.87,98,92,19.227001,-1.075,-19.197,-0.116000004,4.656442,0,nan,0.0,4,0,1,19,0
354828664,1693632498400332,366610963,1263434827,55113,72771,0.23300001,0.008281413,0.897,1.3000001,0.61,0.9,98,92,19.542002,-4.135,-19.099,-0.32000002,4.4991813,0,nan,0.0,4,0,1,18,0
355234613,1693632498800332,366610775,1263433983,55316,72974,0.25500003,0.008690343,0.89800006,1.3080001,0.59,0.87,98,95,19.465,-5.971,-18.527,-0.51100004,4.400605,0,nan,0.0,4,0,1,19,0
355834611,1693632499400332,366610362,1263432770,55592,73250,0.25,0.00864671,0.901,1.319,0.59,0.87,98,95,19.754002,-9.061001,-17.553001,-0.47300002,4.235874,0,nan,0.0,4,0,1,19,0
356234612,1693632499800332,366610002,1263432004,55670,73328,0.264,0.009467363,0.90300006,1.33,0.59,0.87,98,82,19.954,-10.873,-16.731,-0.39900002,4.136111,0,nan,0.0,4,0,1,19,0
356824613,1693632500400332,366609338,1263430941,55839,73496,0.201,0.008159065,0.906,1.338,0.59,0.88,98,82,20.163,-13.685,-14.808001,-0.33600003,3.966403,0,nan,0.0,4,0,1,19,0
357234612,1693632500800333,366608810,1263430310,55946,73603,0.19000001,0.008391542,0.906,1.3410001,0.59,0.88,98,76,20.354,-15.432001,-13.271001,-0.374,3.8518546,0,nan,0.0,4,0,1,19,0
357839612,1693632501400333,366607908,1263429499,56014,73671,0.21100001,0.008705703,0.906,1.3410001,0.57,0.87,98,76,20.715,-17.702002,-10.758,-0.22500001,3.6876833,0,nan,0.0,4,0,1,20,0
358240983,1693632501800333,366607238,1263429061,56286,73943,0.19700001,0.0070778336,0.90200007,1.327,0.57,0.87,99,92,20.923,-19.026001,-8.706,-0.28300002,3.5707233,0,nan,0.0,4,0,1,20,0
358843613,1693632502400333,366606159,1263428581,56799,74456,0.19500001,0.0067991046,0.89400005,1.3030001,0.57,0.87,99,92,21.005001,-20.293001,-5.4230003,-0.39200002,3.4027202,0,nan,0.0,4,0,1,20,0
359241626,1693632502800333,366605410,1263428390,56962,74619,0.19500001,0.007184822,0.892,1.304,0.57,0.87,99,91,21.268002,-21.029001,-3.1850002,-0.54300004,3.2918975,0,nan,0.0,4,0,1,20,0
359854613,1693632503400333,366604258,1263428316,57932,75589,0.202,0.0075127697,0.88600004,1.2900001,0.59,0.88,99,91,21.069,-21.044,1.034,-1.335,3.092491,0,nan,0.0,4,0,1,19,0
360243613,1693632503800334,366603500,1263428411,58383,76040,0.21800001,0.008916014,0.88500005,1.294,0.57,0.87,99,95,21.076,-20.864,2.9800003,-1.1860001,2.9997327,0,nan,0.0,4,0,1,20,0
360839620,1693632504400334,366602386,1263428713,59109,76766,0.17400001,0.00749933,0.87900007,1.274,0.57,0.87,99,95,20.849,-19.821001,6.465,-0.91700006,2.8263087,0,nan,0.0,4,0,1,20,0
361240612,1693632504800334,366601683,1263429038,59443,77100,0.19100001,0.008247378,0.87600005,1.261,0.57,0.87,99,87,20.648,-18.984001,8.123,0.15,2.7372906,0,nan,0.0,4,0,1,20,0
361840614,1693632505400334,366600701,1263429692,59732,77390,0.22000001,0.009564754,0.87600005,1.2540001,0.64,0.96,99,87,20.479,-17.08,11.299001,-0.36,2.5571332,0,nan,0.0,4,0,1,18,0
362240613,1693632505800334,366600122,1263430244,59877,77535,0.21800001,0.009712233,0.88000005,1.263,0.64,0.96,98,99,20.178001,-15.119,13.362,-0.61300004,2.417831,0,nan,0.0,4,0,1,18,0
362839614,1693632506400334,366599371,1263431226,60227,77885,0.24300002,0.009804911,0.8880001,1.2820001,0.58,0.87,98,99,20.016,-12.35,15.751,-1.368,2.235762,0,nan,0.0,4,0,1,19,0
363249665,1693632506800334,366598941,1263431951,60655,78313,0.245,0.009565975,0.89300007,1.2930001,0.58,0.87,98,97,20.103,-11.3880005,16.567001,-0.81000006,2.1729877,0,nan,0.0,4,0,1,19,0
363843620,1693632507400335,366598393,1263433105,60750,78408,0.224,0.011201697,0.901,1.3100001,0.58,0.87,98,97,19.85,-8.884001,17.751001,0.47000003,2.0348482,0,nan,0.0,4,0,1,19,0
364244612,1693632507800335,366598124,1263433916,60597,78256,0.259,0.011317064,0.90700006,1.3230001,0.57,0.87,98,96,19.467001,-6.268,18.43,0.314,1.8986284,0,nan,0.0,4,0,1,20,0
364844687,1693632508400335,366597874,1263435172,60191,77850,0.25,0.010620677,0.90800005,1.3280001,0.57,0.87,98,96,19.267,-2.9440002,19.041,0.41200003,1.7241887,0,nan,0.0,4,0,1,20,0
365250611,1693632508800335,366597804,1263436025,60006,77665,0.22000001,0.010913893,0.90900004,1.33,0.57,0.87,98,99,19.160002,-1.0350001,19.132,0.57100004,1.6248614,0,nan,0.0,4,0,1,20,0
365838618,1693632509400335,366597819,1263437307,59649,77308,0.18900001,0.010644239,0.90800005,1.3290001,0.57,0.87,98,99,19.055,1.733,18.976002,0.698,1.4797218,0,nan,0.0,4,0,1,20,0
366238633,1693632509800335,366597909,1263438143,59310,76970,0.19600001,0.009902125,0.90700006,1.33,0.57,0.87,98,82,18.650002,3.176,18.377,1.2040001,1.3996494,0,nan,0.0,4,0,1,20,0
366844613,1693632510400336,366598167,1263439343,58798,76458,0.18200001,0.009644166,0.901,1.3160001,0.59,0.87,98,82,18.436,6.1790004,17.37,0.91600007,1.2290355,0,nan,0.0,4,0,1,19,0
367228619,1693632510800336,366598428,1263440098,58440,76100,0.19800001,0.009570512,0.89900005,1.314,0.59,0.87,98,95,18.413,8.116,16.528,0.577,1.114348,0,nan,0.0,4,0,1,19,0
367844613,1693632511400336,366598924,1263441160,58130,75790,0.18900001,0.008993158,0.89400005,1.302,0.57,0.87,98,95,18.375,10.176001,15.300001,0.423,0.98386335,0,nan,0.0,4,0,1,20,0
368245612,1693632511800336,366599318,1263441811,57994,75654,0.208,0.008928581,0.89000005,1.296,0.57,0.87,98,96,18.182001,11.622001,13.982,0.045,0.8773243,0,nan,0.0,4,0,1,20,0
368845612,1693632512400336,366599994,1263442684,57754,75414,0.23400001,0.009007993,0.887,1.2930001,0.57,0.87,98,96,18.176,13.359,12.325001,0.13100001,0.74516356,0,nan,0.0,4,0,1,20,0
369240612,1693632512800336,366600494,1263443196,57644,75305,0.256,0.009375559,0.88600004,1.2930001,0.57,0.87,98,105,17.944,14.333001,10.797001,-0.17,0.6455973,0,nan,0.0,4,0,1,20,0
369832612,1693632513400336,366601311,1263443825,57832,75493,0.24300002,0.00868022,0.8880001,1.2930001,0.57,0.87,98,105,17.847,15.867001,8.17,-0.726,0.4755324,0,nan,0.0,4,0,1,20,0
370235611,1693632513800337,366601894,1263444156,58096,75757,0.273,0.009920103,0.88900006,1.294,0.59,0.87,98,96,17.756,16.349,6.9270005,-0.652,0.400741,0,nan,0.0,4,0,1,19,0
370839611,1693632514400337,366602793,1263444552,58235,75895,0.25800002,0.009362644,0.89000005,1.294,0.57,0.87,98,96,17.412,16.655,5.077,0.080000006,0.29586804,0,nan,0.0,4,0,1,20,0
371243612,1693632514800337,366603402,1263444743,58097,75758,0.272,0.008739736,0.89000005,1.2950001,0.57,0.87,98,94,17.304,16.976002,3.351,0.055000003,0.19487315,0,nan,0.0,4,0,1,20,0
371834619,1693632515400337,366604331,1263444869,58043,75703,0.259,0.009333497,0.892,1.2980001,0.57,0.87,98,94,17.287,17.284,0.328,-0.528,0.018995464,0,nan,0.0,4,0,1,20,0
372235647,1693632515800337,366604958,1263444855,58107,75768,0.261,0.009489878,0.892,1.3000001,0.59,0.87,98,75,17.209002,17.175001,-1.088,-0.231,6.2199388,0,nan,0.0,4,0,1,19,0
372839612,1693632516400337,366605883,1263444693,58152,75812,0.27800003,0.0106538385,0.89500004,1.3030001,0.59,0.87,98,75,17.292002,16.947,-3.436,0.012,6.0831738,0,nan,0.0,4,0,1,19,0
373234614,1693632516800337,366606487,1263444500,58194,75854,0.246,0.01057687,0.897,1.3060001,0.57,0.87,98,71,17.187,16.444,-4.999,-0.091000006,5.9880624,0,nan,0.0,4,0,1,20,0
373834630,1693632517400338,366607367,1263444087,58128,75788,0.23700002,0.011913616,0.89900005,1.3100001,0.57,0.87,98,71,17.295,15.716001,-7.2200003,0.13800001,5.852535,0,nan,0.0,4,0,1,20,0
374241612,1693632517800338,366607926,1263443729,58057,75717,0.26700002,0.012917006,0.901,1.315,0.57,0.87,98,88,17.388,14.974001,-8.838,-0.028,5.7499857,0,nan,0.0,4,0,1,20,0
374851612,1693632518400338,366608705,1263443067,57966,75626,0.24800001,0.015178255,0.90700006,1.325,0.57,0.87,98,88,17.527,13.6710005,-10.968,-0.023000002,5.6070704,0,nan,0.0,4,0,1,20,0
375249619,1693632518800338,366609182,1263442549,57879,75539,0.21400002,0.0116043445,0.90900004,1.3310001,0.57,0.87,98,91,17.575,12.682,-12.168,0.194,5.518468,0,nan,0.0,4,0,1,20,0
375842613,1693632519400338,366609816,1263441663,57724,75383,0.16800001,0.011102214,0.90500003,1.3280001,0.57,0.87,98,91,17.709002,10.811001,-14.026001,0.35500002,5.3690753,0,nan,0.0,4,0,1,20,0
376236614,1693632519800338,366610175,1263441005,57712,75371,0.16800001,0.009125453,0.90300006,1.3260001,0.57,0.87,98,99,17.817001,9.335,-15.176001,0.076000005,5.263823,0,nan,0.0,4,0,1,20,0
376841613,1693632520400339,366610613,1263439935,57736,75395,0.165,0.009392663,0.89900005,1.325,0.57,0.87,98,99,17.929,6.9280005,-16.536001,-0.037,5.1091104,0,nan,0.0,4,0,1,20,0
377243655,1693632520800339,366610833,1263439177,57765,75424,0.17500001,0.008707971,0.896,1.3240001,0.57,0.87,98,91,18.103,5.3970003,-17.28,-0.098000005,5.015104,0,nan,0.0,4,0,1,20,0
377839612,1693632521400339,366611051,1263437986,57839,75497,0.19000001,0.008654214,0.89400005,1.3260001,0.57,0.87,98,91,18.346,2.9610002,-18.105001,-0.027,4.8744698,0,nan,0.0,4,0,1,20,0
378235614,1693632521800339,366611123,1263437171,57775,75433,0.22200002,0.008928929,0.89300007,1.33,0.57,0.87,98,93,18.389,1.3620001,-18.339,0.22100002,4.786519,0,nan,0.0,4,0,1,20,0
378827614,1693632522400339,366611108,1263435930,57766,75425,0.21400002,0.008995775,0.89300007,1.3360001,0.63,0.94,98,93,18.608002,-1.5430001,-18.544,0.068,4.6293645,0,nan,0.0,4,0,1,18,0
379233614,1693632522800339,366611012,1263435105,57836,75494,0.22000001,0.009382715,0.89300007,1.342,0.63,0.94,98,96,18.812,-3.5170002,-18.480001,-0.275,4.5243034,0,nan,0.0,4,0,1,18,0
379833613,1693632523400339,366610745,1263433886,57855,75512,0.268,0.01039902,0.896,1.3520001,0.63,0.94,98,96,19.004002,-6.2530003,-17.946001,-0.15900001,4.3771353,0,nan,0.0,4,0,1,18,0
380224614,1693632523800340,366610484,1263433093,57925,75582,0.261,0.01012256,0.89900005,1.36,0.61,0.94,98,94,19.308,-8.052,-17.549002,-0.28500003,4.2821975,0,nan,0.0,4,0,1,19,0
380830617,1693632524400340,366609968,1263431957,58135,75792,0.284,0.012071569,0.90400004,1.3700001,0.61,0.94,98,94,19.507002,-10.807,-16.239,-0.52000004,4.125192,0,nan,0.0,4,0,1,19,0
381243612,1693632524800340,366609548,1263431248,58150,75807,0.259,0.010751926,0.90800005,1.3790001,0.61,0.94,98,94,19.640001,-12.375001,-15.250001,0.09900001,4.0306964,0,nan,0.0,4,0,1,19,0
