timestamp,timestamp_sample,ref_timestamp,ref_lat,ref_lon,x,y,z,delta_xy[0],delta_xy[1],delta_z,vx,vy,vz,z_deriv,delta_vxy[0],delta_vxy[1],delta_vz,ax,ay,az,heading,delta_heading,ref_alt,dist_bottom,eph,epv,evh,evv,vxy_max,vz_max,hagl_min,hagl_max,xy_valid,z_valid,v_xy_valid,v_z_valid,xy_reset_counter,z_reset_counter,vxy_reset_counter,vz_reset_counter,heading_reset_counter,heading_good_for_control,xy_global,z_global,dist_bottom_valid,dist_bottom_sensor_bitfield
217873841,217873292,19482731,36.660603099999996,126.342033,13.316564,0.65682954,4.413079,0.0007660138,0.002327696,0.0,0.015680892,-0.013536229,0.0742714,0.023203565,0.11544465,-0.07187036,0.17246991,0.008679307,-0.00089929695,-0.007235278,1.0879443,-0.0028464322,13.965662,0.1,0.35274762,0.3915342,0.13737038,0.10476874,inf,inf,inf,inf,1,1,1,1,2,0,2,1,3,0,1,1,1,0
218373650,218373333,19482731,36.660603099999996,126.342033,13.335098,0.654493,4.4251146,0.0007660138,0.002327696,0.0,0.018931266,-0.013581608,0.07408182,0.023766756,0.11544465,-0.07187036,0.17246991,-0.016083376,0.031814557,0.0009740985,1.0893881,-0.0028464322,13.965662,0.1,0.35972846,0.39371866,0.141782,0.10629073,inf,inf,inf,inf,1,1,1,1,2,0,2,1,3,0,1,1,1,0
218873834,218873374,19482731,36.660603099999996,126.342033,13.351857,0.65619785,4.4442205,0.0007660138,0.002327696,0.0,0.020028623,-0.010416401,0.07562936,0.031136949,0.11544465,-0.07187036,0.17246991,0.019596154,0.00434538,-0.02632825,1.090632,-0.0028464322,13.965662,0.1,0.35046566,0.3916972,0.1371583,0.10484737,inf,inf,inf,inf,1,1,1,1,2,0,2,1,3,0,1,1,1,0
219373798,219373415,19482731,36.660603099999996,126.342033,13.356917,0.6594078,4.459434,0.0007660138,0.002327696,0.0,0.010442993,-0.005738021,0.07656786,0.03134109,0.11544465,-0.07187036,0.17246991,-0.084074825,0.09052809,0.16388908,1.0919642,-0.0028464322,13.965662,0.1,0.35743305,0.39403588,0.14163391,0.10637824,inf,inf,inf,inf,1,1,1,1,2,0,2,1,3,0,1,1,1,0
219874039,219873456,19482731,36.660603099999996,126.342033,13.365907,0.654214,4.477337,0.0007660138,0.002327696,0.0,-0.0009530401,-0.004154622,0.07787203,0.033808805,0.11544465,-0.07187036,0.17246991,-0.12475066,0.026050571,-0.08271239,1.093721,-0.0028464322,13.965662,0.1,0.3481218,0.3921219,0.13689265,0.10493401,inf,inf,inf,inf,1,1,1,1,2,0,2,1,3,0,1,1,1,0
220373855,220373498,19482731,36.660603099999996,126.342033,13.372712,0.6430231,4.475946,0.0007660138,0.002327696,0.0,-0.012633887,-0.0069668256,0.072227456,0.015108645,0.11544465,-0.07187036,0.17246991,0.117579676,-0.23751377,-0.037337124,1.097273,-0.0028464322,13.965662,0.1,0.355118,0.39209908,0.14138377,0.1062034,inf,inf,inf,inf,1,1,1,1,2,0,2,1,3,0,1,1,1,0
220873977,220873539,19482731,36.660603099999996,126.342033,13.38106,0.6408502,4.482983,0.0007660138,0.002327696,0.0,-0.005719219,-0.005136963,0.07480093,0.01783644,0.11544465,-0.07187036,0.17246991,0.12520969,0.39791492,0.53098375,1.1004018,-0.0028464322,13.965662,0.1,0.34576973,0.39027986,0.13666362,0.1047677,inf,inf,inf,inf,1,1,1,1,2,0,2,1,3,0,1,1,1,0
221373957,221373581,19482731,36.660603099999996,126.342033,13.398512,0.65036476,4.474364,0.0007660138,0.002327696,0.0,-0.00086285477,-0.005002261,0.06112062,-0.007429272,0.11544465,-0.07187036,0.17246991,-0.46049967,-0.9064577,-0.89150953,1.1028035,-0.0028464322,13.965662,0.10342932,0.3527873,0.392872,0.14117107,0.10632213,inf,inf,inf,inf,1,1,1,1,2,0,2,1,3,0,1,1,1,0
221874078,221873624,19482731,36.660603099999996,126.342033,13.408149,0.6583677,4.4535313,0.0007660138,0.002327696,0.0,-0.00034981544,-0.006730799,0.05317,-0.023306875,0.11544465,-0.07187036,0.17246991,-1.0859046,0.32883945,-0.7287918,1.1091999,-0.0028464322,13.965662,0.124261856,0.34356883,0.3911167,0.13655089,0.104909174,inf,inf,inf,inf,1,1,1,1,2,0,2,1,3,0,1,1,1,0
222374128,222373665,19482731,36.660603099999996,126.342033,13.408801,0.652534,4.4374976,0.0007660138,0.002327696,0.0,-0.002598799,0.000991898,0.07089633,-0.010385353,0.11544465,-0.07187036,0.17246991,-0.16746536,0.90761286,1.4997244,1.1495872,-0.0028464322,13.965662,0.1402955,0.35037723,0.39123064,0.14066909,0.106131665,inf,inf,inf,inf,1,1,1,1,2,0,2,1,3,0,1,1,1,0
222874187,222873707,19482731,36.660603099999996,126.342033,13.4219475,0.6401773,4.4359984,0.0007660138,0.002327696,0.0,0.005795508,-0.06977022,0.057414692,-0.013556754,0.11544465,-0.07187036,0.17246991,-0.11892916,-2.0426857,-3.8944807,1.1875324,-0.0028464322,13.965662,0.14179468,0.34097448,0.38952225,0.13592069,0.104681924,inf,inf,inf,inf,1,1,1,1,2,0,2,1,3,0,1,1,1,0
223374129,223373749,19482731,36.660603099999996,126.342033,13.454373,0.58391714,4.3839192,0.0007660138,0.002327696,0.0,0.18544646,-0.23564355,-0.08536705,-0.18761529,0.11544465,-0.07187036,0.17246991,1.1018267,-0.5280815,0.24934554,1.184335,-0.0028464322,13.965662,0.19387388,0.34811154,0.392113,0.14076367,0.106211744,inf,inf,inf,inf,1,1,1,1,2,0,2,1,3,0,1,1,1,0
223874271,223873792,19482731,36.660603099999996,126.342033,13.495944,0.5048085,4.226096,0.0007660138,0.002327696,0.0,-0.10554666,-0.121917,-0.26933327,-0.37289953,0.11544465,-0.07187036,0.17246991,0.16000128,-0.75107706,0.8586281,1.1720885,-0.0028464322,13.965662,0.35169697,0.33887327,0.39043477,0.13696912,0.104782745,inf,inf,inf,inf,1,1,1,1,2,0,2,1,3,0,1,1,1,0
224374203,224373834,19482731,36.660603099999996,126.342033,13.469417,0.44993564,4.0381413,0.0007660138,0.002327696,0.0,-0.15283296,-0.06813452,-0.39292932,-0.47755823,0.11544465,-0.07187036,0.17246991,-0.12462076,-0.18662935,-0.86173636,1.1528416,-0.0028464322,13.965662,0.5396519,0.3461077,0.39311174,0.14153847,0.10633701,inf,inf,inf,inf,1,1,1,1,2,0,2,1,3,0,1,1,0,0
224874487,224873877,19482731,36.660603099999996,126.342033,13.405638,0.46352828,3.7860394,0.0007660138,0.002327696,0.0,-0.15090929,0.05330421,-0.52514344,-0.60289454,0.11544465,-0.07187036,0.17246991,1.309606,0.3439436,-1.5532525,1.1515664,-0.0028464322,13.965662,0.79175377,0.33676594,0.38902488,0.1368693,0.10463195,inf,inf,inf,inf,1,1,1,1,2,0,2,1,3,0,1,1,0,0
225374350,225373919,19482731,36.660603099999996,126.342033,13.3563595,0.4974504,3.480338,0.0007660138,0.002327696,0.0,-0.17454383,0.0777963,-0.60116106,-0.66621405,0.11544465,-0.07187036,0.17246991,-0.48029473,0.87871635,0.29518583,1.1510336,-0.0028464322,13.965662,1.097455,0.34402135,0.3917146,0.14124343,0.10617264,inf,inf,inf,inf,1,1,1,1,2,0,2,1,3,0,1,1,0,0
225874376,225873962,19482731,36.660603099999996,126.342033,13.296042,0.58110595,3.1487968,0.0007660138,0.002327696,0.0,-0.15913251,0.12152594,-0.6825917,-0.72536707,0.11544465,-0.07187036,0.17246991,-1.355614,0.17882387,0.65293014,1.1369498,-0.0028464322,13.965662,1.4289963,0.33480784,0.39012173,0.13658752,0.10476899,inf,inf,inf,inf,1,1,1,1,2,0,2,1,3,0,1,1,0,0
226374432,226374005,19482731,36.660603099999996,126.342033,13.204249,0.66483796,2.7646534,0.0007660138,0.002327696,0.0,-0.12755086,0.11780157,-0.8043764,-0.8442123,0.11544465,-0.07187036,0.17246991,0.5383371,0.22878027,-0.804498,1.015219,-0.115677364,13.965662,1.8131397,0.34208402,0.3928556,0.13737816,0.106318936,inf,inf,inf,inf,1,1,1,1,2,0,2,1,4,0,1,1,0,0
226874429,226874048,19482731,36.660603099999996,126.342033,13.159887,0.74102837,2.3333902,0.0007660138,0.002327696,0.0,-0.013814175,0.057328284,-0.8556568,-0.89301634,0.11544465,-0.07187036,0.17246991,-0.29077247,-0.15066692,-1.9402244,1.0209543,-0.115677364,13.965662,2.244403,0.33297464,0.38884586,0.12543076,0.10465954,inf,inf,inf,inf,1,1,1,1,2,0,2,1,4,0,1,1,0,0
227374472,227374091,19482731,36.660603099999996,126.342033,13.160369,0.8087072,1.8787483,0.0007660138,0.002327696,0.0,0.0452587,0.0002597034,-0.89165235,-0.9336046,0.11544465,-0.07187036,0.17246991,-0.51451886,-0.3303942,-1.113501,1.0214239,-0.115677364,13.965662,2.6990447,0.33892927,0.39157322,0.13025978,0.10619714,inf,inf,inf,inf,1,1,1,1,2,0,2,1,4,1,1,1,0,0
227874539,227874134,19482731,36.660603099999996,126.342033,13.178394,0.82659334,1.3911711,0.0007660138,0.002327696,0.0,0.062259834,-0.02786325,-0.9434221,-0.9924303,0.11544465,-0.07187036,0.17246991,-2.3027194,-1.0987413,-1.5850306,1.0474141,-0.115677364,13.965662,3.1866221,0.3297444,0.39000392,0.13174057,0.10479355,inf,inf,inf,inf,1,1,1,1,2,0,2,1,4,1,1,1,0,0
228374559,228374177,19482731,36.660603099999996,126.342033,13.266236,0.8662682,0.9225604,0.0007660138,0.002327696,0.0,0.10431494,-0.038157526,-0.95071286,-0.97185296,0.11544465,-0.07187036,0.17246991,-0.46625763,-0.77394104,-0.8935993,1.0928948,-0.115677364,13.965662,3.6552327,0.3356619,0.3927208,0.14186573,0.10633212,inf,inf,inf,inf,1,1,1,1,2,0,2,1,4,1,1,1,0,0
228874618,228874221,19482731,36.660603099999996,126.342033,13.335083,0.8722823,0.40531173,0.0007660138,0.002327696,0.0,0.088583104,-0.06960038,-0.9819167,-1.0278839,0.11544465,-0.07187036,0.17246991,-1.8670452,-0.089865796,-1.4232464,1.1343373,-0.115677364,13.965662,4.1724815,0.32680944,0.39097315,0.14121544,0.10484612,inf,inf,inf,inf,1,1,1,1,2,0,2,1,4,1,1,1,0,0
229374661,229374264,19482731,36.660603099999996,126.342033,13.414821,0.8598089,-0.1381905,0.0007660138,0.002327696,0.0,0.11811193,-0.08271961,-1.0018014,-1.0679088,0.11544465,-0.07187036,0.17246991,-0.7757173,-1.193462,-2.62111,1.1559141,-0.115677364,13.965662,4.7159834,0.33363417,0.39579666,0.14871989,0.106568575,inf,inf,inf,inf,1,1,1,1,2,0,2,1,4,1,1,1,0,0
229874709,229874308,19482731,36.660603099999996,126.342033,13.4748125,0.79772854,-0.67121303,0.0007660138,0.002327696,0.0,0.091885865,-0.14540966,-1.0001111,-1.0651501,0.11544465,-0.07187036,0.17246991,-1.594267,-0.5217436,-0.86394405,1.165253,-0.115677364,13.965662,5.2490063,0.32523477,0.39364263,0.14429542,0.105051965,inf,inf,inf,inf,1,1,1,1,2,0,2,1,4,1,1,1,0,0
230374793,230374352,19482731,36.660603099999996,126.342033,13.552792,0.7231139,-1.1667111,0.0007660138,0.002327696,0.0,0.03273566,-0.13800251,-1.0009632,-1.0361419,0.11544465,-0.07187036,0.17246991,-0.76045924,0.8445788,1.0337018,1.1731416,-0.115677364,13.965662,5.744504,0.33278316,0.39587986,0.14892174,0.106505975,inf,inf,inf,inf,1,1,1,1,2,0,2,1,4,1,1,1,0,0
230874798,230874396,19482731,36.660603099999996,126.342033,13.583321,0.65488344,-1.6663876,0.0007660138,0.002327696,0.0,-0.049634036,-0.10670948,-1.020853,-1.0416538,0.11544465,-0.07187036,0.17246991,0.30168033,-0.0678272,-1.2132195,1.1791852,-0.115677364,13.965662,6.2441807,0.3242262,0.39132527,0.14260495,0.104757965,inf,inf,inf,inf,1,1,1,1,2,0,2,1,4,1,1,1,0,0
231374900,231374440,19482731,36.660603099999996,126.342033,13.553117,0.6356293,-2.1843,0.0007660138,0.002327696,0.0,-0.14201419,-0.0898701,-1.001734,-1.0289203,0.11544465,-0.07187036,0.17246991,0.32676223,0.2063496,-0.1342146,1.1843886,-0.115677364,13.965662,6.762093,0.33213332,0.39359358,0.1460304,0.106240064,inf,inf,inf,inf,1,1,1,1,2,0,2,1,4,1,1,1,0,0
231874973,231874484,19482731,36.660603099999996,126.342033,13.458851,0.5987239,-2.7094123,0.0007660138,0.002327696,0.0,-0.15407558,-0.065101966,-0.99616826,-1.0230286,0.11544465,-0.07187036,0.17246991,0.04382752,0.18031,2.039877,1.1875986,-0.115677364,13.965662,7.2872057,0.32343155,0.39151704,0.13940479,0.10476092,inf,inf,inf,inf,1,1,1,1,2,0,2,1,4,1,1,1,0,0
232374969,232374528,19482731,36.660603099999996,126.342033,13.386035,0.53771126,-3.2237358,0.0007660138,0.002327696,0.0,-0.14374393,-0.030025596,-1.0221846,-1.043028,0.11544465,-0.07187036,0.17246991,0.44925627,0.31307983,1.6641567,1.1833068,-0.115677364,13.965662,7.801529,0.33122894,0.3937205,0.14256306,0.10622816,inf,inf,inf,inf,1,1,1,1,2,0,2,1,4,1,1,1,0,0
232874969,232874573,19482731,36.660603099999996,126.342033,13.32192,0.4953068,-3.7480254,0.0007660138,0.002327696,0.0,-0.12138348,0.016837727,-1.0221817,-1.0482203,0.11544465,-0.07187036,0.17246991,0.04172243,0.06503863,-1.2473038,1.1586362,-0.115677364,13.965662,8.325819,0.32225573,0.39163387,0.13648432,0.10474602,inf,inf,inf,inf,1,1,1,1,2,0,2,1,4,1,1,1,0,0
233375003,233374618,19482731,36.660603099999996,126.342033,13.241507,0.46491325,-4.2845335,0.0007660138,0.002327696,0.0,-0.11024953,0.07240157,-1.0133969,-1.0512064,0.11544465,-0.07187036,0.17246991,0.56957245,-0.18054168,-1.7463955,1.1332805,-0.115677364,13.965662,8.862327,0.33000267,0.39393637,0.14020836,0.10626027,inf,inf,inf,inf,1,1,1,1,2,0,2,1,4,1,1,1,0,0
233875081,233874662,19482731,36.660603099999996,126.342033,13.181385,0.48716804,-4.740885,0.0007660138,0.002327696,0.0,-0.07711019,0.14597051,-0.9957958,-0.9780466,0.11544465,-0.07187036,0.17246991,-0.07645071,0.48726988,0.28052497,1.11415,-0.115677364,13.965662,9.318678,0.32122743,0.39198065,0.13505077,0.10483269,inf,inf,inf,inf,1,1,1,1,2,0,2,1,4,1,1,1,0,0
234375081,234374706,19482731,36.660603099999996,126.342033,13.169603,0.5380766,-5.150817,0.0007660138,0.002327696,0.0,-0.004438614,0.17680892,-1.009406,-0.92627627,0.11544465,-0.07187036,0.17246991,-0.28843275,-0.425574,-2.2559452,1.098144,-0.115677364,13.965662,9.72861,0.32901415,0.3943832,0.1393216,0.10636272,inf,inf,inf,inf,1,1,1,1,2,0,2,1,4,1,1,1,0,0
234875132,234874751,19482731,36.660603099999996,126.342033,13.205258,0.6020262,-5.5580792,0.0007660138,0.002327696,0.0,0.049158894,0.15275879,-1.006534,-0.88628554,0.11544465,-0.07187036,0.17246991,-0.99718,-0.5718271,-0.80445355,1.0902423,-0.115677364,13.965662,10.135872,0.32021183,0.39242682,0.13467053,0.10491159,inf,inf,inf,inf,1,1,1,1,2,0,2,1,4,1,1,1,0,0
235375234,235374796,19482731,36.660603099999996,126.342033,13.246107,0.6743904,-6.066289,0.0007660138,0.002327696,0.0,0.069034845,0.106047526,-1.6349263,-1.4944215,0.11544465,-0.07187036,0.17246991,-0.100711524,0.38651204,-0.5634735,1.091024,-0.115677364,13.965662,10.644082,0.32802528,0.39241993,0.14057107,0.106194526,inf,inf,inf,inf,1,1,1,1,2,0,2,1,4,1,1,1,0,0
235875224,235874841,19482731,36.660603099999996,126.342033,13.293724,0.71366465,-7.1038413,0.0007660138,0.002327696,0.0,0.11013657,0.004852203,-2.8326674,-2.6687424,0.11544465,-0.07187036,0.17246991,1.5675359,-0.6063248,-1.7186254,1.0881742,-0.115677364,13.965662,11.681635,0.3192013,0.39056188,0.13974507,0.10476398,inf,inf,inf,inf,1,1,1,1,2,0,2,1,4,1,1,1,0,0
236375259,236374886,19482731,36.660603099999996,126.342033,13.368551,0.7235158,-8.47396,0.0007660138,0.002327696,0.0,0.11151648,-0.041970707,-2.8326428,-2.6749673,0.11544465,-0.07187036,0.17246991,-0.9239212,-0.38983545,1.0842794,1.0903342,-0.115677364,13.965662,13.051753,0.32721177,0.39301372,0.14386009,0.10628482,inf,inf,inf,inf,1,1,1,1,2,0,2,1,4,1,1,1,0,0
236875375,236874932,19482731,36.660603099999996,126.342033,13.428977,0.7274835,-9.845725,0.0007660138,0.002327696,0.0,0.049801387,-0.045164123,-2.8144894,-2.708725,0.11544465,-0.07187036,0.17246991,0.22228535,-1.2138137,-2.7448432,1.1119661,-0.115677364,13.965662,14.423518,0.31833386,0.3911602,0.1373246,0.10483387,inf,inf,inf,inf,1,1,1,1,2,0,2,1,4,1,1,1,0,0
237375357,237374977,19482731,36.660603099999996,126.342033,13.446339,0.70571715,-11.265844,0.0007660138,0.002327696,0.0,0.006200881,-0.09348129,-2.8297706,-2.780744,0.11544465,-0.07187036,0.17246991,0.2012308,0.09135029,-0.13753907,1.1444845,-0.115677364,13.965662,15.843637,0.32642543,0.3937238,0.14139259,0.10640802,inf,inf,inf,inf,1,1,1,1,2,0,2,1,4,1,1,1,0,0
237875410,237875022,19482731,36.660603099999996,126.342033,13.430502,0.66833735,-12.7234745,0.0007660138,0.002327696,0.0,-0.083228126,-0.052555382,-2.8046472,-2.812715,0.11544465,-0.07187036,0.17246991,0.2676708,-0.14682716,0.5372011,1.1578686,-0.115677364,13.965662,17.301268,0.31759065,0.39196324,0.13605991,0.1049873,inf,inf,inf,inf,1,1,1,1,2,0,2,1,4,1,1,1,0,0
238375528,238375070,19482731,36.660603099999996,126.342033,13.416196,0.64196455,-14.189657,0.0007660138,0.002327696,0.0,-0.07061011,-0.04915796,-2.785682,-2.842089,0.11544465,-0.07187036,0.17246991,-1.4955049,-0.54780835,-1.3215642,1.1581542,-0.115677364,13.965662,18.76745,0.32538813,0.39202148,0.13999735,0.106236145,inf,inf,inf,inf,1,1,1,1,2,0,2,1,4,1,1,1,0,0
238875534,238875114,19482731,36.660603099999996,126.342033,13.403628,0.6405263,-15.598856,0.0007660138,0.002327696,0.0,-0.056786753,-0.023909073,-2.81274,-2.8500857,0.11544465,-0.07187036,0.17246991,0.19283138,-0.26604778,0.49477556,1.1661862,-0.115677364,13.965662,20.17665,0.31656498,0.39026037,0.13524327,0.10479974,inf,inf,inf,inf,1,1,1,1,2,0,2,1,4,1,1,1,0,0
239375569,239375159,19482731,36.660603099999996,126.342033,13.384201,0.6354137,-17.070024,0.0007660138,0.002327696,0.0,-0.087157965,-0.0028005575,-2.8507607,-2.9091744,0.11544465,-0.07187036,0.17246991,-0.18360418,-0.5637807,1.7956887,1.1798401,-0.115677364,13.965662,21.647818,0.32441714,0.39284372,0.13981202,0.10632522,inf,inf,inf,inf,1,1,1,1,2,0,2,1,4,1,1,1,0,0
239875623,239875205,19482731,36.660603099999996,126.342033,13.356668,0.6126659,-18.572823,0.0007660138,0.002327696,0.0,-0.07830748,0.024857856,-2.9245417,-3.0009298,0.11544465,-0.07187036,0.17246991,1.3509811,-1.0842314,0.3430893,1.1966219,-0.115677364,13.965662,23.150616,0.3157039,0.39111614,0.13537939,0.10489137,inf,inf,inf,inf,1,1,1,1,2,0,2,1,4,1,1,1,0,0
240375742,240375251,19482731,36.660603099999996,126.342033,13.315158,0.6194892,-20.04502,0.0007660138,0.002327696,0.0,-0.0752289,0.06681935,-2.9340994,-2.978923,0.11544465,-0.07187036,0.17246991,0.7729492,-0.3072205,0.901413,1.2098923,-0.115677364,13.965662,24.622812,0.3236588,0.3912756,0.13988319,0.10615309,inf,inf,inf,inf,1,1,1,1,2,0,2,1,4,1,1,1,0,0
240875715,240875297,19482731,36.660603099999996,126.342033,13.284193,0.6529121,-21.532,0.0007660138,0.002327696,0.0,-0.040476985,0.10001205,-2.9374547,-2.9747796,0.11544465,-0.07187036,0.17246991,0.5773112,0.3875365,-0.7253597,1.222023,-0.115677364,13.965662,26.109793,0.31475016,0.38957328,0.13504323,0.10468113,inf,inf,inf,inf,1,1,1,1,2,0,2,1,4,1,1,1,0,0
241375879,241375343,19482731,36.660603099999996,126.342033,13.283003,0.6994969,-22.991098,0.0007660138,0.002327696,0.0,0.002477192,0.12064259,-2.9688919,-2.9768572,0.11544465,-0.07187036,0.17246991,1.311184,0.05952801,-0.30501774,1.228616,-0.115677364,13.965662,27.568892,0.32273892,0.39222804,0.13968553,0.10622232,inf,inf,inf,inf,1,1,1,1,2,0,2,1,4,1,1,1,0,0
241875792,241875390,19482731,36.660603099999996,126.342033,13.33629,0.76291287,-24.471163,0.0007660138,0.002327696,0.0,0.021111103,0.099300265,-2.976083,-2.9802117,0.11544465,-0.07187036,0.17246991,-0.56873965,-0.094483264,2.9709468,1.2306842,-0.115677364,13.965662,29.048956,0.3140648,0.39056256,0.13510641,0.104795836,inf,inf,inf,inf,1,1,1,1,2,0,2,1,4,1,1,1,0,0
242375895,242375436,19482731,36.660603099999996,126.342033,13.388547,0.7993983,-25.962486,0.0007660138,0.002327696,0.0,0.025642911,0.0105335275,-2.970689,-2.9734879,0.11544465,-0.07187036,0.17246991,-1.3903536,0.37141734,-0.56770986,1.2400275,-0.115677364,13.965662,30.54028,0.32199293,0.3931152,0.13955487,0.10629476,inf,inf,inf,inf,1,1,1,1,2,0,2,1,4,1,1,1,0,0
242875907,242875483,19482731,36.660603099999996,126.342033,13.44005,0.80336434,-27.41218,0.0007660138,0.002327696,0.0,0.012737162,-0.044609178,-2.9861183,-2.9561107,0.11544465,-0.07187036,0.17246991,-0.28598425,0.038239278,0.79834765,1.2396946,-0.115677364,13.965662,31.989973,0.3133189,0.38895938,0.1349661,0.104598284,inf,inf,inf,inf,1,1,1,1,2,0,2,1,4,1,1,1,0,0
243376015,243375529,19482731,36.660603099999996,126.342033,13.47189,0.77478284,-28.889086,0.0007660138,0.002327696,0.0,-0.049491744,-0.09784539,-2.9907856,-2.9593732,0.11544465,-0.07187036,0.17246991,0.98200315,0.17366226,0.23657814,1.2255592,-0.115677364,13.965662,33.46688,0.32134882,0.39163405,0.13952596,0.1061484,inf,inf,inf,inf,1,1,1,1,2,0,2,1,4,1,1,1,0,0
243875958,243875575,19482731,36.660603099999996,126.342033,13.426831,0.69850725,-30.356842,0.0007660138,0.002327696,0.0,-0.109735094,-0.12029085,-2.9775848,-2.938587,0.11544465,-0.07187036,0.17246991,-0.016282864,0.43185478,0.18268175,1.2153175,-0.115677364,13.965662,34.934635,0.312739,0.3900233,0.13484596,0.104750656,inf,inf,inf,inf,1,1,1,1,2,0,2,1,4,1,1,1,0,0
244376039,244375622,19482731,36.660603099999996,126.342033,13.35713,0.6179607,-31.802296,0.0007660138,0.002327696,0.0,-0.13711326,-0.060547844,-2.9820027,-2.925515,0.11544465,-0.07187036,0.17246991,-0.42401406,0.5016902,2.348788,1.2179092,-0.115677364,13.965662,36.38009,0.32079372,0.3927393,0.1393,0.10630105,inf,inf,inf,inf,1,1,1,1,2,0,2,1,4,1,1,1,0,0
244866279,244865667,19482731,36.660603099999996,126.342033,13.284987,0.5779081,-33.239555,0.0007660138,0.002327696,0.0,-0.13988484,0.020847674,-2.9845984,-2.931647,0.11544465,-0.07187036,0.17246991,0.9683542,0.7630846,0.66585493,1.2233808,-0.115677364,13.965662,37.81735,0.31129238,0.3904631,0.13420653,0.10468336,inf,inf,inf,inf,1,1,1,1,2,0,2,1,4,1,1,1,0,0
245376139,245375715,19482731,36.660603099999996,126.342033,13.212339,0.5949894,-34.73772,0.0007660138,0.002327696,0.0,-0.11650627,0.117614955,-2.9817157,-2.9262772,0.11544465,-0.07187036,0.17246991,0.42491728,1.1023742,0.22439536,1.2287285,-0.115677364,13.965662,39.315514,0.3203054,0.39145604,0.13923422,0.10619837,inf,inf,inf,inf,1,1,1,1,2,0,2,1,4,1,1,1,0,0
245876139,245875762,19482731,36.660603099999996,126.342033,13.132855,0.6562719,-36.17683,0.0007660138,0.002327696,0.0,-0.0868502,0.16644652,-2.9790626,-2.9025326,0.11544465,-0.07187036,0.17246991,-0.1588396,-0.09381426,2.0468774,1.2385075,-0.115677364,13.965662,40.754623,0.31192675,0.3899278,0.13476135,0.10483296,inf,inf,inf,inf,1,1,1,1,2,0,2,1,4,1,1,1,0,0
246376248,246375809,19482731,36.660603099999996,126.342033,13.102657,0.75416267,-37.597195,0.0007660138,0.002327696,0.0,0.011521045,0.19061993,-2.9779763,-2.8769796,0.11544465,-0.07187036,0.17246991,-0.6317399,-0.8025144,1.2186089,1.2413911,-0.115677364,13.965662,42.174988,0.32014573,0.39272,0.13924578,0.106391676,inf,inf,inf,inf,1,1,1,1,2,0,2,1,4,1,1,1,0,0
246876258,246875855,19482731,36.660603099999996,126.342033,13.113971,0.85139316,-39.014748,0.0007660138,0.002327696,0.0,0.080907956,0.16541982,-2.8047416,-2.705733,0.11544465,-0.07187036,0.17246991,-1.7206873,-0.9274961,0.45853713,1.2397121,-0.115677364,13.965662,43.59254,0.3115717,0.3887365,0.1342537,0.1047126,inf,inf,inf,inf,1,1,1,1,2,0,2,1,4,1,1,1,0,0
247376310,247375902,19482731,36.660603099999996,126.342033,13.190103,0.9525602,-40.410732,0.0007660138,0.002327696,0.0,0.17548844,0.103074506,-2.7699332,-2.713958,0.11544465,-0.07187036,0.17246991,0.17447005,-0.29719824,0.54808736,1.2315834,-0.115677364,13.965662,44.988525,0.3197579,0.39151415,0.13849312,0.10626243,inf,inf,inf,inf,1,1,1,1,2,0,2,1,4,1,1,1,0,0
247876340,247875949,19482731,36.660603099999996,126.342033,13.321348,1.0138328,-41.642757,0.0007660138,0.002327696,0.0,0.23789328,-0.027119704,-2.1965582,-2.1553109,0.11544465,-0.07187036,0.17246991,0.78436214,-0.29152393,-0.012889895,1.2285786,-0.115677364,13.965662,46.22055,0.3113872,0.38997772,0.13270772,0.104876034,inf,inf,inf,inf,1,1,1,1,2,0,2,1,4,1,1,1,0,0
248366349,248365995,19482731,36.660603099999996,126.342033,13.464952,0.9982624,-42.592503,0.0007660138,0.002327696,0.0,0.19138107,-0.14982757,-1.7363976,-1.7006528,0.11544465,-0.07187036,0.17246991,0.7765162,-0.8650103,-0.17790613,1.2319645,-0.115677364,13.965662,47.170296,0.31854823,0.39206204,0.13556373,0.10620574,inf,inf,inf,inf,1,1,1,1,2,0,2,1,4,1,1,1,0,0
248876456,248876043,19482731,36.660603099999996,126.342033,13.574411,0.90059894,-43.35447,0.0007660138,0.002327696,0.0,0.09038796,-0.26042053,-1.297138,-1.2677207,0.11544465,-0.07187036,0.17246991,-0.77640146,0.40660763,1.9753642,1.2420418,-0.115677364,13.965662,47.932262,0.31083345,0.39112905,0.13110954,0.10496344,inf,inf,inf,inf,1,1,1,1,2,0,2,1,4,1,1,1,0,0
249376513,249376090,19482731,36.660603099999996,126.342033,13.630787,0.7403426,-43.891586,0.0007660138,0.002327696,0.0,-0.038721845,-0.32624498,-1.0096468,-0.9605138,0.11544465,-0.07187036,0.17246991,-0.02112371,-0.86219126,0.21540558,1.2577964,-0.115677364,13.965662,48.46938,0.3187179,0.3913606,0.13547415,0.10620985,inf,inf,inf,inf,1,1,1,1,2,0,2,1,4,1,1,1,0,0
249876642,249876137,19482731,36.660603099999996,126.342033,13.576749,0.6018308,-44.328766,0.0007660138,0.002327696,0.0,-0.17786528,-0.28290173,-0.78376526,-0.74635667,0.11544465,-0.07187036,0.17246991,0.76449066,1.0406339,1.0975683,1.2787158,-0.115677364,13.965662,48.90656,0.31021798,0.3896542,0.13161612,0.10476599,inf,inf,inf,inf,1,1,1,1,2,0,2,1,4,1,1,1,0,0
250376562,250376184,19482731,36.660603099999996,126.342033,13.464065,0.46250984,-44.662033,0.0007660138,0.002327696,0.0,-0.24652813,-0.20732376,-0.58324194,-0.5534533,0.11544465,-0.07187036,0.17246991,0.27094725,-0.4119926,-0.25115007,1.3018363,-0.115677364,13.965662,49.239826,0.31830502,0.39225402,0.13630687,0.106277846,inf,inf,inf,inf,1,1,1,1,2,0,2,1,4,1,1,1,0,0
250876622,250876232,19482731,36.660603099999996,126.342033,13.322234,0.35568485,-44.894997,0.0007660138,0.002327696,0.0,-0.29510224,-0.058920126,-0.44952533,-0.4069054,0.11544465,-0.07187036,0.17246991,0.3382435,-0.51700604,-1.2533404,1.3238367,-0.115677364,13.965662,49.47279,0.30996835,0.39052343,0.13244627,0.10482362,inf,inf,inf,inf,1,1,1,1,2,0,2,1,4,1,1,1,0,0
251376639,251376279,19482731,36.660603099999996,126.342033,13.165088,0.29448673,-45.053455,0.0007660138,0.002327696,0.0,-0.41305143,-0.20278624,-0.31573367,-0.23912391,0.11544465,-0.07187036,0.17246991,-2.3738837,-0.8168143,1.8061918,1.3521726,-0.115677364,13.965662,49.63125,0.31816822,0.39315438,0.13758981,0.10633654,inf,inf,inf,inf,1,1,1,1,2,0,2,1,4,1,1,1,0,0
251866853,251866325,19482731,36.660603099999996,126.342033,12.816196,0.013704634,-45.123436,0.0007660138,0.002327696,0.0,-1.0480698,-0.8450192,-0.2351967,-0.15123338,0.11544465,-0.07187036,0.17246991,-0.22785284,-0.8426756,1.0705551,1.3941009,-0.115677364,13.965662,49.70123,0.3091238,0.39072242,0.13370635,0.104640484,inf,inf,inf,inf,1,1,1,1,2,0,2,1,4,1,1,1,0,0
252366794,252366373,19482731,36.660603099999996,126.342033,12.389226,-0.4257056,-45.22104,0.0007660138,0.002327696,0.0,-0.98178476,-0.696278,-0.3033519,-0.21921504,0.11544465,-0.07187036,0.17246991,1.7695018,1.0223241,-2.138126,1.4368294,-0.115677364,13.965662,49.798832,0.31759486,0.39330775,0.13879086,0.106168084,inf,inf,inf,inf,1,1,1,1,2,0,2,1,4,1,1,1,0,0
252876811,252876421,19482731,36.660603099999996,126.342033,12.005159,-0.71314013,-45.292393,0.0007660138,0.002327696,0.0,-0.77098274,-0.16700658,-0.20275234,-0.10995566,0.11544465,-0.07187036,0.17246991,-1.4723635,-0.20449677,-0.9066898,1.4707929,-0.115677364,13.965662,49.870186,0.31017324,0.38976994,0.13430843,0.104555935,inf,inf,inf,inf,1,1,1,1,2,0,2,1,4,1,1,1,0,0
253376872,253376468,19482731,36.660603099999996,126.342033,11.640749,-0.70735216,-45.336056,0.0007660138,0.002327696,0.0,-0.22626422,0.6297708,-0.26528084,-0.17486565,0.11544465,-0.07187036,0.17246991,2.2768276,2.2413337,0.0024112263,1.4699042,-0.115677364,13.965662,49.91385,0.3186407,0.3923486,0.14017561,0.10600363,inf,inf,inf,inf,1,1,1,1,2,0,2,1,4,1,1,1,0,0
253876941,253876516,19482731,36.660603099999996,126.342033,11.705783,-0.2278589,-45.39287,0.0007660138,0.002327696,0.0,0.9575684,1.5824275,-0.15117288,-0.071179464,0.11544465,-0.07187036,0.17246991,0.78370684,2.0489862,-1.9056937,1.3944328,-0.115677364,13.965662,49.970665,0.31063834,0.39045355,0.13884825,0.1044457,inf,inf,inf,inf,1,1,1,1,2,0,2,1,4,1,1,1,0,0
254377004,254376563,19482731,36.660603099999996,126.342033,12.337879,0.72434294,-45.436558,0.0007660138,0.002327696,0.0,2.157992,1.7276647,-0.005455259,0.07119177,0.11544465,-0.07187036,0.17246991,3.7934566,-0.54676133,0.897002,1.2379622,-0.115677364,13.965662,50.01435,0.31936437,0.39283735,0.14752203,0.10591291,inf,inf,inf,inf,1,1,1,1,2,0,2,1,4,1,1,1,0,0
254877303,254876611,19482731,36.660603099999996,126.342033,13.507071,1.6145557,-45.505947,0.0007660138,0.002327696,0.0,3.1694188,1.2317502,-0.14264698,-0.1078879,0.11544465,-0.07187036,0.17246991,2.2025266,1.2744853,2.7960982,1.1977034,-0.115677364,13.965662,50.08374,0.3112998,0.39319178,0.1415721,0.10453976,inf,inf,inf,inf,1,1,1,1,2,0,2,1,4,1,1,1,0,0
255367043,255366658,19482731,36.660603099999996,126.342033,15.010049,2.3320098,-45.540264,0.0007660138,0.002327696,0.0,3.2647672,0.60167795,-0.12355077,-0.10358939,0.11544465,-0.07187036,0.17246991,3.751578,-1.3987364,-0.53107303,1.126737,-0.115677364,13.965662,50.118057,0.3190636,0.39468923,0.14282274,0.10567007,inf,inf,inf,inf,1,1,1,1,2,0,2,1,4,1,1,1,0,0
255867229,255866705,19482731,36.660603099999996,126.342033,16.608068,2.688437,-45.629135,0.0007660138,0.002327696,0.0,2.6365743,-0.106751375,-0.06677133,-0.08494873,0.11544465,-0.07187036,0.17246991,-3.9408014,-1.1327324,-1.8407254,1.062689,-0.115677364,13.965662,50.20693,0.31089875,0.39254558,0.13580625,0.10411575,inf,inf,inf,inf,1,1,1,1,2,0,2,1,4,1,1,1,0,0
256367132,256366753,19482731,36.660603099999996,126.342033,17.809494,2.6308584,-45.742317,0.0007660138,0.002327696,0.0,1.3786373,-0.7675791,0.10401078,0.01895424,0.11544465,-0.07187036,0.17246991,1.5999464,-0.770378,4.4650536,1.008042,-0.115677364,13.965662,50.32011,0.31906208,0.39476478,0.14131655,0.1055148,inf,inf,inf,inf,1,1,1,1,2,0,2,1,4,1,1,1,0,0
256877195,256876802,19482731,36.660603099999996,126.342033,18.363726,2.1233232,-45.7071,0.0007660138,0.002327696,0.0,0.103560574,-1.414597,0.13681678,0.053610906,0.11544465,-0.07187036,0.17246991,1.9162593,-1.104301,2.9346979,0.91282684,-0.115677364,13.965662,50.284893,0.3115083,0.3909538,0.14143996,0.10418703,inf,inf,inf,inf,1,1,1,1,2,0,2,1,4,1,1,1,0,0
257377257,257376850,19482731,36.660603099999996,126.342033,18.484089,1.2514516,-45.66007,0.0007660138,0.002327696,0.0,-0.26721644,-1.8272972,0.17420733,0.09552378,0.11544465,-0.07187036,0.17246991,-3.4837003,1.3078198,-1.3272368,0.84693736,-0.115677364,13.965662,50.23786,0.3198201,0.39327714,0.14673072,0.10594899,inf,inf,inf,inf,1,1,1,1,2,0,2,1,4,1,1,1,0,0
257877285,257876898,19482731,36.660603099999996,126.342033,18.548119,0.32354575,-45.693188,0.0007660138,0.002327696,0.0,0.25298294,-1.2851802,0.05799652,-0.03150491,0.11544465,-0.07187036,0.17246991,0.9124547,2.3066328,-2.1808913,0.8010913,-0.115677364,13.965662,50.27098,0.3115948,0.39142013,0.13766786,0.104348965,inf,inf,inf,inf,1,1,1,1,2,0,2,1,4,1,1,1,0,0
258377386,258376946,19482731,36.660603099999996,126.342033,18.908745,-0.14119542,-45.66118,0.0007660138,0.002327696,0.0,1.2277018,0.07779067,-0.006039748,-0.042408936,0.11544465,-0.07187036,0.17246991,2.050895,2.8102267,-1.0782421,0.8016059,-0.115677364,13.965662,50.23897,0.32026756,0.3938679,0.14081195,0.10545632,inf,inf,inf,inf,1,1,1,1,2,0,2,1,4,1,1,1,0,0
258867362,258866993,19482731,36.660603099999996,126.342033,19.600126,-0.059358876,-45.59258,0.0007660138,0.002327696,0.0,1.9124435,0.7476626,0.029870527,0.01837571,0.11544465,-0.07187036,0.17246991,1.619374,1.8478601,1.0131196,0.8207114,-0.115677364,13.965662,50.170372,0.31141037,0.39136776,0.1369193,0.103871085,inf,inf,inf,inf,1,1,1,1,2,0,2,1,4,1,1,1,0,0
259367618,259367041,19482731,36.660603099999996,126.342033,20.430286,0.31818882,-45.533386,0.0007660138,0.002327696,0.0,1.6178243,0.8186941,0.08587241,0.095375456,0.11544465,-0.07187036,0.17246991,0.47578278,1.4049162,1.4725904,0.85609126,-0.115677364,13.965662,50.11118,0.31995317,0.39139032,0.14091785,0.10526007,inf,inf,inf,inf,1,1,1,1,2,0,2,1,4,1,1,1,0,0
259867530,259867089,19482731,36.660603099999996,126.342033,21.17124,0.76953423,-45.485157,0.0007660138,0.002327696,0.0,1.550584,0.756064,0.035748925,0.0638011,0.11544465,-0.07187036,0.17246991,1.1140306,0.24986844,0.47994742,0.88340116,-0.115677364,13.965662,50.06295,0.31229398,0.3897107,0.13576958,0.10403135,inf,inf,inf,inf,1,1,1,1,2,0,2,1,4,1,1,1,0,0
260377530,260377139,19482731,36.660603099999996,126.342033,22.01556,1.1604716,-45.468147,0.0007660138,0.002327696,0.0,1.6488688,0.6140066,-0.056087818,-0.00837807,0.11544465,-0.07187036,0.17246991,-2.3760662,1.1083483,2.3800967,0.87489516,-0.115677364,13.965662,50.04594,0.3218998,0.39297402,0.14026846,0.1058684,inf,inf,inf,inf,1,1,1,1,2,0,2,1,4,1,1,1,0,0
260877625,260877187,19482731,36.660603099999996,126.342033,22.691246,1.4026046,-45.49135,0.0007660138,0.002327696,0.0,0.78453976,0.32313362,-0.11606746,-0.07189155,0.11544465,-0.07187036,0.17246991,-0.41320324,0.123678684,2.7349224,0.9007242,-0.115677364,13.965662,50.06914,0.3138831,0.3888967,0.13544415,0.1042385,inf,inf,inf,inf,1,1,1,1,2,0,2,1,4,1,1,1,0,0
261377754,261377236,19482731,36.660603099999996,126.342033,22.905348,1.4832922,-45.48224,0.0007660138,0.002327696,0.0,-0.10035251,-0.08026943,-0.038900487,-0.016178904,0.11544465,-0.07187036,0.17246991,1.5824039,-1.0827836,-0.85055435,0.94480157,-0.115677364,13.965662,50.06003,0.3225325,0.39154252,0.14112327,0.10579827,inf,inf,inf,inf,1,1,1,1,2,0,2,1,4,1,1,1,0,0
261877758,261877285,19482731,36.660603099999996,126.342033,22.905611,1.3827081,-45.51182,0.0007660138,0.002327696,0.0,-0.04776567,-0.30209973,-0.091157176,-0.090713106,0.11544465,-0.07187036,0.17246991,0.33144894,0.37982583,0.50072026,0.99295604,-0.115677364,13.965662,50.089615,0.314599,0.38990286,0.13572192,0.10448621,inf,inf,inf,inf,1,1,1,1,2,0,2,1,4,1,1,1,0,0
262367713,262367332,19482731,36.660603099999996,126.342033,22.862595,1.2469814,-45.52592,0.0007660138,0.002327696,0.0,-0.18131813,-0.29008722,0.06822433,0.06788954,0.11544465,-0.07187036,0.17246991,-0.42974094,0.7276955,2.4693878,1.0318978,-0.115677364,13.965662,50.103714,0.3222292,0.39187175,0.13847598,0.10585817,inf,inf,inf,inf,1,1,1,1,2,0,2,1,4,1,1,1,0,0
262867847,262867380,19482731,36.660603099999996,126.342033,22.789425,1.1185311,-45.52936,0.0007660138,0.002327696,0.0,-0.16160399,-0.19120276,0.029500568,0.047027927,0.11544465,-0.07187036,0.17246991,-1.4862894,0.48745558,1.7837744,1.059545,-0.115677364,13.965662,50.107155,0.31415015,0.39023158,0.13352078,0.10446716,inf,inf,inf,inf,1,1,1,1,2,0,2,1,4,1,1,1,0,0
263367826,263367429,19482731,36.660603099999996,126.342033,22.705778,1.0416446,-45.536148,0.0007660138,0.002327696,0.0,-0.14305621,-0.062388003,-0.052131515,-0.03689612,0.11544465,-0.07187036,0.17246991,0.7332222,-0.030959833,0.47403732,1.0771682,-0.115677364,13.965662,50.11394,0.3226603,0.39294797,0.13807692,0.106076874,inf,inf,inf,inf,1,1,1,1,2,0,2,1,4,1,1,1,0,0
263867967,263867478,19482731,36.660603099999996,126.342033,22.608852,1.028729,-45.52904,0.0007660138,0.002327696,0.0,-0.076385975,0.23701283,0.06986678,0.07487028,0.11544465,-0.07187036,0.17246991,3.1602685,2.684885,-2.1608598,1.0931093,-0.115677364,13.965662,50.106834,0.3146134,0.38884193,0.13311704,0.10443938,inf,inf,inf,inf,1,1,1,1,2,0,2,1,4,1,1,1,0,0
264377938,264377528,19482731,36.660603099999996,126.342033,22.768585,1.6897687,-45.637356,0.0007660138,0.002327696,0.0,0.9599997,2.727718,0.08103872,-0.061233204,0.11544465,-0.07187036,0.17246991,-0.7326249,4.6620626,-2.3400285,1.1275308,-0.115677364,13.965662,50.21515,0.32372844,0.39215317,0.14458668,0.106684394,inf,inf,inf,inf,1,1,1,1,2,0,2,1,4,1,1,1,0,0
264878020,264877577,19482731,36.660603099999996,126.342033,23.373692,3.4536216,-45.865746,0.0007660138,0.002327696,0.0,1.9890391,4.801105,-0.054138612,-0.32022622,0.11544465,-0.07187036,0.17246991,1.2935749,3.1705642,-0.18428653,1.1554856,-0.115677364,13.965662,50.44354,0.315305,0.39048573,0.14948878,0.106283754,inf,inf,inf,inf,1,1,1,1,2,0,2,1,4,1,1,1,0,0
265378052,265377626,19482731,36.660603099999996,126.342033,24.427633,6.2197943,-46.074318,0.0007660138,0.002327696,0.0,3.1093059,6.44024,-0.27603137,-0.5262502,0.11544465,-0.07187036,0.17246991,-0.75510395,2.651654,-2.759268,1.1001568,-0.115677364,13.965662,50.65211,0.32377955,0.39323512,0.16020489,0.108973645,inf,inf,inf,inf,1,1,1,1,2,0,2,1,4,1,1,1,0,0
265868106,265867674,19482731,36.660603099999996,126.342033,26.000221,9.863479,-46.27048,0.0007660138,0.002327696,0.0,4.2426267,8.187335,0.3013234,-0.008491751,0.11544465,-0.07187036,0.17246991,1.8263452,5.8809285,-0.70883805,1.0432212,-0.115677364,13.965662,50.848274,0.31476897,0.39096588,0.15270133,0.108118914,inf,inf,inf,inf,1,1,1,1,2,0,2,1,4,1,1,1,0,0
266368133,266367724,19482731,36.660603099999996,126.342033,28.287516,14.453342,-46.26079,0.0007660138,0.002327696,0.0,5.6483054,9.861864,0.60701275,0.23356178,0.11544465,-0.07187036,0.17246991,1.5745234,2.7038841,-1.0761629,1.0426694,-0.115677364,13.965662,50.838585,0.32330433,0.3913584,0.1579735,0.110541396,inf,inf,inf,inf,1,1,1,1,2,0,2,1,4,1,1,1,0,0
266868347,266867773,19482731,36.660603099999996,126.342033,31.255062,19.804266,-46.10467,0.0007660138,0.002327696,0.0,6.9158664,11.439787,0.5045829,0.17673792,0.11544465,-0.07187036,0.17246991,2.6323676,3.765641,-3.513457,1.017945,-0.115677364,13.965662,50.682465,0.3144091,0.3897017,0.1490307,0.109283745,inf,inf,inf,inf,1,1,1,1,2,0,2,1,4,1,1,1,0,0
267368229,267367822,19482731,36.660603099999996,126.342033,34.877323,25.95467,-46.154068,0.0007660138,0.002327696,0.0,7.904441,12.82741,0.2636639,-0.08891058,0.11544465,-0.07187036,0.17246991,-0.22533433,0.35579765,8.179607,1.0169568,-0.115677364,13.965662,50.73186,0.3231066,0.3926537,0.15164866,0.111102104,inf,inf,inf,inf,1,1,1,1,2,0,2,1,4,1,1,1,0,0
267868484,267867872,19482731,36.660603099999996,126.342033,38.984634,32.77906,-46.38579,0.0007660138,0.002327696,0.0,8.515021,14.23867,0.01664363,-0.40139306,0.11544465,-0.07187036,0.17246991,3.4113338,1.1698513,-2.6377215,1.0593275,-0.115677364,13.965662,50.963585,0.3145938,0.38870668,0.14198941,0.10871076,inf,inf,inf,inf,1,1,1,1,2,0,2,1,4,1,1,1,0,0
268378319,268377922,19482731,36.660603099999996,126.342033,43.49713,40.423893,-46.804684,0.0007660138,0.002327696,0.0,9.005848,15.472275,-0.5438577,-1.0034279,0.11544465,-0.07187036,0.17246991,-0.9458551,3.9497178,-0.7341663,1.0439421,-0.115677364,13.965662,51.382477,0.32389337,0.3923382,0.1449176,0.11003643,inf,inf,inf,inf,1,1,1,1,2,0,2,1,4,1,1,1,0,0
268878356,268877972,19482731,36.660603099999996,126.342033,48.140347,48.37963,-47.415005,0.0007660138,0.002327696,0.0,9.283983,16.029873,-0.7993096,-1.3038156,0.11544465,-0.07187036,0.17246991,-1.0730623,-1.2429162,-0.24738704,1.0553676,-0.115677364,13.965662,51.992798,0.31541416,0.39076024,0.13684432,0.107484885,inf,inf,inf,inf,1,1,1,1,2,0,2,1,4,1,1,1,0,0
269368494,269368020,19482731,36.660603099999996,126.342033,52.54862,56.234257,-48.058483,0.0007660138,0.002327696,0.0,8.320246,16.059692,-0.79715836,-1.2026868,0.11544465,-0.07187036,0.17246991,-2.1093779,4.8622537,6.510648,1.0620738,-0.115677364,13.965662,52.636276,0.32287088,0.39296177,0.14012742,0.107255146,inf,inf,inf,inf,1,1,1,1,2,0,2,1,4,1,1,1,0,0
269868690,269868070,19482731,36.660603099999996,126.342033,56.20068,64.86025,-48.521473,0.0007660138,0.002327696,0.0,4.4216614,18.371923,-0.6021822,-1.0795125,0.11544465,-0.07187036,0.17246991,-15.024281,3.688628,-3.939571,1.349272,-0.115677364,13.965662,53.099266,0.3146859,0.3889544,0.13851587,0.10492786,inf,inf,inf,inf,1,1,1,1,2,0,2,1,4,1,1,1,0,0
270368452,270368120,19482731,36.660603099999996,126.342033,57.39283,74.14803,-49.29231,0.0007660138,0.002327696,0.0,-0.7304606,18.6863,-1.2851748,-1.6882873,0.11544465,-0.07187036,0.17246991,-7.2612123,-1.2014444,2.1779802,1.6533725,-0.115677364,13.965662,53.870102,0.32292503,0.39149615,0.17044367,0.11008818,inf,inf,inf,inf,1,1,1,1,2,0,2,1,4,1,1,1,0,0
270868841,270868169,19482731,36.660603099999996,126.342033,57.02459,83.43465,-49.589943,0.0007660138,0.002327696,0.0,-1.6316488,18.247746,0.42585608,0.10537751,0.11544465,-0.07187036,0.17246991,-0.83473706,-0.7779254,1.6137832,1.5866319,-0.115677364,13.965662,54.167736,0.3149766,0.38973877,0.151495,0.10766423,inf,inf,inf,inf,1,1,1,1,2,0,2,1,4,1,1,1,0,0
271368564,271368219,19482731,36.660603099999996,126.342033,56.356495,92.63001,-48.999172,0.0007660138,0.002327696,0.0,-0.90467083,18.48708,1.6942524,1.4777514,0.11544465,-0.07187036,0.17246991,3.4666636,0.5598006,-0.8706399,1.5885327,-0.115677364,13.965662,53.576965,0.32350695,0.3923507,0.14260186,0.107259996,inf,inf,inf,inf,1,1,1,1,2,0,2,1,4,1,1,1,0,0
271868770,271868269,19482731,36.660603099999996,126.342033,56.034,102.00864,-48.013577,0.0007660138,0.002327696,0.0,0.39363196,18.969078,2.068519,1.9478018,0.11544465,-0.07187036,0.17246991,3.3559656,1.9815762,-0.6655926,1.4825069,-0.115677364,13.965662,52.59137,0.31588364,0.38832772,0.13178085,0.10368794,inf,inf,inf,inf,1,1,1,1,2,0,2,1,4,1,1,1,0,0
272368735,272368319,19482731,36.660603099999996,126.342033,56.519566,111.54288,-47.071636,0.0007660138,0.002327696,0.0,2.3315268,19.22758,1.4558742,1.4284227,0.11544465,-0.07187036,0.17246991,3.272147,0.011383485,-1.363933,1.3727647,-0.115677364,13.965662,51.64943,0.3241038,0.3908675,0.13809673,0.103988126,inf,inf,inf,inf,1,1,1,1,2,0,2,1,4,1,1,1,0,0
272868867,272868368,19482731,36.660603099999996,126.342033,57.8096,121.12451,-46.31185,0.0007660138,0.002327696,0.0,3.493867,19.342577,1.4122034,1.3931817,0.11544465,-0.07187036,0.17246991,2.8806481,-1.1695135,-1.9297111,1.3308946,-0.115677364,13.965662,50.889645,0.31623307,0.38919675,0.13602507,0.10266241,inf,inf,inf,inf,1,1,1,1,2,0,2,1,4,1,1,1,0,0
273368756,273368418,19482731,36.660603099999996,126.342033,59.66565,130.83237,-45.68164,0.0007660138,0.002327696,0.0,4.1860504,19.43729,1.3125525,1.2713486,0.11544465,-0.07187036,0.17246991,1.8729143,-0.025119612,-1.9044818,1.3053501,-0.115677364,13.965662,50.259434,0.32458028,0.39171395,0.14327206,0.10451758,inf,inf,inf,inf,1,1,1,1,2,0,2,1,4,1,1,1,0,0
273868896,273868468,19482731,36.660603099999996,126.342033,61.888733,140.55156,-45.15537,0.0007660138,0.002327696,0.0,4.6576467,19.515669,1.0033295,0.9642194,0.11544465,-0.07187036,0.17246991,-0.14182383,0.033376347,-1.8727149,1.2823352,-0.115677364,13.965662,49.733162,0.31688058,0.38773727,0.13979335,0.103320934,inf,inf,inf,inf,1,1,1,1,2,0,2,1,4,1,1,1,0,0
274368878,274368518,19482731,36.660603099999996,126.342033,64.367294,150.32655,-44.81376,0.0007660138,0.002327696,0.0,4.9390426,19.635582,0.59571475,0.5651752,0.11544465,-0.07187036,0.17246991,-0.95054865,-0.2637806,-0.74852145,1.2691276,-0.115677364,13.965662,49.391552,0.32542714,0.3903384,0.14521344,0.10512379,inf,inf,inf,inf,1,1,1,1,2,0,2,1,4,1,1,1,0,0
274868949,274868567,19482731,36.660603099999996,126.342033,66.92772,160.09494,-44.653847,0.0007660138,0.002327696,0.0,5.024765,19.726156,0.45820564,0.36345184,0.11544465,-0.07187036,0.17246991,-1.433977,-0.12190442,-1.8812157,1.2803121,-0.115677364,13.965662,49.23164,0.3172808,0.38883418,0.13865326,0.10397176,inf,inf,inf,inf,1,1,1,1,2,0,2,1,4,1,1,1,0,0
275368951,275368617,19482731,36.660603099999996,126.342033,69.50632,169.9159,-44.657677,0.0007660138,0.002327696,0.0,5.1906176,19.553585,0.02873505,-0.07208089,0.11544465,-0.07187036,0.17246991,2.1472135,-0.16321208,2.5873446,1.2838995,-0.115677364,13.965662,49.23547,0.32574585,0.39159203,0.14384489,0.10568254,inf,inf,inf,inf,1,1,1,1,2,0,2,1,4,1,1,1,0,0
275869311,275868667,19482731,36.660603099999996,126.342033,72.61032,179.53947,-44.523933,0.0007660138,0.002327696,0.0,7.4293427,18.781233,0.9881151,0.87658674,0.11544465,-0.07187036,0.17246991,8.100222,-3.399134,1.241324,1.1388521,-0.115677364,13.965662,49.101727,0.3174146,0.38773888,0.13779226,0.10392174,inf,inf,inf,inf,1,1,1,1,2,0,2,1,4,1,1,1,0,0
276369080,276368716,19482731,36.660603099999996,126.342033,77.659164,188.02246,-44.2592,0.0007660138,0.002327696,0.0,13.799598,14.218561,-0.19840492,-0.28537673,0.11544465,-0.07187036,0.17246991,12.775969,-12.536193,-4.7037873,0.6623848,-0.115677364,13.965662,48.836994,0.32586923,0.39033276,0.1672752,0.10754965,inf,inf,inf,inf,1,1,1,1,2,0,2,1,4,1,1,1,0,0
276869134,276868766,19482731,36.660603099999996,126.342033,85.49405,193.59828,-44.691696,0.0007660138,0.002327696,0.0,18.133068,6.320871,-1.5931519,-1.5899819,0.11544465,-0.07187036,0.17246991,5.58151,-20.21215,-3.9468765,0.18664713,-0.115677364,13.965662,49.26949,0.31718567,0.3887046,0.17833905,0.11249781,inf,inf,inf,inf,1,1,1,1,2,0,2,1,4,1,1,1,0,0
277369292,277368816,19482731,36.660603099999996,126.342033,94.9176,195.08849,-45.590424,0.0007660138,0.002327696,0.0,18.80289,-2.1420002,-2.1681387,-2.109733,0.11544465,-0.07187036,0.17246991,-2.4767077,-16.726894,-1.2561723,-0.2532294,-0.115677364,13.965662,50.168217,0.3278618,0.39157727,0.19132403,0.12313973,inf,inf,inf,inf,1,1,1,1,2,0,2,1,4,1,1,1,0,0
277869241,277868865,19482731,36.660603099999996,126.342033,103.93376,192.4285,-46.605812,0.0007660138,0.002327696,0.0,16.03793,-9.5987015,-2.2071085,-2.124518,0.11544465,-0.07187036,0.17246991,-7.6557574,-13.026294,-0.5528486,-0.6881645,-0.115677364,13.965662,51.183605,0.32073992,0.38824007,0.17159806,0.12344806,inf,inf,inf,inf,1,1,1,1,2,0,2,1,4,1,1,1,0,0
278369290,278368914,19482731,36.660603099999996,126.342033,111.0453,186.28102,-47.600616,0.0007660138,0.002327696,0.0,10.528717,-15.424027,-2.0114005,-1.9352584,0.11544465,-0.07187036,0.17246991,-12.661352,-9.60622,-0.8717234,-1.0835885,-0.115677364,13.965662,52.17841,0.33085164,0.3908455,0.17066808,0.12853746,inf,inf,inf,inf,1,1,1,1,2,0,2,1,4,1,1,1,0,0
278869341,278868964,19482731,36.660603099999996,126.342033,114.89109,177.67734,-48.468796,0.0007660138,0.002327696,0.0,3.764693,-18.650139,-1.5455165,-1.5049876,0.11544465,-0.07187036,0.17246991,-15.193409,-3.1050932,0.11858577,-1.4415126,-0.115677364,13.965662,53.04659,0.3235708,0.38886717,0.15539594,0.12550004,inf,inf,inf,inf,1,1,1,1,2,0,2,1,4,1,1,1,0,0
279369350,279369013,19482731,36.660603099999996,126.342033,115.13045,167.97513,-48.9866,0.0007660138,0.002327696,0.0,-3.1840193,-19.320099,-0.6030905,-0.53552157,0.11544465,-0.07187036,0.17246991,-14.46462,2.5193293,4.1913037,-1.8171557,-0.115677364,13.965662,53.564392,0.33514473,0.3924257,0.15987879,0.13098867,inf,inf,inf,inf,1,1,1,1,2,0,2,1,4,1,1,1,0,0
279869400,279869062,19482731,36.660603099999996,126.342033,112.318344,158.38322,-48.81659,0.0007660138,0.002327696,0.0,-6.8353033,-18.70885,1.4579574,1.5150236,0.11544465,-0.07187036,0.17246991,-2.2270281,-0.009083964,5.627091,-1.9256955,-0.115677364,13.965662,53.394382,0.33141175,0.39026815,0.14876145,0.12557161,inf,inf,inf,inf,1,1,1,1,2,0,2,1,4,1,1,1,0,0
280369453,280369113,19482731,36.660603099999996,126.342033,108.39032,149.09839,-47.57794,0.0007660138,0.002327696,0.0,-7.2489934,-19.011944,2.811744,2.8339536,0.11544465,-0.07187036,0.17246991,2.9847488,-2.8760371,0.0119841965,-1.9293797,-0.115677364,13.965662,52.155735,0.34066477,0.39295983,0.14245333,0.11956714,inf,inf,inf,inf,1,1,1,1,2,0,2,1,4,1,1,1,0,0
280869492,280869160,19482731,36.660603099999996,126.342033,104.75416,139.5035,-46.15441,0.0007660138,0.002327696,0.0,-4.916308,-20.110884,2.3318388,2.411163,0.11544465,-0.07187036,0.17246991,7.2590547,-1.6757258,-5.243537,-1.752302,-0.115677364,13.965662,50.732204,0.33322823,0.39119896,0.13308084,0.10816677,inf,inf,inf,inf,1,1,1,1,2,0,2,1,4,1,1,1,0,0
281369603,281369209,19482731,36.660603099999996,126.342033,102.81676,129.44266,-45.174103,0.0007660138,0.002327696,0.0,-0.66224337,-20.54426,1.1029567,1.3245403,0.11544465,-0.07187036,0.17246991,7.7756248,0.9586718,-1.443794,-1.4700168,-0.115677364,13.965662,49.751896,0.340997,0.39022046,0.140444,0.10222271,inf,inf,inf,inf,1,1,1,1,2,0,2,1,4,1,1,1,0,0
281869590,281869258,19482731,36.660603099999996,126.342033,102.7475,119.08595,-44.527103,0.0007660138,0.002327696,0.0,2.3186123,-20.12661,0.5808773,0.8799869,0.11544465,-0.07187036,0.17246991,6.3765764,1.8451995,-0.536687,-1.3657293,-0.115677364,13.965662,49.104897,0.3329425,0.38766044,0.14074238,0.099038064,inf,inf,inf,inf,1,1,1,1,2,0,2,1,4,1,1,1,0,0
282369835,282369306,19482731,36.660603099999996,126.342033,104.35529,108.90747,-44.16666,0.0007660138,0.002327696,0.0,5.0776343,-19.412855,0.42613727,0.69002426,0.11544465,-0.07187036,0.17246991,7.397065,2.3047802,0.17848828,-1.187476,-0.115677364,13.965662,48.744453,0.34066805,0.3886701,0.14924876,0.10071704,inf,inf,inf,inf,1,1,1,1,2,0,2,1,4,1,1,1,0,0
282869715,282869355,19482731,36.660603099999996,126.342033,107.52388,99.23672,-44.065407,0.0007660138,0.002327696,0.0,7.850521,-18.156101,-0.1866653,0.012587602,0.11544465,-0.07187036,0.17246991,6.1077666,2.9249961,1.4859171,-1.0405649,-0.115677364,13.965662,48.6432,0.33262348,0.38642576,0.14750041,0.10105569,inf,inf,inf,inf,1,1,1,1,2,0,2,1,4,1,1,1,0,0
283369887,283369403,19482731,36.660603099999996,126.342033,111.96315,89.951,-43.970837,0.0007660138,0.002327696,0.0,9.53652,-17.256157,0.1360775,0.29167736,0.11544465,-0.07187036,0.17246991,1.1550175,1.4957098,-1.9235452,-0.96757734,-0.115677364,13.965662,48.54863,0.34093067,0.38549924,0.15095904,0.103625976,inf,inf,inf,inf,1,1,1,1,2,0,2,1,4,1,1,1,0,0
283869794,283869452,19482731,36.660603099999996,126.342033,117.26265,81.23833,-43.76241,0.0007660138,0.002327696,0.0,10.855053,-16.46091,0.3960534,0.51718736,0.11544465,-0.07187036,0.17246991,4.412723,2.7370417,-0.7943394,-0.8677125,-0.115677364,13.965662,48.340202,0.33376208,0.3839154,0.14316703,0.10328563,inf,inf,inf,inf,1,1,1,1,2,0,2,1,4,1,1,1,0,0
284369888,284369500,19482731,36.660603099999996,126.342033,123.251785,73.01152,-43.524723,0.0007660138,0.002327696,0.0,11.849715,-15.626892,0.1723786,0.3514371,0.11544465,-0.07187036,0.17246991,2.3704863,2.272893,-1.9113934,-0.8148487,-0.115677364,13.965662,48.102516,0.3423391,0.3860124,0.14737949,0.10570733,inf,inf,inf,inf,1,1,1,1,2,0,2,1,4,1,1,1,0,0
284869881,284869548,19482731,36.660603099999996,126.342033,129.55156,65.209045,-43.359573,0.0007660138,0.002327696,0.0,12.2247505,-15.190585,0.22595622,0.41532397,0.11544465,-0.07187036,0.17246991,-1.1261667,-0.69080186,-0.68697053,-0.785646,-0.115677364,13.965662,47.937366,0.3512637,0.38847512,0.14955896,0.10748849,inf,inf,inf,inf,1,1,1,1,2,0,2,1,4,1,1,1,0,0
285369981,285369596,19482731,36.660603099999996,126.342033,135.9625,57.697346,-43.29845,0.0007660138,0.002327696,0.0,12.402001,-14.829046,-0.010465933,0.1178755,0.11544465,-0.07187036,0.17246991,-1.0866692,0.42607495,-0.96218514,-0.75705796,-0.115677364,13.965662,47.876244,0.3432932,0.38730648,0.14350614,0.1061339,inf,inf,inf,inf,1,1,1,1,2,0,2,1,4,1,1,1,0,0
285870015,285869644,19482731,36.660603099999996,126.342033,142.37859,50.297173,-43.225986,0.0007660138,0.002327696,0.0,12.363707,-14.782635,0.29657945,0.3861835,0.11544465,-0.07187036,0.17246991,1.7897155,0.14380713,1.0719284,-0.7499164,-0.115677364,13.965662,47.80378,0.3357723,0.3838791,0.13703191,0.10446281,inf,inf,inf,inf,1,1,1,1,2,0,2,1,4,1,1,1,0,0
286370075,286369692,19482731,36.660603099999996,126.342033,148.71751,42.993286,-43.108482,0.0007660138,0.002327696,0.0,12.407223,-14.663853,0.23365307,0.31709838,0.11544465,-0.07187036,0.17246991,-1.9257859,-1.2821121,1.8307642,-0.77857274,-0.115677364,13.965662,47.686275,0.34394428,0.38666445,0.14150836,0.106135845,inf,inf,inf,inf,1,1,1,1,2,0,2,1,4,1,1,1,0,0
286870215,286869739,19482731,36.660603099999996,126.342033,154.97939,35.707138,-43.14089,0.0007660138,0.002327696,0.0,12.176971,-14.781568,0.12780838,0.10433301,0.11544465,-0.07187036,0.17246991,1.5905963,0.08706731,1.9243324,-0.8057899,-0.115677364,13.965662,47.71868,0.33610475,0.3855713,0.13707204,0.10472679,inf,inf,inf,inf,1,1,1,1,2,0,2,1,4,1,1,1,0,0
287370303,287369787,19482731,36.660603099999996,126.342033,161.13864,28.42159,-43.10027,0.0007660138,0.002327696,0.0,12.125261,-14.8030815,-0.027079923,-0.019112395,0.11544465,-0.07187036,0.17246991,-1.589667,-1.7673385,2.2544303,-0.7876151,-0.115677364,13.965662,47.678062,0.34404394,0.38848352,0.14200053,0.10639027,inf,inf,inf,inf,1,1,1,1,2,0,2,1,4,1,1,1,0,0
287870177,287869834,19482731,36.660603099999996,126.342033,167.25705,21.102604,-42.99086,0.0007660138,0.002327696,0.0,12.170528,-14.798712,0.11441463,0.15064566,0.11544465,-0.07187036,0.17246991,0.8688851,0.88491523,-0.22225626,-0.8099251,-0.115677364,13.965662,47.568653,0.3359193,0.38736272,0.13656451,0.10507872,inf,inf,inf,inf,1,1,1,1,2,0,2,1,4,1,1,1,0,0
288370307,288369882,19482731,36.660603099999996,126.342033,173.34555,13.765682,-42.874184,0.0007660138,0.002327696,0.0,12.168853,-14.857821,0.033476632,0.075235076,0.11544465,-0.07187036,0.17246991,0.4702854,-0.8219929,1.9629476,-0.8182793,-0.115677364,13.965662,47.451977,0.34376833,0.38797346,0.14138423,0.10648812,inf,inf,inf,inf,1,1,1,1,2,0,2,1,4,1,1,1,0,0
288870318,288869928,19482731,36.660603099999996,126.342033,179.42447,6.360647,-42.832348,0.0007660138,0.002327696,0.0,12.195044,-14.89013,-0.13802396,-0.09621891,0.11544465,-0.07187036,0.17246991,1.2539271,1.09145,-1.8048713,-0.81088555,-0.115677364,13.965662,47.41014,0.33544526,0.3868265,0.13699381,0.10508314,inf,inf,inf,inf,1,1,1,1,2,0,2,1,4,1,1,1,0,0
289370317,289369976,19482731,36.660603099999996,126.342033,185.52039,-1.1085438,-42.813995,0.0007660138,0.002327696,0.0,12.257794,-14.9248295,-0.0031104903,0.02968038,0.11544465,-0.07187036,0.17246991,-1.2193906,-0.14936724,-0.9038369,-0.81482357,-0.115677364,13.965662,47.39179,0.34338257,0.3898461,0.14120623,0.10669914,inf,inf,inf,inf,1,1,1,1,2,0,2,1,4,1,1,1,0,0
289870405,289870023,19482731,36.660603099999996,126.342033,191.5868,-8.525229,-42.803566,0.0007660138,0.002327696,0.0,12.212848,-14.895093,-0.0070961956,-0.012960252,0.11544465,-0.07187036,0.17246991,1.4631598,0.8090923,-1.3206093,-0.8229106,-0.115677364,13.965662,47.38136,0.33518168,0.38862467,0.13665542,0.10527304,inf,inf,inf,inf,1,1,1,1,2,0,2,1,4,1,1,1,0,0
290370438,290370069,19482731,36.660603099999996,126.342033,197.66551,-15.961753,-42.835564,0.0007660138,0.002327696,0.0,12.344773,-14.674767,-0.16099554,-0.13260177,0.11544465,-0.07187036,0.17246991,2.3193326,1.7548499,-1.9443395,-0.78408366,-0.115677364,13.965662,47.413357,0.34308794,0.38918898,0.14204231,0.10654371,inf,inf,inf,inf,1,1,1,1,2,0,2,1,4,1,1,1,0,0
290870501,290870116,19482731,36.660603099999996,126.342033,203.7947,-23.140253,-42.95604,0.0007660138,0.002327696,0.0,12.627794,-14.14801,0.15427774,0.17764986,0.11544465,-0.07187036,0.17246991,-1.001687,0.22499324,1.2539659,-0.73665434,-0.115677364,13.965662,47.533833,0.33479786,0.38786513,0.13691407,0.105042264,inf,inf,inf,inf,1,1,1,1,2,0,2,1,4,1,1,1,0,0
291370493,291370162,19482731,36.660603099999996,126.342033,210.11714,-30.078123,-43.100048,0.0007660138,0.002327696,0.0,12.929537,-13.56012,-0.13410904,-0.14708002,0.11544465,-0.07187036,0.17246991,1.2408571,0.6113648,1.7393291,-0.6942012,-0.115677364,13.965662,47.67784,0.3427937,0.39082626,0.14201005,0.106588945,inf,inf,inf,inf,1,1,1,1,2,0,2,1,4,1,1,1,0,0
291870539,291870209,19482731,36.660603099999996,126.342033,216.58495,-36.778214,-43.206028,0.0007660138,0.002327696,0.0,13.161821,-13.070319,0.022688337,-0.018243639,0.11544465,-0.07187036,0.17246991,0.3425574,0.8533732,-0.6174551,-0.6302352,-0.115677364,13.965662,47.78382,0.33453596,0.38948494,0.13670053,0.10515612,inf,inf,inf,inf,1,1,1,1,2,0,2,1,4,1,1,1,0,0
292370610,292370255,19482731,36.660603099999996,126.342033,223.17406,-43.240536,-43.35956,0.0007660138,0.002327696,0.0,13.414264,-12.672302,-0.05709216,-0.16058275,0.11544465,-0.07187036,0.17246991,-0.78391385,-0.8996267,2.0538476,-0.61538696,-0.115677364,13.965662,47.93735,0.34255213,0.39001143,0.14176042,0.10647219,inf,inf,inf,inf,1,1,1,1,2,0,2,1,4,1,1,1,0,0
292870774,292870301,19482731,36.660603099999996,126.342033,229.86267,-49.54058,-43.388462,0.0007660138,0.002327696,0.0,13.601649,-12.51111,0.020578047,-0.10482006,0.11544465,-0.07187036,0.17246991,0.93359977,-0.19969258,0.7043412,-0.6357286,-0.115677364,13.965662,47.966255,0.33398902,0.3885895,0.13599691,0.10494962,inf,inf,inf,inf,1,1,1,1,2,0,2,1,4,1,1,1,0,0
293370706,293370347,19482731,36.660603099999996,126.342033,236.58998,-55.778576,-43.312344,0.0007660138,0.002327696,0.0,13.70428,-12.479751,-0.21975243,-0.25009632,0.11544465,-0.07187036,0.17246991,0.22638382,0.84562457,-1.6471941,-0.6402841,-0.115677364,13.965662,47.890137,0.3419238,0.3914828,0.14117576,0.10645271,inf,inf,inf,inf,1,1,1,1,2,0,2,1,4,1,1,1,0,0
293870912,293870393,19482731,36.660603099999996,126.342033,243.42468,-62.056835,-43.355255,0.0007660138,0.002327696,0.0,13.705722,-12.51774,-0.46904424,-0.44738647,0.11544465,-0.07187036,0.17246991,-1.8572375,-0.56300086,-1.7200153,-0.63034844,-0.115677364,13.965662,47.93305,0.33366853,0.3899966,0.13734789,0.104958534,inf,inf,inf,inf,1,1,1,1,2,0,2,1,4,1,1,1,0,0
294370800,294370438,19482731,36.660603099999996,126.342033,250.28053,-68.33152,-43.52044,0.0007660138,0.002327696,0.0,13.746586,-12.392427,-0.6300597,-0.5718748,0.11544465,-0.07187036,0.17246991,-1.4370412,-1.5269393,-0.41426578,-0.6427694,-0.115677364,13.965662,48.098232,0.34175816,0.39039013,0.14258184,0.10621824,inf,inf,inf,inf,1,1,1,1,2,0,2,1,4,1,1,1,0,0
294870820,294870484,19482731,36.660603099999996,126.342033,257.1045,-74.522385,-43.799015,0.0007660138,0.002327696,0.0,13.659338,-12.461159,-0.17149971,-0.12224323,0.11544465,-0.07187036,0.17246991,-0.78922784,-0.34450898,0.32413247,-0.6636553,-0.115677364,13.965662,48.37681,0.33340093,0.38887912,0.13674024,0.10473057,inf,inf,inf,inf,1,1,1,1,2,0,2,1,4,1,1,1,0,0
295370908,295370530,19482731,36.660603099999996,126.342033,263.91458,-80.77205,-43.91008,0.0007660138,0.002327696,0.0,13.5885515,-12.479372,0.07473424,0.03697511,0.11544465,-0.07187036,0.17246991,0.6428036,1.2166458,-0.004590358,-0.6328406,-0.115677364,13.965662,48.487873,0.34146672,0.391692,0.13986626,0.10625222,inf,inf,inf,inf,1,1,1,1,2,0,2,1,4,1,1,1,0,0
295870940,295870575,19482731,36.660603099999996,126.342033,270.63736,-86.996925,-43.94542,0.0007660138,0.002327696,0.0,13.573569,-12.472666,0.1856672,0.120939314,0.11544465,-0.07187036,0.17246991,-1.1784905,-0.68294996,1.7832587,-0.62285274,-0.115677364,13.965662,48.523212,0.33334103,0.39016882,0.1355031,0.1048387,inf,inf,inf,inf,1,1,1,1,2,0,2,1,4,1,1,1,0,0
296370974,296370620,19482731,36.660603099999996,126.342033,277.40274,-93.23424,-43.790142,0.0007660138,0.002327696,0.0,13.641329,-12.393061,-0.07888758,-0.029152447,0.11544465,-0.07187036,0.17246991,-1.0654733,-0.2474691,-0.09294303,-0.6195081,-0.115677364,13.965662,48.367935,0.3413847,0.3905573,0.14086671,0.10612986,inf,inf,inf,inf,1,1,1,1,2,0,2,1,4,1,1,1,0,0
296871004,296870665,19482731,36.660603099999996,126.342033,284.1468,-99.469475,-43.7095,0.0007660138,0.002327696,0.0,13.596915,-12.40266,-0.3235911,-0.18905464,0.11544465,-0.07187036,0.17246991,0.25243962,1.1880926,-2.338258,-0.63743615,-0.115677364,13.965662,48.287292,0.33302158,0.3890222,0.13661584,0.10468754,inf,inf,inf,inf,1,1,1,1,2,0,2,1,4,1,1,1,0,0
297371057,297370710,19482731,36.660603099999996,126.342033,290.85855,-105.69022,-43.88441,0.0007660138,0.002327696,0.0,13.567904,-12.437188,-0.50207764,-0.43162113,0.11544465,-0.07187036,0.17246991,-0.07361925,0.5764725,-2.5828292,-0.63164675,-0.115677364,13.965662,48.462204,0.34124437,0.39181757,0.14175077,0.106246665,inf,inf,inf,inf,1,1,1,1,2,0,2,1,4,1,1,1,0,0
297871118,297870754,19482731,36.660603099999996,126.342033,297.60947,-111.922554,-43.9476,0.0007660138,0.002327696,0.0,13.612966,-12.335819,-0.12721178,-0.023876777,0.11544465,-0.07187036,0.17246991,0.5022799,1.4447646,-3.204656,-0.623484,-0.115677364,13.965662,48.525394,0.33289838,0.3902755,0.13566785,0.10481925,inf,inf,inf,inf,1,1,1,1,2,0,2,1,4,1,1,1,0,0
298371153,298370799,19482731,36.660603099999996,126.342033,304.3628,-118.11897,-44.050613,0.0007660138,0.002327696,0.0,13.555652,-12.276198,-0.0738467,-0.014512162,0.11544465,-0.07187036,0.17246991,-0.47740978,0.16771112,-1.1794015,-0.6263329,-0.115677364,13.965662,48.628407,0.34089538,0.39062762,0.1401045,0.10610791,inf,inf,inf,inf,1,1,1,1,2,0,2,1,4,1,1,1,0,0
298871181,298870844,19482731,36.660603099999996,126.342033,311.0774,-124.25598,-44.11278,0.0007660138,0.002327696,0.0,13.4858265,-12.241079,0.026762122,0.05023145,0.11544465,-0.07187036,0.17246991,-0.8795931,-1.1206651,2.0087907,-0.63909435,-0.115677364,13.965662,48.690575,0.33244938,0.3890963,0.1355031,0.10468877,inf,inf,inf,inf,1,1,1,1,2,0,2,1,4,1,1,1,0,0
299371216,299370888,19482731,36.660603099999996,126.342033,317.82394,-130.37552,-44.298317,0.0007660138,0.002327696,0.0,13.445016,-12.2063265,-0.13357763,-0.179216,0.11544465,-0.07187036,0.17246991,1.0727656,0.77311146,1.069477,-0.6482465,-0.115677364,13.965662,48.87611,0.34039086,0.39188066,0.14040251,0.10624095,inf,inf,inf,inf,1,1,1,1,2,0,2,1,4,1,1,1,0,0
299871451,299870932,19482731,36.660603099999996,126.342033,324.49088,-136.4793,-44.372116,0.0007660138,0.002327696,0.0,13.347138,-12.274719,-0.22190022,-0.2764295,0.11544465,-0.07187036,0.17246991,1.5145338,0.41941777,1.3797716,-0.6439955,-0.115677364,13.965662,48.94991,0.33180967,0.39033586,0.13569555,0.10481053,inf,inf,inf,inf,1,1,1,1,2,0,2,1,4,1,1,1,0,0
