timestamp,timestamp_sample,gps_hvel[0],gps_hvel[1],gps_vvel,gps_hpos[0],gps_hpos[1],gps_vpos,ev_hvel[0],ev_hvel[1],ev_vvel,ev_hpos[0],ev_hpos[1],ev_vpos,rng_vpos,baro_vpos,aux_hvel[0],aux_hvel[1],aux_vvel,flow[0],flow[1],heading,mag_field[0],mag_field[1],mag_field[2],drag[0],drag[1],airspeed,beta,hagl,hagl_rate
217783695,217683276,-0.02773751,-0.013509763,0.033042867,0.0050582886,-0.050453007,0.0,0.0,0.0,0.0,0.0,0.0,0.0,0.0,0.39601517,0.0,0.0,nan,0.0,0.0,-0.06013477,0.0,0.0,0.0,0.0,0.0,0.0,0.0,0.0,0.0
218283874,218183317,-0.028215466,-0.0041896505,-0.03327141,0.011889458,-0.05240667,0.0,0.0,0.0,0.0,0.0,0.0,0.0,0.0,0.31269932,0.0,0.0,nan,0.0,0.0,-0.053091407,0.0,0.0,0.0,0.0,0.0,0.0,0.0,0.0,0.0
218783749,218683358,-0.018377306,-0.01002218,-0.046461284,0.002196312,-0.0505085,0.0,0.0,0.0,0.0,0.0,0.0,0.0,0.0,0.21485138,0.0,0.0,nan,0.0,0.0,-0.03763485,0.0,0.0,0.0,0.0,0.0,0.0,0.0,0.0,0.0
219283939,219183400,-0.009095253,0.018080438,-0.02606403,-0.012582779,-0.04545009,0.0,0.0,0.0,0.0,0.0,0.0,0.0,0.0,0.28866386,0.0,0.0,nan,0.0,0.0,-0.056981444,0.0,0.0,0.0,0.0,0.0,0.0,0.0,0.0,0.0
219783871,219683441,-0.0066847485,0.0684513,-0.057278655,-0.023861885,-0.03809911,0.0,0.0,0.0,0.0,0.0,0.0,0.0,0.0,0.64503956,0.0,0.0,nan,0.0,0.0,-0.021653414,0.0,0.0,0.0,0.0,0.0,0.0,0.0,0.0,0.0
220284059,220183482,0.012391966,0.019538745,0.007891104,-0.033602715,-0.037863135,0.0,0.0,0.0,0.0,0.0,0.0,0.0,0.0,0.08685017,0.0,0.0,nan,0.0,0.0,-0.046175957,0.0,0.0,0.0,0.0,0.0,0.0,0.0,0.0,0.0
220783950,220683523,-0.012286613,-0.021845687,0.016862065,-0.039776802,-0.040225804,0.0,0.0,0.0,0.0,0.0,0.0,0.0,0.0,-0.0,0.0,0.0,nan,0.0,0.0,0.018576264,0.0,0.0,0.0,0.0,0.0,0.0,0.0,0.0,0.0
221284051,221183565,-0.027417062,-0.027763247,0.04628842,-0.034700394,-0.046461344,0.0,0.0,0.0,0.0,0.0,0.0,0.0,0.0,0.40804863,0.0,0.0,nan,0.0,0.0,0.031170607,0.0,0.0,0.0,0.0,0.0,0.0,0.0,0.0,0.0
221784160,221683607,-0.020165484,-0.025073938,0.006617237,-0.040228844,-0.048306227,0.0,0.0,0.0,0.0,0.0,0.0,0.0,0.0,0.38270092,0.0,0.0,nan,0.0,0.0,0.04097998,0.0,0.0,0.0,0.0,0.0,0.0,0.0,0.0,0.0
222284109,222183649,0.036349066,-0.0038245092,-0.0017195866,-0.03442955,-0.038658857,0.0,0.0,0.0,0.0,0.0,0.0,0.0,0.0,0.29017544,0.0,0.0,nan,0.0,0.0,0.058460712,0.0,0.0,0.0,0.0,0.0,0.0,0.0,0.0,0.0
222784123,222683691,0.00347823,-0.047995016,-0.028825603,-0.051428795,-0.03902316,0.0,0.0,0.0,0.0,0.0,0.0,0.0,0.0,0.54489994,0.0,0.0,nan,0.0,0.0,0.08466017,0.0,0.0,0.0,0.0,0.0,0.0,0.0,0.0,0.0
223284259,223183733,0.048141472,-0.005137831,-0.02001366,-0.051486015,-0.033155918,0.0,0.0,0.0,0.0,0.0,0.0,0.0,0.0,0.73948574,0.0,0.0,nan,0.0,0.0,0.1251198,0.0,0.0,0.0,0.0,0.0,0.0,0.0,0.0,0.0
223784180,223683775,-0.09381929,-0.03511843,-0.11473663,-0.056319237,-0.045880795,0.0,0.0,0.0,0.0,0.0,0.0,0.0,0.0,0.49164486,0.0,0.0,nan,0.0,0.0,0.118190885,0.0,0.0,0.0,0.0,0.0,0.0,0.0,0.0,0.0
224284307,224183818,0.02728001,-0.058543727,-0.04159531,-0.0522871,-0.050791174,0.0,0.0,0.0,0.0,0.0,0.0,0.0,0.0,0.007849693,0.0,0.0,nan,0.0,0.0,0.1296345,0.0,0.0,0.0,0.0,0.0,0.0,0.0,0.0,0.0
224784256,224683860,0.10329659,0.0426639,0.082231194,-0.03460312,-0.0539366,0.0,0.0,0.0,0.0,0.0,0.0,0.0,0.0,0.29618263,0.0,0.0,nan,0.0,0.0,0.13307345,0.0,0.0,0.0,0.0,0.0,0.0,0.0,0.0,0.0
225284380,225183903,0.019113086,-0.02442583,-0.040483892,-0.048104286,-0.057726055,0.0,0.0,0.0,0.0,0.0,0.0,0.0,0.0,0.32735252,0.0,0.0,nan,0.0,0.0,0.12968957,0.0,0.0,0.0,0.0,0.0,0.0,0.0,0.0,0.0
225784342,225683945,-0.044752374,0.017027967,-0.016738534,-0.05372715,-0.05772078,0.0,0.0,0.0,0.0,0.0,0.0,0.0,0.0,0.2794943,0.0,0.0,nan,0.0,0.0,0.12362337,0.0,0.0,0.0,0.0,0.0,0.0,0.0,0.0,0.0
226284542,226183989,0.03668508,-0.10859041,-0.0047836304,-0.03976345,-0.06946772,0.0,0.0,0.0,0.0,0.0,0.0,0.0,0.0,-0.0,0.0,0.0,nan,0.0,0.0,0.0030316114,0.0,0.0,0.0,0.0,0.0,0.0,0.0,0.0,0.0
226784430,226684031,0.051948987,-0.0745678,-0.017059386,-0.048680305,-0.05337596,0.0,0.0,0.0,0.0,0.0,0.0,0.0,0.0,-0.0,0.0,0.0,nan,0.0,0.0,-0.000718832,0.0,0.0,0.0,0.0,0.0,0.0,0.0,0.0,0.0
227284495,227184075,0.098277606,-0.0064300485,0.03227228,-0.036787033,-0.056867898,0.0,0.0,0.0,0.0,0.0,0.0,0.0,0.0,-0.0,0.0,0.0,nan,0.0,0.0,-0.0063785315,0.0,0.0,0.0,0.0,0.0,0.0,0.0,0.0,0.0
227784535,227684118,-0.024502318,-0.086503245,-0.034007847,-0.04947567,-0.051636398,0.0,0.0,0.0,0.0,0.0,0.0,0.0,0.0,-0.0,0.0,0.0,nan,0.0,0.0,-0.00080037117,0.0,0.0,0.0,0.0,0.0,0.0,0.0,0.0,0.0
228284657,228184161,-0.01243937,-0.21733211,-0.017494857,-0.06128788,-0.0919798,0.0,0.0,0.0,0.0,0.0,0.0,0.0,0.0,-0.0,0.0,0.0,nan,0.0,0.0,-0.009699464,0.0,0.0,0.0,0.0,0.0,0.0,0.0,0.0,0.0
228784700,228684204,0.04165172,0.056812234,0.044791162,-0.05819702,-0.06559837,0.0,0.0,0.0,0.0,0.0,0.0,0.0,0.0,0.9965267,0.0,0.0,nan,0.0,0.0,-0.01367116,0.0,0.0,0.0,0.0,0.0,0.0,0.0,0.0,0.0
229284690,229184248,-0.024555549,-0.06084191,0.10723728,-0.07876587,-0.0767048,0.0,0.0,0.0,0.0,0.0,0.0,0.0,0.0,-0.0,0.0,0.0,nan,0.0,0.0,-0.004208684,0.0,0.0,0.0,0.0,0.0,0.0,0.0,0.0,0.0
229784773,229684292,0.005845189,0.090517454,0.008502722,-0.07715893,-0.04420787,0.0,0.0,0.0,0.0,0.0,0.0,0.0,0.0,-0.0,0.0,0.0,nan,0.0,0.0,-0.013904691,0.0,0.0,0.0,0.0,0.0,0.0,0.0,0.0,0.0
230284755,230184335,-0.067726925,0.12769736,-0.026242197,-0.096759796,-0.031282485,0.0,0.0,0.0,0.0,0.0,0.0,0.0,0.0,-0.0,0.0,0.0,nan,0.0,0.0,0.0019317865,0.0,0.0,0.0,0.0,0.0,0.0,0.0,0.0,0.0
230784797,230684379,-0.09250951,-0.10349338,-0.07181895,-0.09418011,-0.04877788,0.0,0.0,0.0,0.0,0.0,0.0,0.0,0.0,0.6193533,0.0,0.0,nan,0.0,0.0,0.0001500845,0.0,0.0,0.0,0.0,0.0,0.0,0.0,0.0,0.0
231284861,231184423,0.14489637,0.0082607195,0.08266777,-0.07713318,-0.046330452,0.0,0.0,0.0,0.0,0.0,0.0,0.0,0.0,-0.0,0.0,0.0,nan,0.0,0.0,0.0037271976,0.0,0.0,0.0,0.0,0.0,0.0,0.0,0.0,0.0
231784889,231684467,-0.09749495,0.034393325,-0.028177023,-0.091955185,-0.04441935,0.0,0.0,0.0,0.0,0.0,0.0,0.0,0.0,-0.0,0.0,0.0,nan,0.0,0.0,-0.0045211315,0.0,0.0,0.0,0.0,0.0,0.0,0.0,0.0,0.0
232284986,232184511,-0.005158633,0.06534639,0.031093359,-0.09488964,-0.024795473,0.0,0.0,0.0,0.0,0.0,0.0,0.0,0.0,-0.0,0.0,0.0,nan,0.0,0.0,0.0024826527,0.0,0.0,0.0,0.0,0.0,0.0,0.0,0.0,0.0
232784974,232684556,0.0916473,0.086841345,0.021394372,-0.084298134,-0.018440187,0.0,0.0,0.0,0.0,0.0,0.0,0.0,0.0,-0.0,0.0,0.0,nan,0.0,0.0,0.012613416,0.0,0.0,0.0,0.0,0.0,0.0,0.0,0.0,0.0
233285004,233184600,-0.031910792,0.12077844,0.039967418,-0.07677555,-0.0036996603,0.0,0.0,0.0,0.0,0.0,0.0,0.0,0.0,-0.0,0.0,0.0,nan,0.0,0.0,0.006077051,0.0,0.0,0.0,0.0,0.0,0.0,0.0,0.0,0.0
233785115,233684645,0.11814303,0.09437758,-0.059050024,-0.07333374,-0.002791077,0.0,0.0,0.0,0.0,0.0,0.0,0.0,0.0,-0.39017582,0.0,0.0,nan,0.0,0.0,0.0050714016,0.0,0.0,0.0,0.0,0.0,0.0,0.0,0.0,0.0
234275101,234174689,0.025153138,0.027895823,-0.08321577,-0.068445206,-0.009611905,0.0,0.0,0.0,0.0,0.0,0.0,0.0,0.0,-0.49538994,0.0,0.0,nan,0.0,0.0,0.0022580624,0.0,0.0,0.0,0.0,0.0,0.0,0.0,0.0,0.0
234785209,234684734,-0.032675713,0.05218161,-0.07463086,-0.076732635,-0.0011577606,0.0,0.0,0.0,0.0,0.0,0.0,0.0,0.0,-0.29134846,0.0,0.0,nan,0.0,0.0,0.0024843216,0.0,0.0,0.0,0.0,0.0,0.0,0.0,0.0,0.0
235285234,235184779,0.07434119,0.030132063,-0.21435612,-0.073984146,-0.006859362,0.0,0.0,0.0,0.0,0.0,0.0,0.0,0.0,0.42268085,0.0,0.0,nan,0.0,0.0,0.045877695,0.0,0.0,0.0,0.0,0.0,0.0,0.0,0.0,0.0
235785247,235684824,-0.06923547,-0.093907304,-0.34654486,-0.06823349,-0.029316604,0.0,0.0,0.0,0.0,0.0,0.0,0.0,0.0,-0.041449547,0.0,0.0,nan,0.0,0.0,0.08245027,0.0,0.0,0.0,0.0,0.0,0.0,0.0,0.0,0.0
236285266,236184869,0.025368959,0.012250289,0.03216672,-0.04617691,-0.029281199,0.0,0.0,0.0,0.0,0.0,0.0,0.0,0.0,0.91608906,0.0,0.0,nan,0.0,0.0,-0.0019291639,0.0,0.0,0.0,0.0,0.0,0.0,0.0,0.0,0.0
236785319,236684914,-0.05966784,-0.0809325,0.025256634,-0.0606308,-0.038339198,0.0,0.0,0.0,0.0,0.0,0.0,0.0,0.0,-0.0653677,0.0,0.0,nan,0.0,0.0,0.021167994,0.0,0.0,0.0,0.0,0.0,0.0,0.0,0.0,0.0
237285394,237184960,-0.008302058,0.002714254,0.084837675,-0.0570755,-0.031859398,0.0,0.0,0.0,0.0,0.0,0.0,0.0,0.0,0.27074623,0.0,0.0,nan,0.0,0.0,0.014799237,0.0,0.0,0.0,0.0,0.0,0.0,0.0,0.0,0.0
237775457,237675004,0.0039001927,0.05117686,0.09862137,-0.044192314,-0.020820975,0.0,0.0,0.0,0.0,0.0,0.0,0.0,0.0,0.22609043,0.0,0.0,nan,0.0,0.0,0.03378594,0.0,0.0,0.0,0.0,0.0,0.0,0.0,0.0,0.0
238285458,238185051,-0.0035921335,-0.020127872,0.07520938,-0.04998398,-0.02019608,0.0,0.0,0.0,0.0,0.0,0.0,0.0,0.0,-0.72267914,0.0,0.0,nan,0.0,0.0,0.046800494,0.0,0.0,0.0,0.0,0.0,0.0,0.0,0.0,0.0
238785472,238685096,-0.016538471,-0.04212497,0.17013264,-0.048954964,-0.016827881,0.0,0.0,0.0,0.0,0.0,0.0,0.0,0.0,-0.9151783,0.0,0.0,nan,0.0,0.0,0.048474073,0.0,0.0,0.0,0.0,0.0,0.0,0.0,0.0,0.0
239285550,239185142,-0.02991724,0.08102083,0.22490382,-0.0560627,0.0066807866,0.0,0.0,0.0,0.0,0.0,0.0,0.0,0.0,0.6925287,0.0,0.0,nan,0.0,0.0,0.05499184,0.0,0.0,0.0,0.0,0.0,0.0,0.0,0.0,0.0
239785602,239685188,0.031542286,0.017239628,0.11796713,-0.044392586,0.009186447,0.0,0.0,0.0,0.0,0.0,0.0,0.0,0.0,0.23709202,0.0,0.0,nan,0.0,0.0,0.050590873,0.0,0.0,0.0,0.0,0.0,0.0,0.0,0.0,0.0
240285638,240185234,0.007615246,0.05219522,0.054979086,-0.05213356,0.021089613,0.0,0.0,0.0,0.0,0.0,0.0,0.0,0.0,0.40707874,0.0,0.0,nan,0.0,0.0,0.041481256,0.0,0.0,0.0,0.0,0.0,0.0,0.0,0.0,0.0
240785683,240685280,-0.046091266,0.007919721,0.0036273003,-0.055573463,0.014678061,0.0,0.0,0.0,0.0,0.0,0.0,0.0,0.0,0.12505627,0.0,0.0,nan,0.0,0.0,0.051494718,0.0,0.0,0.0,0.0,0.0,0.0,0.0,0.0,0.0
241275793,241175325,-0.013137122,0.02196522,0.1344161,-0.051182747,0.00917542,0.0,0.0,0.0,0.0,0.0,0.0,0.0,0.0,-0.88434124,0.0,0.0,nan,0.0,0.0,0.04844129,0.0,0.0,0.0,0.0,0.0,0.0,0.0,0.0,0.0
241775954,241675371,-0.10971688,-0.052456476,0.07492709,-0.072291374,-0.012733161,0.0,0.0,0.0,0.0,0.0,0.0,0.0,0.0,-0.39519596,0.0,0.0,nan,0.0,0.0,0.036567807,0.0,0.0,0.0,0.0,0.0,0.0,0.0,0.0,0.0
242285832,242185418,-0.0105871335,-0.010208696,0.047291756,-0.0780344,-0.015987694,0.0,0.0,0.0,0.0,0.0,0.0,0.0,0.0,-1.3369112,0.0,0.0,nan,0.0,0.0,0.034220576,0.0,0.0,0.0,0.0,0.0,0.0,0.0,0.0,0.0
242785956,242685465,-0.09290393,-0.030285286,0.041913033,-0.09607887,-0.0204646,0.0,0.0,0.0,0.0,0.0,0.0,0.0,0.0,-1.005374,0.0,0.0,nan,0.0,0.0,0.02625978,0.0,0.0,0.0,0.0,0.0,0.0,0.0,0.0,0.0
243285892,243185511,0.011635138,0.062409632,0.09648657,-0.09120655,-0.014121771,0.0,0.0,0.0,0.0,0.0,0.0,0.0,0.0,0.5404253,0.0,0.0,nan,0.0,0.0,0.0343529,0.0,0.0,0.0,0.0,0.0,0.0,0.0,0.0,0.0
243786156,243685558,0.056196444,0.06351268,-0.0063164234,-0.08411121,8.028746e-05,0.0,0.0,0.0,0.0,0.0,0.0,0.0,0.0,-1.3527613,0.0,0.0,nan,0.0,0.0,0.034955025,0.0,0.0,0.0,0.0,0.0,0.0,0.0,0.0,0.0
244286047,244185604,0.043841444,0.039422467,0.07064271,-0.06869221,0.00035214424,0.0,0.0,0.0,0.0,0.0,0.0,0.0,0.0,2.4577742,0.0,0.0,nan,0.0,0.0,0.04747045,0.0,0.0,0.0,0.0,0.0,0.0,0.0,0.0,0.0
244776092,244675650,-0.00397633,0.045797992,0.10313511,-0.06077099,0.0037247539,0.0,0.0,0.0,0.0,0.0,0.0,0.0,0.0,-0.83323383,0.0,0.0,nan,0.0,0.0,0.04736042,0.0,0.0,0.0,0.0,0.0,0.0,0.0,0.0,0.0
245276108,245175696,0.082849786,0.010535255,0.15087509,-0.051610947,0.007443249,0.0,0.0,0.0,0.0,0.0,0.0,0.0,0.0,-2.6528864,0.0,0.0,nan,0.0,0.0,0.04153979,0.0,0.0,0.0,0.0,0.0,0.0,0.0,0.0,0.0
245776191,245675743,0.07708219,-0.020051956,0.12028551,-0.047290802,0.0031187534,0.0,0.0,0.0,0.0,0.0,0.0,0.0,0.0,-0.5781832,0.0,0.0,nan,0.0,0.0,0.047045946,0.0,0.0,0.0,0.0,0.0,0.0,0.0,0.0,0.0
246286337,246185791,0.034845512,-0.0017416328,0.041006565,-0.040777206,0.0033174753,0.0,0.0,0.0,0.0,0.0,0.0,0.0,0.0,-1.2388735,0.0,0.0,nan,0.0,0.0,0.042633772,0.0,0.0,0.0,0.0,0.0,0.0,0.0,0.0,0.0
246786278,246685838,-0.0041606147,-0.029387712,0.010604143,-0.042394638,0.001969993,0.0,0.0,0.0,0.0,0.0,0.0,0.0,0.0,0.17735577,0.0,0.0,nan,0.0,0.0,0.013997316,0.0,0.0,0.0,0.0,0.0,0.0,0.0,0.0,0.0
247286311,247185885,-0.07176064,-0.10133679,-0.007630348,-0.057203293,-0.017582178,0.0,0.0,0.0,0.0,0.0,0.0,0.0,0.0,-0.6144686,0.0,0.0,nan,0.0,0.0,0.029156923,0.0,0.0,0.0,0.0,0.0,0.0,0.0,0.0,0.0
247786431,247685931,-0.023080572,-0.029975042,0.17535853,-0.053797722,-0.01949513,0.0,0.0,0.0,0.0,0.0,0.0,0.0,0.0,-0.58664036,0.0,0.0,nan,0.0,0.0,-0.014801741,0.0,0.0,0.0,0.0,0.0,0.0,0.0,0.0,0.0
248276387,248175977,-0.056771412,0.03411217,0.11925304,-0.051657677,-0.017791033,0.0,0.0,0.0,0.0,0.0,0.0,0.0,0.0,-0.21878147,0.0,0.0,nan,0.0,0.0,-0.028813243,0.0,0.0,0.0,0.0,0.0,0.0,0.0,0.0,0.0
248776445,248676024,-0.051931456,0.0119832605,0.10389459,-0.053980827,-0.021286666,0.0,0.0,0.0,0.0,0.0,0.0,0.0,0.0,-0.3993883,0.0,0.0,nan,0.0,0.0,-0.032434344,0.0,0.0,0.0,0.0,0.0,0.0,0.0,0.0,0.0
249276561,249176071,-0.04626977,0.004381299,0.085953474,-0.049324036,-0.023077011,0.0,0.0,0.0,0.0,0.0,0.0,0.0,0.0,-0.63470936,0.0,0.0,nan,0.0,0.0,-0.023979425,0.0,0.0,0.0,0.0,0.0,0.0,0.0,0.0,0.0
249786569,249686119,0.046733476,-0.0006542504,0.23801148,-0.027157784,-0.025345385,0.0,0.0,0.0,0.0,0.0,0.0,0.0,0.0,0.11704159,0.0,0.0,nan,0.0,0.0,-0.021990538,0.0,0.0,0.0,0.0,0.0,0.0,0.0,0.0,0.0
250286582,250186167,0.04227446,0.15192917,0.20822561,-0.03233719,0.0071482062,0.0,0.0,0.0,0.0,0.0,0.0,0.0,0.0,-0.4853258,0.0,0.0,nan,0.0,0.0,-0.015753865,0.0,0.0,0.0,0.0,0.0,0.0,0.0,0.0,0.0
250786634,250686214,-0.06575976,0.12055346,0.016680956,-0.046764374,0.013585359,0.0,0.0,0.0,0.0,0.0,0.0,0.0,0.0,-0.59177876,0.0,0.0,nan,0.0,0.0,-0.013519168,0.0,0.0,0.0,0.0,0.0,0.0,0.0,0.0,0.0
251286683,251186261,0.0072142184,0.010696724,-0.0044485927,-0.033833504,0.0015771091,0.0,0.0,0.0,0.0,0.0,0.0,0.0,0.0,-0.4257822,0.0,0.0,nan,0.0,0.0,-0.020400882,0.0,0.0,0.0,0.0,0.0,0.0,0.0,0.0,0.0
251776706,251676307,-0.14443135,-0.08639583,-0.08489874,-0.047989845,-0.008436039,0.0,0.0,0.0,0.0,0.0,0.0,0.0,0.0,-0.7075968,0.0,0.0,nan,0.0,0.0,-0.058339953,0.0,0.0,0.0,0.0,0.0,0.0,0.0,0.0,0.0
252276813,252176355,-0.085573316,0.13492548,-0.103556395,-0.047039032,-0.0007959902,0.0,0.0,0.0,0.0,0.0,0.0,0.0,0.0,0.29486752,0.0,0.0,nan,0.0,0.0,0.0022515059,0.0,0.0,0.0,0.0,0.0,0.0,0.0,0.0,0.0
252776799,252676402,0.14781511,0.18483275,-0.045483723,-0.047851562,-0.014914632,0.0,0.0,0.0,0.0,0.0,0.0,0.0,0.0,-0.6331339,0.0,0.0,nan,0.0,0.0,0.044908047,0.0,0.0,0.0,0.0,0.0,0.0,0.0,0.0,0.0
253276998,253176449,0.061378002,0.19342871,-0.02015537,-0.038004875,-0.020123124,0.0,0.0,0.0,0.0,0.0,0.0,0.0,0.0,1.9367819,0.0,0.0,nan,0.0,0.0,0.084047556,0.0,0.0,0.0,0.0,0.0,0.0,0.0,0.0,0.0
253786948,253686498,0.40405604,0.08863813,0.0790844,0.008805275,-0.03203839,0.0,0.0,0.0,0.0,0.0,0.0,0.0,0.0,-0.26900196,0.0,0.0,nan,0.0,0.0,0.08551204,-0.010714382,0.0045411587,0.015145719,0.0,0.0,0.0,0.0,0.0,0.0
254287106,254186545,0.4437896,-0.20789576,-0.1631927,0.046946526,-0.09297627,0.0,0.0,0.0,0.0,0.0,0.0,0.0,0.0,1.057292,0.0,0.0,nan,0.0,0.0,0.08551204,0.015789285,0.011769503,-0.008048803,0.0,0.0,0.0,0.0,0.0,0.0
254787062,254686593,0.1854949,-0.54507947,-0.13107872,0.02792263,-0.15571511,0.0,0.0,0.0,0.0,0.0,0.0,0.0,0.0,0.14786053,0.0,0.0,nan,0.0,0.0,0.08551204,0.016824894,0.008862495,0.0012114644,0.0,0.0,0.0,0.0,0.0,0.0
255277065,255176639,-0.1295538,-0.48457253,-0.1552493,0.020791054,-0.20892978,0.0,0.0,0.0,0.0,0.0,0.0,0.0,0.0,0.55377483,0.0,0.0,nan,0.0,0.0,0.08551204,0.022735532,0.0020427406,0.009093732,0.0,0.0,0.0,0.0,0.0,0.0
255777250,255676687,-0.2049284,-0.35249457,-0.016098,0.018247604,-0.22442055,0.0,0.0,0.0,0.0,0.0,0.0,0.0,0.0,0.618453,0.0,0.0,nan,0.0,0.0,0.08551204,0.03243263,-0.0075465143,-0.019252956,0.0,0.0,0.0,0.0,0.0,0.0
256277165,256176735,-0.41265082,-0.08048251,-0.05208417,-0.023433685,-0.19783711,0.0,0.0,0.0,0.0,0.0,0.0,0.0,0.0,0.09956646,0.0,0.0,nan,0.0,0.0,0.08551204,0.03016923,-0.0062164664,-0.02275443,0.0,0.0,0.0,0.0,0.0,0.0
256777262,256676783,-0.47534364,0.06191516,-0.119481504,-0.0609684,-0.1448369,0.0,0.0,0.0,0.0,0.0,0.0,0.0,0.0,0.31658077,0.0,0.0,nan,0.0,0.0,0.08551204,0.016152967,-0.00050640106,-0.0065823197,0.0,0.0,0.0,0.0,0.0,0.0
257277241,257176831,-0.188129,0.19079971,-0.00324516,-0.067863464,-0.12085366,0.0,0.0,0.0,0.0,0.0,0.0,0.0,0.0,1.6792822,0.0,0.0,nan,0.0,0.0,0.08551204,0.011514306,0.0043210387,0.00035318732,0.0,0.0,0.0,0.0,0.0,0.0
257787283,257686880,-0.002135858,0.2863859,-0.113173634,-0.073028564,-0.112816215,0.0,0.0,0.0,0.0,0.0,0.0,0.0,0.0,-0.25544453,0.0,0.0,nan,0.0,0.0,0.08551204,0.005328387,0.00202322,-0.032923117,0.0,0.0,0.0,0.0,0.0,0.0
258287400,258186928,0.21602267,0.34208012,-0.15738398,-0.06198311,-0.0811183,0.0,0.0,0.0,0.0,0.0,0.0,0.0,0.0,0.022780418,0.0,0.0,nan,0.0,0.0,0.08551204,-0.020232052,0.0021890998,-0.019300595,0.0,0.0,0.0,0.0,0.0,0.0
258777397,258676975,0.14264584,0.18471354,0.017580882,-0.07172012,-0.07331252,0.0,0.0,0.0,0.0,0.0,0.0,0.0,0.0,-0.085972786,0.0,0.0,nan,0.0,0.0,0.08551204,-0.015031517,0.0065562725,0.0053506047,0.0,0.0,0.0,0.0,0.0,0.0
259277503,259177023,0.018083096,-0.054027557,-0.11016823,-0.059877396,-0.07750872,0.0,0.0,0.0,0.0,0.0,0.0,0.0,0.0,0.39602566,0.0,0.0,nan,0.0,0.0,0.08551204,0.005071923,0.0050273836,-0.0036851764,0.0,0.0,0.0,0.0,0.0,0.0
259777509,259677071,-0.02707851,0.01319617,-0.058203585,-0.05898857,-0.06748086,0.0,0.0,0.0,0.0,0.0,0.0,0.0,0.0,1.8031034,0.0,0.0,nan,0.0,0.0,0.08551204,0.0034068972,-0.0022749305,-0.008067757,0.0,0.0,0.0,0.0,0.0,0.0
260277623,260177119,0.0077637434,0.046791136,-0.16543424,-0.071596146,-0.065787554,0.0,0.0,0.0,0.0,0.0,0.0,0.0,0.0,-0.080945015,0.0,0.0,nan,0.0,0.0,0.08551204,0.0067302138,-0.00033468008,-0.0054250658,0.0,0.0,0.0,0.0,0.0,0.0
260777727,260677168,-0.005076885,-0.02877149,-0.21018538,-0.076805115,-0.058198094,0.0,0.0,0.0,0.0,0.0,0.0,0.0,0.0,0.36440182,0.0,0.0,nan,0.0,0.0,0.08551204,0.0090099275,0.004968971,-0.0077439845,0.0,0.0,0.0,0.0,0.0,0.0
261277625,261177216,-0.17370424,-0.025228769,-0.027145498,-0.11119461,-0.060602427,0.0,0.0,0.0,0.0,0.0,0.0,0.0,0.0,-1.4087381,0.0,0.0,nan,0.0,0.0,0.08551204,0.0012961328,0.0002708137,0.01023227,0.0,0.0,0.0,0.0,0.0,0.0
261787718,261687266,-0.006694466,-0.011806443,0.045198582,-0.082113266,-0.050222993,0.0,0.0,0.0,0.0,0.0,0.0,0.0,0.0,0.3098936,0.0,0.0,nan,0.0,0.0,0.08551204,0.0024363697,-0.0017028153,0.0045484006,0.0,0.0,0.0,0.0,0.0,0.0
262277926,262177313,0.024741367,0.08465469,0.12337668,-0.040826797,-0.02412188,0.0,0.0,0.0,0.0,0.0,0.0,0.0,0.0,-0.263669,0.0,0.0,nan,0.0,0.0,0.08551204,-0.00036163628,-0.0032466352,-0.006347835,0.0,0.0,0.0,0.0,0.0,0.0
262777853,262677362,0.044576697,0.036061734,-0.06378672,-0.033304214,-0.014401317,0.0,0.0,0.0,0.0,0.0,0.0,0.0,0.0,-0.589406,0.0,0.0,nan,0.0,0.0,0.08551204,0.0062521845,-0.00587523,-0.02137801,0.0,0.0,0.0,0.0,0.0,0.0
263277921,263177411,-0.012145132,-0.029011272,-0.040687375,-0.035945892,-0.011162281,0.0,0.0,0.0,0.0,0.0,0.0,0.0,0.0,-0.38906956,0.0,0.0,nan,0.0,0.0,0.08551204,0.0009884983,-0.006468773,-0.00643903,0.0,0.0,0.0,0.0,0.0,0.0
263777890,263677459,0.02740021,0.026846275,0.07379776,-0.024307251,-0.00088226795,0.0,0.0,0.0,0.0,0.0,0.0,0.0,0.0,-0.36453724,0.0,0.0,nan,0.0,0.0,0.08551204,-0.008140594,-0.0023703575,0.019821107,0.0,0.0,0.0,0.0,0.0,0.0
264278094,264177509,0.22454125,0.29925668,0.0065850466,0.023513794,0.021422625,0.0,0.0,0.0,0.0,0.0,0.0,0.0,0.0,0.1492567,0.0,0.0,nan,0.0,0.0,0.08551204,-0.07069973,0.0100494325,0.1480429,0.0,0.0,0.0,0.0,0.0,0.0
264777963,264677558,0.3895347,0.15278292,-0.014451161,0.06972885,0.03863907,0.0,0.0,0.0,0.0,0.0,0.0,0.0,0.0,0.69222164,0.0,0.0,nan,0.0,0.0,0.08551204,-0.055304572,0.0115379095,0.14839256,0.0,0.0,0.0,0.0,0.0,0.0
265278067,265177607,0.43095732,-0.059309006,0.007078588,0.13705444,0.03544712,0.0,0.0,0.0,0.0,0.0,0.0,0.0,0.0,3.5366926,0.0,0.0,nan,0.0,0.0,0.08551204,-0.039733514,0.010828406,0.12297596,0.0,0.0,0.0,0.0,0.0,0.0
265778066,265677656,0.39794064,0.0061974525,0.33549753,0.16062355,0.037851334,0.0,0.0,0.0,0.0,0.0,0.0,0.0,0.0,1.7696104,0.0,0.0,nan,0.0,0.0,0.08551204,-0.0096790865,-0.0015915036,0.03516482,0.0,0.0,0.0,0.0,0.0,0.0
266278196,266177705,0.25531483,-0.13902664,0.024499714,0.109163284,-0.029156685,0.0,0.0,0.0,0.0,0.0,0.0,0.0,0.0,1.5883894,0.0,0.0,nan,0.0,0.0,0.08551204,-0.010754257,-0.00370422,0.026750714,0.0,0.0,0.0,0.0,0.0,0.0
266778156,266677754,0.20685959,-0.055508614,0.05856681,0.14303589,0.06148529,0.0,0.0,0.0,0.0,0.0,0.0,0.0,0.0,1.3514166,0.0,0.0,nan,0.0,0.0,0.08551204,-0.010719731,-0.0032637715,0.027813837,0.0,0.0,0.0,0.0,0.0,0.0
267278425,267177803,0.11706972,-0.13665771,0.026907206,0.04340744,-0.06743431,0.0,0.0,0.0,0.0,0.0,0.0,0.0,0.0,2.0117178,0.0,0.0,nan,0.0,0.0,0.08551204,-0.008553222,-0.0051472485,0.009102017,0.0,0.0,0.0,0.0,0.0,0.0
267778313,267677853,-0.03962803,-0.12938309,-0.16455534,0.0333786,-0.051101685,0.0,0.0,0.0,0.0,0.0,0.0,0.0,0.0,2.8484373,0.0,0.0,nan,0.0,0.0,0.08551204,-0.0065587163,-0.0047736466,0.0018413961,0.0,0.0,0.0,0.0,0.0,0.0
268278372,268177903,-0.09094429,-0.18892193,-0.14391312,0.047813416,0.055992126,0.0,0.0,0.0,0.0,0.0,0.0,0.0,0.0,2.4501905,0.0,0.0,nan,0.0,0.0,0.08551204,-0.0053028762,-0.004886478,0.00328812,0.0,0.0,0.0,0.0,0.0,0.0
268778548,268677952,-0.08814335,-0.17422867,0.0051407814,0.049461365,0.08638382,0.0,0.0,0.0,0.0,0.0,0.0,0.0,0.0,2.564433,0.0,0.0,nan,0.0,0.0,0.08551204,-0.0010921806,-0.0049079955,-0.0009937286,0.0,0.0,0.0,0.0,0.0,0.0
269278404,269178001,-0.19452477,-0.3297186,-0.15447652,-0.06596756,-0.10122681,0.0,0.0,0.0,0.0,0.0,0.0,0.0,0.0,-0.17600346,0.0,0.0,nan,0.0,0.0,0.08551204,0.033298917,-0.0057800114,-0.06868628,0.0,0.0,-0.93462276,-0.014188272,0.0,0.0
269778434,269678051,-0.41881084,-0.0023994446,0.092775226,-0.09431076,-0.045269012,0.0,0.0,0.0,0.0,0.0,0.0,0.0,0.0,2.5801878,0.0,0.0,nan,0.0,0.0,0.08551204,0.0067313015,-0.009693794,0.006426394,0.0,0.0,-0.31625462,-0.023066,0.0,0.0
270278476,270178101,-1.0775058,-0.3090229,-0.33123755,-0.18085861,0.13719177,0.0,0.0,0.0,0.0,0.0,0.0,0.0,0.0,0.9012213,0.0,0.0,nan,0.0,0.0,0.08551204,0.018017553,-0.017131275,-0.019652277,0.0,0.0,0.20209885,0.0022679323,0.0,0.0
270778529,270678151,-0.032923937,-0.31941795,0.20836508,-0.07740021,0.06322479,0.0,0.0,0.0,0.0,0.0,0.0,0.0,0.0,1.5784597,0.0,0.0,nan,0.0,0.0,0.08551204,0.024292417,-0.024810761,-0.0871982,0.0,0.0,1.4502192,0.10096525,0.0,0.0
271278551,271178200,0.35591328,-0.098012924,-0.11921835,-0.007282257,-0.08699036,0.0,0.0,0.0,0.0,0.0,0.0,0.0,0.0,0.23197079,0.0,0.0,nan,0.0,0.0,0.08551204,0.0029390706,-0.0076708198,-0.044796333,0.0,0.0,0.24945259,0.12224829,0.0,0.0
271778608,271678250,0.2608323,0.15702438,-0.12859547,0.01285553,0.1211319,0.0,0.0,0.0,0.0,0.0,0.0,0.0,0.0,0.63299084,0.0,0.0,nan,0.0,0.0,0.08551204,-0.0015937984,-0.0024270415,-0.021890521,0.0,0.0,0.76224804,0.04625674,0.0,0.0
272278701,272178300,0.3274058,-0.045064926,-0.22978735,0.07595062,0.10257721,0.0,0.0,0.0,0.0,0.0,0.0,0.0,0.0,0.80681515,0.0,0.0,nan,0.0,0.0,0.08551204,0.004437335,0.0002631545,-0.017081141,0.0,0.0,0.82590103,0.05663411,0.0,0.0
272778711,272678350,0.095201015,-0.07088661,-0.1435256,0.015850067,-0.15211487,0.0,0.0,0.0,0.0,0.0,0.0,0.0,0.0,-0.7485895,0.0,0.0,nan,0.0,0.0,0.08551204,0.004989721,0.0017737746,-0.014266476,0.0,0.0,0.46034336,0.020257097,0.0,0.0
273278783,273178399,-0.05893731,-0.0134010315,-0.19378448,0.011100769,-0.089027405,0.0,0.0,0.0,0.0,0.0,0.0,0.0,0.0,1.8361349,0.0,0.0,nan,0.0,0.0,0.08551204,0.0045328736,-0.003066808,-0.025981843,0.0,0.0,0.09671116,0.0039114053,0.0,0.0
273778970,273678449,-0.12731266,0.03930664,-0.3550328,-0.025276184,-0.19410706,0.0,0.0,0.0,0.0,0.0,0.0,0.0,0.0,-0.9546976,0.0,0.0,nan,0.0,0.0,0.08551204,0.005536586,-0.0034798384,-0.021905392,0.0,0.0,1.6249046,-0.0038835548,0.0,0.0
274278859,274178499,-0.23253155,0.101379395,-0.2992314,-0.005142212,0.06607056,0.0,0.0,0.0,0.0,0.0,0.0,0.0,0.0,0.28105068,0.0,0.0,nan,0.0,0.0,0.08551204,0.006000936,-0.0047392547,-0.017205685,0.0,0.0,1.7206316,-0.0010500056,0.0,0.0
274778929,274678549,-0.14542198,-0.021795273,-0.25511393,-0.019515991,0.043441772,0.0,0.0,0.0,0.0,0.0,0.0,0.0,0.0,0.2047453,0.0,0.0,nan,0.0,0.0,0.08551204,0.0047917217,-0.0052678585,-0.014180183,0.0,0.0,0.10296917,0.00013878413,0.0,0.0
275279158,275178598,-0.22203445,0.054912567,-0.28745037,-0.019294739,0.112716675,0.0,0.0,0.0,0.0,0.0,0.0,0.0,0.0,1.238822,0.0,0.0,nan,0.0,0.0,0.08551204,0.0063633025,-0.010907322,-0.028555721,0.0,0.0,1.4897823,-0.006987457,0.0,0.0
275779007,275678648,0.17384195,-0.046640396,-0.109169394,-0.026031494,0.10522461,0.0,0.0,0.0,0.0,0.0,0.0,0.0,0.0,0.14356518,0.0,0.0,nan,0.0,0.0,0.08551204,-0.0042202994,0.0056636333,0.01008397,0.0,0.0,-0.025217056,-0.038051,0.0,0.0
276279053,276178697,0.8419037,-0.6524925,-0.7138948,-0.05215454,-0.09994507,0.0,0.0,0.0,0.0,0.0,0.0,0.0,0.0,0.5989599,0.0,0.0,nan,0.0,0.0,0.08551204,-0.005688861,0.019150823,0.043414384,0.0,0.0,1.2993011,-0.06494651,0.0,0.0
276779102,276678747,0.3501835,-1.0096846,-0.83094656,-0.024765015,-0.0019683838,0.0,0.0,0.0,0.0,0.0,0.0,0.0,0.0,-0.586709,0.0,0.0,nan,0.0,0.0,0.08551204,0.0058424175,0.021378696,0.036731225,0.0,0.0,1.5713501,0.0068657394,0.0,0.0
277279261,277178797,-0.19539452,-0.35161757,-0.45427716,-0.16563416,-0.024459839,0.0,0.0,0.0,0.0,0.0,0.0,0.0,0.0,3.4668798,0.0,0.0,nan,0.0,0.0,0.08551204,0.0063400567,0.02140826,0.03554617,0.0,0.0,2.518692,0.026783956,0.0,0.0
277779225,277678846,-0.14361572,-0.4437766,-0.24789262,0.07488251,-0.126297,0.0,0.0,0.0,0.0,0.0,0.0,0.0,0.0,0.095477104,0.0,0.0,nan,0.0,0.0,0.08551204,0.006866038,0.02108115,0.014636934,0.0,0.0,4.252695,0.019599466,0.0,0.0
278279252,278178895,-0.35515308,-0.32967758,-0.06575441,0.045585632,-0.11392212,0.0,0.0,0.0,0.0,0.0,0.0,0.0,0.0,1.6264563,0.0,0.0,nan,0.0,0.0,0.08551204,0.016459733,0.024633154,0.012341857,0.0,0.0,6.4090147,0.0025753486,0.0,0.0
278779355,278678945,-0.4077921,0.093652725,0.046470642,-0.023750305,0.036102295,0.0,0.0,0.0,0.0,0.0,0.0,0.0,0.0,0.2973051,0.0,0.0,nan,0.0,0.0,0.08551204,0.018924236,0.02668707,0.0074627995,0.0,0.0,8.655754,-0.014670562,0.0,0.0
279279363,279178994,0.07532421,0.10266495,0.08140135,0.16587067,-0.19187927,0.0,0.0,0.0,0.0,0.0,0.0,0.0,0.0,-0.9698229,0.0,0.0,nan,0.0,0.0,0.08551204,0.016576514,0.026791967,0.0005197227,0.0,0.0,9.856796,0.005544194,0.0,0.0
279779425,279679043,0.53582335,0.24216843,0.23426047,0.22847748,0.024780273,0.0,0.0,0.0,0.0,0.0,0.0,0.0,0.0,1.2736197,0.0,0.0,nan,0.0,0.0,0.08551204,0.027815465,0.033074383,-0.011419743,0.0,0.0,12.123092,0.025641192,0.0,0.0
280279585,280179092,0.6397891,-0.3397751,0.043682575,0.23828888,-0.2940216,0.0,0.0,0.0,0.0,0.0,0.0,0.0,0.0,0.10874081,0.0,0.0,nan,0.0,0.0,0.08551204,0.029243466,0.027408391,-0.061537415,0.0,0.0,10.742959,-0.12781052,0.0,0.0
280779499,280679141,0.837276,-0.50024414,-0.25878954,0.34805298,-0.14878845,0.0,0.0,0.0,0.0,0.0,0.0,0.0,0.0,1.1632338,0.0,0.0,nan,0.0,0.0,0.08551204,0.025435403,0.011194259,-0.045208767,0.0,0.0,11.12324,-0.06844797,0.0,0.0
281279590,281179190,1.2349613,0.19470024,-0.58042014,0.3994522,-0.37846375,0.0,0.0,0.0,0.0,0.0,0.0,0.0,0.0,-0.3477335,0.0,0.0,nan,0.0,0.0,0.08551204,0.026370682,0.0011931062,-0.03165783,0.0,0.0,10.730573,-0.20202544,0.0,0.0
281779651,281679239,0.5386419,0.6926098,-0.50710607,0.4343567,-0.2452774,0.0,0.0,0.0,0.0,0.0,0.0,0.0,0.0,0.14114666,0.0,0.0,nan,0.0,0.0,0.08551204,0.028186478,-0.001924634,-0.04058884,0.0,0.0,9.588347,-0.24368426,0.0,0.0
282279680,282179288,0.07244468,0.63064766,-0.30642745,0.39453125,0.106170654,0.0,0.0,0.0,0.0,0.0,0.0,0.0,0.0,0.94438076,0.0,0.0,nan,0.0,0.0,0.08551204,0.022891104,-0.00082558393,-0.0065312386,0.0,0.0,7.972211,-0.22918326,0.0,0.0
282779731,282679336,0.02619648,0.71362305,-0.49710512,0.4547119,-0.18675995,0.0,0.0,0.0,0.0,0.0,0.0,0.0,0.0,1.4702406,0.0,0.0,nan,0.0,0.0,0.08551204,0.02091597,-0.0047183633,-0.02161932,0.0,0.0,7.2329273,-0.31091532,0.0,0.0
283279742,283179385,-0.60099983,0.5793247,-0.27267736,0.2983551,0.14047241,0.0,0.0,0.0,0.0,0.0,0.0,0.0,0.0,0.6002302,0.0,0.0,nan,0.0,0.0,0.08551204,0.020976529,-0.009521604,-0.02186057,0.0,0.0,6.390398,-0.32189018,0.0,0.0
283779853,283679433,-0.58197975,0.4101715,-0.13040048,0.29261017,0.17876434,0.0,0.0,0.0,0.0,0.0,0.0,0.0,0.0,1.4934225,0.0,0.0,nan,0.0,0.0,0.08551204,0.018280536,-0.0051831305,-0.04033275,0.0,0.0,6.390398,-0.32128602,0.0,0.0
284279854,284179482,-0.60016346,0.257514,-0.08699222,0.37075043,0.02695465,0.0,0.0,0.0,0.0,0.0,0.0,0.0,0.0,-2.8860445,0.0,0.0,nan,0.0,0.0,0.08551204,0.02467528,-0.007963151,-0.049554422,0.0,0.0,6.390398,-0.36611125,0.0,0.0
284779991,284679530,-0.6003132,0.13754654,-0.4688556,0.1988678,0.25936127,0.0,0.0,0.0,0.0,0.0,0.0,0.0,0.0,0.776721,0.0,0.0,nan,0.0,0.0,0.08551204,0.02590686,-0.0053123534,-0.0323938,0.0,0.0,6.390398,-0.34991056,0.0,0.0
285280145,285179578,-0.52437973,0.060933113,0.028693035,0.20994568,0.3338356,0.0,0.0,0.0,0.0,0.0,0.0,0.0,0.0,-2.4177103,0.0,0.0,nan,0.0,0.0,0.08551204,0.027085483,-0.0047911108,-0.029769927,0.0,0.0,6.390398,-0.375727,0.0,0.0
285780116,285679626,-0.5221081,-0.06383419,-0.20624773,0.27993774,0.1686554,0.0,0.0,0.0,0.0,0.0,0.0,0.0,0.0,-0.9808893,0.0,0.0,nan,0.0,0.0,0.08551204,0.027798414,-0.0026396066,-0.027705342,0.0,0.0,6.390398,-0.37466675,0.0,0.0
286280022,286179673,-0.3344097,-0.1687994,-0.23220311,0.15127563,0.25113678,0.0,0.0,0.0,0.0,0.0,0.0,0.0,0.0,2.803031,0.0,0.0,nan,0.0,0.0,0.08551204,0.024855256,-0.0021843761,-0.024078935,0.0,0.0,6.390398,-0.384195,0.0,0.0
286780260,286679722,-0.30774975,-0.22909641,-0.16622442,0.0067443848,0.38573074,0.0,0.0,0.0,0.0,0.0,0.0,0.0,0.0,-0.84393024,0.0,0.0,nan,0.0,0.0,0.08551204,0.0251728,0.0016134083,-0.024928093,0.0,0.0,6.390398,-0.3260975,0.0,0.0
287280188,287179769,-0.25004005,-0.21918297,-0.24571835,0.25776672,0.14293289,0.0,0.0,0.0,0.0,0.0,0.0,0.0,0.0,0.48486614,0.0,0.0,nan,0.0,0.0,0.08551204,0.023940697,-0.0006261915,-0.021440685,0.0,0.0,6.390398,-0.3430798,0.0,0.0
287780210,287679816,-0.13377476,-0.22443008,-0.0630099,0.1409607,0.3483715,0.0,0.0,0.0,0.0,0.0,0.0,0.0,0.0,0.12821102,0.0,0.0,nan,0.0,0.0,0.08551204,0.022222325,-0.00063188374,-0.02356559,0.0,0.0,6.390398,-0.34039286,0.0,0.0
288280259,288179864,-0.13567638,-0.166646,-0.119079575,0.1494751,0.33854103,0.0,0.0,0.0,0.0,0.0,0.0,0.0,0.0,0.45164776,0.0,0.0,nan,0.0,0.0,0.08551204,0.01588741,-0.0016466528,-0.0208925,0.0,0.0,6.390398,-0.3144147,0.0,0.0
288780335,288679911,-0.03164196,-0.10186672,-0.022946939,0.13450623,0.38246822,0.0,0.0,0.0,0.0,0.0,0.0,0.0,0.0,0.022078514,0.0,0.0,nan,0.0,0.0,0.02862513,0.016999662,-0.0024176836,-0.02009356,0.0,0.0,6.390398,-0.31846255,0.0,0.0
289280333,289179958,-0.013568878,-0.1618452,0.30988216,0.06846619,0.53961694,0.0,0.0,0.0,0.0,0.0,0.0,0.0,0.0,-3.105649,0.0,0.0,nan,0.0,0.0,0.022233605,0.016999662,-0.0024176836,-0.02009356,0.0,0.0,6.390398,-0.3159607,0.0,0.0
289780405,289680005,0.05701065,-0.11309528,0.19766273,0.22969055,0.3618083,0.0,0.0,0.0,0.0,0.0,0.0,0.0,0.0,0.32564068,0.0,0.0,nan,0.0,0.0,0.016987264,0.016999662,-0.0024176836,-0.02009356,0.0,0.0,6.390398,-0.30359897,0.0,0.0
290280404,290180051,0.0598917,-0.12411976,0.108493,0.24409485,0.40525055,0.0,0.0,0.0,0.0,0.0,0.0,0.0,0.0,-2.38939,0.0,0.0,nan,0.0,0.0,0.0035573244,0.016999662,-0.0024176836,-0.02009356,0.0,0.0,6.390398,-0.30835456,0.0,0.0
290780472,290680098,0.060707092,-0.009251595,-0.039927363,0.25196838,0.36083984,0.0,0.0,0.0,0.0,0.0,0.0,0.0,0.0,0.6746321,0.0,0.0,nan,0.0,0.0,0.007246077,0.016999662,-0.0024176836,-0.02009356,0.0,0.0,6.390398,-0.3367565,0.0,0.0
291280493,291180145,-0.04605961,0.030781746,0.14444458,0.2605133,0.28914452,0.0,0.0,0.0,0.0,0.0,0.0,0.0,0.0,-0.83871555,0.0,0.0,nan,0.0,0.0,-0.0009679198,0.016999662,-0.0024176836,-0.02009356,0.0,0.0,6.390398,-0.34754404,0.0,0.0
291780611,291680191,-0.050779343,0.0129032135,-0.01624009,0.21369934,0.3099289,0.0,0.0,0.0,0.0,0.0,0.0,0.0,0.0,3.7608938,0.0,0.0,nan,0.0,0.0,0.00943023,0.016999662,-0.0024176836,-0.02009356,0.0,0.0,6.390398,-0.39557287,0.0,0.0
292280589,292180237,0.07207775,-0.075214386,-0.0027574003,0.21784973,0.23493195,0.0,0.0,0.0,0.0,0.0,0.0,0.0,0.0,0.4558363,0.0,0.0,nan,0.0,0.0,0.006916821,0.016999662,-0.0024176836,-0.02009356,0.0,0.0,6.390398,-0.41397884,0.0,0.0
292780636,292680283,0.15265942,0.056179047,0.04328063,0.46176147,0.00036239624,0.0,0.0,0.0,0.0,0.0,0.0,0.0,0.0,-1.6168871,0.0,0.0,nan,0.0,0.0,0.00070273876,0.016999662,-0.0024176836,-0.02009356,0.0,0.0,6.390398,-0.3837929,0.0,0.0
293280744,293180329,-0.024515152,0.027900696,-0.03549385,0.25257874,0.14367676,0.0,0.0,0.0,0.0,0.0,0.0,0.0,0.0,-0.7864008,0.0,0.0,nan,0.0,0.0,0.009205282,0.016999662,-0.0024176836,-0.02009356,0.0,0.0,6.390398,-0.35157624,0.0,0.0
293780756,293680375,-0.039801598,-0.09931564,0.18645355,0.104400635,0.21274185,0.0,0.0,0.0,0.0,0.0,0.0,0.0,0.0,0.6500044,0.0,0.0,nan,0.0,0.0,0.0026375055,0.016999662,-0.0024176836,-0.02009356,0.0,0.0,6.390398,-0.3509206,0.0,0.0
294280770,294180421,-0.04006672,0.03845024,-0.12904897,0.035980225,0.21067047,0.0,0.0,0.0,0.0,0.0,0.0,0.0,0.0,0.4194708,0.0,0.0,nan,0.0,0.0,0.0055953264,0.016999662,-0.0024176836,-0.02009356,0.0,0.0,6.390398,-0.36259207,0.0,0.0
294780847,294680467,-0.038632393,-0.011310577,0.06583744,0.03152466,0.18792725,0.0,0.0,0.0,0.0,0.0,0.0,0.0,0.0,-0.3996973,0.0,0.0,nan,0.0,0.0,0.021319866,0.016999662,-0.0024176836,-0.02009356,0.0,0.0,6.390398,-0.3156013,0.0,0.0
295280862,295180513,0.13839817,-0.011752129,0.08777563,0.042510986,0.111839294,0.0,0.0,0.0,0.0,0.0,0.0,0.0,0.0,3.8312216,0.0,0.0,nan,0.0,0.0,0.011186242,0.016999662,-0.0024176836,-0.02009356,0.0,0.0,6.390398,-0.33052832,0.0,0.0
295780974,295680557,0.10186291,-0.039191246,-0.03972555,0.019989014,0.09423828,0.0,0.0,0.0,0.0,0.0,0.0,0.0,0.0,-2.188569,0.0,0.0,nan,0.0,0.0,0.0113508105,0.016999662,-0.0024176836,-0.02009356,0.0,0.0,6.390398,-0.35859275,0.0,0.0
296280957,296180603,0.17172718,0.031448364,-0.17232518,0.019073486,0.05215454,0.0,0.0,0.0,0.0,0.0,0.0,0.0,0.0,-0.34260654,0.0,0.0,nan,0.0,0.0,0.014353037,0.016999662,-0.0024176836,-0.02009356,0.0,0.0,6.390398,-0.3636611,0.0,0.0
296781020,296680648,0.2068634,0.03338051,0.04744547,-0.005493164,0.06932831,0.0,0.0,0.0,0.0,0.0,0.0,0.0,0.0,-0.80251026,0.0,0.0,nan,0.0,0.0,0.016344845,0.016999662,-0.0024176836,-0.02009356,0.0,0.0,6.390398,-0.34821197,0.0,0.0
297281038,297180693,0.05203724,0.031988144,0.12551486,-0.008239746,0.010154724,0.0,0.0,0.0,0.0,0.0,0.0,0.0,0.0,-1.7476397,0.0,0.0,nan,0.0,0.0,0.009286404,0.016999662,-0.0024176836,-0.02009356,0.0,0.0,6.390398,-0.34443226,0.0,0.0
297781111,297680738,0.09963894,0.06872082,0.20142102,-0.011779785,-0.021774292,0.0,0.0,0.0,0.0,0.0,0.0,0.0,0.0,1.6381979,0.0,0.0,nan,0.0,0.0,0.0048726797,0.016999662,-0.0024176836,-0.02009356,0.0,0.0,6.390398,-0.347673,0.0,0.0
298281193,298180782,0.00710392,0.11538315,0.18323407,-0.04800415,-0.04613495,0.0,0.0,0.0,0.0,0.0,0.0,0.0,0.0,-0.26775455,0.0,0.0,nan,0.0,0.0,0.014300942,0.016999662,-0.0024176836,-0.02009356,0.0,0.0,6.390398,-0.34918427,0.0,0.0
298781173,298680827,0.033926964,0.08212185,-0.025954649,-0.045837402,-0.06755066,0.0,0.0,0.0,0.0,0.0,0.0,0.0,0.0,1.3789892,0.0,0.0,nan,0.0,0.0,0.02322185,0.016999662,-0.0024176836,-0.02009356,0.0,0.0,6.390398,-0.33884034,0.0,0.0
299281246,299180871,0.0897913,0.10129261,0.1149998,-0.07974243,-0.1005249,0.0,0.0,0.0,0.0,0.0,0.0,0.0,0.0,-1.3701296,0.0,0.0,nan,0.0,0.0,0.027204871,0.016999662,-0.0024176836,-0.02009356,0.0,0.0,6.390398,-0.32177922,0.0,0.0
299781313,299680916,0.11772919,-0.01635456,0.16278356,-0.21469116,-0.016998291,0.0,0.0,0.0,0.0,0.0,0.0,0.0,0.0,-0.19256306,0.0,0.0,nan,0.0,0.0,0.022000909,0.016999662,-0.0024176836,-0.02009356,0.0,0.0,6.390398,-0.31479463,0.0,0.0
300281327,300180960,0.016931534,0.03974819,0.00909017,-0.12585449,-0.15382385,0.0,0.0,0.0,0.0,0.0,0.0,0.0,0.0,-0.12314701,0.0,0.0,nan,0.0,0.0,0.016148388,0.016999662,-0.0024176836,-0.02009356,0.0,0.0,6.390398,-0.34118727,0.0,0.0
300781427,300681004,0.1047039,0.115382195,0.17308092,0.1395874,-0.37519836,0.0,0.0,0.0,0.0,0.0,0.0,0.0,0.0,1.2486753,0.0,0.0,nan,0.0,0.0,0.026201725,0.016999662,-0.0024176836,-0.02009356,0.0,0.0,6.390398,-0.37442866,0.0,0.0
301281399,301181048,0.010961533,0.11685276,0.07852342,-0.1882019,-0.14770508,0.0,0.0,0.0,0.0,0.0,0.0,0.0,0.0,-0.21238422,0.0,0.0,nan,0.0,0.0,-0.037280917,0.016999662,-0.0024176836,-0.02009356,0.0,0.0,6.390398,-0.34213364,0.0,0.0
301781443,301681092,0.1790247,0.5194168,0.038170457,-0.16629028,-0.14089966,0.0,0.0,0.0,0.0,0.0,0.0,0.0,0.0,-1.3106928,0.0,0.0,nan,0.0,0.0,-0.056459725,0.012941122,-0.00082188845,-0.016979128,0.0,0.0,6.390398,-0.21091828,0.0,0.0
302281492,302181135,-0.46741104,1.1151743,-0.033675194,-0.3647461,-0.057281494,0.0,0.0,0.0,0.0,0.0,0.0,0.0,0.0,0.7495756,0.0,0.0,nan,0.0,0.0,-0.056459725,-0.0011232793,0.0039509833,-0.0041255206,0.0,0.0,6.390398,-0.2693372,0.0,0.0
302781537,302681179,-0.5981884,0.7264868,0.074855685,-0.22390747,-0.15002441,0.0,0.0,0.0,0.0,0.0,0.0,0.0,0.0,0.67091656,0.0,0.0,nan,0.0,0.0,-0.056459725,0.012207955,0.0014232695,-0.012366861,0.0,0.0,6.390398,-0.27378586,0.0,0.0
303281774,303181222,-0.22632217,-0.04269266,0.3259036,-0.04156494,-0.18087769,0.0,0.0,0.0,0.0,0.0,0.0,0.0,0.0,1.3226385,0.0,0.0,nan,0.0,0.0,-0.056459725,0.012843698,0.00030428916,-0.03188899,0.0,0.0,6.390398,-0.26748943,0.0,0.0
303781622,303681265,-0.3299055,-0.35417843,0.18101507,-0.24609375,-0.31758118,0.0,0.0,0.0,0.0,0.0,0.0,0.0,0.0,-3.8111467,0.0,0.0,nan,0.0,0.0,-0.056459725,0.02509749,-0.0076601803,-0.032493502,0.0,0.0,6.390398,-0.16369739,0.0,0.0
304281698,304181308,-0.27051163,-0.13819695,-0.3642541,-0.103302,-0.20935059,0.0,0.0,0.0,0.0,0.0,0.0,0.0,0.0,-4.4440393,0.0,0.0,nan,0.0,0.0,-0.056459725,0.02631472,-0.006053522,-0.024579197,0.0,0.0,6.390398,-0.13770087,0.0,0.0
304781847,304681351,-0.10151768,-0.26547432,-0.047231197,0.027740479,-0.07847595,0.0,0.0,0.0,0.0,0.0,0.0,0.0,0.0,-2.3319902,0.0,0.0,nan,0.0,0.0,-0.056459725,0.019838005,-0.0033255517,-0.0377914,0.0,0.0,6.390398,-0.11662064,0.0,0.0
305281898,305181394,0.090289116,-0.3402872,0.16157207,0.03366089,-0.055130005,0.0,0.0,0.0,0.0,0.0,0.0,0.0,0.0,-0.74709797,0.0,0.0,nan,0.0,0.0,-0.056459725,0.032975927,-0.006987214,-0.058292776,0.0,0.0,6.390398,-0.0520648,0.0,0.0
305781793,305681437,-0.20245838,-0.24544811,0.2247265,-0.22625732,-0.33389282,0.0,0.0,0.0,0.0,0.0,0.0,0.0,0.0,-2.0951548,0.0,0.0,nan,0.0,0.0,-0.056459725,0.044617414,0.005942749,-0.059561282,0.0,0.0,6.390398,0.03422665,0.0,0.0
306281863,306181480,-0.73958254,0.6499748,-0.26070702,-0.21704102,-0.20555115,0.0,0.0,0.0,0.0,0.0,0.0,0.0,0.0,2.2335386,0.0,0.0,nan,0.0,0.0,-0.056459725,0.0046634525,0.009222753,0.025344849,0.0,0.0,6.390398,0.112803586,0.0,0.0
306781923,306681522,-0.82055664,0.1271038,-0.40608203,-0.18014526,-0.2574463,0.0,0.0,0.0,0.0,0.0,0.0,0.0,0.0,1.8790655,0.0,0.0,nan,0.0,0.0,-0.056459725,0.007076853,0.011271603,0.029254913,0.0,0.0,6.390398,0.10678849,0.0,0.0
307281999,307181565,-0.47307873,-0.3522129,-0.34984595,-0.18933105,-0.18644714,0.0,0.0,0.0,0.0,0.0,0.0,0.0,0.0,0.22626019,0.0,0.0,nan,0.0,0.0,-0.056459725,0.007712774,0.011050552,0.022662789,0.0,0.0,6.390398,0.11676893,0.0,0.0
307781958,307681607,0.085567474,-0.38524342,-0.09236729,-0.025909424,-0.33929443,0.0,0.0,0.0,0.0,0.0,0.0,0.0,0.0,4.6697836,0.0,0.0,nan,0.0,0.0,-0.056459725,0.023927659,0.000492841,-0.021157235,0.0,0.0,6.390398,0.12014603,0.0,0.0
308282144,308181649,0.1847372,-0.38009357,0.11538351,-0.10513306,-0.13433075,0.0,0.0,0.0,0.0,0.0,0.0,0.0,0.0,-1.0820246,0.0,0.0,nan,0.0,0.0,-0.056459725,0.037104473,-0.0014869422,-0.048771918,0.0,0.0,6.390398,0.12441995,0.0,0.0
308782046,308681691,0.20655823,0.025729656,0.23455659,0.13476562,-0.17663574,0.0,0.0,0.0,0.0,0.0,0.0,0.0,0.0,0.5102072,0.0,0.0,nan,0.0,0.0,-0.056459725,0.039984822,-0.0026187599,-0.07092486,0.0,0.0,6.390398,0.122463904,0.0,0.0
309282156,309181735,0.13685417,-0.15244508,-0.060008407,-0.05822754,-0.095336914,0.0,0.0,0.0,0.0,0.0,0.0,0.0,0.0,-0.9866533,0.0,0.0,nan,0.0,0.0,-0.056459725,0.041774094,-0.0137640685,-0.076086104,0.0,0.0,6.390398,0.08129312,0.0,0.0
309782267,309681775,0.05564308,0.24614042,-0.05229354,0.1652832,-0.09047699,0.0,0.0,0.0,0.0,0.0,0.0,0.0,0.0,-1.4706964,0.0,0.0,nan,0.0,0.0,-0.056459725,0.036957294,-0.019861579,-0.06326261,0.0,0.0,6.390398,0.08988395,0.0,0.0
310282223,310181816,-0.1472969,0.4862969,0.20531344,-0.017425537,-0.07102203,0.0,0.0,0.0,0.0,0.0,0.0,0.0,0.0,-1.421525,0.0,0.0,nan,0.0,0.0,-0.056459725,0.033053577,-0.024818182,-0.05342397,0.0,0.0,6.390398,0.11919419,0.0,0.0
310782244,310681858,-0.1277771,0.5840245,0.20734334,0.047576904,-0.04903412,0.0,0.0,0.0,0.0,0.0,0.0,0.0,0.0,-1.6057062,0.0,0.0,nan,0.0,0.0,-0.056459725,0.03060843,-0.027953394,-0.055633217,0.0,0.0,6.390398,0.17975752,0.0,0.0
311282462,311181899,-0.0118198395,0.23254752,0.19641852,0.057739258,-0.036109924,0.0,0.0,0.0,0.0,0.0,0.0,0.0,0.0,-1.4726877,0.0,0.0,nan,0.0,0.0,-0.056459725,0.030505821,-0.020845488,-0.072232306,0.0,0.0,6.390398,0.25018847,0.0,0.0
311782295,311681941,-0.07502556,0.26854897,0.04810238,0.037872314,-0.011108398,0.0,0.0,0.0,0.0,0.0,0.0,0.0,0.0,-1.1799746,0.0,0.0,nan,0.0,0.0,-0.056459725,0.030053169,-0.019471169,-0.07310614,0.0,0.0,6.390398,0.24036151,0.0,0.0
312282394,312181982,-0.056239128,0.037963867,0.03016901,0.051086426,-0.03792572,0.0,0.0,0.0,0.0,0.0,0.0,0.0,0.0,-0.9852648,0.0,0.0,nan,0.0,0.0,-0.056459725,0.030561134,-0.019290939,-0.07116181,0.0,0.0,6.390398,0.27375647,0.0,0.0
312782420,312682023,-0.19558144,-0.059267998,-0.10833764,0.061523438,-0.085510254,0.0,0.0,0.0,0.0,0.0,0.0,0.0,0.0,-0.7397852,0.0,0.0,nan,0.0,0.0,-0.056459725,0.032515645,-0.021000832,-0.05166614,0.0,0.0,6.390398,0.3271054,0.0,0.0
313282495,313182064,0.088974,-0.16646051,0.35652566,0.07904053,-0.13217163,0.0,0.0,0.0,0.0,0.0,0.0,0.0,0.0,-0.8618803,0.0,0.0,nan,0.0,0.0,-0.056459725,0.033141136,-0.016850054,-0.0653345,0.0,0.0,6.390398,0.37661493,0.0,0.0
313782456,313682105,-0.15910912,-0.06419945,0.09903836,0.082977295,-0.17005157,0.0,0.0,0.0,0.0,0.0,0.0,0.0,0.0,-0.6134424,0.0,0.0,nan,0.0,0.0,-0.056459725,0.030622646,-0.019051865,-0.06634396,0.0,0.0,6.390398,0.39718878,0.0,0.0
314282539,314182146,-0.15762997,-0.20076036,0.19730306,0.050811768,-0.19727325,0.0,0.0,0.0,0.0,0.0,0.0,0.0,0.0,-0.23883343,0.0,0.0,nan,0.0,0.0,-0.056459725,0.03366129,-0.019548513,-0.03160256,0.0,0.0,6.390398,0.3902296,0.0,0.0
314782544,314682186,-0.16354084,-0.16926956,-0.038321257,0.0524292,-0.21244049,0.0,0.0,0.0,0.0,0.0,0.0,0.0,0.0,-0.21269894,0.0,0.0,nan,0.0,0.0,-0.056459725,0.030849844,-0.020873457,-0.03428328,0.0,0.0,6.390398,0.37682587,0.0,0.0
315282660,315182227,-0.16890144,-0.16778755,-0.028556585,0.16061401,-0.2763214,0.0,0.0,0.0,0.0,0.0,0.0,0.0,0.0,-0.0416193,0.0,0.0,nan,0.0,0.0,-0.056459725,0.02993901,-0.018167265,-0.036275208,0.0,0.0,6.390398,0.33826348,0.0,0.0
315782630,315682267,-0.09021664,-0.18995285,-0.11804628,-0.0027770996,-0.21422577,0.0,0.0,0.0,0.0,0.0,0.0,0.0,0.0,0.028401375,0.0,0.0,nan,0.0,0.0,-0.056459725,0.029245794,-0.019167893,-0.034215927,0.0,0.0,6.390398,0.2961862,0.0,0.0
316282826,316182308,-0.20019627,-0.060284138,0.081617594,0.00064086914,-0.23971558,0.0,0.0,0.0,0.0,0.0,0.0,0.0,0.0,0.32968235,0.0,0.0,nan,0.0,0.0,-0.056459725,0.027676806,-0.020818323,-0.030403525,0.0,0.0,6.390398,0.31858915,0.0,0.0
316782765,316682348,-0.17916298,0.03519106,0.020056248,0.116485596,-0.28582764,0.0,0.0,0.0,0.0,0.0,0.0,0.0,0.0,0.104496956,0.0,0.0,nan,0.0,0.0,-0.08079505,0.027001247,-0.022572726,-0.031057179,0.0,0.0,6.390398,0.32825202,0.0,0.0
317282798,317182388,-0.03467083,-0.21631575,0.023152351,-0.04776001,-0.22162247,0.0,0.0,0.0,0.0,0.0,0.0,0.0,0.0,0.3891363,0.0,0.0,nan,0.0,0.0,-0.06395507,0.027001247,-0.022572726,-0.031057179,0.0,0.0,6.390398,0.2553635,0.0,0.0
317782827,317682428,-0.09029484,-0.0831604,0.008367538,-0.016830444,-0.23001862,0.0,0.0,0.0,0.0,0.0,0.0,0.0,0.0,0.4243288,0.0,0.0,nan,0.0,0.0,-0.05024624,0.027001247,-0.022572726,-0.031057179,0.0,0.0,6.390398,0.27367613,0.0,0.0
318282828,318182469,-0.35227585,-0.23653364,0.101433754,-0.04536438,-0.24472046,0.0,0.0,0.0,0.0,0.0,0.0,0.0,0.0,0.11386967,0.0,0.0,nan,0.0,0.0,0.012432098,0.028631374,0.00071427226,-0.02950719,0.0,0.0,6.390398,0.396229,0.0,0.0
318782883,318682509,-0.3270092,-0.28086758,-0.24832654,0.10432434,-0.26161194,0.0,0.0,0.0,0.0,0.0,0.0,0.0,0.0,0.72345734,0.0,0.0,nan,0.0,0.0,0.012432098,0.02660814,-0.0012070686,-0.037429392,0.0,0.0,6.390398,0.31887004,0.0,0.0
319282923,319182551,-0.22870064,-0.10441675,-0.1097703,0.076431274,-0.28144073,0.0,0.0,0.0,0.0,0.0,0.0,0.0,0.0,0.6808138,0.0,0.0,nan,0.0,0.0,0.012432098,0.017556638,-0.0070197433,-0.038349956,0.0,0.0,6.390398,0.04326787,0.0,0.0
319782945,319682588,0.18826485,0.46095127,0.07661319,-0.013473511,-0.25218582,0.0,0.0,0.0,0.0,0.0,0.0,0.0,0.0,1.0495157,0.0,0.0,nan,0.0,0.0,0.012432098,0.012059823,-0.020611,-0.029889256,0.0,0.0,6.390398,-0.029760333,0.0,0.0
320282979,320182628,-0.06381035,0.6151573,-0.05880475,-0.004470825,-0.25362015,0.0,0.0,0.0,0.0,0.0,0.0,0.0,0.0,1.3657455,0.0,0.0,nan,0.0,0.0,0.012432098,0.00866811,-0.037373275,-0.04898882,0.0,0.0,6.390398,0.13632631,0.0,0.0
320783016,320682668,0.27162075,0.8410611,0.09593272,0.0050964355,-0.18267441,0.0,0.0,0.0,0.0,0.0,0.0,0.0,0.0,1.5977345,0.0,0.0,nan,0.0,0.0,0.012432098,-0.0029035509,-0.025994152,0.019328251,0.0,0.0,6.390398,0.18580717,0.0,0.0
321283206,321182708,0.39545822,0.16999722,-0.102075815,0.09613037,-0.17125702,0.0,0.0,0.0,0.0,0.0,0.0,0.0,0.0,-1.9032383,0.0,0.0,nan,0.0,0.0,0.012432098,0.006267756,-0.025798112,-0.0035513341,0.0,0.0,6.390398,0.34057614,0.0,0.0
321783129,321682747,0.21990395,-0.18032074,-0.4444512,0.2108612,-0.26490402,0.0,0.0,0.0,0.0,0.0,0.0,0.0,0.0,6.175128,0.0,0.0,nan,0.0,0.0,0.012432098,0.0043493807,-0.009349793,-0.0006007552,0.0,0.0,6.390398,0.47122553,0.0,0.0
322283156,322182787,0.043706894,-0.28641033,-0.30426037,0.17936707,-0.24363899,0.0,0.0,0.0,0.0,0.0,0.0,0.0,0.0,2.7981672,0.0,0.0,nan,0.0,0.0,0.012432098,0.0017672628,-0.003483057,0.02119711,0.0,0.0,6.390398,0.39378902,0.0,0.0
322783348,322682827,-0.09680939,-0.3604746,-0.34898567,0.18467712,-0.25688744,0.0,0.0,0.0,0.0,0.0,0.0,0.0,0.0,0.3060255,0.0,0.0,nan,0.0,0.0,0.012432098,-0.0042657256,-0.00040459936,0.034419596,0.0,0.0,6.390398,0.25845486,0.0,0.0
323283220,323182866,-0.012237549,-0.23962784,-0.33309004,0.1815033,-0.23856354,0.0,0.0,0.0,0.0,0.0,0.0,0.0,0.0,-1.3605471,0.0,0.0,nan,0.0,0.0,0.012432098,-0.006214261,-0.0032366384,0.031931043,0.0,0.0,6.390398,0.18195406,0.0,0.0
323783262,323682905,0.30681038,0.009959221,0.09657389,0.067596436,-0.14890862,0.0,0.0,0.0,0.0,0.0,0.0,0.0,0.0,3.0557566,0.0,0.0,nan,0.0,0.0,0.012432098,-0.0054540634,-0.011721823,0.016474485,0.0,0.0,6.390398,0.17243113,0.0,0.0
324283371,324182945,0.091962814,0.043709755,-0.22216108,0.1974945,-0.20272923,0.0,0.0,0.0,0.0,0.0,0.0,0.0,0.0,1.3041592,0.0,0.0,nan,0.0,0.0,0.012432098,-1.0102987e-05,-0.0113592,0.0126057565,0.0,0.0,6.390398,0.22677314,0.0,0.0
324783369,324682984,0.1397171,0.05587864,-0.07137668,0.020874023,-0.11637783,0.0,0.0,0.0,0.0,0.0,0.0,0.0,0.0,-0.9154444,0.0,0.0,nan,0.0,0.0,0.012432098,0.0015167594,-0.011117309,0.010002732,0.0,0.0,6.390398,0.22295481,0.0,0.0
325283376,325183024,-0.01169014,-0.055721283,-0.2759725,0.038711548,-0.13153315,0.0,0.0,0.0,0.0,0.0,0.0,0.0,0.0,-1.7876482,0.0,0.0,nan,0.0,0.0,0.012432098,0.0035616457,-0.011263825,0.0011976659,0.0,0.0,6.390398,0.18776084,0.0,0.0
325783419,325683063,0.022649765,-0.03258562,-0.04938394,0.36309814,-0.27006006,0.0,0.0,0.0,0.0,0.0,0.0,0.0,0.0,-0.82416916,0.0,0.0,nan,0.0,0.0,0.012432098,0.004770756,-0.012872003,0.0019599795,0.0,0.0,6.390398,0.22441614,0.0,0.0
326283457,326183102,0.019330978,0.07374668,0.12954697,0.031448364,-0.13344109,0.0,0.0,0.0,0.0,0.0,0.0,0.0,0.0,-2.9915438,0.0,0.0,nan,0.0,0.0,0.012432098,0.003581047,-0.01215592,0.0048698485,0.0,0.0,6.390398,0.23553102,0.0,0.0
326783521,326683142,-0.046650887,0.16712952,0.013346314,0.013015747,-0.114715576,0.0,0.0,0.0,0.0,0.0,0.0,0.0,0.0,-1.800333,0.0,0.0,nan,0.0,0.0,0.012432098,0.002680868,-0.010853387,0.018497229,0.0,0.0,6.390398,0.23240077,0.0,0.0
327283535,327183180,0.021460533,0.07133818,-0.03126225,0.012016296,-0.11280632,0.0,0.0,0.0,0.0,0.0,0.0,0.0,0.0,-4.761346,0.0,0.0,nan,0.0,0.0,0.012432098,-0.0038171113,-0.014078185,0.014951944,0.0,0.0,6.390398,0.25944954,0.0,0.0
327783663,327683220,0.032463074,0.11573553,-0.03150165,0.044563293,-0.09496975,0.0,0.0,0.0,0.0,0.0,0.0,0.0,0.0,0.7863455,0.0,0.0,nan,0.0,0.0,-0.020990849,-0.004112631,-0.010372654,0.01889968,0.0,0.0,6.390398,0.24943,0.0,0.0
328283612,328183259,-0.08485317,0.024977684,-0.11886349,0.3413849,-0.20736217,0.0,0.0,0.0,0.0,0.0,0.0,0.0,0.0,-0.8904314,0.0,0.0,nan,0.0,0.0,-0.02632618,-0.004112631,-0.010372654,0.01889968,0.0,0.0,6.390398,0.24379992,0.0,0.0
328783695,328683298,0.04209709,0.030634403,-0.3434927,0.05760193,-0.06264877,0.0,0.0,0.0,0.0,0.0,0.0,0.0,0.0,0.876256,0.0,0.0,nan,0.0,0.0,-0.02495575,-0.004112631,-0.010372654,0.01889968,0.0,0.0,6.390398,0.23027675,0.0,0.0
329283756,329183337,-4.196167e-05,-0.019803047,-0.13591981,0.06150818,-0.05168724,0.0,0.0,0.0,0.0,0.0,0.0,0.0,0.0,1.4857063,0.0,0.0,nan,0.0,0.0,-0.018882513,-0.004112631,-0.010372654,0.01889968,0.0,0.0,6.390398,0.20492499,0.0,0.0
329783910,329683376,0.07008362,0.01092577,0.040074468,0.24120331,-0.12786674,0.0,0.0,0.0,0.0,0.0,0.0,0.0,0.0,-2.9789438,0.0,0.0,nan,0.0,0.0,-0.026876926,-0.004112631,-0.010372654,0.01889968,0.0,0.0,6.390398,0.22475046,0.0,0.0
330283769,330183415,0.026955605,-0.04429388,-0.0907397,0.23355865,-0.115177155,0.0,0.0,0.0,0.0,0.0,0.0,0.0,0.0,2.011899,0.0,0.0,nan,0.0,0.0,-0.03789544,-0.004112631,-0.010372654,0.01889968,0.0,0.0,6.390398,0.21034575,0.0,0.0
330783947,330683454,-0.012178421,0.017368317,-0.113698244,0.26824188,-0.121889114,0.0,0.0,0.0,0.0,0.0,0.0,0.0,0.0,-0.74823093,0.0,0.0,nan,0.0,0.0,-0.021840096,-0.004112631,-0.010372654,0.01889968,0.0,0.0,6.390398,0.18424976,0.0,0.0
331283889,331183492,-0.06802273,-0.027154922,-0.008986145,0.056884766,-0.046840668,0.0,0.0,0.0,0.0,0.0,0.0,0.0,0.0,3.8737497,0.0,0.0,nan,0.0,0.0,-0.026890993,-0.004112631,-0.010372654,0.01889968,0.0,0.0,6.390398,0.18975319,0.0,0.0
331784096,331683531,0.06833267,-0.14695835,0.16000074,0.095638275,-0.07319641,0.0,0.0,0.0,0.0,0.0,0.0,0.0,0.0,-0.9142065,0.0,0.0,nan,0.0,0.0,-0.02566576,-0.004112631,-0.010372654,0.01889968,0.0,0.0,6.390398,0.19059557,0.0,0.0
332283991,332183571,0.01822567,-0.07112789,0.061596848,0.065898895,-0.058940887,0.0,0.0,0.0,0.0,0.0,0.0,0.0,0.0,3.7460957,0.0,0.0,nan,0.0,0.0,-0.024708986,-0.004112631,-0.010372654,0.01889968,0.0,0.0,6.390398,0.17175727,0.0,0.0
332784028,332683609,0.003493309,0.05101633,-0.101273715,0.23246956,-0.1295166,0.0,0.0,0.0,0.0,0.0,0.0,0.0,0.0,-1.9477854,0.0,0.0,nan,0.0,0.0,-0.019194603,-0.004112631,-0.010372654,0.01889968,0.0,0.0,6.390398,0.1479303,0.0,0.0
333284063,333183648,-0.14031506,0.009827614,0.0008673072,0.075315475,-0.060668945,0.0,0.0,0.0,0.0,0.0,0.0,0.0,0.0,-1.579669,0.0,0.0,nan,0.0,0.0,-0.03615403,-0.004112631,-0.010372654,0.01889968,0.0,0.0,6.390398,0.16386887,0.0,0.0
333784140,333683686,0.006668091,0.017870903,0.06629664,0.048152924,-0.043445587,0.0,0.0,0.0,0.0,0.0,0.0,0.0,0.0,-2.5575838,0.0,0.0,nan,0.0,0.0,-0.03011465,-0.004112631,-0.010372654,0.01889968,0.0,0.0,6.390398,0.16934615,0.0,0.0
334284149,334183725,-0.024216652,-0.07327604,-0.025791526,0.22775662,-0.12364197,0.0,0.0,0.0,0.0,0.0,0.0,0.0,0.0,-0.25355816,0.0,0.0,nan,0.0,0.0,-0.02875328,-0.004112631,-0.010372654,0.01889968,0.0,0.0,6.390398,0.16094409,0.0,0.0
334784259,334683764,-0.080186844,0.037186146,0.10072744,0.20266104,-0.11223221,0.0,0.0,0.0,0.0,0.0,0.0,0.0,0.0,-3.294888,0.0,0.0,nan,0.0,0.0,-0.02831006,-0.004112631,-0.010372654,0.01889968,0.0,0.0,6.390398,0.16399916,0.0,0.0
335284178,335183802,-0.076366425,-0.08921862,0.1610719,0.039697647,-0.04553604,0.0,0.0,0.0,0.0,0.0,0.0,0.0,0.0,1.0543375,0.0,0.0,nan,0.0,0.0,-0.025737524,-0.004112631,-0.010372654,0.01889968,0.0,0.0,6.390398,0.16443911,0.0,0.0
335784288,335683840,-0.14917564,0.11630249,-0.23616019,0.05996895,-0.028892517,0.0,0.0,0.0,0.0,0.0,0.0,0.0,0.0,0.012576103,0.0,0.0,nan,0.0,0.0,-0.0017375946,-0.004112631,-0.010372654,0.01889968,0.0,0.0,6.390398,0.1410247,0.0,0.0
336284241,336183879,0.08589554,0.03015089,0.07604778,0.23222351,-0.09524536,0.0,0.0,0.0,0.0,0.0,0.0,0.0,0.0,-1.969698,0.0,0.0,nan,0.0,0.0,-0.019675016,-0.004112631,-0.010372654,0.01889968,0.0,0.0,6.390398,0.13126661,0.0,0.0
336784377,336683917,0.120082855,-0.1248498,0.05246979,0.3163681,-0.12574768,0.0,0.0,0.0,0.0,0.0,0.0,0.0,0.0,0.3042755,0.0,0.0,nan,0.0,0.0,-0.020172834,-0.004112631,-0.010372654,0.01889968,0.0,0.0,6.390398,0.16316421,0.0,0.0
337284322,337183959,0.10131836,0.25309086,0.008556366,0.27840424,-0.08924103,0.0,0.0,0.0,0.0,0.0,0.0,0.0,0.0,-2.1823797,0.0,0.0,nan,0.0,0.0,0.055270195,-0.035607845,-0.007702574,0.052274063,0.0,0.0,6.390398,0.12889306,0.0,0.0
337787031,337683994,0.21158028,0.36362267,-0.1582542,0.33163452,-0.028320312,0.0,0.0,0.0,0.0,0.0,0.0,0.0,0.0,-0.8245611,0.0,0.0,nan,0.0,0.0,0.055270195,-0.040927768,-0.015587717,0.06446442,0.0,0.0,6.390398,0.15144955,0.0,0.0
338284407,338184032,0.38258266,0.25920773,-0.039670706,0.21321869,0.14925385,0.0,0.0,0.0,0.0,0.0,0.0,0.0,0.0,0.9439354,0.0,0.0,nan,0.0,0.0,0.055270195,-0.039888218,-0.009002656,0.07407244,0.0,0.0,6.390398,0.17978583,0.0,0.0
338784515,338684071,0.07310104,-0.05919552,0.16200733,0.48651886,-0.15810394,0.0,0.0,0.0,0.0,0.0,0.0,0.0,0.0,3.6415787,0.0,0.0,nan,0.0,0.0,0.055270195,-0.038440436,-0.008672476,0.080625236,0.0,0.0,6.390398,0.15468752,0.0,0.0
339284602,339184109,0.35644913,0.038282394,-0.1576395,0.34292603,0.041862488,0.0,0.0,0.0,0.0,0.0,0.0,0.0,0.0,-0.6826792,0.0,0.0,nan,0.0,0.0,0.055270195,-0.033174887,-0.013635367,0.078706145,0.0,0.0,6.390398,0.18531376,0.0,0.0
339784503,339684147,0.36316395,0.041542053,-0.10380292,0.26289368,0.20054626,0.0,0.0,0.0,0.0,0.0,0.0,0.0,0.0,-3.1745052,0.0,0.0,nan,0.0,0.0,0.055270195,-0.032723546,-0.011640608,0.07415542,0.0,0.0,6.390398,0.22487888,0.0,0.0
340284585,340184186,0.48531199,-0.21451187,-0.19391203,0.28851318,0.16403198,0.0,0.0,0.0,0.0,0.0,0.0,0.0,0.0,1.6134052,0.0,0.0,nan,0.0,0.0,0.055270195,-0.030297577,-0.009016454,0.075874835,0.0,0.0,6.390398,0.21118346,0.0,0.0
340784733,340684223,0.12706804,-0.19787025,0.464998,0.2417221,0.201828,0.0,0.0,0.0,0.0,0.0,0.0,0.0,0.0,-1.02876,0.0,0.0,nan,0.0,0.0,0.055270195,-0.027872711,-0.009023875,0.072943434,0.0,0.0,6.390398,0.2434254,0.0,0.0
341284684,341184262,0.14848566,-0.013402939,0.091579676,0.19725037,7.6293945e-05,0.0,0.0,0.0,0.0,0.0,0.0,0.0,0.0,3.301879,0.0,0.0,nan,0.0,0.0,0.055270195,-0.026398003,-0.010715693,0.0743058,0.0,0.0,6.390398,0.17262278,0.0,0.0
341784659,341684299,0.20567341,-0.068403244,0.0056083202,0.16721344,0.100753784,0.0,0.0,0.0,0.0,0.0,0.0,0.0,0.0,-0.27410984,0.0,0.0,nan,0.0,0.0,0.055270195,-0.024122007,-0.010640383,0.0714933,0.0,0.0,6.390398,0.19431181,0.0,0.0
342284769,342184337,0.110652685,0.035425186,0.081620455,0.13226318,0.09056091,0.0,0.0,0.0,0.0,0.0,0.0,0.0,0.0,-1.477704,0.0,0.0,nan,0.0,0.0,0.055270195,-0.021292035,-0.008041501,0.07161177,0.0,0.0,6.390398,0.2054143,0.0,0.0
342784741,342684375,0.06342459,0.013298035,0.13497353,0.08973694,0.11584473,0.0,0.0,0.0,0.0,0.0,0.0,0.0,0.0,-2.90623,0.0,0.0,nan,0.0,0.0,0.055270195,-0.020182565,-0.0059962273,0.06930159,0.0,0.0,6.390398,0.13006327,0.0,0.0
343284768,343184413,-0.01918888,0.03014946,0.22345686,0.08532715,0.34713745,0.0,0.0,0.0,0.0,0.0,0.0,0.0,0.0,-0.20508671,0.0,0.0,nan,0.0,0.0,0.055270195,-0.019154802,-0.00836277,0.062865965,0.0,0.0,6.390398,0.07094207,0.0,0.0
343784855,343684451,0.2705412,-0.030908585,0.1370238,0.055847168,0.365036,0.0,0.0,0.0,0.0,0.0,0.0,0.0,0.0,1.851182,0.0,0.0,nan,0.0,0.0,0.055270195,-0.014975622,-0.005469829,0.0601969,0.0,0.0,6.390398,0.05706249,0.0,0.0
344284914,344184489,0.11421108,0.038078308,0.20439959,0.039741516,0.43473816,0.0,0.0,0.0,0.0,0.0,0.0,0.0,0.0,-1.8194437,0.0,0.0,nan,0.0,0.0,0.055270195,-0.014979422,-0.0068003237,0.046159975,0.0,0.0,6.390398,0.036455143,0.0,0.0
344784875,344684526,0.1210947,0.0034399033,0.1664679,-0.1265564,0.2872467,0.0,0.0,0.0,0.0,0.0,0.0,0.0,0.0,-1.3358469,0.0,0.0,nan,0.0,0.0,0.055270195,-0.012821794,-0.001893431,0.04926482,0.0,0.0,6.390398,0.022297138,0.0,0.0
345284913,345184564,-0.14107227,-0.04240513,0.16868591,-0.030529022,0.42538452,0.0,0.0,0.0,0.0,0.0,0.0,0.0,0.0,2.2433271,0.0,0.0,nan,0.0,0.0,0.055270195,-0.010679558,-0.0015284717,0.044678703,0.0,0.0,6.390398,-0.0030129105,0.0,0.0
345785096,345684602,-0.13481331,-0.039452553,0.16046524,-0.24021149,0.3018341,0.0,0.0,0.0,0.0,0.0,0.0,0.0,0.0,-1.1968908,0.0,0.0,nan,0.0,0.0,0.055270195,-0.010450065,-0.0041152835,0.028762877,0.0,0.0,6.390398,-0.028963367,0.0,0.0
346285054,346184639,0.19529915,0.011594772,0.15188718,-0.21046066,0.31303406,0.0,0.0,0.0,0.0,0.0,0.0,0.0,0.0,-0.32931423,0.0,0.0,nan,0.0,0.0,0.055270195,-0.008986041,0.0014895797,0.027009383,0.0,0.0,6.390398,-0.03643478,0.0,0.0
346785024,346684677,0.010866165,-0.28925705,-0.11067104,-0.25016403,0.2709961,0.0,0.0,0.0,0.0,0.0,0.0,0.0,0.0,-3.2789278,0.0,0.0,nan,0.0,0.0,0.055270195,-0.008129716,0.00488618,0.020552233,0.0,0.0,6.390398,-0.059554048,0.0,0.0
347285261,347184714,0.06430435,0.0294801,0.26327252,-0.07159805,0.31861877,0.0,0.0,0.0,0.0,0.0,0.0,0.0,0.0,-0.24740696,0.0,0.0,nan,0.0,0.0,0.055270195,-0.0067608953,0.007730067,0.028594881,0.0,0.0,6.390398,-0.08821854,0.0,0.0
347785118,347684752,0.37932014,0.123089015,0.1671269,-0.42214584,0.29586792,0.0,0.0,0.0,0.0,0.0,0.0,0.0,0.0,-1.9379969,0.0,0.0,nan,0.0,0.0,0.055270195,-0.007400751,0.005207613,0.025440186,0.0,0.0,6.390398,-0.11446542,0.0,0.0
348285152,348184789,-0.003917694,-0.099802494,0.04516673,-0.26168108,0.23164368,0.0,0.0,0.0,0.0,0.0,0.0,0.0,0.0,-2.4995737,0.0,0.0,nan,0.0,0.0,0.055270195,-0.0055398643,0.009314239,0.023266226,0.0,0.0,6.390398,-0.1217299,0.0,0.0
348785176,348684827,0.27611923,-0.058763742,0.115926266,-0.052008003,0.18992615,0.0,0.0,0.0,0.0,0.0,0.0,0.0,0.0,-2.0119257,0.0,0.0,nan,0.0,0.0,0.055270195,-0.008848339,0.013145417,0.015384555,0.0,0.0,6.390398,-0.1283066,0.0,0.0
349285252,349184864,0.29291534,0.032136917,0.092008114,-0.23932934,0.19017029,0.0,0.0,0.0,0.0,0.0,0.0,0.0,0.0,0.24639034,0.0,0.0,nan,0.0,0.0,0.055270195,-0.008798271,0.01803048,0.016808808,0.0,0.0,6.390398,-0.12200401,0.0,0.0
349775293,349674900,0.14441872,-0.08696079,0.020891666,-0.17936897,0.14024353,0.0,0.0,0.0,0.0,0.0,0.0,0.0,0.0,-1.7318888,0.0,0.0,nan,0.0,0.0,0.055270195,-0.006543368,0.012098253,0.036977887,0.0,0.0,6.390398,-0.13385335,0.0,0.0
350285290,350184938,0.3666582,-0.09400463,0.19511318,-0.11839485,0.13563538,0.0,0.0,0.0,0.0,0.0,0.0,0.0,0.0,-0.21094608,0.0,0.0,nan,0.0,0.0,0.055270195,-0.00308761,0.013432898,0.02208528,0.0,0.0,6.390398,-0.1303414,0.0,0.0
350785332,350684975,0.25604916,-0.01154232,0.24286544,-0.07337761,0.13342285,0.0,0.0,0.0,0.0,0.0,0.0,0.0,0.0,-1.1139498,0.0,0.0,nan,0.0,0.0,0.055270195,0.00088855624,0.016703589,0.016987532,0.0,0.0,6.390398,-0.14538173,0.0,0.0
351285389,351185013,0.35822964,-0.08530712,0.2877636,-0.038547516,0.1265564,0.0,0.0,0.0,0.0,0.0,0.0,0.0,0.0,-0.35421467,0.0,0.0,nan,0.0,0.0,0.055270195,0.0002795756,0.0143227,0.0050640404,0.0,0.0,6.390398,-0.14782467,0.0,0.0
351785417,351685050,0.14746761,-0.08501625,0.14229035,-0.07848358,0.22479248,0.0,0.0,0.0,0.0,0.0,0.0,0.0,0.0,-3.8632517,0.0,0.0,nan,0.0,0.0,0.055270195,0.0031973422,0.01754114,0.006665945,0.0,0.0,6.390398,-0.147452,0.0,0.0
352285594,352185087,0.18729591,-0.03252411,0.2399534,0.0097846985,0.22842407,0.0,0.0,0.0,0.0,0.0,0.0,0.0,0.0,-0.39045048,0.0,0.0,nan,0.0,0.0,0.055270195,0.0027515441,0.017582117,0.0060664117,0.0,0.0,6.390398,-0.14758734,0.0,0.0
352785540,352685124,-0.051348686,-0.0021648407,-0.06829709,0.12179184,0.04423523,0.0,0.0,0.0,0.0,0.0,0.0,0.0,0.0,-4.880555,0.0,0.0,nan,0.0,0.0,0.055270195,0.00073714554,0.01831185,-0.00012886524,0.0,0.0,6.390398,-0.13251685,0.0,0.0
353275717,353175160,-0.08758688,-0.05242157,-0.016530067,0.2242279,-0.12864685,0.0,0.0,0.0,0.0,0.0,0.0,0.0,0.0,0.45234966,0.0,0.0,nan,0.0,0.0,0.055270195,-0.000234887,0.020325467,0.002028048,0.0,0.0,6.390398,-0.11236938,0.0,0.0
353775581,353675196,0.14353955,0.094882965,0.10169417,0.2171669,0.29307556,0.0,0.0,0.0,0.0,0.0,0.0,0.0,0.0,-3.7857485,0.0,0.0,nan,0.0,0.0,0.055270195,-0.00036151707,0.017959364,-0.0016654134,0.0,0.0,6.390398,-0.1078045,0.0,0.0
354285640,354185234,0.040393233,-0.038784027,-0.06906044,0.26073074,0.41134644,0.0,0.0,0.0,0.0,0.0,0.0,0.0,0.0,3.0461836,0.0,0.0,nan,0.0,0.0,0.055270195,-0.0017959848,0.01706709,9.855628e-05,0.0,0.0,6.390398,-0.094045624,0.0,0.0
