timestamp,timestamp_sample,gps_hvel[0],gps_hvel[1],gps_vvel,gps_hpos[0],gps_hpos[1],gps_vpos,ev_hvel[0],ev_hvel[1],ev_vvel,ev_hpos[0],ev_hpos[1],ev_vpos,rng_vpos,baro_vpos,aux_hvel[0],aux_hvel[1],aux_vvel,flow[0],flow[1],heading,mag_field[0],mag_field[1],mag_field[2],drag[0],drag[1],airspeed,beta,hagl,hagl_rate
217838751,217738281,0.10060332,0.10061175,0.21405241,1.2339497,1.2339687,0.0,0.0,0.0,0.0,0.0,0.0,0.0,0.0,12.407215,0.0,0.0,nan,0.0,0.0,0.09034645,0.0,0.0,0.0,0.0,0.0,0.0,0.0,0.0,0.0
218338741,218238322,0.10066724,0.1006705,0.21409568,1.2165388,1.216554,0.0,0.0,0.0,0.0,0.0,0.0,0.0,0.0,12.404988,0.0,0.0,nan,0.0,0.0,0.09034676,0.0,0.0,0.0,0.0,0.0,0.0,0.0,0.0,0.0
218838743,218738363,0.100651525,0.10065254,0.21411186,1.2033526,1.2033654,0.0,0.0,0.0,0.0,0.0,0.0,0.0,0.0,12.4068,0.0,0.0,nan,0.0,0.0,0.090347014,0.0,0.0,0.0,0.0,0.0,0.0,0.0,0.0,0.0
219338827,219238404,0.10063337,0.10063247,0.21411388,1.185868,1.1858773,0.0,0.0,0.0,0.0,0.0,0.0,0.0,0.0,12.405354,0.0,0.0,nan,0.0,0.0,0.09034745,0.0,0.0,0.0,0.0,0.0,0.0,0.0,0.0,0.0
219838833,219738445,0.100557886,0.10055654,0.21409085,1.1746976,1.1747049,0.0,0.0,0.0,0.0,0.0,0.0,0.0,0.0,12.406237,0.0,0.0,nan,0.0,0.0,0.09034773,0.0,0.0,0.0,0.0,0.0,0.0,0.0,0.0,0.0
220338915,220238487,0.10053669,0.1005355,0.21409446,1.1574227,1.1574272,0.0,0.0,0.0,0.0,0.0,0.0,0.0,0.0,12.404735,0.0,0.0,nan,0.0,0.0,0.09034813,0.0,0.0,0.0,0.0,0.0,0.0,0.0,0.0,0.0
220838992,220738528,0.100534216,0.1005334,0.21405628,1.144596,1.1445991,0.0,0.0,0.0,0.0,0.0,0.0,0.0,0.0,12.406181,0.0,0.0,nan,0.0,0.0,0.09034854,0.0,0.0,0.0,0.0,0.0,0.0,0.0,0.0,0.0
221339022,221238570,0.1006079,0.10060718,0.21411087,1.1299134,1.1299148,0.0,0.0,0.0,0.0,0.0,0.0,0.0,0.0,12.404438,0.0,0.0,nan,0.0,0.0,0.09034881,0.0,0.0,0.0,0.0,0.0,0.0,0.0,0.0,0.0
221839005,221738612,0.10051602,0.100515895,0.21408716,1.1190058,1.1190063,0.0,0.0,0.0,0.0,0.0,0.0,0.0,0.0,12.405973,0.0,0.0,nan,0.0,0.0,0.09034921,0.0,0.0,0.0,0.0,0.0,0.0,0.0,0.0,0.0
222339060,222238654,0.10044405,0.100444004,0.21407829,1.1041055,1.104105,0.0,0.0,0.0,0.0,0.0,0.0,0.0,0.0,12.404546,0.0,0.0,nan,0.0,0.0,0.09034941,0.0,0.0,0.0,0.0,0.0,0.0,0.0,0.0,0.0
222839099,222738696,0.10048057,0.100480944,0.21407893,1.093851,1.09385,0.0,0.0,0.0,0.0,0.0,0.0,0.0,0.0,12.405565,0.0,0.0,nan,0.0,0.0,0.09034976,0.0,0.0,0.0,0.0,0.0,0.0,0.0,0.0,0.0
223339201,223238738,0.10051791,0.10051304,0.21408461,1.081279,1.0812776,0.0,0.0,0.0,0.0,0.0,0.0,0.0,0.0,12.403659,0.0,0.0,nan,0.0,0.0,0.090350166,0.0,0.0,0.0,0.0,0.0,0.0,0.0,0.0,0.0
223839144,223738780,0.10062671,0.10062114,0.21410361,1.0688881,1.0688862,0.0,0.0,0.0,0.0,0.0,0.0,0.0,0.0,12.405226,0.0,0.0,nan,0.0,0.0,0.09035018,0.0,0.0,0.0,0.0,0.0,0.0,0.0,0.0,0.0
224339253,224238823,0.100535065,0.10055001,0.21405989,1.0541528,1.0541507,0.0,0.0,0.0,0.0,0.0,0.0,0.0,0.0,12.404061,0.0,0.0,nan,0.0,0.0,0.09035037,0.0,0.0,0.0,0.0,0.0,0.0,0.0,0.0,0.0
224839304,224738867,0.100606196,0.10061882,0.21406284,1.0481495,1.0481473,0.0,0.0,0.0,0.0,0.0,0.0,0.0,0.0,12.405139,0.0,0.0,nan,0.0,0.0,0.09035054,0.0,0.0,0.0,0.0,0.0,0.0,0.0,0.0,0.0
225339302,225238908,0.100594334,0.10059239,0.21406597,1.0338666,1.0338652,0.0,0.0,0.0,0.0,0.0,0.0,0.0,0.0,12.403303,0.0,0.0,nan,0.0,0.0,0.09035024,0.0,0.0,0.0,0.0,0.0,0.0,0.0,0.0,0.0
225839404,225738950,0.100587256,0.10058878,0.21409254,1.0257295,1.0257283,0.0,0.0,0.0,0.0,0.0,0.0,0.0,0.0,12.405672,0.0,0.0,nan,0.0,0.0,0.09035035,0.0,0.0,0.0,0.0,0.0,0.0,0.0,0.0,0.0
226339380,226238993,0.100535996,0.10053738,0.21409811,1.0155197,1.0155189,0.0,0.0,0.0,0.0,0.0,0.0,0.0,0.0,12.403848,0.0,0.0,nan,0.0,0.0,0.09035043,0.0,0.0,0.0,0.0,0.0,0.0,0.0,0.0,0.0
226839467,226739036,0.100494936,0.100498274,0.2140613,1.0074558,1.0074551,0.0,0.0,0.0,0.0,0.0,0.0,0.0,0.0,12.405522,0.0,0.0,nan,0.0,0.0,0.090350494,0.0,0.0,0.0,0.0,0.0,0.0,0.0,0.0,0.0
227339473,227239081,0.100455195,0.10046346,0.2140729,0.9954597,0.9954589,0.0,0.0,0.0,0.0,0.0,0.0,0.0,0.0,12.403727,0.0,0.0,nan,0.0,0.0,0.09035049,0.0,0.0,0.0,0.0,0.0,0.0,0.0,0.0,0.0
227839532,227739122,0.100362174,0.100369394,0.21405365,0.98913556,0.98913485,0.0,0.0,0.0,0.0,0.0,0.0,0.0,0.0,12.404861,0.0,0.0,nan,0.0,0.0,0.09035051,0.0,0.0,0.0,0.0,0.0,0.0,0.0,0.0,0.0
228339625,228239166,0.1003324,0.10033735,0.21406272,0.97918135,0.979181,0.0,0.0,0.0,0.0,0.0,0.0,0.0,0.0,12.404294,0.0,0.0,nan,0.0,0.0,0.09035035,0.0,0.0,0.0,0.0,0.0,0.0,0.0,0.0,0.0
228839581,228739209,0.10028298,0.10028346,0.21407771,0.97124904,0.9712488,0.0,0.0,0.0,0.0,0.0,0.0,0.0,0.0,12.405688,0.0,0.0,nan,0.0,0.0,0.09035066,0.0,0.0,0.0,0.0,0.0,0.0,0.0,0.0,0.0
229339818,229239253,0.100264065,0.10026278,0.21412723,0.9594813,0.9594813,0.0,0.0,0.0,0.0,0.0,0.0,0.0,0.0,12.406765,0.0,0.0,nan,0.0,0.0,0.09035102,0.0,0.0,0.0,0.0,0.0,0.0,0.0,0.0,0.0
229839696,229739297,0.10027061,0.1002681,0.21413644,0.9517048,0.9517048,0.0,0.0,0.0,0.0,0.0,0.0,0.0,0.0,12.40753,0.0,0.0,nan,0.0,0.0,0.09035128,0.0,0.0,0.0,0.0,0.0,0.0,0.0,0.0,0.0
230339780,230239340,0.10032481,0.10032572,0.21415816,0.940299,0.9402988,0.0,0.0,0.0,0.0,0.0,0.0,0.0,0.0,12.406303,0.0,0.0,nan,0.0,0.0,0.0903512,0.0,0.0,0.0,0.0,0.0,0.0,0.0,0.0,0.0
230839845,230739384,0.10021545,0.10022632,0.2140589,0.9341135,0.93411326,0.0,0.0,0.0,0.0,0.0,0.0,0.0,0.0,12.407091,0.0,0.0,nan,0.0,0.0,0.090351015,0.0,0.0,0.0,0.0,0.0,0.0,0.0,0.0,0.0
231339855,231239428,0.10028698,0.100310475,0.21409322,0.92844343,0.9284434,0.0,0.0,0.0,0.0,0.0,0.0,0.0,0.0,12.40596,0.0,0.0,nan,0.0,0.0,0.09035082,0.0,0.0,0.0,0.0,0.0,0.0,0.0,0.0,0.0
231839857,231739472,0.10020341,0.10022735,0.21405768,0.92234635,0.92234665,0.0,0.0,0.0,0.0,0.0,0.0,0.0,0.0,12.40727,0.0,0.0,nan,0.0,0.0,0.09035047,0.0,0.0,0.0,0.0,0.0,0.0,0.0,0.0,0.0
232339997,232239516,0.100270726,0.1002777,0.21409069,0.91305244,0.9130536,0.0,0.0,0.0,0.0,0.0,0.0,0.0,0.0,12.405534,0.0,0.0,nan,0.0,0.0,0.09035047,0.0,0.0,0.0,0.0,0.0,0.0,0.0,0.0,0.0
232839947,232739561,0.10025604,0.10025382,0.21409984,0.90726835,0.90726984,0.0,0.0,0.0,0.0,0.0,0.0,0.0,0.0,12.407343,0.0,0.0,nan,0.0,0.0,0.09035041,0.0,0.0,0.0,0.0,0.0,0.0,0.0,0.0,0.0
233340152,233239605,0.10017859,0.1001664,0.21404831,0.8993204,0.8993217,0.0,0.0,0.0,0.0,0.0,0.0,0.0,0.0,12.405151,0.0,0.0,nan,0.0,0.0,0.09035041,0.0,0.0,0.0,0.0,0.0,0.0,0.0,0.0,0.0
233840064,233739650,0.10024417,0.10022547,0.21411157,0.89757866,0.89757955,0.0,0.0,0.0,0.0,0.0,0.0,0.0,0.0,12.407227,0.0,0.0,nan,0.0,0.0,0.09035036,0.0,0.0,0.0,0.0,0.0,0.0,0.0,0.0,0.0
234340229,234239694,0.10018021,0.10016617,0.21406753,0.8934093,0.8934093,0.0,0.0,0.0,0.0,0.0,0.0,0.0,0.0,12.405643,0.0,0.0,nan,0.0,0.0,0.09035001,0.0,0.0,0.0,0.0,0.0,0.0,0.0,0.0,0.0
234840132,234739739,0.10015839,0.100152,0.21408133,0.8895829,0.8895819,0.0,0.0,0.0,0.0,0.0,0.0,0.0,0.0,12.407037,0.0,0.0,nan,0.0,0.0,0.090349846,0.0,0.0,0.0,0.0,0.0,0.0,0.0,0.0,0.0
235340212,235239784,0.10028886,0.100292064,0.21408969,0.88213795,0.8821361,0.0,0.0,0.0,0.0,0.0,0.0,0.0,0.0,12.404455,0.0,0.0,nan,0.0,0.0,0.09034982,0.0,0.0,0.0,0.0,0.0,0.0,0.0,0.0,0.0
235840309,235739829,0.10086083,0.100865945,0.21409824,0.8786485,0.87864655,0.0,0.0,0.0,0.0,0.0,0.0,0.0,0.0,12.406453,0.0,0.0,nan,0.0,0.0,0.090349875,0.0,0.0,0.0,0.0,0.0,0.0,0.0,0.0,0.0
236340355,236239874,0.10096406,0.100964054,0.2140573,0.8728169,0.8728159,0.0,0.0,0.0,0.0,0.0,0.0,0.0,0.0,12.40442,0.0,0.0,nan,0.0,0.0,0.09034969,0.0,0.0,0.0,0.0,0.0,0.0,0.0,0.0,0.0
236842902,236739919,0.100632064,0.10063176,0.2140763,0.86911243,0.86911213,0.0,0.0,0.0,0.0,0.0,0.0,0.0,0.0,12.405871,0.0,0.0,nan,0.0,0.0,0.09034995,0.0,0.0,0.0,0.0,0.0,0.0,0.0,0.0,0.0
237340409,237239965,0.10034224,0.100349955,0.21403943,0.863301,0.8633012,0.0,0.0,0.0,0.0,0.0,0.0,0.0,0.0,12.404605,0.0,0.0,nan,0.0,0.0,0.090349846,0.0,0.0,0.0,0.0,0.0,0.0,0.0,0.0,0.0
237840416,237740010,0.10038234,0.100391895,0.21409228,0.86014366,0.8601443,0.0,0.0,0.0,0.0,0.0,0.0,0.0,0.0,12.406151,0.0,0.0,nan,0.0,0.0,0.09034982,0.0,0.0,0.0,0.0,0.0,0.0,0.0,0.0,0.0
238340608,238240056,0.1001222,0.100132674,0.21410695,0.85427725,0.85427815,0.0,0.0,0.0,0.0,0.0,0.0,0.0,0.0,12.404698,0.0,0.0,nan,0.0,0.0,0.09034956,0.0,0.0,0.0,0.0,0.0,0.0,0.0,0.0,0.0
238840525,238740101,0.10015106,0.10015999,0.21410762,0.8526063,0.8526075,0.0,0.0,0.0,0.0,0.0,0.0,0.0,0.0,12.406209,0.0,0.0,nan,0.0,0.0,0.09034965,0.0,0.0,0.0,0.0,0.0,0.0,0.0,0.0,0.0
239340586,239240147,0.10010569,0.10011291,0.2141032,0.84880894,0.8488103,0.0,0.0,0.0,0.0,0.0,0.0,0.0,0.0,12.404418,0.0,0.0,nan,0.0,0.0,0.09034962,0.0,0.0,0.0,0.0,0.0,0.0,0.0,0.0,0.0
239840596,239740193,0.10002865,0.100032896,0.21407926,0.84662783,0.8466293,0.0,0.0,0.0,0.0,0.0,0.0,0.0,0.0,12.406533,0.0,0.0,nan,0.0,0.0,0.09034953,0.0,0.0,0.0,0.0,0.0,0.0,0.0,0.0,0.0
240340649,240240239,0.10011531,0.10011539,0.21412592,0.8449627,0.84496427,0.0,0.0,0.0,0.0,0.0,0.0,0.0,0.0,12.404064,0.0,0.0,nan,0.0,0.0,0.09034957,0.0,0.0,0.0,0.0,0.0,0.0,0.0,0.0,0.0
240840710,240740285,0.10014137,0.10013967,0.21412186,0.84151036,0.84151185,0.0,0.0,0.0,0.0,0.0,0.0,0.0,0.0,12.405632,0.0,0.0,nan,0.0,0.0,0.09034959,0.0,0.0,0.0,0.0,0.0,0.0,0.0,0.0,0.0
241340727,241240331,0.10008891,0.10008754,0.21408091,0.8375479,0.837549,0.0,0.0,0.0,0.0,0.0,0.0,0.0,0.0,12.403745,0.0,0.0,nan,0.0,0.0,0.09034967,0.0,0.0,0.0,0.0,0.0,0.0,0.0,0.0,0.0
241840731,241740377,0.100027636,0.10002789,0.21406005,0.83541334,0.83541405,0.0,0.0,0.0,0.0,0.0,0.0,0.0,0.0,12.405877,0.0,0.0,nan,0.0,0.0,0.09034956,0.0,0.0,0.0,0.0,0.0,0.0,0.0,0.0,0.0
242340868,242240423,0.10010888,0.10010709,0.214104,0.8302645,0.8302648,0.0,0.0,0.0,0.0,0.0,0.0,0.0,0.0,12.403925,0.0,0.0,nan,0.0,0.0,0.09034952,0.0,0.0,0.0,0.0,0.0,0.0,0.0,0.0,0.0
242840870,242740470,0.10012992,0.10012548,0.21412112,0.8283984,0.8283986,0.0,0.0,0.0,0.0,0.0,0.0,0.0,0.0,12.40564,0.0,0.0,nan,0.0,0.0,0.09034952,0.0,0.0,0.0,0.0,0.0,0.0,0.0,0.0,0.0
243340923,243240516,0.10014737,0.100144826,0.21406803,0.8247455,0.82474554,0.0,0.0,0.0,0.0,0.0,0.0,0.0,0.0,12.4037895,0.0,0.0,nan,0.0,0.0,0.090349324,0.0,0.0,0.0,0.0,0.0,0.0,0.0,0.0,0.0
243840978,243740563,0.10006221,0.10006261,0.2140492,0.8226342,0.82263416,0.0,0.0,0.0,0.0,0.0,0.0,0.0,0.0,12.40489,0.0,0.0,nan,0.0,0.0,0.09034922,0.0,0.0,0.0,0.0,0.0,0.0,0.0,0.0,0.0
244341042,244240610,0.10013224,0.100133896,0.21410201,0.8192861,0.81928605,0.0,0.0,0.0,0.0,0.0,0.0,0.0,0.0,12.404312,0.0,0.0,nan,0.0,0.0,0.090350345,0.0,0.0,0.0,0.0,0.0,0.0,0.0,0.0,0.0
244841116,244740656,0.10012903,0.10012869,0.21406378,0.81569356,0.8156935,0.0,0.0,0.0,0.0,0.0,0.0,0.0,0.0,12.405435,0.0,0.0,nan,0.0,0.0,0.2503559,0.0,0.0,0.0,0.0,0.0,0.0,0.0,0.0,0.0
245341107,245240702,0.1000981,0.10009011,0.21403417,0.81361574,0.81361586,0.0,0.0,0.0,0.0,0.0,0.0,0.0,0.0,12.403114,0.0,0.0,nan,0.0,0.0,0.2503616,0.0,0.0,0.0,0.0,0.0,0.0,0.0,0.0,0.0
245841248,245740749,0.10002527,0.10001924,0.2140205,0.81331784,0.81331795,0.0,0.0,0.0,0.0,0.0,0.0,0.0,0.0,12.405545,0.0,0.0,nan,0.0,0.0,0.25036788,0.0,0.0,0.0,0.0,0.0,0.0,0.0,0.0,0.0
246341240,246240796,0.10011214,0.100117125,0.21407779,0.811805,0.8118048,0.0,0.0,0.0,0.0,0.0,0.0,0.0,0.0,12.403764,0.0,0.0,nan,0.0,0.0,0.2503742,0.0,0.0,0.0,0.0,0.0,0.0,0.0,0.0,0.0
246841225,246740846,0.100068375,0.1000848,0.21409464,0.8117052,0.81170475,0.0,0.0,0.0,0.0,0.0,0.0,0.0,0.0,12.405454,0.0,0.0,nan,0.0,0.0,0.25037983,0.0,0.0,0.0,0.0,0.0,0.0,0.0,0.0,0.0
247341253,247240890,0.09999356,0.10001396,0.21404502,0.8099241,0.80992395,0.0,0.0,0.0,0.0,0.0,0.0,0.0,0.0,12.403149,0.0,0.0,nan,0.0,0.0,0.25038618,0.0,0.0,0.0,0.0,0.0,0.0,0.0,0.0,0.0
247841332,247740937,0.09985919,0.09986642,0.21402898,0.8079085,0.8079089,0.0,0.0,0.0,0.0,0.0,0.0,0.0,0.0,12.404848,0.0,0.0,nan,0.0,0.0,0.25039163,0.0,0.0,0.0,0.0,0.0,0.0,0.0,0.0,0.0
248341352,248240984,0.09977446,0.09975134,0.21412385,0.8083844,0.80838615,0.0,0.0,0.0,0.0,0.0,0.0,0.0,0.0,12.403769,0.0,0.0,nan,0.0,0.0,0.25039795,0.0,0.0,0.0,0.0,0.0,0.0,0.0,0.0,0.0
248841473,248741030,0.09963469,0.0996057,0.21409906,0.8063049,0.8063063,0.0,0.0,0.0,0.0,0.0,0.0,0.0,0.0,12.4054365,0.0,0.0,nan,0.0,0.0,0.25040436,0.0,0.0,0.0,0.0,0.0,0.0,0.0,0.0,0.0
249341458,249241077,0.099674776,0.09967681,0.21414593,0.8030091,0.8030086,0.0,0.0,0.0,0.0,0.0,0.0,0.0,0.0,12.404117,0.0,0.0,nan,0.0,0.0,0.25040948,0.0,0.0,0.0,0.0,0.0,0.0,0.0,0.0,0.0
249841537,249741125,0.09962903,0.09965983,0.214118,0.80091804,0.8009164,0.0,0.0,0.0,0.0,0.0,0.0,0.0,0.0,12.406253,0.0,0.0,nan,0.0,0.0,0.25041565,0.0,0.0,0.0,0.0,0.0,0.0,0.0,0.0,0.0
250341672,250241172,0.099653006,0.09968667,0.2140725,0.8023289,0.80232704,0.0,0.0,0.0,0.0,0.0,0.0,0.0,0.0,12.404308,0.0,0.0,nan,0.0,0.0,0.25042173,0.0,0.0,0.0,0.0,0.0,0.0,0.0,0.0,0.0
250841634,250741219,0.09979024,0.09979923,0.21407422,0.804294,0.80429345,0.0,0.0,0.0,0.0,0.0,0.0,0.0,0.0,12.40588,0.0,0.0,nan,0.0,0.0,0.25042725,0.0,0.0,0.0,0.0,0.0,0.0,0.0,0.0,0.0
251341680,251241266,0.10005844,0.10002306,0.21411873,0.8045553,0.8045569,0.0,0.0,0.0,0.0,0.0,0.0,0.0,0.0,12.404677,0.0,0.0,nan,0.0,0.0,0.2504335,0.0,0.0,0.0,0.0,0.0,0.0,0.0,0.0,0.0
251841777,251741314,0.09989581,0.10002279,0.21407856,0.8042753,0.8042759,0.0,0.0,0.0,0.0,0.0,0.0,0.0,0.0,12.406769,0.0,0.0,nan,0.0,0.0,0.2504395,0.0,0.0,0.0,0.0,0.0,0.0,0.0,0.0,0.0
252341736,252241361,0.100115746,0.10031526,0.21407646,0.80779195,0.8077992,0.0,0.0,0.0,0.0,0.0,0.0,0.0,0.0,12.404787,0.0,0.0,nan,0.0,0.0,0.2504412,0.0,0.0,0.0,0.0,0.0,0.0,0.0,0.0,0.0
252841854,252741408,0.10022992,0.100236565,0.21409947,0.8100463,0.81006384,0.0,0.0,0.0,0.0,0.0,0.0,0.0,0.0,12.405786,0.0,0.0,nan,0.0,0.0,0.25044715,0.0,0.0,0.0,0.0,0.0,0.0,0.0,0.0,0.0
253341856,253241455,0.10037185,0.10021955,0.21404617,0.8150772,0.8150933,0.0,0.0,0.0,0.0,0.0,0.0,0.0,0.0,12.40387,0.0,0.0,nan,0.0,0.0,0.25044954,0.0,0.0,0.0,0.0,0.0,0.0,0.0,0.0,0.0
253841883,253741503,0.10058114,0.101109214,0.21403235,0.81862295,0.81863725,0.0,0.0,0.0,0.0,0.0,0.0,0.0,0.0,12.40689,0.0,0.0,nan,0.0,0.0,0.25044706,0.0,0.0,0.0,0.0,0.0,0.0,0.0,0.0,0.0
254341930,254241550,0.100591965,0.10350441,0.21404761,0.82377934,0.8237755,0.0,0.0,0.0,0.0,0.0,0.0,0.0,0.0,12.405324,0.0,0.0,nan,0.0,0.0,0.25042024,0.0,0.0,0.0,0.0,0.0,0.0,0.0,0.0,0.0
254842013,254741598,0.10024558,0.10305318,0.21400416,0.82808584,0.8282394,0.0,0.0,0.0,0.0,0.0,0.0,0.0,0.0,12.4082,0.0,0.0,nan,0.0,0.0,0.25041243,0.0,0.0,0.0,0.0,0.0,0.0,0.0,0.0,0.0
255341991,255241646,0.10426323,0.10699532,0.21402355,0.8315371,0.8334075,0.0,0.0,0.0,0.0,0.0,0.0,0.0,0.0,12.406419,0.0,0.0,nan,0.0,0.0,0.25041363,0.0,0.0,0.0,0.0,0.0,0.0,0.0,0.0,0.0
255842159,255741693,0.10730583,0.108239405,0.21397707,0.8350891,0.8380394,0.0,0.0,0.0,0.0,0.0,0.0,0.0,0.0,12.407659,0.0,0.0,nan,0.0,0.0,0.2504178,0.0,0.0,0.0,0.0,0.0,0.0,0.0,0.0,0.0
256342087,256241741,0.10516097,0.10430615,0.2139467,0.82699066,0.8288858,0.0,0.0,0.0,0.0,0.0,0.0,0.0,0.0,12.405448,0.0,0.0,nan,0.0,0.0,0.25039855,0.0,0.0,0.0,0.0,0.0,0.0,0.0,0.0,0.0
256842154,256741789,0.10289491,0.103507385,0.21391489,0.8262111,0.82779765,0.0,0.0,0.0,0.0,0.0,0.0,0.0,0.0,12.406213,0.0,0.0,nan,0.0,0.0,0.25039455,0.0,0.0,0.0,0.0,0.0,0.0,0.0,0.0,0.0
257342197,257241837,0.10156009,0.1035106,0.21403325,0.8274801,0.82838523,0.0,0.0,0.0,0.0,0.0,0.0,0.0,0.0,12.404809,0.0,0.0,nan,0.0,0.0,0.25037494,0.0,0.0,0.0,0.0,0.0,0.0,0.0,0.0,0.0
257842324,257741885,0.10096655,0.102322765,0.21400629,0.8258723,0.8264119,0.0,0.0,0.0,0.0,0.0,0.0,0.0,0.0,12.406785,0.0,0.0,nan,0.0,0.0,0.2503676,0.0,0.0,0.0,0.0,0.0,0.0,0.0,0.0,0.0
258342324,258241933,0.1007179,0.10059056,0.21389894,0.8279988,0.8281875,0.0,0.0,0.0,0.0,0.0,0.0,0.0,0.0,12.404757,0.0,0.0,nan,0.0,0.0,0.25036737,0.0,0.0,0.0,0.0,0.0,0.0,0.0,0.0,0.0
258842401,258741981,0.100893036,0.10057757,0.21382862,0.8307352,0.83085716,0.0,0.0,0.0,0.0,0.0,0.0,0.0,0.0,12.406167,0.0,0.0,nan,0.0,0.0,0.2503685,0.0,0.0,0.0,0.0,0.0,0.0,0.0,0.0,0.0
259342351,259242029,0.10081104,0.100597665,0.21388797,0.8349743,0.8351052,0.0,0.0,0.0,0.0,0.0,0.0,0.0,0.0,12.403688,0.0,0.0,nan,0.0,0.0,0.2503608,0.0,0.0,0.0,0.0,0.0,0.0,0.0,0.0,0.0
259842490,259742077,0.10088878,0.10039093,0.21392007,0.8384291,0.8385679,0.0,0.0,0.0,0.0,0.0,0.0,0.0,0.0,12.405892,0.0,0.0,nan,0.0,0.0,0.2503613,0.0,0.0,0.0,0.0,0.0,0.0,0.0,0.0,0.0
260342449,260242126,0.10047278,0.10033767,0.21395509,0.84339964,0.84349597,0.0,0.0,0.0,0.0,0.0,0.0,0.0,0.0,12.404006,0.0,0.0,nan,0.0,0.0,0.25036365,0.0,0.0,0.0,0.0,0.0,0.0,0.0,0.0,0.0
260842627,260742174,0.10025709,0.100188844,0.21394576,0.84474117,0.84482163,0.0,0.0,0.0,0.0,0.0,0.0,0.0,0.0,12.405595,0.0,0.0,nan,0.0,0.0,0.25036818,0.0,0.0,0.0,0.0,0.0,0.0,0.0,0.0,0.0
261342542,261242222,0.1003037,0.101039484,0.2139817,0.8487201,0.84875894,0.0,0.0,0.0,0.0,0.0,0.0,0.0,0.0,12.403235,0.0,0.0,nan,0.0,0.0,0.25036755,0.0,0.0,0.0,0.0,0.0,0.0,0.0,0.0,0.0
261842613,261742271,0.10022985,0.101173036,0.21398023,0.8501673,0.85016745,0.0,0.0,0.0,0.0,0.0,0.0,0.0,0.0,12.405361,0.0,0.0,nan,0.0,0.0,0.25036624,0.0,0.0,0.0,0.0,0.0,0.0,0.0,0.0,0.0
262342747,262242320,0.10015338,0.10061611,0.21399936,0.8519195,0.8519055,0.0,0.0,0.0,0.0,0.0,0.0,0.0,0.0,12.404199,0.0,0.0,nan,0.0,0.0,0.25036445,0.0,0.0,0.0,0.0,0.0,0.0,0.0,0.0,0.0
262842698,262742368,0.10017277,0.10044255,0.21402344,0.85362935,0.85362285,0.0,0.0,0.0,0.0,0.0,0.0,0.0,0.0,12.405806,0.0,0.0,nan,0.0,0.0,0.25036812,0.0,0.0,0.0,0.0,0.0,0.0,0.0,0.0,0.0
263342815,263242417,0.10010704,0.10020179,0.21400046,0.85338545,0.8533904,0.0,0.0,0.0,0.0,0.0,0.0,0.0,0.0,12.404492,0.0,0.0,nan,0.0,0.0,0.25037232,0.0,0.0,0.0,0.0,0.0,0.0,0.0,0.0,0.0
263842807,263742466,0.1001334,0.10017191,0.21401577,0.8536789,0.8536875,0.0,0.0,0.0,0.0,0.0,0.0,0.0,0.0,12.4055605,0.0,0.0,nan,0.0,0.0,0.2503771,0.0,0.0,0.0,0.0,0.0,0.0,0.0,0.0,0.0
264342853,264242516,0.10075338,0.100630805,0.21408969,0.8554808,0.855504,0.0,0.0,0.0,0.0,0.0,0.0,0.0,0.0,12.403693,0.0,0.0,nan,0.0,0.0,0.25037837,0.0,0.0,0.0,0.0,0.0,0.0,0.0,0.0,0.0
264842990,264742564,0.10230656,0.10242112,0.2142894,0.85543156,0.85543764,0.0,0.0,0.0,0.0,0.0,0.0,0.0,0.0,12.406025,0.0,0.0,nan,0.0,0.0,0.25035414,0.0,0.0,0.0,0.0,0.0,0.0,0.0,0.0,0.0
265342939,265242613,0.10521956,0.10693449,0.21463032,0.8589157,0.8588094,0.0,0.0,0.0,0.0,0.0,0.0,0.0,0.0,12.4036455,0.0,0.0,nan,0.0,0.0,0.09033476,0.0,0.0,0.0,0.0,0.0,0.0,0.0,0.0,0.0
265843062,265742662,0.109084144,0.113417745,0.2148948,0.8630161,0.86354357,0.0,0.0,0.0,0.0,0.0,0.0,0.0,0.0,12.405361,0.0,0.0,nan,0.0,0.0,0.0903332,0.0,0.0,0.0,0.0,0.0,0.0,0.0,0.0,0.0
266343038,266242711,0.11412909,0.12455039,0.21523672,0.8728176,0.8770959,0.0,0.0,0.0,0.0,0.0,0.0,0.0,0.0,12.403587,0.0,0.0,nan,0.0,0.0,0.09031988,0.0,0.0,0.0,0.0,0.0,0.0,0.0,0.0,0.0
266843094,266742761,0.11677502,0.1311171,0.215456,0.88185656,0.8909684,0.0,0.0,0.0,0.0,0.0,0.0,0.0,0.0,12.405889,0.0,0.0,nan,0.0,0.0,0.09030306,0.0,0.0,0.0,0.0,0.0,0.0,0.0,0.0,0.0
267343207,267242810,0.11912818,0.13608412,0.21552417,0.89614403,0.9133904,0.0,0.0,0.0,0.0,0.0,0.0,0.0,0.0,12.4038,0.0,0.0,nan,0.0,0.0,0.090270415,0.0,0.0,0.0,0.0,0.0,0.0,0.0,0.0,0.0
267843208,267742859,0.11998036,0.13547719,0.21548077,0.9068538,0.9283217,0.0,0.0,0.0,0.0,0.0,0.0,0.0,0.0,12.405722,0.0,0.0,nan,0.0,0.0,0.090244606,0.0,0.0,0.0,0.0,0.0,0.0,0.0,0.0,0.0
268343319,268242909,0.12070651,0.13044602,0.21525851,0.91367865,0.93551815,0.0,0.0,0.0,0.0,0.0,0.0,0.0,0.0,12.403924,0.0,0.0,nan,0.0,0.0,0.090214014,0.0,0.0,0.0,0.0,0.0,0.0,0.0,0.0,0.0
268843280,268742958,0.12009785,0.12665255,0.21505424,0.9192409,0.9385456,0.0,0.0,0.0,0.0,0.0,0.0,0.0,0.0,12.406574,0.0,0.0,nan,0.0,0.0,0.09019785,0.0,0.0,0.0,0.0,0.0,0.0,0.15774852,0.0,0.0
269343298,269243008,0.108347796,0.109031476,0.21435447,0.87841654,0.88312924,0.0,0.0,0.0,0.0,0.0,0.0,0.0,0.0,12.403981,0.0,0.0,nan,0.0,0.0,0.090176426,0.0034111275,0.0035576532,0.0035364581,0.0,0.0,2.5415254,0.112062335,0.0,0.0
269843425,269743062,0.10527663,0.10407931,0.21413773,0.8754381,0.8787442,0.0,0.0,0.0,0.0,0.0,0.0,0.0,0.0,12.405654,0.0,0.0,nan,0.0,0.0,0.090176426,0.0034024536,0.0041391067,0.004026372,0.0,0.0,2.4030242,0.097894505,0.0,0.0
270343400,270243108,0.108615726,0.15024196,0.21597713,0.8801978,0.8828873,0.0,0.0,0.0,0.0,0.0,0.0,0.0,0.0,12.403698,0.0,0.0,nan,0.0,0.0,0.090176426,0.0037211282,0.0038356099,0.003783949,0.0,0.0,2.5656226,0.09755237,0.0,0.0
270843483,270743157,0.10190922,0.12370628,0.21839744,0.8784279,0.8801996,0.0,0.0,0.0,0.0,0.0,0.0,0.0,0.0,12.405921,0.0,0.0,nan,0.0,0.0,0.090176426,0.0029217675,0.0029050617,0.002863459,0.0,0.0,2.3689413,0.098738655,0.0,0.0
271343532,271243207,0.102658086,0.11524819,0.21482253,0.8820509,0.88298553,0.0,0.0,0.0,0.0,0.0,0.0,0.0,0.0,12.4041,0.0,0.0,nan,0.0,0.0,0.090176426,0.0026984885,0.0028108996,0.0027538403,0.0,0.0,2.2750187,0.098737895,0.0,0.0
271843605,271743256,0.102987,0.15792751,0.21437192,0.8857074,0.8861275,0.0,0.0,0.0,0.0,0.0,0.0,0.0,0.0,12.405054,0.0,0.0,nan,0.0,0.0,0.090176426,0.002660301,0.0027178498,0.0027757892,0.0,0.0,2.2530732,0.09670662,0.0,0.0
272343596,272243306,0.10559325,0.15697587,0.21414742,0.88739145,0.88779444,0.0,0.0,0.0,0.0,0.0,0.0,0.0,0.0,12.40269,0.0,0.0,nan,0.0,0.0,0.090176426,0.0027231886,0.0027103238,0.002716095,0.0,0.0,2.2062953,0.094709516,0.0,0.0
272843711,272743356,0.10501257,0.1344094,0.21398553,0.8864019,0.8869836,0.0,0.0,0.0,0.0,0.0,0.0,0.0,0.0,12.405403,0.0,0.0,nan,0.0,0.0,0.090176426,0.0027247933,0.002692499,0.0026818123,0.0,0.0,2.1873686,0.092900395,0.0,0.0
273343732,273243406,0.104362935,0.11602177,0.21390611,0.8835655,0.88440984,0.0,0.0,0.0,0.0,0.0,0.0,0.0,0.0,12.403026,0.0,0.0,nan,0.0,0.0,0.090176426,0.0027218855,0.002678277,0.0026605497,0.0,0.0,2.169126,0.09237815,0.0,0.0
273843790,273743456,0.1039516,0.109786294,0.21384601,0.8807719,0.88165164,0.0,0.0,0.0,0.0,0.0,0.0,0.0,0.0,12.404607,0.0,0.0,nan,0.0,0.0,0.090176426,0.0027272305,0.0026717288,0.002650934,0.0,0.0,2.1599956,0.09225953,0.0,0.0
274343836,274243506,0.1038529,0.10475964,0.21390767,0.8809039,0.8818985,0.0,0.0,0.0,0.0,0.0,0.0,0.0,0.0,12.402829,0.0,0.0,nan,0.0,0.0,0.090176426,0.0027243018,0.00266857,0.002646743,0.0,0.0,2.1515906,0.0921681,0.0,0.0
274843934,274743555,0.10335058,0.10268987,0.21394849,0.87887675,0.87980497,0.0,0.0,0.0,0.0,0.0,0.0,0.0,0.0,12.4052,0.0,0.0,nan,0.0,0.0,0.090176426,0.0027237742,0.0026663253,0.0026445386,0.0,0.0,2.1450443,0.09219067,0.0,0.0
275343895,275243605,0.103394285,0.101117864,0.21398778,0.8750569,0.87580645,0.0,0.0,0.0,0.0,0.0,0.0,0.0,0.0,12.40295,0.0,0.0,nan,0.0,0.0,0.090176426,0.0027250971,0.0026663593,0.0026498272,0.0,0.0,2.1400762,0.092305325,0.0,0.0
275843991,275743655,0.10349323,0.10148853,0.21397251,0.87315685,0.87362117,0.0,0.0,0.0,0.0,0.0,0.0,0.0,0.0,12.404652,0.0,0.0,nan,0.0,0.0,0.090176426,0.0027559996,0.0029350615,0.0029588223,0.0,0.0,2.1437168,0.09151678,0.0,0.0
276344019,276243704,0.110341534,0.12841162,0.2143047,0.870501,0.8706882,0.0,0.0,0.0,0.0,0.0,0.0,0.0,0.0,12.40336,0.0,0.0,nan,0.0,0.0,0.090176426,0.002991494,0.0031403336,0.0031679245,0.0,0.0,2.201106,0.09067802,0.0,0.0
276844031,276743753,0.1269225,0.13902628,0.21558729,0.87237763,0.8729821,0.0,0.0,0.0,0.0,0.0,0.0,0.0,0.0,12.404751,0.0,0.0,nan,0.0,0.0,0.090176426,0.0033387502,0.0032015191,0.0030203485,0.0,0.0,2.2773848,0.090309314,0.0,0.0
277344207,277243803,0.14367379,0.12650535,0.25071263,0.88368523,0.8845063,0.0,0.0,0.0,0.0,0.0,0.0,0.0,0.0,12.403439,0.0,0.0,nan,0.0,0.0,0.090176426,0.003695545,0.0033513606,0.0028246972,0.0,0.0,2.261317,0.090131305,0.0,0.0
277844177,277743852,0.12740688,0.1050411,0.2203773,0.9008703,0.9014392,0.0,0.0,0.0,0.0,0.0,0.0,0.0,0.0,12.405731,0.0,0.0,nan,0.0,0.0,0.090176426,0.0037516858,0.0035957573,0.0027474605,0.0,0.0,2.2566433,0.090100445,0.0,0.0
278344393,278243902,0.11760387,0.101858854,0.22203328,0.93864805,0.93855935,0.0,0.0,0.0,0.0,0.0,0.0,0.0,0.0,12.403318,0.0,0.0,nan,0.0,0.0,0.090176426,0.003569296,0.0038233078,0.002781889,0.0,0.0,2.2160435,0.09010626,0.0,0.0
278844474,278743951,0.10917604,0.103768416,0.22295006,0.98088795,0.98009574,0.0,0.0,0.0,0.0,0.0,0.0,0.0,0.0,12.401998,0.0,0.0,nan,0.0,0.0,0.090176426,0.0032449127,0.004057749,0.0028798617,0.0,0.0,2.1719487,0.09012343,0.0,0.0
279344331,279244000,0.1469402,0.14730808,0.3175306,0.99994063,0.9983961,0.0,0.0,0.0,0.0,0.0,0.0,0.0,0.0,12.404102,0.0,0.0,nan,0.0,0.0,0.090176426,0.0029804362,0.004197943,0.0029410059,0.0,0.0,2.142827,0.09013287,0.0,0.0
279844366,279744050,0.13505055,0.13914491,0.2957119,1.0153091,1.0132825,0.0,0.0,0.0,0.0,0.0,0.0,0.0,0.0,12.408105,0.0,0.0,nan,0.0,0.0,0.090176426,0.002812194,0.0044530304,0.0027336434,0.0,0.0,2.1361332,0.090212315,0.0,0.0
280344465,280244099,0.10174711,0.1043722,0.22280975,1.0215611,1.0197427,0.0,0.0,0.0,0.0,0.0,0.0,0.0,0.0,12.405967,0.0,0.0,nan,0.0,0.0,0.090176426,0.0027219332,0.0032912265,0.0026376224,0.0,0.0,2.1336699,0.090274595,0.0,0.0
280844503,280744148,0.11807329,0.11896226,0.25821674,1.0237088,1.0221093,0.0,0.0,0.0,0.0,0.0,0.0,0.0,0.0,12.4086,0.0,0.0,nan,0.0,0.0,0.090176426,0.0026506078,0.002825316,0.0026288412,0.0,0.0,2.1313026,0.0901924,0.0,0.0
281344529,281244197,0.100738384,0.10080733,0.21378973,1.0332625,1.0320027,0.0,0.0,0.0,0.0,0.0,0.0,0.0,0.0,12.404629,0.0,0.0,nan,0.0,0.0,0.090176426,0.002677891,0.0027734595,0.0026175096,0.0,0.0,2.1341226,0.09023065,0.0,0.0
281844568,281744245,0.101816036,0.10236988,0.21305436,1.0370798,1.0359777,0.0,0.0,0.0,0.0,0.0,0.0,0.0,0.0,12.404949,0.0,0.0,nan,0.0,0.0,0.090176426,0.0027029456,0.0027522144,0.002609205,0.0,0.0,2.1441631,0.09028679,0.0,0.0
282344718,282244294,0.103459254,0.1039086,0.21297589,1.0388393,1.0379876,0.0,0.0,0.0,0.0,0.0,0.0,0.0,0.0,12.40268,0.0,0.0,nan,0.0,0.0,0.090176426,0.0027168666,0.002746812,0.0026075668,0.0,0.0,2.1532974,0.09028741,0.0,0.0
282844635,282744343,0.10429314,0.104410306,0.21328104,1.0428898,1.0422102,0.0,0.0,0.0,0.0,0.0,0.0,0.0,0.0,12.402988,0.0,0.0,nan,0.0,0.0,0.090176426,0.0027429878,0.0027203043,0.002600798,0.0,0.0,2.1683059,0.09031531,0.0,0.0
283334685,283234390,0.104233116,0.10350903,0.21367031,1.0648555,1.0644035,0.0,0.0,0.0,0.0,0.0,0.0,0.0,0.0,12.400852,0.0,0.0,nan,0.0,0.0,0.090176426,0.0027191532,0.0026812777,0.0025941771,0.0,0.0,2.1704087,0.09032332,0.0,0.0
283844757,283744440,0.10373212,0.10269722,0.21381934,1.0730219,1.0726811,0.0,0.0,0.0,0.0,0.0,0.0,0.0,0.0,12.401268,0.0,0.0,nan,0.0,0.0,0.090176426,0.0026360773,0.0026103968,0.00257357,0.0,0.0,2.1704087,0.09031933,0.0,0.0
284344775,284244488,0.10303274,0.10186347,0.21402614,1.0833516,1.0831218,0.0,0.0,0.0,0.0,0.0,0.0,0.0,0.0,12.399617,0.0,0.0,nan,0.0,0.0,0.090176426,0.0026002498,0.0025823412,0.0025612756,0.0,0.0,2.1704087,0.0903336,0.0,0.0
284844894,284744536,0.102479875,0.1014308,0.21408813,1.0855073,1.0853193,0.0,0.0,0.0,0.0,0.0,0.0,0.0,0.0,12.402009,0.0,0.0,nan,0.0,0.0,0.090176426,0.0025813328,0.0025766855,0.0025540171,0.0,0.0,2.1704087,0.09032878,0.0,0.0
285344890,285244584,0.10151693,0.10090236,0.21408093,1.0836949,1.0835307,0.0,0.0,0.0,0.0,0.0,0.0,0.0,0.0,12.400521,0.0,0.0,nan,0.0,0.0,0.090176426,0.0025674766,0.002567926,0.0025472513,0.0,0.0,2.1704087,0.09033543,0.0,0.0
285844959,285744632,0.10116335,0.100858495,0.21404576,1.0858202,1.0856591,0.0,0.0,0.0,0.0,0.0,0.0,0.0,0.0,12.401606,0.0,0.0,nan,0.0,0.0,0.090176426,0.0025566565,0.002564531,0.0025421153,0.0,0.0,2.1704087,0.0903363,0.0,0.0
286345007,286244680,0.10080396,0.10084732,0.2140589,1.083896,1.0837425,0.0,0.0,0.0,0.0,0.0,0.0,0.0,0.0,12.399701,0.0,0.0,nan,0.0,0.0,0.090176426,0.00255032,0.0025574884,0.0025384093,0.0,0.0,2.1704087,0.09033665,0.0,0.0
286835059,286734727,0.10056074,0.100726634,0.21404237,1.0816005,1.0814595,0.0,0.0,0.0,0.0,0.0,0.0,0.0,0.0,12.401886,0.0,0.0,nan,0.0,0.0,0.090176426,0.0025445765,0.0025535265,0.0025349536,0.0,0.0,2.1704087,0.09032284,0.0,0.0
287335093,287234774,0.10077831,0.101016566,0.21411487,1.0778394,1.0777292,0.0,0.0,0.0,0.0,0.0,0.0,0.0,0.0,12.401132,0.0,0.0,nan,0.0,0.0,0.090176426,0.002541079,0.002545792,0.0025322852,0.0,0.0,2.1704087,0.09033859,0.0,0.0
287845155,287744822,0.10066118,0.10083177,0.21415573,1.0717312,1.0716481,0.0,0.0,0.0,0.0,0.0,0.0,0.0,0.0,12.402924,0.0,0.0,nan,0.0,0.0,0.090176426,0.0025371606,0.002538758,0.0025296384,0.0,0.0,2.1704087,0.09034051,0.0,0.0
288345162,288244870,0.10069487,0.100729264,0.21415363,1.067366,1.0673214,0.0,0.0,0.0,0.0,0.0,0.0,0.0,0.0,12.401495,0.0,0.0,nan,0.0,0.0,0.090176426,0.002534177,0.0025355506,0.0025274984,0.0,0.0,2.1704087,0.09033498,0.0,0.0
288845292,288744917,0.10087942,0.10083586,0.2141708,1.0655227,1.0655016,0.0,0.0,0.0,0.0,0.0,0.0,0.0,0.0,12.403539,0.0,0.0,nan,0.0,0.0,0.09013866,0.002534177,0.0025355506,0.0025274984,0.0,0.0,2.1704087,0.09034389,0.0,0.0
289345286,289244964,0.10078922,0.10065306,0.21414867,1.0591643,1.0591668,0.0,0.0,0.0,0.0,0.0,0.0,0.0,0.0,12.402063,0.0,0.0,nan,0.0,0.0,0.090148464,0.002534177,0.0025355506,0.0025274984,0.0,0.0,2.1704087,0.090349294,0.0,0.0
289845301,289745011,0.10086864,0.10071298,0.21422023,1.0573832,1.0573965,0.0,0.0,0.0,0.0,0.0,0.0,0.0,0.0,12.403928,0.0,0.0,nan,0.0,0.0,0.09015894,0.002534177,0.0025355506,0.0025274984,0.0,0.0,2.1704087,0.0903533,0.0,0.0
290335369,290235057,0.100977056,0.100842975,0.21421985,1.053298,1.053316,0.0,0.0,0.0,0.0,0.0,0.0,0.0,0.0,12.402895,0.0,0.0,nan,0.0,0.0,0.09016765,0.002534177,0.0025355506,0.0025274984,0.0,0.0,2.1704087,0.09036708,0.0,0.0
290835394,290735103,0.100893624,0.100846976,0.21412529,1.0529488,1.0529655,0.0,0.0,0.0,0.0,0.0,0.0,0.0,0.0,12.404175,0.0,0.0,nan,0.0,0.0,0.0901791,0.002534177,0.0025355506,0.0025274984,0.0,0.0,2.1704087,0.09039401,0.0,0.0
291335429,291235150,0.100826845,0.100811526,0.21413068,1.0509646,1.0509794,0.0,0.0,0.0,0.0,0.0,0.0,0.0,0.0,12.402091,0.0,0.0,nan,0.0,0.0,0.09018965,0.002534177,0.0025355506,0.0025274984,0.0,0.0,2.1704087,0.09042483,0.0,0.0
291845518,291745197,0.10074359,0.10071203,0.21413288,1.0491974,1.0492117,0.0,0.0,0.0,0.0,0.0,0.0,0.0,0.0,12.404646,0.0,0.0,nan,0.0,0.0,0.09020196,0.002534177,0.0025355506,0.0025274984,0.0,0.0,2.1704087,0.09047454,0.0,0.0
292345563,292245244,0.10076484,0.10070728,0.21414475,1.0491657,1.0491792,0.0,0.0,0.0,0.0,0.0,0.0,0.0,0.0,12.403018,0.0,0.0,nan,0.0,0.0,0.09021391,0.002534177,0.0025355506,0.0025274984,0.0,0.0,2.1704087,0.09050451,0.0,0.0
292845575,292745289,0.10058821,0.10056017,0.21420182,1.0473711,1.0473838,0.0,0.0,0.0,0.0,0.0,0.0,0.0,0.0,12.404808,0.0,0.0,nan,0.0,0.0,0.090223916,0.002534177,0.0025355506,0.0025274984,0.0,0.0,2.1704087,0.09048182,0.0,0.0
293345650,293245335,0.10052942,0.10055652,0.21414833,1.0430322,1.0430411,0.0,0.0,0.0,0.0,0.0,0.0,0.0,0.0,12.403859,0.0,0.0,nan,0.0,0.0,0.09023562,0.002534177,0.0025355506,0.0025274984,0.0,0.0,2.1704087,0.090473466,0.0,0.0
293835697,293735381,0.10065366,0.10068187,0.21415852,1.0410031,1.0410098,0.0,0.0,0.0,0.0,0.0,0.0,0.0,0.0,12.405626,0.0,0.0,nan,0.0,0.0,0.09024595,0.002534177,0.0025355506,0.0025274984,0.0,0.0,2.1704087,0.0904754,0.0,0.0
294335733,294235426,0.100797236,0.100799575,0.21414989,1.0389524,1.0389572,0.0,0.0,0.0,0.0,0.0,0.0,0.0,0.0,12.403337,0.0,0.0,nan,0.0,0.0,0.09025763,0.002534177,0.0025355506,0.0025274984,0.0,0.0,2.1704087,0.09049125,0.0,0.0
294835785,294735472,0.10092928,0.1009123,0.21409696,1.0368702,1.0368744,0.0,0.0,0.0,0.0,0.0,0.0,0.0,0.0,12.405049,0.0,0.0,nan,0.0,0.0,0.090269305,0.002534177,0.0025355506,0.0025274984,0.0,0.0,2.1704087,0.09047705,0.0,0.0
295345899,295245518,0.10053159,0.10044746,0.21409616,1.0388571,1.0388598,0.0,0.0,0.0,0.0,0.0,0.0,0.0,0.0,12.404021,0.0,0.0,nan,0.0,0.0,0.09027901,0.002534177,0.0025355506,0.0025274984,0.0,0.0,2.1704087,0.09051094,0.0,0.0
295845849,295745563,0.10033894,0.10025991,0.21407405,1.0385609,1.0385618,0.0,0.0,0.0,0.0,0.0,0.0,0.0,0.0,12.405761,0.0,0.0,nan,0.0,0.0,0.09028965,0.002534177,0.0025355506,0.0025274984,0.0,0.0,2.1704087,0.09053217,0.0,0.0
296345906,296245609,0.10053107,0.10047003,0.21412879,1.0368602,1.0368576,0.0,0.0,0.0,0.0,0.0,0.0,0.0,0.0,12.403459,0.0,0.0,nan,0.0,0.0,0.090300165,0.002534177,0.0025355506,0.0025274984,0.0,0.0,2.1704087,0.09054483,0.0,0.0
296846061,296745654,0.10054226,0.100500554,0.2140851,1.034807,1.0348026,0.0,0.0,0.0,0.0,0.0,0.0,0.0,0.0,12.405164,0.0,0.0,nan,0.0,0.0,0.09030936,0.002534177,0.0025355506,0.0025274984,0.0,0.0,2.1704087,0.09054012,0.0,0.0
297336007,297235698,0.100676484,0.10061443,0.21409035,1.0347916,1.0347854,0.0,0.0,0.0,0.0,0.0,0.0,0.0,0.0,12.403397,0.0,0.0,nan,0.0,0.0,0.09031931,0.002534177,0.0025355506,0.0025274984,0.0,0.0,2.1704087,0.09055341,0.0,0.0
297836184,297735742,0.10066469,0.1006221,0.21411002,1.0308031,1.0307953,0.0,0.0,0.0,0.0,0.0,0.0,0.0,0.0,12.405293,0.0,0.0,nan,0.0,0.0,0.09032765,0.002534177,0.0025355506,0.0025274984,0.0,0.0,2.1704087,0.0905651,0.0,0.0
298336082,298235787,0.100454405,0.10043774,0.21407275,1.0265197,1.0265111,0.0,0.0,0.0,0.0,0.0,0.0,0.0,0.0,12.403521,0.0,0.0,nan,0.0,0.0,0.0903372,0.002534177,0.0025355506,0.0025274984,0.0,0.0,2.1704087,0.09058139,0.0,0.0
298836266,298735832,0.10044738,0.1004372,0.21407612,1.0247378,1.0247291,0.0,0.0,0.0,0.0,0.0,0.0,0.0,0.0,12.405204,0.0,0.0,nan,0.0,0.0,0.090346545,0.002534177,0.0025355506,0.0025274984,0.0,0.0,2.1704087,0.09058427,0.0,0.0
299346159,299245877,0.10053082,0.10052064,0.21408181,1.0187529,1.0187453,0.0,0.0,0.0,0.0,0.0,0.0,0.0,0.0,12.40362,0.0,0.0,nan,0.0,0.0,0.09035412,0.002534177,0.0025355506,0.0025274984,0.0,0.0,2.1704087,0.090585954,0.0,0.0
299846351,299745921,0.10016527,0.10015264,0.21401753,1.0142138,1.0142076,0.0,0.0,0.0,0.0,0.0,0.0,0.0,0.0,12.4053335,0.0,0.0,nan,0.0,0.0,0.25036818,0.002534177,0.0025355506,0.0025274984,0.0,0.0,2.1704087,0.09060242,0.0,0.0
300346343,300245965,0.10036441,0.10035334,0.21407151,1.0085193,1.0085125,0.0,0.0,0.0,0.0,0.0,0.0,0.0,0.0,12.403553,0.0,0.0,nan,0.0,0.0,0.25038335,0.002534177,0.0025355506,0.0025274984,0.0,0.0,2.1704087,0.090649836,0.0,0.0
300836344,300736009,0.10034445,0.10033678,0.214115,1.0050225,1.0050154,0.0,0.0,0.0,0.0,0.0,0.0,0.0,0.0,12.405231,0.0,0.0,nan,0.0,0.0,0.25039658,0.002534177,0.0025355506,0.0025274984,0.0,0.0,2.1704087,0.09069462,0.0,0.0
301336422,301236053,0.10040881,0.100357555,0.21402848,1.0004407,1.0004334,0.0,0.0,0.0,0.0,0.0,0.0,0.0,0.0,12.403468,0.0,0.0,nan,0.0,0.0,0.25041142,0.002534177,0.0025355506,0.0025274984,0.0,0.0,2.1704087,0.090654716,0.0,0.0
301836404,301736096,0.10211895,0.100886494,0.21402828,0.9967719,0.9967637,0.0,0.0,0.0,0.0,0.0,0.0,0.0,0.0,12.405318,0.0,0.0,nan,0.0,0.0,0.25041324,0.0025834083,0.0026970338,0.0028006192,0.0,0.0,2.1704087,0.090369955,0.0,0.0
302336447,302236140,0.11969792,0.10208585,0.21446723,0.99413973,0.99412256,0.0,0.0,0.0,0.0,0.0,0.0,0.0,0.0,12.403475,0.0,0.0,nan,0.0,0.0,0.25041324,0.0025809838,0.0026984988,0.0027595782,0.0,0.0,2.1704087,0.09037442,0.0,0.0
302836491,302736183,0.14730409,0.10327975,0.21551093,1.0028577,1.0023787,0.0,0.0,0.0,0.0,0.0,0.0,0.0,0.0,12.405485,0.0,0.0,nan,0.0,0.0,0.25041324,0.0025779798,0.002671467,0.0027732092,0.0,0.0,2.1704087,0.09040389,0.0,0.0
303346516,303246228,0.11677674,0.101914816,0.21497807,1.0125456,1.0119195,0.0,0.0,0.0,0.0,0.0,0.0,0.0,0.0,12.403031,0.0,0.0,nan,0.0,0.0,0.25041324,0.0025592938,0.0025980878,0.002659879,0.0,0.0,2.1704087,0.09041773,0.0,0.0
303846574,303746271,0.11063246,0.101957545,0.21482946,1.0142602,1.0135168,0.0,0.0,0.0,0.0,0.0,0.0,0.0,0.0,12.404776,0.0,0.0,nan,0.0,0.0,0.25041324,0.0025494338,0.002563319,0.0026167636,0.0,0.0,2.1704087,0.090503,0.0,0.0
304336603,304236313,0.10453453,0.101459466,0.21413144,1.0180147,1.0170441,0.0,0.0,0.0,0.0,0.0,0.0,0.0,0.0,12.40267,0.0,0.0,nan,0.0,0.0,0.25041324,0.0025431283,0.0025524371,0.0025935597,0.0,0.0,2.1704087,0.09059222,0.0,0.0
304836654,304736356,0.10261749,0.10135045,0.2137852,1.0181556,1.017082,0.0,0.0,0.0,0.0,0.0,0.0,0.0,0.0,12.403958,0.0,0.0,nan,0.0,0.0,0.25041324,0.0025396044,0.002547294,0.0025830152,0.0,0.0,2.1704087,0.09069434,0.0,0.0
305336781,305236399,0.10137967,0.101053685,0.21329115,1.0159354,1.0148768,0.0,0.0,0.0,0.0,0.0,0.0,0.0,0.0,12.402193,0.0,0.0,nan,0.0,0.0,0.25041324,0.0025363483,0.0025422908,0.0025688452,0.0,0.0,2.1704087,0.09070956,0.0,0.0
305836738,305736442,0.100914866,0.10073809,0.21321517,1.0154018,1.0144489,0.0,0.0,0.0,0.0,0.0,0.0,0.0,0.0,12.402788,0.0,0.0,nan,0.0,0.0,0.25041324,0.0060503706,0.0070304954,0.007102645,0.0,0.0,2.1704087,0.09146347,0.0,0.0
306336774,306236484,0.10137729,0.10832268,0.21453376,1.0189904,1.018266,0.0,0.0,0.0,0.0,0.0,0.0,0.0,0.0,12.4002495,0.0,0.0,nan,0.0,0.0,0.25041324,0.0029429952,0.0031357754,0.0029890959,0.0,0.0,2.1704087,0.09712042,0.0,0.0
306847060,306746528,0.10150982,0.1387316,0.22042295,1.0263246,1.0257641,0.0,0.0,0.0,0.0,0.0,0.0,0.0,0.0,12.402527,0.0,0.0,nan,0.0,0.0,0.25041324,0.0028252716,0.0027928278,0.0027161737,0.0,0.0,2.1704087,0.09890546,0.0,0.0
307346897,307246570,0.11929093,0.14526865,0.23828624,1.0301813,1.0300677,0.0,0.0,0.0,0.0,0.0,0.0,0.0,0.0,12.400288,0.0,0.0,nan,0.0,0.0,0.25041324,0.0028138326,0.0026718855,0.002644898,0.0,0.0,2.1704087,0.09453376,0.0,0.0
307836972,307736612,0.13017523,0.12140242,0.24365675,1.0341059,1.0344336,0.0,0.0,0.0,0.0,0.0,0.0,0.0,0.0,12.402807,0.0,0.0,nan,0.0,0.0,0.25041324,0.002866438,0.0026462548,0.0026319441,0.0,0.0,2.1704087,0.092910014,0.0,0.0
308336960,308236654,0.129316,0.10571033,0.2451854,1.0482455,1.0489836,0.0,0.0,0.0,0.0,0.0,0.0,0.0,0.0,12.40084,0.0,0.0,nan,0.0,0.0,0.25041324,0.0030372487,0.0026775044,0.0026780271,0.0,0.0,2.1704087,0.09200919,0.0,0.0
308837007,308736696,0.12386663,0.10411604,0.24358238,1.0519646,1.0528057,0.0,0.0,0.0,0.0,0.0,0.0,0.0,0.0,12.403903,0.0,0.0,nan,0.0,0.0,0.25041324,0.0032049653,0.0027618567,0.0027797418,0.0,0.0,2.1704087,0.09103268,0.0,0.0
309337076,309236738,0.112138405,0.10654564,0.23651004,1.0601205,1.0609782,0.0,0.0,0.0,0.0,0.0,0.0,0.0,0.0,12.403092,0.0,0.0,nan,0.0,0.0,0.25041324,0.003290717,0.0029688168,0.0029355332,0.0,0.0,2.1704087,0.090837955,0.0,0.0
309837113,309736779,0.1054887,0.10874784,0.23019485,1.0562676,1.0570302,0.0,0.0,0.0,0.0,0.0,0.0,0.0,0.0,12.405661,0.0,0.0,nan,0.0,0.0,0.25041324,0.0033045234,0.0034019172,0.00303672,0.0,0.0,2.1704087,0.09083966,0.0,0.0
310337109,310236821,0.10099595,0.110046744,0.22169164,1.0524503,1.0530645,0.0,0.0,0.0,0.0,0.0,0.0,0.0,0.0,12.403487,0.0,0.0,nan,0.0,0.0,0.25041324,0.0033099405,0.0039520455,0.0030037467,0.0,0.0,2.1704087,0.090767324,0.0,0.0
310847201,310746863,0.10158092,0.11050425,0.21777092,1.0464779,1.0470432,0.0,0.0,0.0,0.0,0.0,0.0,0.0,0.0,12.40647,0.0,0.0,nan,0.0,0.0,0.25041324,0.0032809905,0.0041285437,0.0030275579,0.0,0.0,2.1704087,0.09077306,0.0,0.0
311337229,311236904,0.10514444,0.1107565,0.21477097,1.0364894,1.037079,0.0,0.0,0.0,0.0,0.0,0.0,0.0,0.0,12.403727,0.0,0.0,nan,0.0,0.0,0.25041324,0.0032578004,0.0039935466,0.0030351095,0.0,0.0,2.1704087,0.09083264,0.0,0.0
311837229,311736945,0.10635488,0.10980886,0.21409662,1.0324581,1.0330517,0.0,0.0,0.0,0.0,0.0,0.0,0.0,0.0,12.404362,0.0,0.0,nan,0.0,0.0,0.25041324,0.0032329748,0.0039618723,0.0030614184,0.0,0.0,2.1704087,0.090665914,0.0,0.0
312337301,312236986,0.10505137,0.107167125,0.21376693,1.0265003,1.0270727,0.0,0.0,0.0,0.0,0.0,0.0,0.0,0.0,12.402151,0.0,0.0,nan,0.0,0.0,0.25041324,0.0032145863,0.0037664457,0.0030449152,0.0,0.0,2.1704087,0.09063799,0.0,0.0
312837312,312737027,0.10449346,0.106226295,0.21376762,1.022499,1.0230311,0.0,0.0,0.0,0.0,0.0,0.0,0.0,0.0,12.403491,0.0,0.0,nan,0.0,0.0,0.25041324,0.0031709184,0.0035584918,0.0030621248,0.0,0.0,2.1704087,0.0906637,0.0,0.0
313337362,313237069,0.10254587,0.10437748,0.21381825,1.0165762,1.0170649,0.0,0.0,0.0,0.0,0.0,0.0,0.0,0.0,12.401827,0.0,0.0,nan,0.0,0.0,0.25041324,0.0031572173,0.0034853881,0.003036039,0.0,0.0,2.1704087,0.090693206,0.0,0.0
313837405,313737109,0.10179267,0.10345386,0.21388562,1.0145735,1.0150582,0.0,0.0,0.0,0.0,0.0,0.0,0.0,0.0,12.403409,0.0,0.0,nan,0.0,0.0,0.25041324,0.0031339293,0.0034741268,0.0030589513,0.0,0.0,2.1704087,0.090686776,0.0,0.0
314337501,314237150,0.101237,0.10258589,0.21395227,1.0125412,1.0130256,0.0,0.0,0.0,0.0,0.0,0.0,0.0,0.0,12.401786,0.0,0.0,nan,0.0,0.0,0.25041324,0.003137303,0.0032980726,0.003014,0.0,0.0,2.1704087,0.09069356,0.0,0.0
314837522,314737191,0.10096224,0.102043495,0.2139408,1.0124516,1.0129327,0.0,0.0,0.0,0.0,0.0,0.0,0.0,0.0,12.403478,0.0,0.0,nan,0.0,0.0,0.25041324,0.0031377934,0.0033296696,0.0030364124,0.0,0.0,2.1704087,0.090661295,0.0,0.0
315337554,315237231,0.100747794,0.101482496,0.21393982,1.0120853,1.0125481,0.0,0.0,0.0,0.0,0.0,0.0,0.0,0.0,12.402613,0.0,0.0,nan,0.0,0.0,0.25041324,0.0031652013,0.003326142,0.0030206288,0.0,0.0,2.1704087,0.090634204,0.0,0.0
315837561,315737272,0.10076514,0.10117422,0.21402663,1.0123403,1.0128124,0.0,0.0,0.0,0.0,0.0,0.0,0.0,0.0,12.404376,0.0,0.0,nan,0.0,0.0,0.25041324,0.0031721375,0.0033654403,0.0030396003,0.0,0.0,2.1704087,0.09063829,0.0,0.0
316337622,316237312,0.10096641,0.10096674,0.2140457,1.0105954,1.0110493,0.0,0.0,0.0,0.0,0.0,0.0,0.0,0.0,12.4022455,0.0,0.0,nan,0.0,0.0,0.25041324,0.0031674237,0.0033437181,0.0030238985,0.0,0.0,2.1704087,0.09068558,0.0,0.0
316837648,316737352,0.10098635,0.100958675,0.21403652,1.0122088,1.0126183,0.0,0.0,0.0,0.0,0.0,0.0,0.0,0.0,12.403998,0.0,0.0,nan,0.0,0.0,0.09037646,0.003157012,0.0034164414,0.0030491182,0.0,0.0,2.1704087,0.090715736,0.0,0.0
317337710,317237393,0.10108112,0.10085574,0.21405599,1.012217,1.0125583,0.0,0.0,0.0,0.0,0.0,0.0,0.0,0.0,12.403088,0.0,0.0,nan,0.0,0.0,0.09039827,0.003157012,0.0034164414,0.0030491182,0.0,0.0,2.1704087,0.09068821,0.0,0.0
317837748,317737433,0.10119186,0.10074946,0.21408486,1.0122229,1.0125244,0.0,0.0,0.0,0.0,0.0,0.0,0.0,0.0,12.405372,0.0,0.0,nan,0.0,0.0,0.09042953,0.003157012,0.0034164414,0.0030491182,0.0,0.0,2.1704087,0.090699404,0.0,0.0
318337769,318237473,0.10235951,0.100576736,0.21404849,1.0142311,1.0144738,0.0,0.0,0.0,0.0,0.0,0.0,0.0,0.0,12.4031105,0.0,0.0,nan,0.0,0.0,0.090440236,0.0031717652,0.003958036,0.0042377515,0.0,0.0,2.1704087,0.0906891,0.0,0.0
318837818,318737513,0.105890684,0.10075057,0.21394844,1.0141788,1.0143732,0.0,0.0,0.0,0.0,0.0,0.0,0.0,0.0,12.404737,0.0,0.0,nan,0.0,0.0,0.090440236,0.0032262187,0.0039292844,0.0042115245,0.0,0.0,2.1704087,0.090554684,0.0,0.0
319337889,319237553,0.108506285,0.101160295,0.21410193,1.01428,1.0143193,0.0,0.0,0.0,0.0,0.0,0.0,0.0,0.0,12.403504,0.0,0.0,nan,0.0,0.0,0.090440236,0.0031995038,0.0037104054,0.0044508465,0.0,0.0,2.1704087,0.09053153,0.0,0.0
319837919,319737593,0.10577686,0.1011701,0.21412243,1.010496,1.0104012,0.0,0.0,0.0,0.0,0.0,0.0,0.0,0.0,12.404599,0.0,0.0,nan,0.0,0.0,0.090440236,0.0031877842,0.003761602,0.0044099586,0.0,0.0,2.1704087,0.09048515,0.0,0.0
320338021,320237632,0.10058014,0.10072362,0.2137244,1.002877,1.0025605,0.0,0.0,0.0,0.0,0.0,0.0,0.0,0.0,12.403517,0.0,0.0,nan,0.0,0.0,0.090440236,0.0032317594,0.004190758,0.003937612,0.0,0.0,2.1704087,0.09032247,0.0,0.0
320837960,320737672,0.10493458,0.100955054,0.21350966,0.9972646,0.99694353,0.0,0.0,0.0,0.0,0.0,0.0,0.0,0.0,12.404995,0.0,0.0,nan,0.0,0.0,0.090440236,0.0027420176,0.0028301298,0.0028344693,0.0,0.0,2.1704087,0.090299465,0.0,0.0
321338188,321237712,0.11225055,0.10231781,0.21377455,0.99655247,0.9965018,0.0,0.0,0.0,0.0,0.0,0.0,0.0,0.0,12.40261,0.0,0.0,nan,0.0,0.0,0.090440236,0.0026398231,0.0027112754,0.0027236,0.0,0.0,2.1704087,0.090474546,0.0,0.0
321838100,321737752,0.10973855,0.10275187,0.21393065,1.00029,1.000297,0.0,0.0,0.0,0.0,0.0,0.0,0.0,0.0,12.404787,0.0,0.0,nan,0.0,0.0,0.090440236,0.0025991541,0.0027277027,0.0026684282,0.0,0.0,2.1704087,0.09049409,0.0,0.0
322338262,322237791,0.10408794,0.10171364,0.21380025,1.0101801,1.0101298,0.0,0.0,0.0,0.0,0.0,0.0,0.0,0.0,12.403048,0.0,0.0,nan,0.0,0.0,0.090440236,0.0025833042,0.0026753421,0.002620879,0.0,0.0,2.1704087,0.09039573,0.0,0.0
322838121,322737831,0.10182808,0.10120126,0.21370766,1.014245,1.014143,0.0,0.0,0.0,0.0,0.0,0.0,0.0,0.0,12.405166,0.0,0.0,nan,0.0,0.0,0.090440236,0.0025772485,0.0026320312,0.002592003,0.0,0.0,2.1704087,0.09030733,0.0,0.0
323338203,323237870,0.10149462,0.10194827,0.2136933,1.0163308,1.016192,0.0,0.0,0.0,0.0,0.0,0.0,0.0,0.0,12.403328,0.0,0.0,nan,0.0,0.0,0.090440236,0.0025683134,0.0025897294,0.0025697034,0.0,0.0,2.1704087,0.09030182,0.0,0.0
323838199,323737910,0.10190272,0.10206868,0.21377131,1.0146955,1.0145838,0.0,0.0,0.0,0.0,0.0,0.0,0.0,0.0,12.404334,0.0,0.0,nan,0.0,0.0,0.090440236,0.0025612633,0.0025650153,0.0025586705,0.0,0.0,2.1704087,0.09032206,0.0,0.0
324338308,324237949,0.1016697,0.10124254,0.21380979,1.0163713,1.0163175,0.0,0.0,0.0,0.0,0.0,0.0,0.0,0.0,12.403249,0.0,0.0,nan,0.0,0.0,0.090440236,0.0025509195,0.0025537182,0.0025505717,0.0,0.0,2.1704087,0.09036108,0.0,0.0
324838281,324737989,0.10141201,0.10094896,0.21385543,1.0163094,1.0162884,0.0,0.0,0.0,0.0,0.0,0.0,0.0,0.0,12.404876,0.0,0.0,nan,0.0,0.0,0.090440236,0.0025455125,0.002548373,0.0025444324,0.0,0.0,2.1704087,0.090377346,0.0,0.0
325338340,325238028,0.10130252,0.1007372,0.21391219,1.0163206,1.0163246,0.0,0.0,0.0,0.0,0.0,0.0,0.0,0.0,12.403148,0.0,0.0,nan,0.0,0.0,0.090440236,0.0025421833,0.0025457332,0.002540487,0.0,0.0,2.1704087,0.09039125,0.0,0.0
325838363,325738069,0.100630194,0.10015306,0.2138655,1.0141394,1.0141494,0.0,0.0,0.0,0.0,0.0,0.0,0.0,0.0,12.40432,0.0,0.0,nan,0.0,0.0,0.090440236,0.002536725,0.0025405241,0.002536757,0.0,0.0,2.1704087,0.090438426,0.0,0.0
326338584,326238107,0.10004316,0.09991581,0.21395183,1.0124568,1.0124637,0.0,0.0,0.0,0.0,0.0,0.0,0.0,0.0,12.403128,0.0,0.0,nan,0.0,0.0,0.090440236,0.0025332568,0.0025376573,0.002533512,0.0,0.0,2.1704087,0.090457074,0.0,0.0
326838465,326738146,0.0999628,0.09998064,0.21399228,1.0143203,1.014323,0.0,0.0,0.0,0.0,0.0,0.0,0.0,0.0,12.405538,0.0,0.0,nan,0.0,0.0,0.090440236,0.0025307944,0.0025354696,0.0025313064,0.0,0.0,2.1704087,0.090462506,0.0,0.0
327338472,327238185,0.10014729,0.10024366,0.21403365,1.0142779,1.0142815,0.0,0.0,0.0,0.0,0.0,0.0,0.0,0.0,12.40326,0.0,0.0,nan,0.0,0.0,0.090440236,0.0025282523,0.002533107,0.0025291804,0.0,0.0,2.1704087,0.09047646,0.0,0.0
327838513,327738224,0.100014836,0.100106664,0.21401829,1.0123211,1.0123308,0.0,0.0,0.0,0.0,0.0,0.0,0.0,0.0,12.4060545,0.0,0.0,nan,0.0,0.0,0.09031346,0.002527131,0.0025321988,0.002527928,0.0,0.0,2.1704087,0.09047651,0.0,0.0
328338559,328238263,0.10020969,0.1002537,0.21406072,1.0120094,1.0120294,0.0,0.0,0.0,0.0,0.0,0.0,0.0,0.0,12.403671,0.0,0.0,nan,0.0,0.0,0.09032355,0.002527131,0.0025321988,0.002527928,0.0,0.0,2.1704087,0.09047324,0.0,0.0
328838593,328738302,0.10054926,0.10057422,0.21407598,1.0102773,1.0102978,0.0,0.0,0.0,0.0,0.0,0.0,0.0,0.0,12.405301,0.0,0.0,nan,0.0,0.0,0.09033426,0.002527131,0.0025321988,0.002527928,0.0,0.0,2.1704087,0.09046069,0.0,0.0
329338686,329238341,0.10079777,0.1008126,0.21408665,1.0083208,1.0083442,0.0,0.0,0.0,0.0,0.0,0.0,0.0,0.0,12.404185,0.0,0.0,nan,0.0,0.0,0.09034299,0.002527131,0.0025321988,0.002527928,0.0,0.0,2.1704087,0.09046728,0.0,0.0
329838705,329738380,0.10059107,0.100600526,0.21410708,1.0063913,1.0064132,0.0,0.0,0.0,0.0,0.0,0.0,0.0,0.0,12.40637,0.0,0.0,nan,0.0,0.0,0.09035265,0.002527131,0.0025321988,0.002527928,0.0,0.0,2.1704087,0.09048498,0.0,0.0
330338707,330238419,0.10057251,0.10058832,0.21410099,1.0024232,1.0024425,0.0,0.0,0.0,0.0,0.0,0.0,0.0,0.0,12.403936,0.0,0.0,nan,0.0,0.0,0.09036088,0.002527131,0.0025321988,0.002527928,0.0,0.0,2.1704087,0.090498105,0.0,0.0
330838795,330738458,0.10053588,0.10056862,0.21405149,1.0023131,1.0023314,0.0,0.0,0.0,0.0,0.0,0.0,0.0,0.0,12.405551,0.0,0.0,nan,0.0,0.0,0.09037001,0.002527131,0.0025321988,0.002527928,0.0,0.0,2.1704087,0.09050923,0.0,0.0
331338796,331238497,0.10030602,0.10032702,0.21405853,1.0003647,1.0003814,0.0,0.0,0.0,0.0,0.0,0.0,0.0,0.0,12.403718,0.0,0.0,nan,0.0,0.0,0.09037778,0.002527131,0.0025321988,0.002527928,0.0,0.0,2.1704087,0.09052511,0.0,0.0
331838856,331738536,0.10015314,0.100156665,0.21408556,1.0003442,1.0003593,0.0,0.0,0.0,0.0,0.0,0.0,0.0,0.0,12.4061,0.0,0.0,nan,0.0,0.0,0.090383485,0.002527131,0.0025321988,0.002527928,0.0,0.0,2.1704087,0.09054423,0.0,0.0
332338858,332238574,0.10021936,0.10019189,0.2140975,0.99835205,0.9983655,0.0,0.0,0.0,0.0,0.0,0.0,0.0,0.0,12.403733,0.0,0.0,nan,0.0,0.0,0.09038926,0.002527131,0.0025321988,0.002527928,0.0,0.0,2.1704087,0.09055139,0.0,0.0
332838952,332738613,0.09997833,0.099981636,0.21405713,0.9963474,0.99635845,0.0,0.0,0.0,0.0,0.0,0.0,0.0,0.0,12.405392,0.0,0.0,nan,0.0,0.0,0.09039521,0.002527131,0.0025321988,0.002527928,0.0,0.0,2.1704087,0.09054608,0.0,0.0
333338933,333238652,0.100059666,0.10003383,0.21405652,0.99622804,0.9962377,0.0,0.0,0.0,0.0,0.0,0.0,0.0,0.0,12.403566,0.0,0.0,nan,0.0,0.0,0.09039996,0.002527131,0.0025321988,0.002527928,0.0,0.0,2.1704087,0.090548836,0.0,0.0
333839009,333738691,0.10021302,0.10020052,0.21408443,0.9942888,0.9942957,0.0,0.0,0.0,0.0,0.0,0.0,0.0,0.0,12.405992,0.0,0.0,nan,0.0,0.0,0.09040617,0.002527131,0.0025321988,0.002527928,0.0,0.0,2.1704087,0.0905453,0.0,0.0
334339017,334238729,0.10029481,0.10028833,0.2140918,0.9923158,0.9923214,0.0,0.0,0.0,0.0,0.0,0.0,0.0,0.0,12.403651,0.0,0.0,nan,0.0,0.0,0.090411134,0.002527131,0.0025321988,0.002527928,0.0,0.0,2.1704087,0.090535946,0.0,0.0
334839062,334738768,0.10020224,0.1002541,0.21405151,0.99225914,0.99226314,0.0,0.0,0.0,0.0,0.0,0.0,0.0,0.0,12.405336,0.0,0.0,nan,0.0,0.0,0.2504198,0.002527131,0.0025321988,0.002527928,0.0,0.0,2.1704087,0.09052267,0.0,0.0
335339229,335238806,0.10034481,0.10060193,0.21406601,0.9922389,0.9922384,0.0,0.0,0.0,0.0,0.0,0.0,0.0,0.0,12.403546,0.0,0.0,nan,0.0,0.0,0.2504296,0.002527131,0.0025321988,0.002527928,0.0,0.0,2.1704087,0.09051035,0.0,0.0
335839168,335738845,0.100568846,0.10102443,0.21410143,0.99028593,0.9902835,0.0,0.0,0.0,0.0,0.0,0.0,0.0,0.0,12.405978,0.0,0.0,nan,0.0,0.0,0.25043696,0.002527131,0.0025321988,0.002527928,0.0,0.0,2.1704087,0.090490215,0.0,0.0
336339162,336238883,0.10145169,0.10217768,0.21413088,0.98836505,0.98836756,0.0,0.0,0.0,0.0,0.0,0.0,0.0,0.0,12.403649,0.0,0.0,nan,0.0,0.0,0.25043797,0.002527131,0.0025321988,0.002527928,0.0,0.0,2.1704087,0.09047038,0.0,0.0
336839229,336738921,0.100914724,0.101491764,0.21408385,0.9864147,0.9864262,0.0,0.0,0.0,0.0,0.0,0.0,0.0,0.0,12.405332,0.0,0.0,nan,0.0,0.0,0.25044137,0.002527131,0.0025321988,0.002527928,0.0,0.0,2.1704087,0.090481,0.0,0.0
337339251,337238960,0.10160337,0.100986585,0.21406297,0.98255444,0.982586,0.0,0.0,0.0,0.0,0.0,0.0,0.0,0.0,12.403027,0.0,0.0,nan,0.0,0.0,0.2504425,0.0027295768,0.0027209965,0.002907843,0.0,0.0,2.1704087,0.090450555,0.0,0.0
337839335,337738998,0.10341172,0.10070803,0.21407117,0.9767601,0.9768001,0.0,0.0,0.0,0.0,0.0,0.0,0.0,0.0,12.405416,0.0,0.0,nan,0.0,0.0,0.2504425,0.0027287933,0.002729687,0.0028998372,0.0,0.0,2.1704087,0.090422966,0.0,0.0
338339325,338239037,0.108408056,0.10202742,0.21420743,0.9728425,0.9728451,0.0,0.0,0.0,0.0,0.0,0.0,0.0,0.0,12.403603,0.0,0.0,nan,0.0,0.0,0.2504425,0.0027249467,0.0027206314,0.0029015602,0.0,0.0,2.1704087,0.09042639,0.0,0.0
338839363,338739075,0.10751265,0.10209278,0.21420726,0.9723074,0.9722487,0.0,0.0,0.0,0.0,0.0,0.0,0.0,0.0,12.405772,0.0,0.0,nan,0.0,0.0,0.2504425,0.0027204063,0.0027227637,0.0028974842,0.0,0.0,2.1704087,0.0903844,0.0,0.0
339339405,339239113,0.10651325,0.103367046,0.21436854,0.9787413,0.9785277,0.0,0.0,0.0,0.0,0.0,0.0,0.0,0.0,12.403396,0.0,0.0,nan,0.0,0.0,0.2504425,0.002709457,0.0027245837,0.0028967313,0.0,0.0,2.1704087,0.090362065,0.0,0.0
339839512,339739151,0.10521351,0.104534194,0.21452084,0.9826424,0.9823705,0.0,0.0,0.0,0.0,0.0,0.0,0.0,0.0,12.405788,0.0,0.0,nan,0.0,0.0,0.2504425,0.0026995067,0.0027284285,0.0028989492,0.0,0.0,2.1704087,0.0903853,0.0,0.0
340339481,340239189,0.10312919,0.10630248,0.21477588,0.99238074,0.99208814,0.0,0.0,0.0,0.0,0.0,0.0,0.0,0.0,12.403972,0.0,0.0,nan,0.0,0.0,0.2504425,0.0026893169,0.0027305537,0.0029012025,0.0,0.0,2.1704087,0.090403676,0.0,0.0
340839520,340739227,0.10218081,0.10666893,0.21495648,1.0024322,1.0022005,0.0,0.0,0.0,0.0,0.0,0.0,0.0,0.0,12.405718,0.0,0.0,nan,0.0,0.0,0.2504425,0.0026831515,0.0027327423,0.002902992,0.0,0.0,2.1704087,0.09044487,0.0,0.0
341339552,341239265,0.10079083,0.10472877,0.21491812,1.0120244,1.0119545,0.0,0.0,0.0,0.0,0.0,0.0,0.0,0.0,12.403899,0.0,0.0,nan,0.0,0.0,0.2504425,0.0026790323,0.0027372143,0.0029002407,0.0,0.0,2.1704087,0.09045725,0.0,0.0
341839642,341739303,0.10062065,0.10456388,0.21507756,1.0160053,1.0160518,0.0,0.0,0.0,0.0,0.0,0.0,0.0,0.0,12.405671,0.0,0.0,nan,0.0,0.0,0.2504425,0.0026776455,0.0027408598,0.002897756,0.0,0.0,2.1704087,0.09048791,0.0,0.0
342339710,342239344,0.10128185,0.10488394,0.21554258,1.0121526,1.0123982,0.0,0.0,0.0,0.0,0.0,0.0,0.0,0.0,12.404631,0.0,0.0,nan,0.0,0.0,0.2504425,0.0026780432,0.0027335498,0.0029019176,0.0,0.0,2.1704087,0.0905598,0.0,0.0
342839704,342739379,0.1017408,0.10395342,0.21568146,1.0042864,1.0046649,0.0,0.0,0.0,0.0,0.0,0.0,0.0,0.0,12.405948,0.0,0.0,nan,0.0,0.0,0.2504425,0.002680995,0.0027283984,0.0029034144,0.0,0.0,2.1704087,0.09057658,0.0,0.0
343339708,343239417,0.1016256,0.10222316,0.21550103,0.98668224,0.9872068,0.0,0.0,0.0,0.0,0.0,0.0,0.0,0.0,12.404111,0.0,0.0,nan,0.0,0.0,0.2504425,0.0026836852,0.0027274457,0.0029000712,0.0,0.0,2.1704087,0.09056537,0.0,0.0
343839819,343739455,0.10176396,0.10169333,0.2155369,0.97302675,0.97357786,0.0,0.0,0.0,0.0,0.0,0.0,0.0,0.0,12.405414,0.0,0.0,nan,0.0,0.0,0.2504425,0.0026922757,0.0027257623,0.002893339,0.0,0.0,2.1704087,0.09052593,0.0,0.0
344339846,344239493,0.102498546,0.10150334,0.21573578,0.953672,0.95420593,0.0,0.0,0.0,0.0,0.0,0.0,0.0,0.0,12.404893,0.0,0.0,nan,0.0,0.0,0.2504425,0.0027012432,0.0027162386,0.0028925654,0.0,0.0,2.1704087,0.0905085,0.0,0.0
344839956,344739531,0.10272237,0.101303376,0.21581511,0.9401821,0.9406686,0.0,0.0,0.0,0.0,0.0,0.0,0.0,0.0,12.406769,0.0,0.0,nan,0.0,0.0,0.2504425,0.00270918,0.0027082807,0.0028919745,0.0,0.0,2.1704087,0.09047097,0.0,0.0
345339863,345239568,0.10285025,0.10124171,0.21583228,0.9266221,0.92699534,0.0,0.0,0.0,0.0,0.0,0.0,0.0,0.0,12.404274,0.0,0.0,nan,0.0,0.0,0.2504425,0.0027166207,0.0026994275,0.0028915608,0.0,0.0,2.1704087,0.09042824,0.0,0.0
345840021,345739606,0.10273241,0.10127469,0.21575926,0.91890615,0.91918707,0.0,0.0,0.0,0.0,0.0,0.0,0.0,0.0,12.406118,0.0,0.0,nan,0.0,0.0,0.2504425,0.0027233623,0.0026948217,0.0028889054,0.0,0.0,2.1704087,0.09039345,0.0,0.0
346339973,346239643,0.102437876,0.10130423,0.21571669,0.91116256,0.9113056,0.0,0.0,0.0,0.0,0.0,0.0,0.0,0.0,12.404976,0.0,0.0,nan,0.0,0.0,0.2504425,0.0027294713,0.0026898647,0.0028858115,0.0,0.0,2.1704087,0.09035705,0.0,0.0
346840018,346739683,0.10291659,0.10183645,0.21588168,0.9072642,0.90733045,0.0,0.0,0.0,0.0,0.0,0.0,0.0,0.0,12.406286,0.0,0.0,nan,0.0,0.0,0.2504425,0.0027330555,0.002681373,0.0028898923,0.0,0.0,2.1704087,0.09031782,0.0,0.0
347340008,347239718,0.102611065,0.10217021,0.21582994,0.9014945,0.90144765,0.0,0.0,0.0,0.0,0.0,0.0,0.0,0.0,12.404318,0.0,0.0,nan,0.0,0.0,0.2504425,0.0027346783,0.0026743663,0.0028925987,0.0,0.0,2.1704087,0.090300046,0.0,0.0
347840109,347739756,0.101707034,0.10177014,0.21550582,0.90110123,0.90100116,0.0,0.0,0.0,0.0,0.0,0.0,0.0,0.0,12.406145,0.0,0.0,nan,0.0,0.0,0.2504425,0.0027346702,0.0026796283,0.0028865922,0.0,0.0,2.1704087,0.090277106,0.0,0.0
348340129,348239793,0.10149915,0.10187404,0.21548459,0.89753747,0.8973957,0.0,0.0,0.0,0.0,0.0,0.0,0.0,0.0,12.405231,0.0,0.0,nan,0.0,0.0,0.2504425,0.002732561,0.002678778,0.0028877833,0.0,0.0,2.1704087,0.09025839,0.0,0.0
348840128,348739831,0.10122164,0.101708844,0.21541929,0.8955612,0.89540863,0.0,0.0,0.0,0.0,0.0,0.0,0.0,0.0,12.406374,0.0,0.0,nan,0.0,0.0,0.2504425,0.0027285144,0.0026843122,0.0028854355,0.0,0.0,2.1704087,0.090250164,0.0,0.0
349340175,349239868,0.10115273,0.10175621,0.21538913,0.8914829,0.89133465,0.0,0.0,0.0,0.0,0.0,0.0,0.0,0.0,12.405128,0.0,0.0,nan,0.0,0.0,0.2504425,0.0027204796,0.0026875315,0.0028885137,0.0,0.0,2.1704087,0.090247594,0.0,0.0
349840214,349739905,0.10115514,0.101823896,0.21545193,0.8898528,0.88970995,0.0,0.0,0.0,0.0,0.0,0.0,0.0,0.0,12.407417,0.0,0.0,nan,0.0,0.0,0.2504425,0.0027134793,0.002689717,0.002892332,0.0,0.0,2.1704087,0.0902562,0.0,0.0
350340226,350239942,0.10060594,0.10120149,0.2152648,0.88946486,0.8893436,0.0,0.0,0.0,0.0,0.0,0.0,0.0,0.0,12.404808,0.0,0.0,nan,0.0,0.0,0.2504425,0.0027038432,0.00269846,0.0028916516,0.0,0.0,2.1704087,0.0902565,0.0,0.0
350840281,350739980,0.1006157,0.10131921,0.21529071,0.88777506,0.8876717,0.0,0.0,0.0,0.0,0.0,0.0,0.0,0.0,12.406507,0.0,0.0,nan,0.0,0.0,0.2504425,0.0026942529,0.0027048928,0.0028942367,0.0,0.0,2.1704087,0.09027235,0.0,0.0
351340382,351240017,0.10032243,0.1010316,0.21523763,0.8839778,0.88391215,0.0,0.0,0.0,0.0,0.0,0.0,0.0,0.0,12.40528,0.0,0.0,nan,0.0,0.0,0.2504425,0.0026851923,0.002713661,0.0028929326,0.0,0.0,2.1704087,0.09028139,0.0,0.0
351840348,351740054,0.10023955,0.101129405,0.21523124,0.87969756,0.87965155,0.0,0.0,0.0,0.0,0.0,0.0,0.0,0.0,12.40654,0.0,0.0,nan,0.0,0.0,0.2504425,0.002674758,0.0027204503,0.0028960286,0.0,0.0,2.1704087,0.09029804,0.0,0.0
352340497,352240091,0.10030182,0.10131698,0.21533723,0.8725482,0.872563,0.0,0.0,0.0,0.0,0.0,0.0,0.0,0.0,12.404614,0.0,0.0,nan,0.0,0.0,0.2504425,0.0026647898,0.0027276468,0.0028972598,0.0,0.0,2.1704087,0.09030975,0.0,0.0
352840422,352740128,0.10043696,0.10150264,0.21538451,0.86903036,0.86909044,0.0,0.0,0.0,0.0,0.0,0.0,0.0,0.0,12.405835,0.0,0.0,nan,0.0,0.0,0.2504425,0.002656897,0.002733081,0.0028988833,0.0,0.0,2.1704087,0.09031692,0.0,0.0
353340452,353240165,0.10049923,0.10160743,0.21543185,0.8615952,0.8617207,0.0,0.0,0.0,0.0,0.0,0.0,0.0,0.0,12.4049635,0.0,0.0,nan,0.0,0.0,0.2504425,0.0026498772,0.0027383717,0.0028990079,0.0,0.0,2.1704087,0.09031674,0.0,0.0
353840758,353740201,0.100518696,0.10159208,0.2154482,0.857318,0.8574993,0.0,0.0,0.0,0.0,0.0,0.0,0.0,0.0,12.40377,0.0,0.0,nan,0.0,0.0,0.2504425,0.0026465266,0.0027411745,0.0028988868,0.0,0.0,2.1704087,0.09031843,0.0,0.0
354340522,354240238,0.10059982,0.101528235,0.21541251,0.8572613,0.8574933,0.0,0.0,0.0,0.0,0.0,0.0,0.0,0.0,12.404928,0.0,0.0,nan,0.0,0.0,0.2504425,0.002644981,0.0027397128,0.0029001865,0.0,0.0,2.1704087,0.090322286,0.0,0.0
354840736,354740275,0.10090705,0.10166495,0.21547626,0.85712457,0.8574077,0.0,0.0,0.0,0.0,0.0,0.0,0.0,0.0,12.406676,0.0,0.0,nan,0.0,0.0,0.2504425,0.002647083,0.0027374094,0.0028997913,0.0,0.0,2.1704087,0.09032341,0.0,0.0
355340595,355240312,0.101056695,0.10159061,0.2155548,0.85917974,0.8595048,0.0,0.0,0.0,0.0,0.0,0.0,0.0,0.0,12.404701,0.0,0.0,nan,0.0,0.0,0.2504425,0.00264979,0.0027346248,0.0028983117,0.0,0.0,2.1704087,0.09032406,0.0,0.0
355840671,355740348,0.101350166,0.101667896,0.21556924,0.8627557,0.8630954,0.0,0.0,0.0,0.0,0.0,0.0,0.0,0.0,12.407299,0.0,0.0,nan,0.0,0.0,0.2504425,0.002656305,0.002729876,0.0028961727,0.0,0.0,2.1704087,0.090314254,0.0,0.0
356340685,356240385,0.10133007,0.10134015,0.21554865,0.8682119,0.86855805,0.0,0.0,0.0,0.0,0.0,0.0,0.0,0.0,12.404776,0.0,0.0,nan,0.0,0.0,0.2504425,0.002663975,0.0027250363,0.0028923668,0.0,0.0,2.1704087,0.09029985,0.0,0.0
356840959,356740421,0.10153995,0.101218134,0.21560228,0.87346625,0.8737853,0.0,0.0,0.0,0.0,0.0,0.0,0.0,0.0,12.407694,0.0,0.0,nan,0.0,0.0,0.2504425,0.0026739652,0.0027177134,0.0028894728,0.0,0.0,2.1704087,0.09028705,0.0,0.0
357340750,357240457,0.10180823,0.10117601,0.21572265,0.8738311,0.8741319,0.0,0.0,0.0,0.0,0.0,0.0,0.0,0.0,12.405095,0.0,0.0,nan,0.0,0.0,0.2504425,0.0026841778,0.00270913,0.0028871377,0.0,0.0,2.1704087,0.09027881,0.0,0.0
357840861,357740494,0.10190081,0.1010021,0.21569659,0.873904,0.87416893,0.0,0.0,0.0,0.0,0.0,0.0,0.0,0.0,12.406315,0.0,0.0,nan,0.0,0.0,0.2504425,0.0027004373,0.0026981367,0.0028821316,0.0,0.0,2.1704087,0.09026659,0.0,0.0
358340827,358240530,0.10242793,0.10092529,0.21582073,0.8667669,0.8669511,0.0,0.0,0.0,0.0,0.0,0.0,0.0,0.0,12.405113,0.0,0.0,nan,0.0,0.0,0.2504425,0.0027126644,0.0026874118,0.0028801146,0.0,0.0,2.1704087,0.09026133,0.0,0.0
358840865,358740566,0.10261868,0.10082539,0.21588185,0.8541706,0.8542808,0.0,0.0,0.0,0.0,0.0,0.0,0.0,0.0,12.406958,0.0,0.0,nan,0.0,0.0,0.2504425,0.002722916,0.0026804307,0.0028773984,0.0,0.0,2.1704087,0.090253346,0.0,0.0
359340893,359240603,0.10294012,0.10091263,0.21596293,0.8486444,0.8486299,0.0,0.0,0.0,0.0,0.0,0.0,0.0,0.0,12.40442,0.0,0.0,nan,0.0,0.0,0.2504425,0.002728764,0.0026806288,0.002871328,0.0,0.0,2.1704087,0.09023694,0.0,0.0
359840952,359740639,0.103300616,0.10109712,0.21604043,0.84146917,0.84136087,0.0,0.0,0.0,0.0,0.0,0.0,0.0,0.0,12.407083,0.0,0.0,nan,0.0,0.0,0.2504425,0.0027315095,0.0026730734,0.0028769816,0.0,0.0,2.1704087,0.09024383,0.0,0.0
360341010,360240675,0.102373265,0.10096861,0.21594898,0.8362548,0.83597016,0.0,0.0,0.0,0.0,0.0,0.0,0.0,0.0,12.405595,0.0,0.0,nan,0.0,0.0,0.2504425,0.0026578133,0.0026252368,0.0027118763,0.0,0.0,2.1704087,0.09023368,0.0,0.0
