timestamp,x,y,z,yaw,yawspeed,vx,vy,vz,acceleration[0],acceleration[1],acceleration[2],jerk[0],jerk[1],jerk[2],thrust[0],thrust[1],thrust[2]
217458761,nan,nan,nan,nan,0.0,nan,nan,1.0,0.0,0.0,0.0,nan,nan,0.0,nan,nan,nan
217483774,nan,nan,nan,nan,0.0,nan,nan,1.0,0.0,0.0,0.0,nan,nan,0.0,nan,nan,nan
217658962,nan,nan,nan,nan,0.0,nan,nan,1.0,0.0,0.0,0.0,nan,nan,0.0,nan,nan,nan
217858827,nan,nan,nan,nan,0.0,nan,nan,1.0,0.0,0.0,0.0,nan,nan,0.0,nan,nan,nan
218058833,13.319151,0.6563979,4.4259486,nan,0.0,-0.0007811428,0.0007811428,0.7,-0.07905152,0.07905152,0.0,-4.0,4.0,0.0,nan,nan,nan
218258842,13.326667,0.65488416,4.4311895,nan,0.0,-0.00080378307,0.00080378307,0.6991962,-0.08018893,0.08018893,-0.08018893,-4.0,4.0,-4.0,nan,nan,nan
218458861,13.331294,0.65455985,4.437121,nan,0.0,0.001575598,-0.0015788747,0.673874,-0.00036115944,0.00032015145,-0.33333334,0.0,0.0,0.0,nan,nan,nan
218658862,13.331603,0.65425044,4.4420414,nan,0.0,0.0015031938,-0.0015148433,0.60720634,-0.00036211312,0.00032015145,-0.33333334,0.0,0.0,0.0,nan,nan,nan
218858878,13.331897,0.6539538,4.450532,nan,0.0,0.001430613,-0.0014505789,0.5405346,-0.00036402047,0.0003220588,-0.33333334,0.0,0.0,0.0,nan,nan,nan
219059028,13.332176,0.65366983,4.456038,nan,0.0,0.001357754,-0.0013860803,0.47381768,-0.00036402047,0.00032301247,-0.33333334,0.0,0.0,0.0,nan,nan,nan
219258973,13.332439,0.6533991,4.45987,nan,0.0,0.0012846652,-0.0013213052,0.40716967,-0.00036592782,0.00032396615,-0.33333334,0.0,0.0,0.0,nan,nan,nan
219458918,13.332691,0.6531415,4.464598,nan,0.0,0.001211385,-0.0012563386,0.34052095,-0.0003668815,0.0003258735,-0.33333334,0.0,0.0,0.0,nan,nan,nan
219659161,13.332927,0.6528963,4.4706783,nan,0.0,0.0011377287,-0.0011910464,0.27377322,-0.00036783516,0.00032682717,-0.33333334,0.0,0.0,0.0,nan,nan,nan
219858995,13.333149,0.6526648,4.477107,nan,0.0,0.0010640224,-0.0011256494,0.20716186,-0.00036926568,0.00032778084,-0.33333334,0.0,0.0,0.0,nan,nan,nan
220058967,13.333355,0.6524463,4.4730988,nan,0.0,0.0009900277,-0.0010599406,0.14050487,-0.0003706962,0.00032921135,-0.33333334,0.0,0.0,0.0,nan,nan,nan
220259158,13.333548,0.6522407,4.4730897,nan,0.0,0.000915703,-0.0009939208,0.073774524,-0.00037164986,0.00033064187,-0.33333334,0.0,0.0,0.0,nan,nan,nan
220459052,13.333724,0.6520486,4.4722185,nan,0.0,0.0008412975,-0.0009277317,0.0071428586,-0.00037260354,0.00033159554,-0.33333334,0.0,0.0,0.0,nan,nan,nan
220659156,13.333885,0.6518696,4.4747643,nan,0.0,0.0007665666,-0.00086125423,-0.059558142,-0.0003735572,0.0003325492,-0.33333334,0.0,0.0,0.0,nan,nan,nan
220859222,13.334032,0.65170383,4.476311,nan,0.0,0.00069167727,-0.0007945596,-0.12624714,-0.00037498772,0.00033397973,-0.33333334,0.0,0.0,0.0,nan,nan,nan
221059397,13.334163,0.6515514,4.474768,nan,0.0,0.0006164998,-0.0007275811,-0.1929718,-0.0003759414,0.00033541024,-0.33333334,0.0,0.0,0.0,nan,nan,nan
221259030,13.33428,0.65141284,4.4696164,nan,0.0,0.00054132525,-0.0006605073,-0.25951648,-0.00037689507,0.0003363639,-0.33333334,0.0,0.0,0.0,nan,nan,nan
221459121,13.334381,0.6512873,4.459116,nan,0.0,0.00046579045,-0.00059308123,-0.32620275,-0.00037784874,0.0003373176,-0.33333334,0.0,0.0,0.0,nan,nan,nan
221659325,13.334467,0.6511752,4.4470625,nan,0.0,0.00038998862,-0.0005253712,-0.39294776,-0.00037904084,0.0003387481,-0.33333334,0.0,0.0,0.0,nan,nan,nan
221859101,13.334538,0.6510769,4.4389133,nan,0.0,0.00031418158,-0.0004575654,-0.45953378,-0.0003799945,0.0003399402,-0.33333334,0.0,0.0,0.0,nan,nan,nan
222059139,13.334594,0.6509921,4.427972,nan,0.0,0.00023810378,-0.00038942916,-0.52621955,-0.00038047135,0.00034089386,-0.33333334,0.0,0.0,0.0,nan,nan,nan
222259299,13.334635,0.6509209,4.4206033,nan,9.557977e-05,0.00016184873,-0.00032103856,-0.5929393,-0.00038142502,0.00034232438,-0.33333334,0.0,0.0,0.0,nan,nan,nan
222459060,13.33466,0.6508635,4.414668,nan,0.0,8.5631094e-05,-0.0002525935,-0.6595263,-0.00038190186,0.00034303963,-0.33333334,0.0,0.0,0.0,nan,nan,nan
222659170,13.33467,0.6508199,4.4112954,nan,0.013888156,9.20394e-06,-0.00018382621,-0.72622967,-0.00038202107,0.00034411252,-0.33333334,0.0,0.0,0.0,nan,nan,nan
222859423,13.334665,0.65079015,4.4122143,nan,0.008438332,-6.643659e-05,-0.00011561699,-0.7922155,-0.00038214028,0.00034482777,-0.33333334,0.0,0.0,0.0,nan,nan,nan
223039226,13.334648,0.650775,4.41226,nan,0.016641093,-0.00013396943,-5.460318e-05,-0.8511231,-0.00038214028,0.00034542382,-0.33333334,0.0,0.0,0.0,nan,nan,nan
223259290,13.334611,0.6507712,4.3844976,nan,0.0636051,-0.00021646192,2.0036705e-05,-0.92307967,-0.00038214028,0.00034590065,-0.33333334,0.0,0.0,0.0,nan,nan,nan
223459266,13.334562,0.65078163,4.332307,nan,0.07861937,-0.0002908884,8.741551e-05,-0.9879361,-0.00038214028,0.00034596026,-0.31066257,0.0,0.0,4.0,nan,nan,nan
223659249,13.334505,0.65080243,4.272733,nan,0.042535834,-0.00031820027,0.00011395967,-1.0,0.0,0.0,0.0,0.0,0.0,0.0,nan,nan,nan
223859279,13.334448,0.6508239,4.2065954,nan,0.030034835,-0.00031747256,0.00011367972,-1.0,0.0,0.0,0.0,0.0,0.0,0.0,nan,nan,nan
224059328,13.334391,0.65084535,4.132474,nan,0.040449366,-0.00031679665,0.00011341825,-1.0,0.0,0.0,0.0,0.0,0.0,0.0,nan,nan,nan
224259452,13.334333,0.6508668,4.058011,nan,0.041121773,-0.00031611903,0.00011315614,-1.0,0.0,0.0,0.0,0.0,0.0,0.0,nan,nan,nan
224459312,13.334276,0.6508882,3.9750345,nan,0.022815501,-0.00031548954,0.000112912356,-1.0,0.0,0.0,0.0,0.0,0.0,0.0,nan,nan,nan
224659407,13.334219,0.6509096,3.8840182,nan,0.023014823,-0.0003149081,0.00011268574,-1.0,0.0,0.0,0.0,0.0,0.0,0.0,nan,nan,nan
224859358,13.334162,0.65093106,3.7687123,nan,0.024285039,-0.00031446334,0.00011250674,-1.0,0.0,0.0,0.0,0.0,0.0,0.0,nan,nan,nan
225059514,13.334105,0.65095246,3.6490986,nan,0.0271021,-0.00031407332,0.00011234845,-1.0,0.0,0.0,0.0,0.0,0.0,0.0,nan,nan,nan
225259358,13.334047,0.6509739,3.5266397,nan,0.014286486,-0.0003136874,0.00011219031,-1.0,0.0,0.0,0.0,0.0,0.0,0.0,nan,nan,nan
225459662,13.33399,0.65099543,3.4012356,nan,0.0,-0.00031332462,0.00011204034,-1.0,0.0,0.0,0.0,0.0,0.0,0.0,nan,nan,nan
225659423,13.333933,0.65101695,3.2729113,nan,0.0,-0.00031296923,0.00011189171,-1.0,0.0,0.0,0.0,0.0,0.0,0.0,nan,nan,nan
225859420,13.333875,0.6510388,3.1339207,nan,0.0,-0.00031267497,0.0001117587,-1.0,0.0,0.0,0.0,0.0,0.0,0.0,nan,nan,nan
226059506,13.333814,0.6510609,2.991557,nan,0.0,-0.00031233736,0.000111633155,-1.0,0.0,0.0,0.0,0.0,0.0,0.0,nan,nan,nan
226259441,13.333753,0.65108293,2.8331006,nan,0.0,-0.00031207252,0.00011154059,-1.0,0.0,0.0,0.0,0.0,0.0,0.0,nan,nan,nan
226459500,13.333691,0.651105,2.6645498,nan,0.0,-0.00031191183,0.00011147118,-1.0,0.0,0.0,0.0,0.0,0.0,0.0,nan,nan,nan
226659515,13.333629,0.65112704,2.4914932,nan,0.0,-0.0003117266,0.000111414105,-1.0,0.0,0.0,0.0,0.0,0.0,0.0,nan,nan,nan
226859634,13.333567,0.6511491,2.3193073,nan,0.0,-0.00031154018,0.000111349604,-1.0,0.0,0.0,0.0,0.0,0.0,0.0,nan,nan,nan
227059660,13.333506,0.65117115,2.1477926,nan,0.0,-0.0003114107,0.00011129123,-1.0,0.0,0.0,0.0,0.0,0.0,0.0,nan,nan,nan
227259524,13.333444,0.6511932,1.964373,nan,0.0,-0.00031128377,0.00011125511,-1.0,0.0,0.0,0.0,0.0,0.0,0.0,nan,nan,nan
227459541,13.333382,0.65121526,1.7700169,nan,0.0,-0.00031121238,0.0001112389,-1.0,0.0,0.0,0.0,0.0,0.0,0.0,nan,nan,nan
227659711,13.33332,0.6512373,1.5788261,nan,0.0,-0.00031122603,0.000111238754,-1.0,0.0,0.0,0.0,0.0,0.0,0.0,nan,nan,nan
227859579,13.33326,0.65125936,1.3808753,nan,0.0,-0.0003112068,0.000111226815,-1.0,0.0,0.0,0.0,0.0,0.0,0.0,nan,nan,nan
228059874,13.333199,0.6512815,1.1912228,nan,0.0,-0.00031118788,0.00011120768,-1.0,0.0,0.0,0.0,0.0,0.0,0.0,nan,nan,nan
228259802,13.333138,0.6513035,1.0080456,nan,0.0,-0.00031112295,0.000111170724,-1.0,0.0,0.0,0.0,0.0,0.0,0.0,nan,nan,nan
228459676,13.333077,0.6513256,0.81804746,nan,0.0,-0.00031105994,0.00011115027,-1.0,0.0,0.0,0.0,0.0,0.0,0.0,nan,nan,nan
228659863,13.3330145,0.6513477,0.61721385,nan,0.0,-0.00031105377,0.00011115018,-1.0,0.0,0.0,0.0,0.0,0.0,0.0,nan,nan,nan
228859891,13.332955,0.65136975,0.39589846,nan,0.0,-0.00031125935,0.00011120227,-1.0,0.0,0.0,0.0,0.0,0.0,0.0,nan,nan,nan
229059733,13.332892,0.6513918,0.17778781,nan,0.0010164268,-0.0003113677,0.00011125044,-1.0,0.0,0.0,0.0,0.0,0.0,0.0,nan,nan,nan
229259847,13.33283,0.65141386,-0.04009188,nan,0.012647014,-0.00031150167,0.00011129291,-1.0,0.0,0.0,0.0,0.0,0.0,0.0,nan,nan,nan
229459723,13.332772,0.6514353,-0.25438112,nan,0.017150464,-0.00031167496,0.00011134976,-1.0,0.0,0.0,0.0,0.0,0.0,0.0,nan,nan,nan
229660146,13.332715,0.6514563,-0.46782964,nan,0.019700816,-0.0003118755,0.00011141084,-1.0,0.0,0.0,0.0,0.0,0.0,0.0,nan,nan,nan
229859817,13.332658,0.65147734,-0.6836022,nan,0.032558568,-0.00031208765,0.00011147461,-1.0,0.0,0.0,0.0,0.0,0.0,0.0,nan,nan,nan
230059943,13.332601,0.65149873,-0.88422817,nan,0.03746906,-0.00031221515,0.00011149876,-1.0,0.0,0.0,0.0,0.0,0.0,0.0,nan,nan,nan
230259843,13.332543,0.65152,-1.0809991,nan,0.038845234,-0.00031232828,0.0001115189,-1.0,0.0,0.0,0.0,0.0,0.0,0.0,nan,nan,nan
230459815,13.332486,0.65154123,-1.2795466,nan,0.04024151,-0.00031243655,0.00011154119,-1.0,0.0,0.0,0.0,0.0,0.0,0.0,nan,nan,nan
230660006,13.332429,0.65156233,-1.478541,nan,0.040590145,-0.00031254883,0.00011156608,-1.0,0.0,0.0,0.0,0.0,0.0,0.0,nan,nan,nan
230860015,13.332372,0.6515833,-1.6811318,nan,0.037108496,-0.00031266484,0.000111593516,-1.0,0.0,0.0,0.0,0.0,0.0,0.0,nan,nan,nan
231059855,13.3323145,0.65160424,-1.8860588,nan,0.034562692,-0.00031284028,0.00011164339,-1.0,0.0,0.0,0.0,0.0,0.0,0.0,nan,nan,nan
231259922,13.332257,0.65162516,-2.0936406,nan,0.029526787,-0.00031301717,0.00011169504,-1.0,0.0,0.0,0.0,0.0,0.0,0.0,nan,nan,nan
231459939,13.3322,0.65164644,-2.302954,nan,0.019491872,-0.0003132036,0.00011174447,-1.0,0.0,0.0,0.0,0.0,0.0,0.0,nan,nan,nan
231660066,13.332143,0.65166783,-2.5183156,nan,0.0132796,-0.00031341932,0.00011179871,-1.0,0.0,0.0,0.0,0.0,0.0,0.0,nan,nan,nan
231859932,13.332086,0.6516893,-2.7235942,nan,0.014426479,-0.00031360885,0.00011184196,-1.0,0.0,0.0,0.0,0.0,0.0,0.0,nan,nan,nan
232060119,13.332028,0.6517109,-2.9252062,nan,0.016645325,-0.00031374884,0.00011186454,-1.0,0.0,0.0,0.0,0.0,0.0,0.0,nan,nan,nan
232259996,13.331971,0.6517327,-3.1306102,nan,0.011316745,-0.0003139147,0.00011189328,-1.0,0.0,0.0,0.0,0.0,0.0,0.0,nan,nan,nan
232459987,13.331914,0.6517544,-3.340812,nan,0.013424035,-0.00031410385,0.0001119286,-1.0,0.0,0.0,0.0,0.0,0.0,0.0,nan,nan,nan
232659997,13.331857,0.65177596,-3.5519457,nan,0.014231415,-0.00031433604,0.00011198179,-1.0,0.0,0.0,0.0,0.0,0.0,0.0,nan,nan,nan
232860040,13.3317995,0.6517975,-3.7593486,nan,0.010664841,-0.0003145285,0.00011202337,-1.0,0.0,0.0,0.0,0.0,0.0,0.0,nan,nan,nan
233060151,13.331742,0.65181893,-3.9713476,nan,0.0038322117,-0.00031475286,0.00011207744,-1.0,0.0,0.0,0.0,0.0,0.0,0.0,nan,nan,nan
233260201,13.331683,0.65184057,-4.189024,nan,0.004172055,-0.00031499963,0.00011213926,-1.0,0.0,0.0,0.0,0.0,0.0,0.0,nan,nan,nan
233460096,13.331616,0.6518629,-4.3971734,nan,0.0062211026,-0.00031498016,0.00011216653,-1.0,0.0,0.0,0.0,0.0,0.0,0.0,nan,nan,nan
233660138,13.33155,0.65188515,-4.585071,nan,0.0,-0.00031482652,0.00011214781,-1.0,0.0,0.0,0.0,0.0,0.0,0.0,nan,nan,nan
233860106,13.331484,0.65190727,-4.754239,nan,0.0,-0.00031453546,0.000112076545,-1.0,0.0,0.0,0.0,0.0,0.0,0.0,nan,nan,nan
234060137,13.331418,0.6519293,-4.919978,nan,0.0,-0.0003141552,0.00011198352,-1.0,0.0,0.0,0.0,0.0,0.0,0.0,nan,nan,nan
234260336,13.331352,0.65195143,-5.085272,nan,0.0,-0.00031385932,0.00011190423,-1.0,0.0,0.0,0.0,0.0,0.0,0.0,nan,nan,nan
234460176,13.331288,0.65197355,-5.244279,nan,0.0,-0.00031351182,0.00011179534,-1.0,0.0,0.0,0.0,0.0,0.0,0.0,nan,nan,nan
234660356,13.331223,0.6519956,-5.4050317,nan,0.0,-0.0003131388,0.00011169735,-1.0,0.0,0.0,0.0,0.0,0.0,0.0,nan,nan,nan
234860380,13.3311615,0.6520178,-5.5669336,nan,0.0013881177,-0.00031283018,0.00011158722,-1.0,0.0,0.0,0.0,0.0,0.0,0.0,nan,nan,nan
235060374,13.331093,0.652043,-5.7708235,nan,0.0014186557,-0.00039251943,0.0001400124,-1.0649016,-0.00044250488,0.0001578331,-0.720564,0.0,0.0,-4.0,nan,nan,nan
235260399,13.331007,0.6520744,-6.003579,nan,0.0018097088,-0.00048103143,0.00017158299,-1.2890526,-0.00044250488,0.0001578331,-1.5206639,0.0,0.0,-4.0,nan,nan,nan
235460445,13.330903,0.65211225,-6.2972116,nan,0.006337328,-0.00056955236,0.0002031567,-1.67329,-0.00044250488,0.0001578331,-2.320844,0.0,0.0,-4.0,nan,nan,nan
235660271,13.330781,0.6521562,-6.6827183,nan,0.011333043,-0.0006579768,0.00023469604,-2.1956432,-0.00044250488,0.0001578331,-2.5367022,0.0,0.0,4.0,nan,nan,nan
235860429,13.330641,0.6522066,-7.167663,nan,0.016659787,-0.00074654765,0.0002662876,-2.623258,-0.00044250488,0.0001578331,-1.73607,0.0,0.0,4.0,nan,nan,nan
236060469,13.330483,0.65226334,-7.7218184,nan,0.023197925,-0.0008350663,0.0002978605,-2.8905098,-0.00044250488,0.0001578331,-0.9359101,0.0,0.0,4.0,nan,nan,nan
236260534,13.330309,0.6523264,-8.3134985,nan,0.026333822,-0.0009237165,0.00032943735,-2.9977,-0.00044783205,0.0001578331,-0.13565005,0.0,0.0,4.0,nan,nan,nan
236460384,13.330127,0.6523923,-8.904961,nan,0.027530802,-0.0009391769,0.00033458325,-3.0,0.0,0.0,0.0,0.0,0.0,0.0,nan,nan,nan
236660572,13.329946,0.65245813,-9.495009,nan,0.028335331,-0.00093946606,0.0003345779,-3.0,0.0,0.0,0.0,0.0,0.0,0.0,nan,nan,nan
236860533,13.329764,0.6525236,-10.081881,nan,0.02201896,-0.00093973044,0.00033457717,-3.0,0.0,0.0,0.0,0.0,0.0,0.0,nan,nan,nan
237060675,13.329583,0.65258896,-10.667522,nan,0.018777369,-0.00093988527,0.00033457606,-3.0,0.0,0.0,0.0,0.0,0.0,0.0,nan,nan,nan
237260433,13.329402,0.65265423,-11.251648,nan,0.026988877,-0.00094006734,0.00033456925,-3.0,0.0,0.0,0.0,0.0,0.0,0.0,nan,nan,nan
237460586,13.329221,0.6527196,-11.837125,nan,0.025575278,-0.0009402512,0.00033455537,-3.0,0.0,0.0,0.0,0.0,0.0,0.0,nan,nan,nan
237660458,13.32904,0.652785,-12.4223995,nan,0.007714413,-0.0009404648,0.0003345439,-3.0,0.0,0.0,0.0,0.0,0.0,0.0,nan,nan,nan
237860656,13.328858,0.65285057,-13.0101385,nan,0.011502327,-0.00094071904,0.0003345438,-3.0,0.0,0.0,0.0,0.0,0.0,0.0,nan,nan,nan
238060513,13.328677,0.6529162,-13.598098,nan,0.019572938,-0.0009410167,0.00033453913,-3.0,0.0,0.0,0.0,0.0,0.0,0.0,nan,nan,nan
238260797,13.328496,0.65298194,-14.187941,nan,0.02235909,-0.00094135234,0.0003345383,-3.0,0.0,0.0,0.0,0.0,0.0,0.0,nan,nan,nan
238460532,13.328315,0.65304756,-14.776865,nan,0.017939443,-0.00094172824,0.00033454134,-3.0,0.0,0.0,0.0,0.0,0.0,0.0,nan,nan,nan
238660554,13.328134,0.6531133,-15.367241,nan,0.022370854,-0.000942124,0.0003345523,-3.0,0.0,0.0,0.0,0.0,0.0,0.0,nan,nan,nan
238860641,13.327952,0.65317905,-15.958107,nan,0.023393719,-0.0009425562,0.0003345651,-3.0,0.0,0.0,0.0,0.0,0.0,0.0,nan,nan,nan
239060587,13.327771,0.6532448,-16.549305,nan,0.018973997,-0.0009430268,0.00033457964,-3.0,0.0,0.0,0.0,0.0,0.0,0.0,nan,nan,nan
239260604,13.32759,0.6533107,-17.141558,nan,0.014671942,-0.00094353635,0.0003345955,-3.0,0.0,0.0,0.0,0.0,0.0,0.0,nan,nan,nan
239460656,13.327409,0.65337664,-17.73473,nan,0.016569762,-0.0009441044,0.00033461876,-3.0,0.0,0.0,0.0,0.0,0.0,0.0,nan,nan,nan
239660785,13.327228,0.6534427,-18.328686,nan,0.022876585,-0.0009447152,0.00033464306,-3.0,0.0,0.0,0.0,0.0,0.0,0.0,nan,nan,nan
239840683,13.3270645,0.6535021,-18.86301,nan,0.020520376,-0.0009452953,0.00033466375,-3.0,0.0,0.0,0.0,0.0,0.0,0.0,nan,nan,nan
240060821,13.326861,0.653575,-19.517826,nan,0.013011768,-0.00094585767,0.0003346874,-3.0,0.0,0.0,0.0,0.0,0.0,0.0,nan,nan,nan
240260695,13.326677,0.65364146,-20.113426,nan,0.01219042,-0.0009461945,0.00033469053,-3.0,0.0,0.0,0.0,0.0,0.0,0.0,nan,nan,nan
240460706,13.326487,0.65370816,-20.710058,nan,0.008132478,-0.0009459981,0.00033467278,-3.0,0.0,0.0,0.0,0.0,0.0,0.0,nan,nan,nan
240660761,13.326296,0.6537752,-21.309902,nan,0.0118578635,-0.0009457731,0.00033465223,-3.0,0.0,0.0,0.0,0.0,0.0,0.0,nan,nan,nan
240860735,13.326105,0.6538423,-21.909826,nan,0.008955471,-0.00094557594,0.00033463704,-3.0,0.0,0.0,0.0,0.0,0.0,0.0,nan,nan,nan
241060964,13.325914,0.6539093,-22.510513,nan,0.008888429,-0.0009453754,0.00033462342,-3.0,0.0,0.0,0.0,0.0,0.0,0.0,nan,nan,nan
241240821,13.325744,0.6539695,-23.050083,nan,0.0061060153,-0.00094530545,0.000334628,-3.0,0.0,0.0,0.0,0.0,0.0,0.0,nan,nan,nan
241460897,13.325534,0.6540432,-23.71031,nan,0.010518195,-0.00094506214,0.00033462318,-3.0,0.0,0.0,0.0,0.0,0.0,0.0,nan,nan,nan
241660958,13.325343,0.65411025,-24.3105,nan,0.00867218,-0.0009448234,0.00033460552,-3.0,0.0,0.0,0.0,0.0,0.0,0.0,nan,nan,nan
241860998,13.325152,0.65417725,-24.910614,nan,0.009604771,-0.0009445768,0.00033460607,-3.0,0.0,0.0,0.0,0.0,0.0,0.0,nan,nan,nan
242060907,13.324963,0.6542441,-25.51034,nan,0.013702966,-0.0009444421,0.0003345927,-3.0,0.0,0.0,0.0,0.0,0.0,0.0,nan,nan,nan
242260897,13.3247795,0.6543096,-26.09694,nan,0.013190903,-0.0009445546,0.0003345933,-3.0,0.0,0.0,0.0,0.0,0.0,0.0,nan,nan,nan
242460891,13.324598,0.6543745,-26.678713,nan,0.013934119,-0.00094489055,0.0003345895,-3.0,0.0,0.0,0.0,0.0,0.0,0.0,nan,nan,nan
242640912,13.324435,0.6544327,-27.20119,nan,0.017646207,-0.00094513514,0.00033459754,-3.0,0.0,0.0,0.0,0.0,0.0,0.0,nan,nan,nan
242861100,13.324236,0.6545038,-27.838625,nan,0.0132537205,-0.00094538135,0.00033459355,-3.0,0.0,0.0,0.0,0.0,0.0,0.0,nan,nan,nan
243061005,13.324055,0.6545682,-28.415941,nan,0.016069671,-0.000945544,0.00033459894,-3.0,0.0,0.0,0.0,0.0,0.0,0.0,nan,nan,nan
243260963,13.3238735,0.6546325,-28.992817,nan,0.010941934,-0.0009456604,0.00033460566,-3.0,0.0,0.0,0.0,0.0,0.0,0.0,nan,nan,nan
243460986,13.323692,0.6546968,-29.57065,nan,0.014961949,-0.00094582327,0.00033462644,-3.0,0.0,0.0,0.0,0.0,0.0,0.0,nan,nan,nan
243661169,13.323511,0.6547617,-30.151611,nan,0.009019267,-0.000946129,0.00033462635,-3.0,0.0,0.0,0.0,0.0,0.0,0.0,nan,nan,nan
243861191,13.32333,0.6548267,-30.736225,nan,0.010768121,-0.00094669603,0.0003346511,-3.0,0.0,0.0,0.0,0.0,0.0,0.0,nan,nan,nan
244041038,13.323167,0.6548859,-31.266277,nan,0.01249598,-0.0009475399,0.00033465604,-3.0,0.0,0.0,0.0,0.0,0.0,0.0,nan,nan,nan
244261064,13.322968,0.65495867,-31.919538,nan,0.01419743,-0.0009489934,0.00033465467,-3.0,0.0,0.0,0.0,0.0,0.0,0.0,nan,nan,nan
244461123,13.322786,0.655025,-32.516224,nan,0.009965414,-0.00095066486,0.0003347061,-3.0,0.0,0.0,0.0,0.0,0.0,0.0,nan,nan,nan
244661158,13.322605,0.6550913,-33.111805,nan,0.011228235,-0.0009524778,0.00033474274,-3.0,0.0,0.0,0.0,0.0,0.0,0.0,nan,nan,nan
244861298,13.322419,0.6551578,-33.709682,nan,0.009564396,-0.0009537945,0.0003347805,-3.0,0.0,0.0,0.0,0.0,0.0,0.0,nan,nan,nan
245061210,13.322228,0.6552247,-34.309402,nan,0.004635524,-0.0009537994,0.00033481634,-3.0,0.0,0.0,0.0,0.0,0.0,0.0,nan,nan,nan
245241229,13.322057,0.6552847,-34.849476,nan,0.005624857,-0.0009538279,0.00033485866,-3.0,0.0,0.0,0.0,0.0,0.0,0.0,nan,nan,nan
245441239,13.321866,0.65535164,-35.449505,nan,0.0,-0.0009538588,0.00033491128,-3.0,0.0,0.0,0.0,0.0,0.0,0.0,nan,nan,nan
245661307,13.321656,0.6554252,-36.109703,nan,0.0,-0.00095384533,0.00033494187,-3.0,0.0,0.0,0.0,0.0,0.0,0.0,nan,nan,nan
245861357,13.3214655,0.6554921,-36.70984,nan,0.0,-0.00095386105,0.00033496064,-3.0,0.0,0.0,0.0,0.0,0.0,0.0,nan,nan,nan
246061398,13.321275,0.65555906,-37.309956,nan,0.0,-0.00095387525,0.00033498084,-3.0,0.0,0.0,0.0,0.0,0.0,0.0,nan,nan,nan
246261375,13.321084,0.65562594,-37.909885,nan,0.0,-0.0009539061,0.00033503186,-3.0,0.0,0.0,0.0,0.0,0.0,0.0,nan,nan,nan
246461296,13.320893,0.65569276,-38.50961,nan,0.0,-0.00095393637,0.0003351138,-3.0,0.0,0.0,0.0,0.0,0.0,0.0,nan,nan,nan
246661487,13.320703,0.6557595,-39.107445,nan,0.0,-0.0009386022,0.00032975097,-2.9486818,0.00014796853,-5.1677227e-05,0.64074,0.0,0.0,4.0,nan,nan,nan
246841313,13.320538,0.6558179,-39.623814,nan,0.0,-0.0009025306,0.00031708757,-2.7805712,0.00023671985,-8.362532e-05,1.0356725,0.0,0.0,-4.0,nan,nan,nan
247061454,13.320345,0.6558857,-40.210434,nan,0.0,-0.0008423032,0.00029586477,-2.5495934,0.00029614568,-0.00010454655,1.0164146,0.0,0.0,-4.0,nan,nan,nan
247261508,13.320181,0.6559429,-40.699997,nan,0.0,-0.0007800728,0.00027396186,-2.346178,0.0003194511,-0.000112235546,0.97352266,0.0,0.0,-4.0,nan,nan,nan
247461527,13.320031,0.65599567,-41.149734,nan,0.0,-0.00071548007,0.0002513218,-2.152677,0.00032392144,-0.00011342764,0.91875184,0.0,0.0,-4.0,nan,nan,nan
247661383,13.319894,0.65604377,-41.561596,nan,0.0,-0.0006507425,0.00022865257,-1.9709381,0.00032392144,-0.00011342764,0.85900795,0.0,0.0,-4.0,nan,nan,nan
247861622,13.31977,0.6560875,-41.939053,nan,0.0,-0.0005858824,0.00020594051,-1.801269,0.00032392144,-0.00011342764,0.80573213,0.0,0.0,-4.0,nan,nan,nan
248041424,13.31967,0.6561229,-42.25001,nan,0.0,-0.00052763976,0.00018554566,-1.6593698,0.00032392144,-0.00011342764,0.7413721,0.0,0.0,-4.0,nan,nan,nan
248241468,13.31957,0.65615803,-42.567116,nan,0.0,-0.00046284604,0.00016285684,-1.5131068,0.00032392144,-0.00011342764,0.6817974,0.0,0.0,-4.0,nan,nan,nan
248461498,13.319477,0.6561907,-42.876396,nan,0.01037951,-0.00041076393,0.00014278841,-1.3685862,2.9325485e-05,-1.937151e-06,0.6287036,0.0,0.0,-4.0,nan,nan,nan
248661677,13.319401,0.6562171,-43.12147,nan,0.014539583,-0.0003927167,0.00013739165,-1.2527024,0.0001359582,-4.4316053e-05,0.57343763,0.0,0.0,-4.0,nan,nan,nan
248861639,13.31933,0.65624213,-43.345867,nan,0.0117326975,-0.00036315413,0.00012746161,-1.1463618,0.00016474724,-5.733967e-05,0.5251725,0.0,0.0,-4.0,nan,nan,nan
249061866,13.319263,0.6562652,-43.55187,nan,0.019288307,-0.00033200605,0.00011649582,-1.048316,0.00016671419,-5.850196e-05,0.48017433,0.0,0.0,-4.0,nan,nan,nan
249261523,13.319206,0.6562861,-43.74021,nan,0.024159031,-0.0003006708,0.000105505824,-0.9582148,0.0001668036,-5.850196e-05,0.44065434,0.0,0.0,-4.0,nan,nan,nan
249444113,13.319155,0.65630347,-43.898712,nan,0.024923334,-0.0002719208,9.542252e-05,-0.88210535,0.0001668036,-5.850196e-05,0.39709002,0.0,0.0,-4.0,nan,nan,nan
249641580,13.319107,0.65632033,-44.05655,nan,0.0220328,-0.00024070656,8.4474945e-05,-0.8058337,0.0001668036,-5.850196e-05,0.3712467,0.0,0.0,-4.0,nan,nan,nan
249861779,13.319055,0.6563374,-44.217396,nan,0.020294758,-0.00022327698,7.8676465e-05,-0.72784275,8.8110566e-05,-2.82228e-05,0.3344515,0.0,0.0,-4.0,nan,nan,nan
250061777,13.319016,0.656352,-44.35071,nan,0.020371104,-0.00020447191,7.2195144e-05,-0.66291654,9.845197e-05,-3.5464764e-05,0.3038394,0.0,0.0,-4.0,nan,nan,nan
250261664,13.318978,0.6563652,-44.472538,nan,0.019564698,-0.00018551742,6.535119e-05,-0.6033351,9.845197e-05,-3.555417e-05,0.27673295,0.0,0.0,-4.0,nan,nan,nan
250461657,13.318943,0.65637726,-44.583393,nan,0.018989919,-0.0001665576,5.8504185e-05,-0.54887587,9.845197e-05,-3.555417e-05,0.25147575,0.0,0.0,-4.0,nan,nan,nan
250661828,13.318914,0.6563879,-44.684006,nan,0.01752214,-0.00014763983,5.1672363e-05,-0.49927765,9.845197e-05,-3.555417e-05,0.22697577,0.0,0.0,-4.0,nan,nan,nan
250841704,13.318889,0.6563966,-44.766197,nan,0.011541795,-0.000140067,4.9312763e-05,-0.45864087,6.279349e-05,-2.1964312e-05,0.2085884,0.0,0.0,-4.0,nan,nan,nan
251041714,13.315045,0.6525921,-44.85292,nan,0.014870791,-0.06410144,-0.063929535,-0.4175387,-0.71533287,-0.7154211,0.20551687,-4.0,-4.0,0.0,nan,nan,nan
251261721,13.276529,0.6199606,-44.939568,nan,0.08327563,-0.31828427,-0.23314086,-0.36733222,-1.5953568,-0.771518,0.25933832,-4.0,0.0,0.0,nan,nan,nan
251461821,13.175729,0.5578695,-45.007862,nan,0.12745504,-0.70785385,-0.38750923,-0.31544277,-2.001678,-0.771518,0.25933832,4.0,0.0,0.0,nan,nan,nan
251661922,12.999341,0.4648734,-45.06578,nan,0.036372647,-1.0283313,-0.54190385,-0.2635445,-1.201206,-0.771518,0.25933832,4.0,0.0,0.0,nan,nan,nan
251861967,12.774933,0.34492996,-45.113735,nan,0.024116946,-1.1885906,-0.63131964,-0.22293729,-0.40102607,-0.050837994,0.09857032,4.0,4.0,0.0,nan,nan,nan
252041796,12.558586,0.23317507,-45.152237,nan,0.030731121,-1.19603,-0.6054448,-0.20521156,0.3182859,0.20675448,0.09857032,4.0,0.0,0.0,nan,nan,nan
252241842,12.331034,0.11691677,-45.19132,nan,-0.0015655011,-1.0523213,-0.55362433,-0.18549299,1.1184698,0.30474064,0.09857032,4.0,0.0,0.0,nan,nan,nan
252441827,12.14616,0.013150625,-45.226448,nan,0.0,-0.79921305,-0.48018268,-0.1657804,1.1050075,0.4217135,0.09857032,-4.0,0.0,0.0,nan,nan,nan
252661862,11.99347,-0.08136025,-45.261406,nan,0.06390569,-0.60562253,-0.37668067,-0.15486827,0.6435863,0.48667693,0.04429639,-4.0,0.0,0.0,nan,nan,nan
252862020,11.886864,-0.14700697,-45.290543,nan,0.0,-0.43742007,-0.2792684,-0.13364857,1.2145879,0.48667693,0.12379912,4.0,0.0,0.0,nan,nan,nan
253061963,11.829018,-0.19311693,-45.31475,nan,-0.104727685,-0.114615284,-0.18196027,-0.10838851,2.0143638,0.48667693,0.12847355,4.0,0.0,0.0,nan,nan,nan
253261979,11.851712,-0.21977463,-45.333878,nan,-0.1526256,0.36822933,-0.08462976,-0.085681915,2.8143237,0.48667693,-0.016031526,4.0,0.0,0.0,nan,nan,nan
253442019,11.95346,-0.22711746,-45.348297,nan,-0.18205225,0.86169636,-0.0038776475,-0.08725089,3.0,0.48667693,0.005520083,0.0,0.0,0.0,nan,nan,nan
253641956,12.156412,-0.21997613,-45.363865,nan,-0.21116047,1.4000866,0.083463065,-0.08591416,3.0,0.48667693,0.009026982,0.0,0.0,0.0,nan,nan,nan
253841970,12.453138,-0.19741112,-45.379005,nan,-0.24083512,1.934062,0.17008756,-0.08396646,3.0,0.48667693,0.012517668,0.0,0.0,0.0,nan,nan,nan
254057156,11.926399,0.10191678,-45.417786,nan,0.0,1.5357338,1.7411646,-0.1436676,3.0,0.00740052,0.06001792,0.0,-4.0,0.0,nan,nan,nan
254257045,12.285707,0.4388417,-45.44479,nan,0.0,2.1246958,1.6655335,-0.13114826,3.0,-0.77788246,0.066821195,0.0,-4.0,0.0,nan,nan,nan
254457053,12.746966,0.7402721,-45.4687,nan,0.0,2.6645021,1.4669741,-0.11798093,2.4650924,-1.1128881,0.06883512,-4.0,0.0,0.0,nan,nan,nan
254657239,13.282437,0.99450654,-45.48951,nan,0.0,3.0546744,1.2594223,-0.10514328,1.7190984,-1.1128881,0.06883512,-4.0,0.0,0.0,nan,nan,nan
254857125,13.858859,1.2040132,-45.507397,nan,0.0,3.300103,1.0582203,-0.09269839,0.9959275,-1.1128881,0.06883512,-4.0,0.0,0.0,nan,nan,nan
255057159,14.450885,1.3728769,-45.52262,nan,0.0,3.4133842,0.86254144,-0.08059513,0.2926083,-1.1128881,0.06883512,-4.0,0.0,0.0,nan,nan,nan
255257281,15.035673,1.5041304,-45.535385,nan,0.0,3.4049203,0.6721624,-0.068821184,-0.39157385,-1.1135869,0.06883512,-4.0,0.0,0.0,nan,nan,nan
255457332,15.595631,1.6008162,-45.545902,nan,0.0,3.2837818,0.4858493,-0.05732783,-1.0594505,-1.1179023,0.06883512,-4.0,0.0,0.0,nan,nan,nan
255657189,16.115965,1.6653309,-45.554382,nan,0.0,3.0568104,0.30233964,-0.046061765,-1.7141199,-1.1240139,0.06883512,-4.0,0.0,0.0,nan,nan,nan
255857346,16.65712,1.7023196,-45.56184,nan,0.0,2.6627603,0.090126745,-0.03308989,-2.467914,-1.1275412,0.06883512,-4.0,0.0,0.0,nan,nan,nan
256057195,17.117872,1.6988385,-45.566902,nan,0.0,2.1227522,-0.12656614,-0.01988738,-3.0,-1.1322595,0.06883512,0.0,0.0,0.0,nan,nan,nan
256257210,17.444101,1.6591799,-45.569332,nan,0.06930559,1.5964572,-0.32578173,-0.007811525,-3.0,-1.1390578,0.06883512,0.0,0.0,0.0,nan,nan,nan
256457229,17.660336,1.5930058,-45.569717,nan,0.04852823,1.1353737,-0.5073456,0.0031248317,-2.6473022,-1.1437094,0.06883512,4.0,0.0,0.0,nan,nan,nan
256657410,17.810965,1.4970751,-45.568977,nan,0.0,0.7626676,-0.6905317,0.0046521984,-2.0066288,-1.1437094,-0.0013462678,4.0,0.0,0.0,nan,nan,nan
256857350,17.911335,1.3696432,-45.568176,nan,-0.0069963466,0.48921713,-0.87654114,0.005330538,-1.3560809,-1.1437094,0.0048129186,4.0,0.0,0.0,nan,nan,nan
257057311,17.977175,1.2073771,-45.567265,nan,-0.033777304,0.31866342,-1.0687138,0.005712466,-0.6888585,-1.0894419,0.0039561614,4.0,4.0,0.0,nan,nan,nan
257257326,18.025146,1.0110445,-45.566235,nan,-0.040261686,0.25934792,-1.1968594,0.0062263533,-0.0015582293,-0.4021417,-0.0009121075,4.0,4.0,0.0,nan,nan,nan
257457384,18.074894,0.79595476,-45.565132,nan,-0.024345582,0.32210752,-1.2052169,0.0060325316,0.7085758,0.30799234,-0.0012363568,4.0,4.0,0.0,nan,nan,nan
257657373,18.152197,0.57967424,-45.564026,nan,-0.022495436,0.52542794,-1.0770471,0.0057653757,1.4589868,1.0584034,-0.0015786067,4.0,4.0,0.0,nan,nan,nan
257857512,18.290688,0.39065707,-45.5629,nan,-0.0009835623,0.86734307,-0.78510815,0.0054045664,1.7680453,1.8589596,-0.0019938126,0.0,4.0,0.0,nan,nan,nan
258057514,18.499517,0.2760933,-45.561863,nan,0.00924065,1.2209557,-0.33796203,0.0049537653,1.7680453,2.389386,-0.0024806634,0.0,-4.0,0.0,nan,nan,nan
258257642,18.778923,0.25161934,-45.560917,nan,0.0,1.5619161,0.071452186,0.0044058245,1.4471533,1.706406,-0.0028270856,-4.0,-4.0,0.0,nan,nan,nan
258457550,19.092793,0.2917648,-45.56011,nan,-0.042165652,1.830995,0.35142526,0.0044789338,1.3687694,1.2600249,0.0012497529,-4.0,-4.0,0.0,nan,nan,nan
258657771,19.442251,0.3719532,-45.5593,nan,0.0,2.013087,0.51385695,0.004524213,0.6455957,0.5368512,-0.0003431216,-4.0,-4.0,0.0,nan,nan,nan
258857749,19.807173,0.46819884,-45.5585,nan,0.0,2.0646312,0.5461403,0.0044169943,-0.0666529,-0.14672127,-0.0008016005,-4.0,0.0,0.0,nan,nan,nan
259057601,20.170074,0.5628869,-45.55773,nan,0.0,1.9893146,0.5162337,0.0042277914,-0.7790879,-0.1765069,-0.0013780966,-4.0,0.0,0.0,nan,nan,nan
259257806,20.512186,0.6530916,-45.55699,nan,0.0,1.7861979,0.4844107,0.003868599,-1.3059803,-0.1765069,-0.002500631,4.0,0.0,0.0,nan,nan,nan
259457885,20.82083,0.7386578,-45.55633,nan,-0.06000895,1.6143409,0.452159,0.003255266,-0.57509136,-0.1765069,-0.004269846,4.0,0.0,0.0,nan,nan,nan
259658003,21.115303,0.82044977,-45.55582,nan,-0.101439804,1.5731505,0.43596074,0.0022120476,0.0,0.0,0.0,0.0,0.0,0.0,nan,nan,nan
259857897,21.411753,0.90260637,-45.555454,nan,-0.07741429,1.5731472,0.43595624,0.0019550323,0.0,0.0,0.0,0.0,0.0,0.0,nan,nan,nan
260057919,21.71179,0.9857524,-45.55511,nan,-0.057817556,1.5731428,0.43595418,0.0017266273,0.0,0.0,0.0,0.0,0.0,0.0,nan,nan,nan
260257980,22.01145,1.0667388,-45.55477,nan,-0.04521341,1.5127004,0.39132184,0.001676724,-0.6953685,-0.3441396,-0.00022375584,-4.0,0.0,0.0,nan,nan,nan
260457690,22.28644,1.1358861,-45.554462,nan,0.0045804996,1.3031062,0.3222702,0.001615436,-1.4697927,-0.36663046,-0.00039172173,-4.0,0.0,0.0,nan,nan,nan
260657882,22.50757,1.191579,-45.554157,nan,0.06622536,0.94063836,0.24848141,0.0015174522,-2.2494519,-0.38840297,-0.00060904026,-4.0,0.0,0.0,nan,nan,nan
260857858,22.646833,1.2333272,-45.553867,nan,0.05828727,0.45234835,0.16827343,0.0013661887,-2.263014,-0.41179457,-0.0008790493,4.0,0.0,0.0,nan,nan,nan
261057856,22.696592,1.2585585,-45.55361,nan,0.025299618,0.06932971,0.083210446,0.0011568969,-1.5463504,-0.43709627,-0.0011985302,4.0,0.0,0.0,nan,nan,nan
261257797,22.685617,1.2662996,-45.553402,nan,0.0,-0.15729651,-0.0038456044,0.0008960369,-0.7788733,-0.45025095,-0.0013762712,4.0,0.0,0.0,nan,nan,nan
261457911,22.646866,1.2582263,-45.553257,nan,-0.00976681,-0.23301734,-0.07068345,0.0006382411,-0.02961465,-0.076077096,-0.0013762712,4.0,4.0,0.0,nan,nan,nan
261657774,22.606909,1.2456833,-45.55316,nan,0.0,-0.18653649,-0.0615206,0.00038249264,0.23647267,0.076083876,-0.0013762712,-4.0,0.0,0.0,nan,nan,nan
261858026,22.575125,1.2354282,-45.553085,nan,0.005626429,-0.15943205,-0.051399276,0.00034045536,0.08783538,0.026062958,-0.00026746094,-4.0,0.0,0.0,nan,nan,nan
262057806,22.54738,1.2264733,-45.553024,nan,0.0048614684,-0.14082386,-0.045311447,0.00029033367,0.075873315,0.033258412,-0.00027148426,-4.0,0.0,0.0,nan,nan,nan
262257872,22.522856,1.2186362,-45.552986,nan,0.0,-0.12437631,-0.04000528,0.00026789337,0.06422822,0.015330773,-0.0001348257,-4.0,0.0,0.0,nan,nan,nan
262457879,22.501102,1.2116296,-45.552948,nan,0.009111468,-0.10977483,-0.035277985,0.00024282435,0.055037193,0.025942236,-0.0001348257,-4.0,0.0,0.0,nan,nan,nan
262657891,22.481867,1.205488,-45.55291,nan,0.00993,-0.0968232,-0.031162206,0.00021768507,0.04640919,0.013136294,-0.0001348257,-4.0,0.0,0.0,nan,nan,nan
262858117,22.464878,1.200017,-45.55287,nan,0.0,-0.08537264,-0.027391547,0.00019250774,0.03748841,0.02044228,-0.0001348257,-4.0,0.0,0.0,nan,nan,nan
263058090,22.449907,1.1952235,-45.552834,nan,0.0,-0.07527145,-0.02425816,0.0001673246,0.031443395,0.016330987,-0.0001348257,-4.0,0.0,0.0,nan,nan,nan
263257906,nan,nan,nan,nan,nan,nan,nan,0.00014977952,-0.0,-0.0,nan,nan,nan,nan,nan,nan,nan
263458100,nan,nan,nan,nan,nan,nan,nan,0.00013558043,-0.0,-0.0,nan,nan,nan,nan,nan,nan,nan
263657982,nan,nan,nan,nan,nan,nan,nan,0.00012274637,-0.0,-0.0,nan,nan,nan,nan,nan,nan,nan
263858194,nan,nan,nan,nan,nan,nan,nan,0.000111109024,-0.0,-0.0,nan,nan,nan,nan,nan,nan,nan
264057990,nan,nan,nan,nan,nan,nan,nan,0.00010059575,-0.0,-0.0,nan,nan,nan,nan,nan,nan,nan
264258292,nan,nan,nan,nan,nan,nan,nan,9.105436e-05,-0.0,-0.0,nan,nan,nan,nan,nan,nan,nan
264458055,nan,nan,nan,nan,nan,nan,nan,8.2440005e-05,-0.0,-0.0,nan,nan,nan,nan,nan,nan,nan
264658078,nan,nan,nan,nan,nan,nan,nan,7.4631454e-05,-0.0,-0.0,nan,nan,nan,nan,nan,nan,nan
264858073,nan,nan,nan,nan,nan,nan,nan,6.756305e-05,-0.0,-0.0,nan,nan,nan,nan,nan,nan,nan
265058135,nan,nan,nan,nan,nan,nan,nan,6.116207e-05,-0.0,-0.0,nan,nan,nan,nan,nan,nan,nan
265258110,nan,nan,nan,nan,nan,nan,nan,5.5369936e-05,-0.0,-0.0,nan,nan,nan,nan,nan,nan,nan
265458349,nan,nan,nan,nan,nan,nan,nan,5.011972e-05,-0.0,-0.0,nan,nan,nan,nan,nan,nan,nan
265658204,nan,nan,nan,nan,nan,nan,nan,4.537599e-05,-0.0,-0.0,nan,nan,nan,nan,nan,nan,nan
265858352,nan,nan,nan,nan,nan,nan,nan,4.107528e-05,-0.0,-0.0,nan,nan,nan,nan,nan,nan,nan
266058152,nan,nan,nan,nan,nan,nan,nan,3.7188598e-05,-0.0,-0.0,nan,nan,nan,nan,nan,nan,nan
266258427,nan,nan,nan,nan,nan,nan,nan,3.3661774e-05,-0.0,-0.0,nan,nan,nan,nan,nan,nan,nan
266458398,nan,nan,nan,nan,nan,nan,nan,3.0474019e-05,-0.0,-0.0,nan,nan,nan,nan,nan,nan,nan
266658211,nan,nan,nan,nan,nan,nan,nan,2.7590288e-05,-0.0,-0.0,nan,nan,nan,nan,nan,nan,nan
266858268,nan,nan,nan,nan,nan,nan,nan,2.497641e-05,-0.0,-0.0,nan,nan,nan,nan,nan,nan,nan
267058654,nan,nan,nan,nan,nan,nan,nan,2.2606499e-05,-0.0,-0.0,nan,nan,nan,nan,nan,nan,nan
267258484,nan,nan,nan,nan,nan,nan,nan,2.0467092e-05,-0.0,-0.0,nan,nan,nan,nan,nan,nan,nan
267458506,nan,nan,nan,nan,nan,nan,nan,1.8528403e-05,-0.0,-0.0,nan,nan,nan,nan,nan,nan,nan
267658647,nan,nan,nan,nan,nan,nan,nan,1.6772343e-05,-0.0,-0.0,nan,nan,nan,nan,nan,nan,nan
267858326,nan,nan,nan,nan,nan,nan,nan,1.5186205e-05,-0.0,-0.0,nan,nan,nan,nan,nan,nan,nan
268058385,nan,nan,nan,nan,nan,nan,nan,1.3747467e-05,-0.0,-0.0,nan,nan,nan,nan,nan,nan,nan
268258419,nan,nan,nan,nan,nan,nan,nan,1.2445194e-05,-0.0,-0.0,nan,nan,nan,nan,nan,nan,nan
268458609,nan,nan,nan,nan,nan,nan,nan,1.1265417e-05,-0.0,-0.0,nan,nan,nan,nan,nan,nan,nan
268658409,nan,nan,nan,nan,nan,nan,nan,1.019944e-05,-0.0,-0.0,nan,nan,nan,nan,nan,nan,nan
268778611,nan,nan,nan,nan,nan,nan,nan,9.6073745e-06,-0.0,-0.0,nan,nan,nan,nan,nan,nan,nan
383438019,nan,nan,nan,nan,nan,nan,nan,-0.09208672,0.0,0.0,nan,nan,nan,nan,nan,nan,nan
383457895,nan,nan,nan,nan,nan,nan,nan,-0.09118061,0.0,0.0,nan,nan,nan,nan,nan,nan,nan
383637795,nan,nan,nan,nan,nan,nan,nan,-0.08337418,0.0,0.0,nan,nan,nan,nan,nan,nan,nan
383837781,nan,nan,nan,nan,nan,nan,nan,-0.07547808,0.0,0.0,nan,nan,nan,nan,nan,nan,nan
384037963,nan,nan,nan,nan,nan,nan,nan,-0.068323165,0.0,0.0,nan,nan,nan,nan,nan,nan,nan
384237811,nan,nan,nan,nan,nan,nan,nan,-0.061856735,0.0,-0.0,nan,nan,nan,nan,nan,nan,nan
384437854,nan,nan,nan,nan,nan,nan,nan,-0.055996902,0.0,0.0,nan,nan,nan,nan,nan,nan,nan
384637830,nan,nan,nan,nan,nan,nan,nan,-0.050693866,0.0,0.0,nan,nan,nan,nan,nan,nan,nan
384837841,nan,nan,nan,nan,nan,nan,nan,-0.045892242,0.0,0.0,nan,nan,nan,nan,nan,nan,nan
385037852,nan,nan,nan,nan,nan,nan,nan,-0.041545417,0.0,0.0,nan,nan,nan,nan,nan,nan,nan
385237875,nan,nan,nan,nan,nan,nan,nan,-0.0376101,0.0,0.0,nan,nan,nan,nan,nan,nan,nan
385438080,nan,nan,nan,nan,nan,nan,nan,-0.034044474,0.0,0.0,nan,nan,nan,nan,nan,nan,nan
385638054,nan,nan,nan,nan,nan,nan,nan,-0.03082041,0.0,0.0,nan,nan,nan,nan,nan,nan,nan
385837905,nan,nan,nan,nan,nan,nan,nan,-0.027903372,0.0,0.0,nan,nan,nan,nan,nan,nan,nan
386037972,nan,nan,nan,nan,nan,nan,nan,-0.02525972,0.0,0.0,nan,nan,nan,nan,nan,nan,nan
386237953,nan,nan,nan,nan,nan,nan,nan,-0.02286751,0.0,0.0,nan,nan,nan,nan,nan,nan,nan
386437981,nan,nan,nan,nan,nan,nan,nan,-0.02070137,-0.0,0.0,nan,nan,nan,nan,nan,nan,nan
386637973,nan,nan,nan,nan,nan,nan,nan,-0.018740749,-0.0,0.0,nan,nan,nan,nan,nan,nan,nan
386837979,nan,nan,nan,nan,nan,nan,nan,-0.016965717,-0.0,0.0,nan,nan,nan,nan,nan,nan,nan
387038206,nan,nan,nan,nan,nan,nan,nan,-0.015357113,-0.0,0.0,nan,nan,nan,nan,nan,nan,nan
387237997,nan,nan,nan,nan,nan,nan,nan,-0.013904032,-0.0,0.0,nan,nan,nan,nan,nan,nan,nan
387438297,-41.75603,45.649982,-44.296715,nan,0.0,2.8286834,-8.481718,-0.012712342,0.0,0.0,0.0,0.0,0.0,0.0,nan,nan,nan
387638042,-41.204006,43.968834,-44.29913,nan,0.0,2.6371171,-8.286021,-0.011348722,-1.674817,1.959479,0.0068387985,0.0,9.81,0.0,nan,nan,nan
387838093,-40.70996,42.363495,-44.301285,nan,0.0,2.3020685,-7.6977262,-0.009980612,-1.6748174,3.9219792,0.0068387985,0.0,9.81,0.0,nan,nan,nan
388038242,-40.30869,41.00305,-44.303043,nan,0.0,1.9888173,-6.792587,-0.008701511,-1.6748174,5.756802,0.0068387985,0.0,9.81,0.0,nan,nan,nan
388238119,-39.98631,39.91131,-44.304474,nan,0.0,1.695741,-5.6350045,-0.0075047887,-1.6748174,7.4734545,0.0068387985,0.0,9.81,0.0,nan,nan,nan
388438267,-39.724777,39.077,-44.305645,nan,0.0,1.4140388,-4.239212,-0.006354511,-1.6748174,9.119943,0.0068387985,0.0,-9.81,0.0,nan,nan,nan
388638105,-39.52,38.508842,-44.306587,nan,0.0,1.1461201,-2.905824,-0.005260515,-1.6748174,7.5506473,0.0068387985,0.0,-9.81,0.0,nan,nan,nan
388838113,-39.367817,38.152946,-44.30728,nan,0.0,0.8754155,-1.8625683,-0.0038828235,-1.8232967,6.2241964,0.0094332695,0.0,-9.81,0.0,nan,nan,nan
389038340,-39.257656,37.93918,-44.307762,nan,0.12623064,0.603839,-1.0443064,-0.0024777567,-1.8232967,4.763017,0.0094332695,0.0,-9.81,0.0,nan,nan,nan
389238247,-39.18625,37.8288,-44.308044,nan,0.030790364,0.32285458,-0.42677787,-0.0010240152,-1.8232967,3.2512188,0.0094332695,0.0,-9.81,0.0,nan,nan,nan
389438117,-39.15766,37.795563,-44.30811,nan,0.052554756,0.0575269,-0.039036624,1.0295793e-05,-1.2124022,1.7213192,-2.6702994e-05,9.81,-9.81,0.0,nan,nan,nan
389638344,-39.157703,37.80764,-44.30811,nan,0.0,-0.01337788,0.11135721,5.3095246e-06,0.06722927,-0.11050897,-2.6702994e-05,0.0,-9.81,0.0,nan,nan,nan
389838192,-39.15902,37.818268,-44.308113,nan,0.0,0.0008522395,-0.006186261,-0.0006136985,0.14697327,-0.41665912,-0.041695356,4.0,-4.0,0.0,nan,nan,nan
390038259,-39.155556,37.811718,-44.308605,nan,-0.06452985,0.061588798,-0.091520056,-0.006512055,0.7123859,-0.65743566,-0.0417521,4.0,0.0,0.0,nan,nan,nan
390238425,-39.13932,37.793503,-44.30986,nan,-0.19432168,0.19298002,-0.1805442,-0.013503436,1.2484485,-0.667892,-0.14737855,4.0,0.0,-4.0,nan,nan,nan
390438241,-39.10299,37.764767,-44.314175,nan,-0.24888276,0.3856463,-0.26892245,-0.063512556,1.7606685,-0.69691086,-0.544373,4.0,0.0,0.0,nan,nan,nan
390638238,-39.042126,37.72705,-44.325874,nan,-0.22609839,0.6284534,-0.35346863,-0.1294991,2.2455308,-0.70109916,-0.544373,4.0,0.0,0.0,nan,nan,nan
390838271,-38.955044,37.682262,-44.343174,nan,-0.20070486,0.91006607,-0.43329793,-0.1655535,2.700983,-0.70109916,-0.08892046,4.0,0.0,4.0,nan,nan,nan
391038367,-38.838974,37.63087,-44.361126,nan,-0.19342646,1.225883,-0.5097162,-0.16134606,3.0,-0.70109916,0.06644656,0.0,0.0,0.0,nan,nan,nan
391238365,-38.69009,37.572105,-44.378063,nan,-0.23900063,1.5479327,-0.5849793,-0.15416001,3.0,-0.70109916,0.06733824,0.0,0.0,0.0,nan,nan,nan
391438344,-38.50597,37.505024,-44.394283,nan,-0.27629155,1.8710477,-0.66049117,-0.14685792,3.0,-0.70109916,0.06815626,0.0,0.0,0.0,nan,nan,nan
391638379,-38.289043,37.43049,-44.409588,nan,0.0,2.191435,-0.7353656,-0.13953537,3.0,-0.70109916,0.06889118,0.0,0.0,0.0,nan,nan,nan
391838399,-38.047462,37.35104,-44.423607,nan,0.0,2.5003746,-0.80756456,-0.13240252,3.0,-0.70109916,0.069566146,0.0,0.0,0.0,nan,nan,nan
392038469,-37.779522,37.265854,-44.43665,nan,0.0,2.7993364,-0.8784168,-0.12533686,2.8171105,-0.70109916,0.07019617,-4.0,0.0,0.0,nan,nan,nan
392238485,-37.473766,37.170666,-44.449303,nan,0.0,3.0710313,-0.95135856,-0.11799904,2.40549,-0.70109916,0.07079269,-4.0,0.0,0.0,nan,nan,nan
392438434,-37.13215,37.064835,-44.461514,nan,0.0,3.3058925,-1.0263876,-0.11039105,1.9834847,-0.70109916,0.07131989,-4.0,0.0,0.0,nan,nan,nan
392638466,-36.769035,36.951374,-44.472878,nan,0.0,3.4951372,-1.1011707,-0.102759205,1.5644336,-0.70109916,0.07171275,-4.0,0.0,0.0,nan,nan,nan
392838524,-36.388393,36.83003,-44.483418,nan,0.0,3.6395872,-1.1758987,-0.09509685,1.1449902,-0.70109916,0.0720274,-4.0,0.0,0.0,nan,nan,nan
393038626,-35.98153,36.696926,-44.493443,nan,0.0,3.7416732,-1.2333843,-0.087141186,0.707934,-0.30391306,0.07246356,-4.0,4.0,0.0,nan,nan,nan
393238579,-35.541046,36.551945,-44.503124,nan,0.0,3.7970817,-1.2418703,-0.07865149,0.24131519,0.11733476,0.07280733,-4.0,0.0,0.0,nan,nan,nan
393438549,-35.062313,36.396183,-44.51265,nan,0.0,3.804131,-1.2363616,-0.074872464,0.0,0.0,0.0,0.0,0.0,0.0,nan,nan,nan
393638643,-34.547688,36.228844,-44.52277,nan,0.0,3.8036911,-1.2377132,-0.07487286,0.0,0.0,0.0,0.0,0.0,0.0,nan,nan,nan
393838646,-34.004784,36.052025,-44.533455,nan,0.0,3.8029318,-1.2400517,-0.07487306,-0.005820222,-0.005820226,-2.0476058e-05,4.0,4.0,0.0,nan,nan,nan
394038689,-33.43572,35.86611,-44.54466,nan,0.0,3.8013585,-1.2449201,-0.07487305,-0.012112999,-0.021236524,-2.162531e-06,0.0,4.0,0.0,nan,nan,nan
394238648,-32.84124,35.67089,-44.556366,nan,0.0,3.7992182,-1.2513415,-0.07487297,-0.014052959,-0.022330213,4.4498593e-06,0.0,4.0,0.0,nan,nan,nan
394438553,-32.225216,35.46742,-44.56851,nan,0.0,3.7971652,-1.2575362,-0.07487264,0.0017192792,-0.016783819,-7.0575625e-06,0.0,4.0,0.0,nan,nan,nan
394638706,-31.593,35.2576,-44.58097,nan,0.0,3.7955136,-1.2623259,-0.07487288,-0.003100207,-0.003100209,1.6856939e-06,4.0,4.0,0.0,nan,nan,nan
394838604,-30.95017,35.043385,-44.59365,nan,0.0,3.793998,-1.2670897,-0.07487255,0.002213657,-0.009423692,2.3003668e-06,0.0,4.0,0.0,nan,nan,nan
395038572,-30.298218,34.825108,-44.606514,nan,0.0,3.792183,-1.2725552,-0.07487196,-0.008697508,-0.008896507,-6.856397e-06,0.0,4.0,0.0,nan,nan,nan
395238751,-29.637556,34.603054,-44.61956,nan,0.0,3.791149,-1.2756138,-0.074871644,0.0,0.0,0.0,0.0,0.0,0.0,nan,nan,nan
395438596,-28.968792,34.3779,-44.632755,nan,0.0,3.7908084,-1.276624,-0.07487227,0.0,0.0,0.0,0.0,0.0,0.0,nan,nan,nan
395638686,-28.29253,34.150036,-44.646107,nan,0.0,3.7904377,-1.2777256,-0.07487268,0.0,0.0,0.0,0.0,0.0,0.0,nan,nan,nan
395838786,-27.61217,33.920574,-44.65954,nan,0.0,3.7901103,-1.2786969,-0.074873,0.0,0.0,0.0,0.0,0.0,0.0,nan,nan,nan
396038638,-26.928158,33.689835,-44.673058,nan,0.0,3.790411,-1.2778039,-0.074873015,0.0,0.0,0.0,0.0,0.0,0.0,nan,nan,nan
396238694,-26.211737,33.44842,-44.687195,nan,0.0,3.7908256,-1.2765744,-0.07487397,0.0,0.0,0.0,0.0,0.0,0.0,nan,nan,nan
396438804,-25.45307,33.193157,-44.702175,nan,0.0,3.7915392,-1.2744536,-0.07487482,0.0,0.0,0.0,0.0,0.0,0.0,nan,nan,nan
396638714,-24.6951,32.938667,-44.717133,nan,0.0,3.7924862,-1.271632,-0.07487592,0.0,0.0,0.0,0.0,0.0,0.0,nan,nan,nan
396838759,-23.936262,32.68451,-44.732117,nan,0.0,3.793339,-1.2690862,-0.07487634,0.0,0.0,0.0,0.0,0.0,0.0,nan,nan,nan
397038699,-23.17777,32.430927,-44.747086,nan,0.0,3.7938325,-1.2676102,-0.07487688,0.0,0.0,0.0,0.0,0.0,0.0,nan,nan,nan
397238721,-22.418932,32.17738,-44.76205,nan,0.0,3.7937896,-1.2677387,-0.07487737,0.0,0.0,0.0,0.0,0.0,0.0,nan,nan,nan
397438738,-21.66014,31.923708,-44.777016,nan,0.0,3.793462,-1.2687184,-0.074878655,0.0,0.0,0.0,0.0,0.0,0.0,nan,nan,nan
397638831,-20.90115,31.669693,-44.79199,nan,0.0,3.7930138,-1.2700584,-0.07487906,0.0,0.0,0.0,0.0,0.0,0.0,nan,nan,nan
397838767,-20.177204,31.427187,-44.80628,nan,0.0,3.7928143,-1.2706542,-0.074879594,0.0,0.0,0.0,0.0,0.0,0.0,nan,nan,nan
398038768,-19.46676,31.189188,-44.82029,nan,0.0,3.7929344,-1.2702937,-0.07488101,0.0,0.0,0.0,0.0,0.0,0.0,nan,nan,nan
398238823,-18.753479,30.950441,-44.83437,nan,0.0,3.7934752,-1.2686795,-0.07488177,0.0,0.0,0.0,0.0,0.0,0.0,nan,nan,nan
398438843,-18.035091,30.71052,-44.84854,nan,0.0,3.794633,-1.265195,-0.07488285,0.00777084,0.008352786,-1.2665987e-05,0.0,-4.0,0.0,nan,nan,nan
398638856,-17.309782,30.469145,-44.862846,nan,0.0,3.7961514,-1.2606367,-0.07488351,0.007043842,0.0070438497,-4.608184e-06,-4.0,-4.0,0.0,nan,nan,nan
398838851,-16.576994,30.226387,-44.877293,nan,0.0,3.7980657,-1.2548128,-0.07488502,0.011051141,0.015988309,-1.3370067e-05,0.0,-4.0,0.0,nan,nan,nan
399038839,-15.837947,29.982977,-44.89185,nan,0.0,3.8005023,-1.2474254,-0.074886344,0.013414003,0.020528868,6.0386956e-06,0.0,-4.0,0.0,nan,nan,nan
399238853,-15.097571,29.740852,-44.906437,nan,0.0,3.8032117,-1.2390795,-0.0748866,0.014463834,0.022315204,8.631498e-06,0.0,-4.0,0.0,nan,nan,nan
399438896,-14.361486,29.501905,-44.920925,nan,0.0,3.80601,-1.2310836,-0.074885815,0.014463834,0.021386188,-6.072223e-07,0.0,-4.0,0.0,nan,nan,nan
399638888,-13.631951,29.266644,-44.93528,nan,0.0,3.8080177,-1.2244008,-0.07488518,0.011158556,0.014049154,9.968877e-06,0.0,-4.0,0.0,nan,nan,nan
399838891,-12.908121,29.03455,-44.949512,nan,0.0,3.8100078,-1.2182314,-0.07488419,0.010980979,0.013086874,1.1157244e-05,0.0,-4.0,0.0,nan,nan,nan
400038996,-12.187394,28.804586,-44.96367,nan,0.0,3.8113701,-1.2138568,-0.07488438,0.0041705035,0.004170507,-4.094094e-06,-4.0,-4.0,0.0,nan,nan,nan
400238913,-11.46837,28.575914,-44.9778,nan,0.0,3.8123085,-1.2109106,-0.07488337,0.0,0.0,0.0,0.0,0.0,0.0,nan,nan,nan
400438950,-10.749084,28.347694,-44.99192,nan,0.0,3.8130498,-1.2085731,-0.07488422,0.0,0.0,0.0,0.0,0.0,0.0,nan,nan,nan
400638984,-10.030224,28.120111,-45.006035,nan,0.0,3.8138893,-1.2059233,-0.07488348,0.0,0.0,0.0,0.0,0.0,0.0,nan,nan,nan
400839028,-9.312425,27.893482,-45.020126,nan,0.0,3.8149447,-1.2025619,-0.07488295,0.0074951164,0.0077256113,1.4588237e-05,0.0,-4.0,0.0,nan,nan,nan
401039143,-8.59647,27.668245,-45.03417,nan,0.0,3.8163147,-1.1982245,-0.07488288,0.0,0.0,0.0,0.0,0.0,0.0,nan,nan,nan
401239027,-7.881677,27.443987,-45.04819,nan,0.0,3.8166494,-1.1971587,-0.07488349,0.0,0.0,0.0,0.0,0.0,0.0,nan,nan,nan
401439092,-7.1637406,27.218748,-45.062275,nan,0.0,3.8164127,-1.1979129,-0.07488437,0.0,0.0,0.0,0.0,0.0,0.0,nan,nan,nan
401639102,-6.409082,26.981785,-45.077087,nan,0.0,3.8161728,-1.1986763,-0.07488376,0.0,0.0,0.0,0.0,0.0,0.0,nan,nan,nan
401838986,-5.6462984,26.742126,-45.092033,nan,0.0,3.8160021,-1.1992183,-0.07488681,0.0,0.0,0.0,0.0,0.0,0.0,nan,nan,nan
402039056,-4.8868594,26.503408,-45.106915,nan,0.0,3.8158283,-1.1997726,-0.07489007,0.0,0.0,0.0,0.0,0.0,0.0,nan,nan,nan
402239065,-4.1236877,26.263329,-45.121883,nan,0.0,3.8153777,-1.201205,-0.07489306,0.0,0.0,0.0,0.0,0.0,0.0,nan,nan,nan
402439050,-3.3607407,26.022882,-45.136856,nan,0.0,3.8146684,-1.2034553,-0.074895464,0.0,0.0,0.0,0.0,0.0,0.0,nan,nan,nan
402639048,-2.597848,25.782103,-45.15184,nan,0.0,3.8145876,-1.2037109,-0.074893594,0.0,0.0,0.0,0.0,0.0,0.0,nan,nan,nan
402839063,-1.8347981,25.541565,-45.166817,nan,0.0,3.8152905,-1.2014827,-0.07489366,0.0,0.0,0.0,0.0,0.0,0.0,nan,nan,nan
403039114,-1.0715113,25.301315,-45.181793,nan,0.0,3.8154504,-1.200974,-0.0748953,0.0,0.0,0.0,0.0,0.0,0.0,nan,nan,nan
403239155,-0.30827808,25.061035,-45.196762,nan,0.0,3.815233,-1.2016637,-0.07489736,0.0,0.0,0.0,0.0,0.0,0.0,nan,nan,nan
403439107,0.45452434,24.820797,-45.211735,nan,0.0,3.8152962,-1.2014636,-0.07489774,0.0,0.0,0.0,0.0,0.0,0.0,nan,nan,nan
403639372,1.218731,24.58041,-45.22673,nan,0.0,3.8161366,-1.1987913,-0.074898444,0.0,0.0,0.0,0.0,0.0,0.0,nan,nan,nan
403839167,1.9813203,24.341372,-45.241688,nan,0.0,3.817529,-1.1943507,-0.074898705,0.0,0.0,0.0,0.0,0.0,0.0,nan,nan,nan
404039198,2.7450268,24.10271,-45.25667,nan,0.0,3.8180695,-1.1926211,-0.0749006,0.0,0.0,0.0,0.0,0.0,0.0,nan,nan,nan
404239135,3.508365,23.864147,-45.27163,nan,0.0,3.8175519,-1.194276,-0.074902885,0.0,0.0,0.0,0.0,0.0,0.0,nan,nan,nan
404439154,4.271978,23.62535,-45.28659,nan,0.0,3.8178384,-1.1933603,-0.074908145,0.0,0.0,0.0,0.0,0.0,0.0,nan,nan,nan
404639193,5.0357623,23.386864,-45.30157,nan,0.0,3.8185081,-1.1912158,-0.07490945,0.0,0.0,0.0,0.0,0.0,0.0,nan,nan,nan
404839187,5.7995324,23.148905,-45.31654,nan,0.0,3.819242,-1.1888609,-0.07491288,0.0,0.0,0.0,0.0,0.0,0.0,nan,nan,nan
405039191,6.5633945,22.911205,-45.331497,nan,0.0,3.8193974,-1.1883619,-0.07492037,0.0,0.0,0.0,0.0,0.0,0.0,nan,nan,nan
405239241,7.327571,22.673801,-45.346478,nan,0.0,3.8205667,-1.1845968,-0.074923426,0.00038762018,0.0003876239,-8.150935e-06,-4.0,-4.0,0.0,nan,nan,nan
405439223,8.0919,22.437723,-45.361458,nan,0.0,3.8230753,-1.1764505,-0.07492354,0.009446181,0.009581931,1.7635524e-05,0.0,-4.0,0.0,nan,nan,nan
405639256,8.856797,22.202955,-45.37645,nan,0.0,3.8243368,-1.1723678,-0.07492195,0.0,0.0,0.0,0.0,0.0,0.0,nan,nan,nan
405839374,9.622087,21.968447,-45.391434,nan,0.0,3.8242166,-1.17276,-0.07492188,0.0,0.0,0.0,0.0,0.0,0.0,nan,nan,nan
406039268,10.385387,21.734335,-45.406384,nan,0.0,3.7951221,-1.1627225,-0.07421341,-0.47986,0.13768406,0.008527607,-4.0,0.0,0.0,nan,nan,nan
406239273,11.129496,21.505589,-45.420982,nan,0.0,3.619144,-1.1202046,-0.07169607,-1.27988,0.27356404,0.015611142,-4.0,0.0,0.0,nan,nan,nan
406439294,11.826389,21.287949,-45.43495,nan,0.0,3.3488693,-1.0523607,-0.06770742,-1.325507,0.3823905,0.023597032,4.0,0.0,0.0,nan,nan,nan
406639309,12.4695015,21.085533,-45.447994,nan,0.0,3.0829213,-0.97024035,-0.06241107,-1.2918745,0.42420626,0.028272063,4.0,0.0,0.0,nan,nan,nan
406839351,13.06026,20.900053,-45.459877,nan,0.0,2.8250113,-0.88381803,-0.05653963,-1.245215,0.43413734,0.029856533,4.0,0.0,0.0,nan,nan,nan
407039396,13.600454,20.732008,-45.470573,nan,0.0,2.5777895,-0.7959112,-0.050552364,-1.1851395,0.44235894,0.029935867,4.0,0.0,0.0,nan,nan,nan
407239386,14.092302,20.581676,-45.480072,nan,0.0,2.3430626,-0.70744383,-0.044565495,-1.1227245,0.44235894,0.029935867,4.0,0.0,0.0,nan,nan,nan
407439362,14.538409,20.449045,-45.48836,nan,0.0,2.1205547,-0.61898273,-0.03857904,-1.0621974,0.44235894,0.029935867,4.0,0.0,0.0,nan,nan,nan
407639597,14.94172,20.333977,-45.49547,nan,0.0,1.9104022,-0.53041404,-0.03258531,-0.99525476,0.44235894,0.029935867,4.0,0.0,0.0,nan,nan,nan
407839497,15.303821,20.235035,-45.501366,nan,0.0,1.7147082,-0.46840203,-0.026600713,-0.92231834,0.20251893,0.029935867,4.0,0.0,0.0,nan,nan,nan
408039406,15.62826,20.145435,-45.50643,nan,0.0012789667,1.533609,-0.42871174,-0.024791973,-0.85083055,0.122754924,0.005894989,4.0,-4.0,0.0,nan,nan,nan
408239558,15.91827,20.062092,-45.51125,nan,0.0,1.3668083,-0.40414223,-0.02307261,-0.7771099,0.122754924,0.010190725,4.0,0.0,0.0,nan,nan,nan
408439464,16.176073,19.983755,-45.51562,nan,0.0,1.2155187,-0.37955248,-0.020853922,-0.6577608,0.12401589,0.012104332,4.0,0.0,0.0,nan,nan,nan
408639493,16.411385,19.90938,-45.51948,nan,0.0,1.1630502,-0.37609312,-0.017380068,0.056536227,-0.12840258,0.021502055,0.0,4.0,0.0,nan,nan,nan
408839787,16.64276,19.829737,-45.522533,nan,-0.04361617,1.1234534,-0.43887073,-0.013073292,-0.58134276,-0.6692741,0.021502055,-4.0,-4.0,0.0,nan,nan,nan
409039476,16.850197,19.725101,-45.52471,nan,-0.061501533,0.92761296,-0.6155717,-0.008779545,-1.3801026,-0.92619586,0.021502055,-4.0,0.0,0.0,nan,nan,nan
409239521,17.002808,19.583427,-45.52614,nan,-0.029588623,0.5714942,-0.8008525,-0.006582582,-2.1802826,-0.92619586,4.080683e-05,-4.0,0.0,0.0,nan,nan,nan
409439527,17.073961,19.404749,-45.527443,nan,-0.061581597,0.16055517,-0.9860768,-0.006511477,-1.7055733,-0.92619586,0.00064293295,4.0,0.0,0.0,nan,nan,nan
409639520,17.076782,19.189135,-45.52873,nan,-0.0877971,-0.11000125,-1.1641661,-0.0063035777,-1.0238647,-0.68678784,0.0012252703,4.0,4.0,0.0,nan,nan,nan
409839555,17.036825,18.948381,-45.52994,nan,-0.12678093,-0.3064745,-1.3696029,-0.0064727496,-1.0238647,-1.4543629,-0.0008844957,0.0,-4.0,0.0,nan,nan,nan
410039538,16.965258,18.675041,-45.53112,nan,-0.1923276,-0.49038658,-1.6953739,-0.006631627,-1.0238647,-2.1728644,-0.0008844957,0.0,-4.0,0.0,nan,nan,nan
410239579,16.860334,18.330578,-45.532326,nan,0.0,-0.67478174,-2.15157,-0.0067909225,-1.0238647,-2.893253,-0.0008844957,0.0,-4.0,0.0,nan,nan,nan
410439617,16.720724,17.890057,-45.533566,nan,0.0,-0.860935,-2.6955886,-0.0068829656,-1.0238647,-3.0,8.670241e-05,0.0,0.0,0.0,nan,nan,nan
410639585,16.546227,17.345974,-45.534824,nan,0.0,-1.0161442,-3.1905,-0.006848771,-0.5072322,-2.3227825,0.00026146322,4.0,4.0,0.0,nan,nan,nan
410839591,16.352179,16.7149,-45.53609,nan,0.0,-1.0450886,-3.554659,-0.006784525,0.06359989,-1.5823799,0.00040952116,0.0,4.0,0.0,nan,nan,nan
411039628,16.155691,16.018362,-45.537365,nan,0.0,-1.0308515,-3.783041,-0.0066940337,0.08434612,-0.8306225,0.000536032,0.0,4.0,0.0,nan,nan,nan
411239638,15.959605,15.281968,-45.538628,nan,0.0,-1.0126433,-3.8692398,-0.006583871,0.102658145,-0.0671213,0.00058639795,0.0,4.0,0.0,nan,nan,nan
411439663,15.763152,14.527196,-45.539906,nan,0.0,-0.9898329,-3.8055387,-0.0064425124,0.1515544,0.7170195,0.0009668544,0.0,4.0,0.0,nan,nan,nan
411639703,15.568903,13.785621,-45.54118,nan,0.0,-0.9492424,-3.582259,-0.0061865184,0.24400079,1.462798,0.0015206411,0.0,-4.0,0.0,nan,nan,nan
411839705,15.384517,13.098437,-45.54238,nan,0.0,-0.8924215,-3.2917123,-0.005833689,0.31186116,1.4024774,0.0019317344,0.0,-4.0,0.0,nan,nan,nan
412039684,15.212603,12.468177,-45.543514,nan,0.0,-0.8257665,-3.0136404,-0.0054117637,0.34669244,1.3379745,0.0022875145,0.0,-4.0,0.0,nan,nan,nan
412239734,15.054467,11.892016,-45.54455,nan,0.0,-0.7549086,-2.7488694,-0.00492217,0.357405,1.2694184,0.0025395826,0.0,-4.0,0.0,nan,nan,nan
412439724,14.910643,11.367577,-45.545486,nan,0.0,-0.68341523,-2.4982502,-0.004407908,0.35748452,1.1971904,0.0025788024,0.0,-4.0,0.0,nan,nan,nan
412639727,14.781108,10.891777,-45.54632,nan,0.0,-0.61191726,-2.2622359,-0.0038921402,0.35748452,1.1230488,0.0025788024,0.0,-4.0,0.0,nan,nan,nan
412839732,14.665871,10.461674,-45.547054,nan,0.0,-0.54041857,-2.041258,-0.0033763668,0.35748452,1.0471622,0.0025788024,0.0,-4.0,0.0,nan,nan,nan
413039778,14.564916,10.074172,-45.547684,nan,0.036732107,-0.4689059,-1.8355279,-0.0028604933,0.35748452,0.97018313,0.0025788024,0.0,-4.0,0.0,nan,nan,nan
413239976,14.478207,9.726034,-45.54821,nan,0.029303437,-0.39733782,-1.6449934,-0.0023442197,0.35748452,0.8929361,0.0025788024,0.0,-4.0,0.0,nan,nan,nan
413439799,14.403821,9.415065,-45.548645,nan,0.05470878,-0.35153893,-1.4700444,-0.002073406,0.1969445,0.8180623,0.00028974563,0.0,-4.0,0.0,nan,nan,nan
413639804,14.336544,9.137314,-45.549053,nan,0.042729452,-0.32417274,-1.3099182,-0.0019530626,0.116780505,0.7439796,0.0007897094,0.0,-4.0,0.0,nan,nan,nan
413839882,14.274025,8.890042,-45.549427,nan,0.0372248,-0.3005929,-1.1642814,-0.0017751005,0.12578769,0.67248255,0.00094983727,0.0,-4.0,0.0,nan,nan,nan
414040024,14.216743,8.670432,-45.549767,nan,0.04891251,-0.2708203,-1.0325522,-0.0015849981,0.15914313,0.6041063,0.00094983727,0.0,-4.0,0.0,nan,nan,nan
414239911,14.165811,8.476091,-45.550068,nan,0.03809364,-0.23880084,-0.9141057,-0.0013951369,0.16024183,0.5410475,0.00094983727,0.0,-4.0,0.0,nan,nan,nan
414439935,14.121253,8.304084,-45.55033,nan,0.035873696,-0.20674974,-0.8078061,-0.0012051534,0.16024183,0.4822893,0.00094983727,0.0,-4.0,0.0,nan,nan,nan
414639878,14.077786,8.146874,-45.550556,nan,0.0,-0.2546666,-0.79133147,-0.0010152364,-0.63684,-0.31749865,0.00094983727,0.0,-4.0,0.0,nan,nan,nan
414839875,14.014114,7.976923,-45.550743,nan,-0.0813898,-0.38208306,-0.9348312,-0.0008252688,-0.637097,-1.1174986,0.00094983727,0.0,-4.0,0.0,nan,nan,nan
415039959,13.9249115,7.7621703,-45.550896,nan,-0.15862212,-0.509556,-1.2384918,-0.00080536294,-0.637097,-1.9178345,1.976639e-05,0.0,-4.0,0.0,nan,nan,nan
415239958,13.81026,7.4707847,-45.55105,nan,-0.2359354,-0.63697463,-1.7020559,-0.0007969264,-0.637097,-2.7178307,6.530434e-05,0.0,-4.0,0.0,nan,nan,nan
415439927,13.670145,7.0721984,-45.5512,nan,0.0,-0.7643749,-2.2920134,-0.0007763951,-0.637097,-3.0,0.0001367107,0.0,0.0,0.0,nan,nan,nan
415639932,13.507488,6.5653796,-45.551353,nan,0.0,-0.8896769,-2.8406022,-0.0007447626,-0.637097,-2.424222,0.000163652,0.0,4.0,0.0,nan,nan,nan
415840001,13.324795,5.979592,-45.551506,nan,0.0,-1.0120839,-3.2325437,-0.00071284536,-0.637097,-1.6556928,0.00017414242,0.0,4.0,0.0,nan,nan,nan
416040000,13.125071,5.33846,-45.551636,nan,0.0,-1.0612692,-3.4753473,-0.0006769406,0.06856785,-0.89380777,0.00019655377,0.0,4.0,0.0,nan,nan,nan
416239983,12.925397,4.667541,-45.55175,nan,0.0,-1.0414726,-3.5729346,-0.00063790084,0.13332841,-0.13487987,0.00021598488,0.0,4.0,0.0,nan,nan,nan
416439997,12.730353,3.9908562,-45.551865,nan,0.0,-1.0097575,-3.526368,-0.00059415237,0.19454464,0.6250816,0.00024221092,0.0,4.0,0.0,nan,nan,nan
416640189,12.541727,3.3343039,-45.55198,nan,0.0,-0.96635777,-3.3344054,-0.0005450961,0.25509843,1.3879578,0.00026986748,0.0,4.0,0.0,nan,nan,nan
416840057,12.362317,2.727672,-45.55209,nan,0.0,-0.9111659,-2.996542,-0.00049040304,0.31797418,2.1515884,0.00030062348,0.0,4.0,0.0,nan,nan,nan
417040092,12.188409,2.1809032,-45.55217,nan,0.0,-0.8405342,-2.4966874,-0.00042887463,0.38973972,2.6729739,0.0003163591,0.0,-4.0,0.0,nan,nan,nan
417240048,12.028716,1.7325522,-45.552246,nan,0.0,-0.7541903,-2.0021331,-0.00036417675,0.46673003,2.2448614,0.00032947212,0.0,-4.0,0.0,nan,nan,nan
417440091,11.887741,1.3743799,-45.552322,nan,0.12603386,-0.6529609,-1.5931777,-0.00029679452,0.53679556,1.8164628,0.00034270436,0.0,-4.0,0.0,nan,nan,nan
417640114,11.768277,1.0895396,-45.55237,nan,0.09895905,-0.5401402,-1.2688016,-0.00022738916,0.579931,1.4010773,0.00034771115,0.0,-4.0,0.0,nan,nan,nan
417840255,11.6718235,0.8613488,-45.552406,nan,0.08311007,-0.42371804,-1.0242414,-0.00015779791,0.58175373,1.0201017,0.00034771115,0.0,-4.0,0.0,nan,nan,nan
418040281,11.5987015,0.67499334,-45.55244,nan,0.05145794,-0.3081526,-0.8495304,-8.8246314e-05,0.5017017,0.7252455,0.00034771115,-4.0,-4.0,0.0,nan,nan,nan
418240359,11.544338,0.51807374,-45.55244,nan,0.047891617,-0.24801587,-0.72631943,-7.438832e-05,0.1803097,0.50282115,7.450581e-09,0.0,-4.0,0.0,nan,nan,nan
418440166,11.496942,0.3825212,-45.55244,nan,0.044343524,-0.22703582,-0.63376164,-7.438623e-05,0.1010497,0.39658877,7.450581e-09,0.0,-4.0,0.0,nan,nan,nan
418640211,11.45384,0.26362693,-45.55244,nan,0.03393141,-0.2026877,-0.55684453,-7.4386815e-05,0.13197711,0.3375771,7.450581e-09,0.0,-4.0,0.0,nan,nan,nan
418840335,11.41592,0.15905468,-45.55244,nan,0.025870318,-0.17627606,-0.4896581,-7.438683e-05,0.13197711,0.294662,-7.450581e-09,0.0,-4.0,0.0,nan,nan,nan
419040196,11.383325,0.06723834,-45.55244,nan,0.023681087,-0.14989887,-0.43035415,-7.438682e-05,0.13197711,0.25895053,-7.450581e-09,0.0,-4.0,0.0,nan,nan,nan
419240204,11.354634,-0.01348071,-45.55244,nan,0.02067565,-0.13630699,-0.3778858,-7.438681e-05,0.0849211,0.22643986,-7.450581e-09,0.0,-4.0,0.0,nan,nan,nan
419440381,11.329085,-0.0843788,-45.55244,nan,0.011893021,-0.11896047,-0.3315215,-7.438651e-05,0.08671467,0.19704701,-7.450581e-09,0.0,-4.0,0.0,nan,nan,nan
419640287,11.3070345,-0.14649114,-45.55244,nan,0.010602485,-0.10162377,-0.29068595,-7.438679e-05,0.08671467,0.1712339,-7.450581e-09,0.0,-4.0,0.0,nan,nan,nan
419840243,11.28761,-0.20094362,-45.55244,nan,0.0,-0.09144896,-0.2547283,-7.43865e-05,0.06189716,0.14910927,0.0,0.0,-4.0,0.0,nan,nan,nan
420040434,11.270543,-0.24869786,-45.55244,nan,0.0032110997,-0.07905783,-0.22305538,-7.43865e-05,0.06189716,0.12757666,0.0,0.0,-4.0,0.0,nan,nan,nan
420240351,11.256053,-0.2900587,-45.55063,nan,0.0016513448,-0.06534445,-0.18719023,0.039162576,0.07330227,0.21463922,0.560264,0.0,0.0,4.0,nan,nan,nan
420440365,11.244449,-0.32319805,-45.52626,nan,0.0022503734,-0.0506318,-0.1441061,0.23125754,0.07375717,0.21600416,1.360388,0.0,0.0,4.0,nan,nan,nan
420640446,11.235797,-0.34769648,-45.447517,nan,0.0,-0.03582353,-0.10073375,0.5770571,0.07422125,0.21741328,1.8394411,0.0,0.0,-4.0,nan,nan,nan
420840315,11.230126,-0.36347693,-45.30076,nan,0.0,-0.020939885,-0.057127334,0.86480916,0.07466179,0.21879134,1.0399652,0.0,0.0,-4.0,nan,nan,nan
421040401,11.227436,-0.3705153,-45.112255,nan,0.0,-0.005942536,-0.013136566,0.9928176,0.075274795,0.221169,0.23970917,0.0,0.0,-4.0,nan,nan,nan
421240560,11.226929,-0.37185052,-44.912197,nan,-0.008451775,-0.0021218122,-0.0059561566,1.0,0.0,0.0,0.0,0.0,0.0,0.0,nan,nan,nan
421440360,11.226508,-0.37304056,-44.7124,nan,-0.018603852,-0.0021218953,-0.0059561585,1.0,0.0,0.0,0.0,0.0,0.0,0.0,nan,nan,nan
