timestamp,timestamp_sample,lat,lon,alt,alt_ellipsoid,delta_alt,eph,epv,terrain_alt,lat_lon_reset_counter,alt_reset_counter,terrain_alt_valid,dead_reckoning
218379976,218379502,36.66072307915204,126.34204044389328,9.561967,22.91658,-0.0,1.7817813,2.9326448,9.464846,2,0,1,0
219387532,219387044,36.6607233063633,126.34204048630933,9.52701,22.981873,-0.0,1.7814327,2.9324174,9.431541,2,0,1,0
220385228,220384708,36.66072352061535,126.34204025654067,9.511335,23.065548,-0.0,1.7809248,2.9324687,9.413281,2,0,1,0
221382843,221382373,36.660723745124976,126.34204033480681,9.515192,23.168146,-0.0,1.7804325,2.9325495,9.408658,2,0,1,0
222380520,222380039,36.66072380305131,126.3420404019397,9.557508,23.29955,-0.0,1.7799082,2.932308,9.408658,2,0,1,0
223388045,223387583,36.660724204770695,126.3420396932426,9.620962,23.438673,-0.0,1.7795789,2.9324913,9.408658,2,0,1,0
224385679,224385250,36.66072433778524,126.34203827815536,9.969742,23.841972,-0.0,1.7791351,2.932274,nan,2,0,0,0
225383399,225382917,36.66072333011199,126.34203883873275,10.5295515,24.449524,-0.0,1.7786847,2.932394,nan,2,0,0,0
226381098,226380585,36.66072195388506,126.34204073055488,11.245674,25.207935,-0.0,1.7782778,2.9321945,nan,2,0,0,0
227378696,227378254,36.660721543812,126.34204234703837,12.127594,26.129307,-0.0,1.7776463,2.9323287,nan,2,0,0,0
228386266,228385801,36.660722520172,126.34204302458915,13.085862,27.120548,-0.0,1.7771546,2.9325564,nan,2,0,0,0
229383945,229383471,36.66072388001753,126.34204292368919,14.141983,28.20993,-0.0,1.77676,2.9329512,nan,2,0,0,0
230381685,230381141,36.660725110142124,126.34204133811501,15.16465,29.256603,-0.0,1.7765777,2.9326017,nan,2,0,0,0
231379262,231378812,36.660725071478886,126.34204031317861,16.178726,30.295305,-0.0,1.7764106,2.9326081,nan,2,0,0,0
232386824,232386362,36.660723542751604,126.34203911569993,17.225122,31.368725,-0.0,1.7763809,2.9326975,nan,2,0,0,0
233384469,233384038,36.66072225937508,126.3420382384418,18.284554,32.457047,-0.0,1.7760898,2.932703,nan,2,0,0,0
234382178,234381706,36.660721611198554,126.34203904201965,19.139015,33.3421,-0.0,1.7758425,2.932739,nan,2,0,0,0
235380550,235379379,36.66072228585091,126.34204054484478,20.05043,34.292572,-0.0,1.7756199,2.932452,nan,2,0,0,0
236387371,236386931,36.66072341529463,126.34204114776654,22.46773,36.7455,-0.0,1.7755889,2.9326017,nan,2,0,0,0
237385517,237384605,36.660724094441235,126.34204093433262,25.252045,39.57783,-0.0,1.7754173,2.93234,nan,2,0,0,0
238382848,238382280,36.66072386733294,126.34204018803796,28.174759,42.553986,-0.0,1.7751776,2.932421,nan,2,0,0,0
239380917,239379955,36.66072359857663,126.34204010088982,31.057432,45.494213,-0.0,1.7749487,2.9325109,nan,2,0,0,0
240388111,240387508,36.66072297170443,126.34203995799925,34.05925,48.559044,-0.0,1.7749406,2.9323652,nan,2,0,0,0
241385978,241385185,36.66072269698733,126.34204087310802,36.994785,51.556805,-0.0,1.7747256,2.9324672,nan,2,0,0,0
242383415,242382861,36.66072356999927,126.34204201204642,39.95816,54.59593,-0.0,1.774571,2.9325635,nan,2,0,0,0
243381391,243380538,36.66072425611008,126.34204176375538,42.87403,57.592377,-0.0,1.774408,2.9323432,nan,2,0,0,0
244378787,244378216,36.66072325864313,126.34204007163036,45.7836,60.590504,-0.0,1.7742649,2.9324713,nan,2,0,0,0
245386480,245385772,36.66072201522494,126.34203986680427,48.74047,63.64441,-0.0,1.7742919,2.9323683,nan,2,0,0,0
246384130,246383450,36.660721078197064,126.34204163421427,51.59221,66.59565,-0.0,1.7742411,2.93219,nan,2,0,0,0
247381743,247381128,36.66072184033922,126.34204380891217,54.39295,69.49669,-0.0,1.774112,2.9323337,nan,2,0,0,0
248379385,248378807,36.66072425876861,126.3420442858196,56.58801,71.79235,-0.0,1.7740061,2.932478,nan,2,0,0,0
249386844,249386365,36.66072568302464,126.34204139416951,57.878647,73.18299,-0.0,1.7740124,2.9323642,nan,2,0,0,0
250384606,250384044,36.660724159417704,126.34203829419299,58.64357,74.04631,-0.0,1.7739156,2.9324598,nan,2,0,0,0
251382164,251381724,36.6607214763059,126.34203640635018,59.03164,74.53588,-0.0,1.7738549,2.9325604,nan,2,0,0,0
252379997,252379404,36.66071437514761,126.34202831513018,59.197926,74.80147,-0.0,1.7738569,2.9323146,nan,2,0,0,0
253387470,253386962,36.660707886358395,126.34202522556241,59.306507,75.01135,-0.0,1.7740145,2.932497,nan,2,0,0,0
254385072,254384643,36.660714403819014,126.34204103206035,59.40074,75.204926,-0.0,1.7741033,2.9325397,nan,2,0,0,0
255382810,255382323,36.66073863282063,126.34205899868014,59.493946,75.398285,-0.0,1.7741667,2.9328544,nan,2,0,0,0
256380477,256380005,36.66076347464775,126.3420624239997,59.69377,75.69803,-0.0,1.7741287,2.9325075,nan,2,0,0,0
257388064,257387564,36.660769250424025,126.34204712122454,59.613583,75.718124,-0.0,1.7742431,2.9326208,nan,2,0,0,0
258385761,258385246,36.66077329701872,126.34203173451665,59.617958,75.8215,-0.0,1.7742869,2.9323437,nan,2,0,0,0
259383365,259382928,36.660787172532416,126.34203681317642,59.486637,75.78988,-0.0,1.7743288,2.9324114,nan,2,0,0,0
260381044,260380611,36.660801284793976,126.34204603571531,59.41838,75.82182,-0.0,1.7744782,2.9325128,nan,2,0,0,0
261388603,261388172,36.660809230069226,126.34204975496218,59.432163,75.93151,-0.0,1.7747171,2.9323883,nan,2,0,0,0
262386404,262385855,36.6608087585796,126.34204707753271,59.472797,76.05613,-0.0,1.7747864,2.932503,nan,2,0,0,0
263383992,263383538,36.66080733040455,126.3420448266816,59.487026,76.141785,-0.0,1.7748106,2.9322944,nan,2,0,0,0
264381662,264381222,36.660807885446786,126.34205219747095,59.60705,76.328636,-0.0,1.7748165,2.9324086,nan,2,0,0,0
265389280,265388784,36.66082304815147,126.3421037485742,60.100887,76.84917,-0.0,1.7749699,2.9322853,nan,2,0,0,0
266387083,266386469,36.66085825249537,126.34219689483294,60.33086,77.081276,-0.0,1.7750149,2.9324338,nan,2,0,0,0
267384624,267384154,36.660917938053935,126.34232630542759,60.265167,76.99068,-0.0,1.7749578,2.932256,nan,2,0,0,0
268382316,268381839,36.66099466549025,126.3424867364388,60.92689,77.58052,-0.0,1.7748867,2.9324224,nan,2,0,0,0
269379968,269379525,36.66107661847616,126.34266527984386,62.179176,78.733,-0.0,1.7747829,2.9322467,nan,2,0,0,0
270377723,270377211,36.66111970408907,126.34286632698696,63.400753,79.854485,-0.0,1.7747614,2.9323585,nan,2,0,0,0
271385451,271384775,36.661110160198604,126.34307490562327,63.06359,79.41741,-0.0,1.7749615,2.9322083,nan,2,0,0,0
272382903,272382461,36.661111873357676,126.34328587511801,61.109165,77.362465,-0.0,1.7750328,2.9323194,nan,2,0,0,0
273380718,273380147,36.66114028568997,126.3435017220408,59.68835,75.84228,-0.0,1.7750878,2.9320815,nan,2,0,0,0
274378422,274377833,36.66118253481085,126.34371988214923,58.793724,74.84775,-0.0,1.7752157,2.9322047,nan,2,0,0,0
275385909,275385397,36.6612291048898,126.34394113821186,58.616863,74.57089,-0.0,1.7753937,2.932116,nan,2,0,0,0
276383613,276383086,36.66130327954989,126.34414273930652,58.19949,74.05492,-0.0,1.7753929,2.9322507,nan,2,0,0,0
277381262,277380769,36.66145859763388,126.34421973044306,59.500206,75.255035,-0.0,1.7757605,2.9324472,nan,2,0,0,0
278378903,278378455,36.66160267687758,126.3441202315436,61.471275,77.1259,-0.0,1.7762864,2.932376,nan,2,0,0,0
279386557,279386019,36.661638360267816,126.34391314643743,62.84295,78.39738,-0.0,1.7772249,2.9323766,nan,2,0,0,0
280384628,280383704,36.661577647800755,126.34370208413984,61.38343,76.83775,-0.0,1.7782308,2.9328127,nan,2,0,0,0
281381994,281381389,36.661528172070355,126.34348135661624,58.96678,74.321,-0.0,1.7782396,2.9324377,nan,2,0,0,0
282379971,282379073,36.661542193938224,126.34325182405392,57.969093,73.2238,-0.0,1.7781258,2.9322248,nan,2,0,0,0
283377297,283376757,36.66161082119314,126.34303960902142,57.779118,72.93314,-0.0,1.7781495,2.9317787,nan,2,0,0,0
284385245,284384319,36.66171320796224,126.34284855331363,57.32014,72.37553,-0.0,1.7785268,2.931889,nan,2,0,0,0
285382799,285382002,36.66182721636686,126.34267747480298,57.085693,72.06693,-0.0,1.7786504,2.9317002,nan,2,0,0,0
286380591,286379685,36.66194155281142,126.34251332226552,56.894096,71.82228,-0.0,1.7787147,2.9318733,nan,2,0,0,0
287378075,287377367,36.6620529643382,126.34235052609456,56.88866,71.76448,-0.0,1.7786952,2.9320648,nan,2,0,0,0
288385560,288384926,36.662163614319375,126.34218500780273,56.678,71.52634,-0.0,1.7787563,2.932031,nan,2,0,0,0
289383130,289382607,36.66227274621926,126.34201892931894,56.638496,71.47444,-0.0,1.7786533,2.932239,nan,2,0,0,0
290380920,290380288,36.66238174752428,126.3418528669635,56.678783,71.51014,-0.0,1.7785475,2.9321094,nan,2,0,0,0
291378394,291377967,36.66249364408181,126.34169490497199,56.95863,71.78885,-0.0,1.7784809,2.9322908,nan,2,0,0,0
292386009,292385524,36.66261201243949,126.34154627942182,57.23129,72.065994,-0.0,1.7785479,2.9322371,nan,2,0,0,0
293383706,293383202,36.662732414202395,126.34140598001996,57.20222,72.03913,-0.0,1.7783829,2.9324114,nan,2,0,0,0
294381320,294380880,36.66285492537126,126.34126592217869,57.427788,72.272766,-0.0,1.7782879,2.9322386,nan,2,0,0,0
295379030,295378557,36.662977243031825,126.3411267255294,57.825577,72.69028,-0.0,1.7781852,2.9323885,nan,2,0,0,0
296386569,296386112,36.66309962514894,126.34098584519343,57.71308,72.597786,-0.0,1.7782893,2.932301,nan,2,0,0,0
297384269,297383787,36.66322038373645,126.34084647524175,57.82811,72.74202,-0.0,1.7782302,2.932449,nan,2,0,0,0
298381951,298381463,36.66334118964993,126.3407078532856,57.997757,72.940094,-0.0,1.7781101,2.9322622,nan,2,0,0,0
299379583,299379137,36.66346190869604,126.34057085410147,58.250256,73.20936,-0.0,1.7779713,2.9324055,nan,2,0,0,0
300387120,300386689,36.66358294071583,126.34043249138665,58.417698,73.37699,-0.0,1.7779806,2.932315,nan,2,0,0,0
301384869,301384362,36.66370360021632,126.34029902003059,58.481075,73.436264,-0.0,1.7777835,2.9324563,nan,2,0,0,0
302382612,302382035,36.66384529349754,126.34021850896964,59.17845,74.12247,-0.0,1.7776902,2.9322534,nan,2,0,0,0
303380141,303379707,36.66399622033477,126.34026173068933,60.6306,75.55509,-0.0,1.7776625,2.9323742,nan,2,0,0,0
304377890,304377378,36.66412562156928,126.34037495481888,60.427994,75.34326,-0.0,1.7776575,2.9322188,nan,2,0,0,0
305385405,305384927,36.664237509806114,126.34051850417096,59.51907,74.43432,-0.0,1.7777233,2.9324455,nan,2,0,0,0
306383091,306382597,36.66431944777261,126.34068046857104,57.60898,72.56579,-0.0,1.7776557,2.9325514,nan,2,0,0,0
307380913,307380267,36.66430381603057,126.34088052552865,57.41004,72.400955,-0.0,1.7777367,2.9323745,nan,2,0,0,0
308378373,308377935,36.66418410292296,126.3410359695438,57.45153,72.47633,-0.0,1.7779151,2.9325404,nan,2,0,0,0
309385997,309385481,36.664022204917096,126.3410936763017,56.03515,71.13838,-0.0,1.7781894,2.932436,nan,2,0,0,0
310383731,310383149,36.663864490205356,126.34109718151852,53.140503,68.34394,-0.0,1.7782031,2.9325662,nan,2,0,0,0
311381331,311380816,36.66371308821787,126.34111009095142,49.823254,65.126785,-0.0,1.7780612,2.9322922,nan,2,0,0,0
312378924,312378483,36.663568109421746,126.34115129840414,46.67592,62.079453,-0.0,1.7779022,2.9322965,nan,2,0,0,0
313386534,313386026,36.663428625527196,126.34121104757223,43.78164,59.285175,-0.0,1.7779171,2.932105,nan,2,0,0,0
314384177,314383691,36.663295370870955,126.34127866253797,40.66265,56.266186,-0.0,1.7778101,2.9322052,nan,2,0,0,0
315382012,315381356,36.66316412269622,126.34134753140987,37.76936,53.471996,-0.0,1.7777245,2.932347,nan,2,0,0,0
316379494,316379020,36.6630325648895,126.34141418743168,34.84077,50.644707,-0.0,1.7776978,2.9321713,nan,2,0,0,0
317387071,317386562,36.66290189365469,126.3414796637801,32.133522,48.037056,-0.0,1.7778453,2.9320953,nan,2,0,0,0
318384677,318384225,36.662772616692834,126.34153533086989,29.279526,45.28276,-0.0,1.7778519,2.9322386,nan,2,0,0,0
319382327,319381888,36.662636448761155,126.34154936616439,26.625221,42.728256,-0.0,1.7778304,2.9323614,nan,2,0,0,0
320380123,320379551,36.66250000043368,126.34155275465206,24.2274,40.422478,-0.0,1.7777336,2.932153,nan,2,0,0,0
321387529,321387091,36.66237224492086,126.34162654751378,21.567947,37.81668,-0.0,1.7776918,2.9323156,nan,2,0,0,0
322385193,322384753,36.66225218096099,126.34174025375673,20.537512,36.74672,-0.0,1.7777289,2.9321084,nan,2,0,0,0
323382860,323382415,36.66211581776672,126.34184105543775,20.118713,36.23066,-0.0,1.777821,2.9322193,nan,2,0,0,0
324380579,324380076,36.661966062624344,126.34192053414425,20.83466,36.846504,-0.0,1.7778378,2.932339,nan,2,0,0,0
325378611,325377737,36.6618178084006,126.34199330206503,21.598274,37.50982,-0.0,1.7777938,2.9321487,nan,2,0,0,0
326385846,326385276,36.6616726383466,126.34206477625973,21.166151,36.977596,-0.0,1.777878,2.9323907,nan,2,0,0,0
327383841,327382936,36.66153143763554,126.34213819565231,20.644787,36.356133,-0.0,1.7777616,2.9322119,nan,2,0,0,0
328381328,328380597,36.66138859380309,126.34221543860944,20.256023,35.86887,-0.0,1.7777427,2.9323492,nan,2,0,0,0
329379106,329378257,36.6612430184397,126.34229531964128,20.68486,36.19599,-0.0,1.7777016,2.9324784,nan,2,0,0,0
330386346,330385795,36.66109719814038,126.34237642678173,21.143494,36.55524,-0.0,1.7778115,2.9323502,nan,2,0,0,0
331384454,331383455,36.66095713766553,126.3424555666742,21.92099,37.232338,-0.0,1.7777112,2.9324737,nan,2,0,0,0
332381808,332381114,36.66082110801923,126.34253074692108,21.934101,37.145447,-0.0,1.7776154,2.9322712,nan,2,0,0,0
333379392,333378773,36.66068850804267,126.342603385463,21.456837,36.567986,-0.0,1.7774749,2.9324045,nan,2,0,0,0
334386905,334386311,36.66055478504074,126.34267840376368,20.53741,35.553665,-0.0,1.777578,2.932305,nan,2,0,0,0
335384546,335383969,36.660418456571676,126.34275544687844,19.811691,34.754494,-0.0,1.7775009,2.9324453,nan,2,0,0,0
336382064,336381628,36.66027353386526,126.34283602628825,20.319298,35.181084,-0.0,1.7774997,2.932259,nan,2,0,0,0
337379819,337379286,36.660124051034636,126.34292518297453,21.319305,36.09533,-0.0,1.777418,2.932398,nan,2,0,0,0
338387476,338386822,36.659984628908944,126.34305426745047,23.205204,37.898563,-0.0,1.7774516,2.9322886,nan,2,0,0,0
339384961,339384484,36.659871550345805,126.34322625928854,25.94827,40.543045,-0.0,1.7774374,2.9324105,nan,2,0,0,0
340382688,340382138,36.659797903554384,126.34343037175975,28.986828,43.480705,-0.0,1.7774972,2.932218,nan,2,0,0,0
341380424,341379796,36.65976949613275,126.34364905076326,32.35629,46.751064,-0.0,1.7776285,2.9323661,nan,2,0,0,0
342387838,342387331,36.65978900751366,126.34386594408353,35.129486,49.424263,-0.0,1.7779158,2.9322886,nan,2,0,0,0
343385429,343384989,36.65985252474967,126.34406316458188,37.621765,51.81584,-0.0,1.7777541,2.932456,nan,2,0,0,0
344383135,344382646,36.65995224348338,126.34423456346374,39.895264,53.98954,-0.0,1.777369,2.932621,nan,2,0,0,0
345380769,345380303,36.66008311442708,126.34436671122026,42.19653,56.190304,-0.0,1.7768484,2.932434,nan,2,0,0,0
346378409,346377959,36.66023649981693,126.34445569069489,44.432007,58.33155,-0.0,1.7763944,2.9325826,nan,2,0,0,0
347385939,347385494,36.660402830401566,126.34449102047927,47.161278,60.984207,-0.0,1.7762135,2.932481,nan,2,0,0,0
348383583,348383150,36.660568173403696,126.34447826931621,49.802105,63.585163,-0.0,1.7759931,2.9326112,nan,2,0,0,0
349381251,349380806,36.660725895081605,126.34441664449015,52.401016,66.164764,-0.0,1.7758088,2.9327197,nan,2,0,0,0
350378949,350378462,36.660865613779876,126.34430800796868,54.62434,68.40465,-0.0,1.7756528,2.9324906,nan,2,0,0,0
351386677,351385995,36.66098204265004,126.34416018840145,56.120586,69.95564,-0.0,1.775609,2.9323637,nan,2,0,0,0
352384188,352383650,36.66106419188682,126.34398112410406,56.638622,70.565094,-0.0,1.7754434,2.9325066,nan,2,0,0,0
353381777,353381305,36.66110845881555,126.3437780554856,56.89024,70.91821,-0.0,1.7751945,2.9326358,nan,2,0,0,0
354379667,354378960,36.6611095914663,126.3435632169699,57.051624,71.176994,-0.0,1.7750723,2.932422,nan,2,0,0,0
355386931,355386492,36.66106557299333,126.34335024511284,57.542133,71.76851,-0.0,1.7751532,2.932639,nan,2,0,0,0
356384591,356384146,36.66097875933328,126.3431571682078,57.65069,71.97706,-0.0,1.7751701,2.9324431,nan,2,0,0,0
357382285,357381800,36.660850286293936,126.34299707103,57.68854,72.114914,-0.0,1.775264,2.9325683,nan,2,0,0,0
358379930,358379453,36.66068692341754,126.34288531689339,57.85197,72.37898,-0.0,1.7752643,2.9327004,nan,2,0,0,0
359387424,359386984,36.660500248460686,126.34283333627323,58.17141,72.798485,-0.0,1.7751988,2.9326005,nan,2,0,0,0
360385133,360384637,36.66031104023603,126.34284966286074,59.12039,73.847664,-0.0,1.7749457,2.9327438,nan,2,0,0,0
361382937,361382290,36.660134209254494,126.34292613813938,59.42862,74.25559,-0.0,1.7746204,2.9325366,nan,2,0,0,0
362380381,362379942,36.65998558216829,126.34305973489626,59.71582,74.64279,-0.0,1.7744375,2.9326677,nan,2,0,0,0
363387971,363387472,36.659873653065546,126.34323874040855,60.25794,75.28581,-0.0,1.7746357,2.9325259,nan,2,0,0,0
364385723,364385124,36.65980201274044,126.34343914076429,60.007187,75.13456,-0.0,1.7748288,2.9326339,nan,2,0,0,0
365383419,365382775,36.65977935302293,126.3436508062439,59.51784,74.74581,-0.0,1.7750181,2.9324138,nan,2,0,0,0
366380891,366380427,36.65979850017742,126.34386046671149,58.654217,73.98099,-0.0,1.7751219,2.9325292,nan,2,0,0,0
367378719,367378078,36.65985914559443,126.34405190916542,58.006855,73.432625,-0.0,1.7750663,2.9326363,nan,2,0,0,0
368386051,368385606,36.659955658633685,126.3442186627397,57.523544,73.05102,-0.0,1.7750158,2.932517,nan,2,0,0,0
369384100,369383256,36.66007791835175,126.34434875865358,57.704506,73.331474,-0.0,1.774783,2.9323158,nan,2,0,0,0
370381342,370380906,36.66022078899175,126.34443552487903,58.58931,74.31578,-0.0,1.77472,2.9324608,nan,2,0,0,0
371379161,371378556,36.660372780564856,126.3444846335312,58.554214,74.381485,-0.0,1.7746239,2.9322681,nan,2,0,0,0
372386520,372386083,36.66052926074835,126.34448407742389,58.6774,74.603874,-0.0,1.7747784,2.9324944,nan,2,0,0,0
373384428,373383733,36.66067998394661,126.34443803128026,58.55414,74.580505,-0.0,1.7747984,2.9325905,nan,2,0,0,0
374382151,374381382,36.66081976023547,126.34435048067186,58.458675,74.58575,-0.0,1.7748938,2.9326966,nan,2,0,0,0
375379577,375379030,36.66094006337352,126.34422369537404,58.113995,74.341866,-0.0,1.7750081,2.9327772,nan,2,0,0,0
376387448,376386557,36.66103423984112,126.34406093323614,57.960827,74.2874,-0.0,1.7752094,2.9326196,nan,2,0,0,0
377385184,377384205,36.66109274410123,126.34387308700644,57.98519,74.41247,-0.0,1.7751025,2.9323897,nan,2,0,0,0
378382659,378381853,36.66111431242941,126.34367012399953,58.01909,74.54343,-0.0,1.7749482,2.932509,nan,2,0,0,0
379380116,379379501,36.66109409821814,126.34346333849588,58.09786,74.70679,-0.0,1.7748542,2.932642,nan,2,0,0,0
380387891,380387026,36.66103155508403,126.34326277441947,58.23012,74.91214,-0.0,1.7750392,2.9325426,nan,2,0,0,0
381385316,381384674,36.660928662769344,126.34308510635,58.42808,75.181274,-0.0,1.7751523,2.9326813,nan,2,0,0,0
382382896,382382321,36.66078824668092,126.34294374779066,58.172012,74.99222,-0.0,1.775331,2.9324923,nan,2,0,0,0
383380499,383379967,36.66061677959172,126.34285733561002,58.25562,75.142,-0.0,1.7753983,2.9326375,nan,2,0,0,0
384388182,384387492,36.66043847939769,126.3428257878552,58.655907,75.630226,-0.0,1.7753483,2.9325397,nan,2,0,0,0
385385670,385385138,36.66029104384951,126.34277779319753,58.698082,75.772,-0.0,1.7751491,2.9322507,nan,2,0,0,0
386383309,386382784,36.660218529808844,126.3426630446067,58.6228,75.79658,-0.0,1.7758021,2.932345,nan,2,0,0,0
387380902,387380430,36.66022525076438,126.34255086066412,58.2667,75.54097,-0.0,1.7761114,2.9324021,nan,2,0,0,0
388378519,388378076,36.660246872163405,126.3424834598823,57.738018,75.112434,-0.0,1.7763504,2.9324777,nan,2,0,0,0
389386075,389385599,36.66024579897801,126.34246835550962,54.82615,72.30027,-0.0,1.7767426,2.9322593,nan,2,0,0,0
390383937,390383244,36.66023416530174,126.34245876381958,51.339794,68.914215,-0.0,1.7766311,2.931987,nan,2,0,0,0
391381401,391380889,36.66023469405678,126.34245172228674,48.45989,66.134705,-0.0,1.7767113,2.9313767,nan,2,0,0,0
392379015,392378535,36.66024671751183,126.342454775796,46.3889,64.16345,-0.0,1.7771351,2.9312093,nan,2,0,0,0
393386570,393386058,36.66027035758924,126.34244914262588,46.435276,64.30963,-0.0,1.7772408,2.9307911,nan,2,0,0,0
394384247,394383705,36.6603024231488,126.34243251591111,48.002552,65.97727,-0.0,1.7771304,2.93078,nan,2,0,0,0
395381822,395381348,36.660335631829824,126.34241578603667,50.35048,68.4254,-0.0,1.7770628,2.9306607,nan,2,0,0,0
396379495,396378993,36.660369944204824,126.34240201119724,53.14294,71.317276,-0.0,1.7771093,2.930968,nan,2,0,0,0
397387003,397386516,36.660405206830085,126.34238858491425,55.963722,74.237946,-0.0,1.7773321,2.9311357,nan,2,0,0,0
398384643,398384162,36.66043717370482,126.3423758948214,57.892372,76.26689,-0.0,1.7774465,2.9315312,nan,2,0,0,0
399382341,399381807,36.66046993910245,126.34236630275775,58.56725,77.04115,-0.0,1.7776065,2.9315948,nan,2,0,0,0
400379933,400379453,36.66050305107559,126.34235505472137,58.835506,77.40987,-0.0,1.7778472,2.9319077,nan,2,0,0,0
401387467,401386976,36.66053678639836,126.34234246735112,58.998524,77.672935,-0.0,1.7782553,2.9322631,nan,2,0,0,0
402385157,402384622,36.660571233581805,126.34232815213662,59.073334,77.84685,-0.0,1.7784837,2.9321618,nan,2,0,0,0
403382795,403382268,36.66060624536817,126.34231401351404,59.145367,78.019485,-0.0,1.778618,2.9323614,nan,2,0,0,0
404380442,404379915,36.66064153022902,126.34230014253146,59.18754,78.16165,-0.0,1.7787595,2.9322066,nan,2,0,0,0
405387909,405387439,36.660675922065074,126.34228669863882,59.297703,78.371414,-0.0,1.7789761,2.9324627,nan,2,0,0,0
406385555,406385086,36.66070968944991,126.34227343856263,59.37252,78.54633,-0.0,1.7789657,2.9322834,nan,2,0,0,0
407383245,407382733,36.66073650033958,126.34226306859347,59.512707,78.78682,-0.0,1.7788959,2.932432,nan,2,0,0,0
408381059,408380380,36.66075178563607,126.34225630343268,59.541584,78.91589,-0.0,1.7788007,2.9322438,nan,2,0,0,0
409378500,409378028,36.660761032920014,126.34224985476487,59.511913,78.98613,-0.0,1.7786757,2.9323864,nan,2,0,0,0
410386125,410385554,36.66075819726491,126.34223507417978,59.483955,79.058075,-0.0,1.7786932,2.9322865,nan,2,0,0,0
411383751,411383202,36.66074709417532,126.34219890482136,59.538353,79.21307,-0.0,1.7785268,2.9324265,nan,2,0,0,0
412381386,412380851,36.660737058715874,126.34216247288009,59.641567,79.408195,-0.0,1.7784315,2.9322362,nan,2,0,0,0
413378970,413378500,36.66073143988376,126.34213807627846,59.57536,79.43191,-0.0,1.7783248,2.9323683,nan,2,0,0,0
414386515,414386028,36.66072927866159,126.34212311374452,59.517647,79.470215,-0.0,1.7783979,2.9322667,nan,2,0,0,0
415384193,415383681,36.660727697967495,126.34211262641537,59.479786,79.532555,-0.0,1.7782618,2.9324002,nan,2,0,0,0
416381943,416381329,36.660720595728,126.34208177076263,59.50592,79.658585,-0.0,1.7781489,2.9325294,nan,2,0,0,0
417379453,417378980,36.660711890377385,126.3420475762742,59.60443,79.8559,-0.0,1.7780614,2.9323244,nan,2,0,0,0
418386988,418386509,36.660706182205544,126.34203279222642,59.542408,79.89297,-0.0,1.7781056,2.932539,nan,2,0,0,0
419384693,419384161,36.66070479162994,126.34202780032392,59.50113,79.95219,-0.0,1.7779814,2.932337,nan,2,0,0,0
420382349,420381813,36.66070481951242,126.34202670182964,59.46321,80.01477,-0.0,1.7778895,2.9324737,nan,2,0,0,0
421380805,421379466,36.66070479850838,126.34202768090641,58.792744,79.4443,-0.0,1.7778169,2.9322774,nan,2,0,0,0
422387501,422386998,36.660703698045005,126.34202950669597,57.948326,78.69978,-0.0,1.7779803,2.9325142,nan,2,0,0,0
423385580,423384652,36.66070431527709,126.34202876336404,56.883015,77.734665,-0.0,1.7779766,2.9323275,nan,2,0,0,0
424382897,424382306,36.660705282314325,126.34202754748692,55.784893,76.73592,-0.0,1.7779624,2.9324822,nan,2,0,0,0
425380953,425379961,36.66070614238424,126.34202704043406,54.791046,75.831825,-0.0,1.7779988,2.9323,nan,2,0,0,0
426388283,426387495,36.660705766377575,126.34202726308548,53.768307,74.8782,-0.0,1.7781874,2.9322078,nan,2,0,0,0
427386097,427385151,36.66070512538827,126.34202710531578,52.735405,73.89381,-0.0,1.778188,2.9323528,nan,2,0,0,0
428383404,428382808,36.66070496596645,126.3420273141938,51.709766,72.89552,-0.0,1.7781417,2.932487,nan,2,0,0,0
429381605,429380465,36.66070457272942,126.34202805670347,50.746834,71.94324,-0.0,1.7781334,2.9323008,nan,2,0,0,0
430378726,430378123,36.66070336729699,126.34202841933329,49.86217,71.06234,-0.0,1.7781323,2.9324393,nan,2,0,0,0
431386457,431385662,36.66070289566983,126.3420290204964,48.937847,70.13257,-0.0,1.7782543,2.9323397,nan,2,0,0,0
432383894,432383319,36.66070367588306,126.34202920907983,47.905693,69.07826,-0.0,1.7782538,2.9324794,nan,2,0,0,0
433381746,433380979,36.6607042425304,126.34202945684494,46.919693,68.05685,-0.0,1.7781996,2.9325812,nan,2,0,0,0
434379289,434378639,36.66070413623203,126.34202927306534,45.94026,67.02989,-0.0,1.7781761,2.9323564,nan,2,0,0,0
435386796,435386178,36.66070411814396,126.34202880387399,44.883522,65.914474,-0.0,1.7783484,2.932565,nan,2,0,0,0
436384385,436383840,36.660703826711114,126.34202859184099,43.900528,64.86313,-0.0,1.7783729,2.9323614,nan,2,0,0,0
437382081,437381502,36.66070357042512,126.3420272898252,42.911655,63.792656,-0.0,1.7783512,2.9324913,nan,2,0,0,0
438379691,438379165,36.66070473379789,126.34202680334252,41.87018,62.659668,-0.0,1.7783831,2.932298,nan,2,0,0,0
439387356,439386706,36.660705482277734,126.34202738481875,40.890194,61.584892,-0.0,1.7785257,2.9325228,nan,2,0,0,0
440384851,440384371,36.66070546566487,126.34202760543843,39.905437,60.501545,-0.0,1.7785385,2.932331,nan,2,0,0,0
441382518,441382036,36.66070448257218,126.34202729127452,38.964264,59.46035,-0.0,1.7785361,2.9324687,nan,2,0,0,0
442380174,442379701,36.660704001725165,126.34202783552253,38.024612,58.421097,-0.0,1.7785137,2.932273,nan,2,0,0,0
443387724,443387246,36.660704087122404,126.34202883450527,37.03512,57.331524,-0.0,1.7786859,2.9325035,nan,2,0,0,0
444385424,444384913,36.6607037754488,126.34202905241362,36.03298,56.22879,-0.0,1.7786222,2.9326272,nan,2,0,0,0
445383055,445382581,36.66070346507884,126.34202945691213,35.09285,55.190456,-0.0,1.7786337,2.9324093,nan,2,0,0,0
446380786,446380249,36.66070354683956,126.34202939450125,34.142223,54.139183,-0.0,1.7786744,2.9325228,nan,2,0,0,0
447388274,447387796,36.660703307380906,126.34202944666765,33.15844,53.055992,-0.0,1.7788421,2.9323921,nan,2,0,0,0
448385969,448385465,36.66070392458727,126.34202882414483,32.1545,51.952293,-0.0,1.778899,2.932514,nan,2,0,0,0
449383659,449383136,36.660704632431084,126.34202717239457,31.130957,50.829865,-0.0,1.7789168,2.9323118,nan,2,0,0,0
450381283,450380807,36.66070434848557,126.34202618491229,30.122934,49.726944,-0.0,1.7788719,2.9324417,nan,2,0,0,0
451378982,451378479,36.660704885672324,126.34202698985047,29.109497,48.624725,-0.0,1.7788106,2.9322588,nan,2,0,0,0
452386618,452386030,36.66070489354569,126.34202798145837,28.123135,47.557373,-0.0,1.77887,2.9325137,nan,2,0,0,0
453384214,453383703,36.66070438001325,126.34202845337846,27.19622,46.558388,-0.0,1.77879,2.9323354,nan,2,0,0,0
454381873,454381377,36.6607030133493,126.34202784807081,26.240192,45.531742,-0.0,1.7787083,2.9324906,nan,2,0,0,0
455379520,455379052,36.66070289278809,126.3420287586398,25.371239,44.59471,-0.0,1.7786329,2.9323075,nan,2,0,0,0
456387187,456386605,36.66070398993241,126.34202979042846,24.345074,43.49014,-0.0,1.7787185,2.932216,nan,2,0,0,0
457384830,457384281,36.660704586331946,126.34202917570077,23.311073,42.368713,-0.0,1.7786412,2.9323587,nan,2,0,0,0
458382467,458381958,36.660704224785384,126.34202866733061,22.315796,41.286736,-0.0,1.7785671,2.9324892,nan,2,0,0,0
459380187,459379636,36.660703921774115,126.34202789310451,21.308147,40.18979,-0.0,1.7784642,2.9322846,nan,2,0,0,0
460387676,460387192,36.66070347191432,126.34202769635176,20.35138,39.145584,-0.0,1.778557,2.9325023,nan,2,0,0,0
461385346,461384871,36.660704231174925,126.34202783524924,19.319838,38.016693,-0.0,1.7784863,2.9326286,nan,2,0,0,0
462383060,462382551,36.66070442354805,126.34202819348008,18.280533,36.87799,-0.0,1.7784202,2.9324145,nan,2,0,0,0
463380712,463380231,36.66070492613681,126.34202922103958,17.27576,35.77322,-0.0,1.7783605,2.932539,nan,2,0,0,0
464388321,464387790,36.660705009492794,126.34203014186043,16.324757,34.725937,-0.0,1.7784156,2.9324198,nan,2,0,0,0
465386048,465385472,36.660703405411425,126.3420292802601,15.365441,33.673855,-0.0,1.7783346,2.9325516,nan,2,0,0,0
466383627,466383154,36.66070284692044,126.34202898132929,14.4162445,32.632736,-0.0,1.7783146,2.932356,nan,2,0,0,0
467381311,467380838,36.660703518107944,126.3420294601637,13.431376,31.563034,-0.0,1.778291,2.9324882,nan,2,0,0,0
468388875,468388400,36.66070348039662,126.34202869339963,12.434528,30.482588,-0.0,1.7784657,2.9323902,nan,2,0,0,0
469386583,469386084,36.66070424717883,126.34202720526974,11.445795,29.410568,-0.0,1.7784421,2.9325242,nan,2,0,0,0
470384844,470383770,36.660704355844345,126.34202718225619,10.455709,28.34147,-0.0,1.7783916,2.9323235,nan,2,0,0,0
471382084,471381456,36.66070432393943,126.34202794022715,9.478296,27.28539,-0.0,1.7783681,2.9324603,nan,2,0,0,0
472380132,472379143,36.66070395157776,126.34202717798962,8.623109,26.35896,-0.0,1.7782735,2.932262,nan,2,0,0,0
473387303,473386708,36.66070260614089,126.34202663489609,8.516636,26.190031,-0.0,1.7783142,2.9323654,nan,2,0,0,0
474385371,474384396,36.66070197594096,126.3420266326997,8.5231495,26.150377,-0.0,1.7781965,2.931888,8.428574,2,0,1,0
475382669,475382085,36.66070173936404,126.34202660923847,8.505857,26.093561,-0.0,1.7781289,2.9316802,8.399499,2,0,1,0
476380626,476379776,36.66070143625845,126.34202657514719,8.483376,26.039982,-0.0,1.7780614,2.9315233,8.378461,2,0,1,0
477387973,477387344,36.66070076836434,126.3420263394054,8.479015,26.01479,-0.0,1.7781287,2.9312778,8.372633,2,0,1,0
478385896,478385035,36.660700419030874,126.34202608460858,8.46446,25.993977,-0.0,1.7779576,2.9314075,8.357376,2,0,1,0
479383260,479382727,36.660699984017185,126.3420259094825,8.4589,25.996191,-0.0,1.7777498,2.9313388,8.351521,2,0,1,0
480381022,480380419,36.66069930993078,126.34202560869473,8.47014,26.026024,-0.0,1.7775127,2.93164,8.351521,2,0,1,0
481388486,481387991,36.660698546527655,126.34202516403153,8.473873,26.056265,-0.0,1.7773436,2.9317188,nan,2,0,0,0
482386259,482385685,36.66069781890611,126.34202479946872,8.463676,26.076887,-0.0,1.7770444,2.9320297,nan,2,0,0,0
483384025,483383380,36.660697242044016,126.34202437954309,8.447642,26.098263,-0.0,1.7767336,2.9319887,nan,2,0,0,0
484381555,484381077,36.66069690927196,126.34202422507241,8.462237,26.154625,-0.0,1.7764146,2.9322243,nan,2,0,0,0
485379264,485378772,36.66069671684734,126.34202370344144,8.450259,26.187279,-0.0,1.7762603,2.9321153,nan,2,0,0,0
486376995,486376469,36.660694187325326,126.3420252151262,8.863446,26.640862,-0.0,1.7763453,2.9323637,nan,2,0,0,0
487384524,487384045,36.66068569750428,126.34202698018214,9.457558,27.269438,-0.0,1.7785591,2.9331388,nan,2,0,0,0
488382312,488381744,36.66067207930131,126.3420260173099,9.523576,27.385529,-0.0,1.779523,2.9335153,nan,2,0,0,0
489379929,489379443,36.66065797894325,126.3420233237248,9.493732,27.424858,-0.0,1.7789425,2.9327626,nan,2,0,0,0
490377643,490377146,36.66064461874997,126.3420210931128,9.52553,27.534359,-0.0,1.7786947,2.9324226,nan,2,0,0,0
491385236,491384721,36.66063223947287,126.34201771300918,9.524302,27.611393,-0.0,1.7788278,2.9319499,nan,2,0,0,0
492382924,492382423,36.660621850687185,126.34201472615409,9.457596,27.6141,-0.0,1.7790303,2.9318497,nan,2,0,0,0
493380602,493380125,36.66061337435224,126.34201168377146,9.379607,27.600395,-0.0,1.7793756,2.931884,nan,2,0,0,0
494378305,494377828,36.66060649018515,126.34201020497979,9.317448,27.6073,-0.0,1.7797801,2.9319735,nan,2,0,0,0
495385903,495385409,36.660600336264594,126.34200887411077,9.338339,27.697712,-0.0,1.7804501,2.9319217,nan,2,0,0,0
496383668,496383114,36.66059803532996,126.34200994862884,9.364773,27.797789,-0.0,1.781026,2.932137,9.2836,2,0,1,0
497381312,497380818,36.66059687855737,126.34200988029963,9.37446,27.881224,-0.0,1.7815504,2.9323328,9.276586,2,0,1,0
498379062,498378524,36.66059498910462,126.34201236839385,9.339336,27.9136,-0.0,1.7827921,2.9325118,9.281494,2,0,1,0
499386582,499386109,36.660594278719024,126.34201336332893,8.94112,27.575752,-0.0,1.7884899,2.9342914,8.907472,2,0,1,0
500384338,500383816,36.660592969202604,126.34201353192395,8.378186,27.082287,-0.0,1.7945879,2.935658,8.276816,2,0,1,0
501382018,501381523,36.66059241166471,126.3420136291876,8.344456,27.114216,-0.0,1.795334,2.9352386,8.235558,2,0,1,0
502379729,502379232,36.66059180720327,126.34201437594152,8.372963,27.210962,-0.0,1.7922304,2.9342585,8.235558,2,0,1,0
503387314,503386819,36.66059153281006,126.34201484709317,8.382906,27.27741,-0.0,1.7906452,2.9332511,nan,2,0,0,0
504385045,504384529,36.66059095408908,126.34201523414664,8.430547,27.375553,-0.0,1.7901585,2.9329708,nan,2,0,0,0
505382801,505382239,36.66059036850677,126.34201519532182,8.444422,27.432217,-0.0,1.7918706,2.933074,nan,2,0,0,0
506380426,506379951,36.66059022408435,126.34201532735419,8.45393,27.48545,-0.0,1.7928578,2.9335122,nan,2,0,0,0
507378143,507377663,36.66058953035847,126.34201427343572,8.453653,27.527113,-0.0,1.791985,2.933451,nan,2,0,0,0
508385718,508385254,36.660589622159115,126.34201395061037,8.414043,27.52264,-0.0,1.7933377,2.9337962,8.299248,2,0,1,0
509383509,509382967,36.6605888912131,126.34201402547396,8.362851,27.500729,-0.0,1.7946501,2.93446,8.28635,2,0,1,0
510381150,510380681,36.660589690089246,126.3420155926365,8.472643,27.644108,-0.0,1.8006252,2.9366512,8.388088,2,0,1,0
