timestamp,timestamp_sample,windspeed_north,windspeed_east,variance_north,variance_east,tas_innov,tas_innov_var,tas_scale_raw,tas_scale_raw_var,tas_scale_validated,beta_innov,beta_innov_var,source
218383851,0,0.0,0.0,0.0,0.0,nan,nan,nan,nan,nan,0.0,0.0,0
219383852,0,0.0,0.0,0.0,0.0,nan,nan,nan,nan,nan,0.0,0.0,0
220383852,0,0.0,0.0,0.0,0.0,nan,nan,nan,nan,nan,0.0,0.0,0
221383851,0,0.0,0.0,0.0,0.0,nan,nan,nan,nan,nan,0.0,0.0,0
222383859,0,0.0,0.0,0.0,0.0,nan,nan,nan,nan,nan,0.0,0.0,0
223383900,0,0.0,0.0,0.0,0.0,nan,nan,nan,nan,nan,0.0,0.0,0
224383861,0,0.0,0.0,0.0,0.0,nan,nan,nan,nan,nan,0.0,0.0,0
225383851,0,0.0,0.0,0.0,0.0,nan,nan,nan,nan,nan,0.0,0.0,0
226383851,0,0.0,0.0,0.0,0.0,nan,nan,nan,nan,nan,0.0,0.0,0
227383850,0,0.0,0.0,0.0,0.0,nan,nan,nan,nan,nan,0.0,0.0,0
228383851,0,0.0,0.0,0.0,0.0,nan,nan,nan,nan,nan,0.0,0.0,0
229383852,0,0.0,0.0,0.0,0.0,nan,nan,nan,nan,nan,0.0,0.0,0
230383851,0,0.0,0.0,0.0,0.0,nan,nan,nan,nan,nan,0.0,0.0,0
231383862,0,0.0,0.0,0.0,0.0,nan,nan,nan,nan,nan,0.0,0.0,0
232383852,0,0.0,0.0,0.0,0.0,nan,nan,nan,nan,nan,0.0,0.0,0
233383851,0,0.0,0.0,0.0,0.0,nan,nan,nan,nan,nan,0.0,0.0,0
234383852,0,0.0,0.0,0.0,0.0,nan,nan,nan,nan,nan,0.0,0.0,0
235383851,0,0.0,0.0,0.0,0.0,nan,nan,nan,nan,nan,0.0,0.0,0
236383850,0,0.0,0.0,0.0,0.0,nan,nan,nan,nan,nan,0.0,0.0,0
237383851,0,0.0,0.0,0.0,0.0,nan,nan,nan,nan,nan,0.0,0.0,0
238383851,0,0.0,0.0,0.0,0.0,nan,nan,nan,nan,nan,0.0,0.0,0
239383850,0,0.0,0.0,0.0,0.0,nan,nan,nan,nan,nan,0.0,0.0,0
240383851,0,0.0,0.0,0.0,0.0,nan,nan,nan,nan,nan,0.0,0.0,0
241383851,0,0.0,0.0,0.0,0.0,nan,nan,nan,nan,nan,0.0,0.0,0
242383851,0,0.0,0.0,0.0,0.0,nan,nan,nan,nan,nan,0.0,0.0,0
243383850,0,0.0,0.0,0.0,0.0,nan,nan,nan,nan,nan,0.0,0.0,0
244383861,0,0.0,0.0,0.0,0.0,nan,nan,nan,nan,nan,0.0,0.0,0
245383851,0,0.0,0.0,0.0,0.0,nan,nan,nan,nan,nan,0.0,0.0,0
246383852,0,0.0,0.0,0.0,0.0,nan,nan,nan,nan,nan,0.0,0.0,0
247383851,0,0.0,0.0,0.0,0.0,nan,nan,nan,nan,nan,0.0,0.0,0
248383851,0,0.0,0.0,0.0,0.0,nan,nan,nan,nan,nan,0.0,0.0,0
249383851,0,0.0,0.0,0.0,0.0,nan,nan,nan,nan,nan,0.0,0.0,0
250383851,0,0.0,0.0,0.0,0.0,nan,nan,nan,nan,nan,0.0,0.0,0
251383931,0,0.0,0.0,0.0,0.0,nan,nan,nan,nan,nan,0.0,0.0,0
252383851,0,0.0,0.0,0.0,0.0,nan,nan,nan,nan,nan,0.0,0.0,0
253383851,0,0.0,0.0,0.0,0.0,nan,nan,nan,nan,nan,0.0,0.0,0
254383851,0,0.0,0.0,0.0,0.0,nan,nan,nan,nan,nan,0.0,0.0,0
255383851,0,0.0,0.0,0.0,0.0,nan,nan,nan,nan,nan,0.0,0.0,0
256383851,0,0.0,0.0,0.0,0.0,nan,nan,nan,nan,nan,0.0,0.0,0
257383851,0,0.0,0.0,0.0,0.0,nan,nan,nan,nan,nan,0.0,0.0,0
258383850,0,0.0,0.0,0.0,0.0,nan,nan,nan,nan,nan,0.0,0.0,0
259383851,0,0.0,0.0,0.0,0.0,nan,nan,nan,nan,nan,0.0,0.0,0
260383851,0,0.0,0.0,0.0,0.0,nan,nan,nan,nan,nan,0.0,0.0,0
261383851,0,0.0,0.0,0.0,0.0,nan,nan,nan,nan,nan,0.0,0.0,0
262383851,0,0.0,0.0,0.0,0.0,nan,nan,nan,nan,nan,0.0,0.0,0
263383852,0,0.0,0.0,0.0,0.0,nan,nan,nan,nan,nan,0.0,0.0,0
264383869,0,0.0,0.0,0.0,0.0,nan,nan,nan,nan,nan,0.0,0.0,0
265383864,0,0.0,0.0,0.0,0.0,nan,nan,nan,nan,nan,0.0,0.0,0
266383851,0,0.0,0.0,0.0,0.0,nan,nan,nan,nan,nan,0.0,0.0,0
267383852,0,0.0,0.0,0.0,0.0,nan,nan,nan,nan,nan,0.0,0.0,0
268383850,0,0.0,0.0,0.0,0.0,nan,nan,nan,nan,nan,0.0,0.0,0
269383850,0,0.15722494,-0.1124983,0.2041832,0.25415134,nan,nan,nan,nan,nan,0.0149006415,0.09078872,0
270383851,0,0.21045597,-0.15235333,0.20609249,0.2588108,nan,nan,nan,nan,nan,0.09069645,0.090436816,0
271383851,0,0.17580001,-0.13691698,0.21076924,0.26935744,nan,nan,nan,nan,nan,-0.048298202,0.09055375,0
272383851,0,0.12598976,-0.110379875,0.21303418,0.27721733,nan,nan,nan,nan,nan,-0.08843651,0.09059218,0
273383851,0,0.0692559,-0.076771826,0.2132595,0.28378776,nan,nan,nan,nan,nan,-0.057521027,0.09062248,0
274383881,0,0.020463992,-0.047852404,0.21375567,0.29044574,nan,nan,nan,nan,nan,-0.05700185,0.0906041,0
275383852,0,-0.019234257,-0.025673538,0.21561976,0.29936862,nan,nan,nan,nan,nan,-0.029843634,0.09055337,0
276383896,0,-0.034196295,-0.010157888,0.22079618,0.30591872,nan,nan,nan,nan,nan,-0.07314146,0.09031354,0
277383850,0,-0.071249895,0.09354563,0.23178382,0.3110193,nan,nan,nan,nan,nan,-0.16364004,0.09036829,0
278383851,0,-0.0128113255,0.2590744,0.2403076,0.3125914,nan,nan,nan,nan,nan,-0.16371468,0.09031363,0
279383851,0,0.066025235,0.28359133,0.24796778,0.32384658,nan,nan,nan,nan,nan,-0.14154415,0.09028259,0
280383881,0,0.096615665,0.2739376,0.25097543,0.33262455,nan,nan,nan,nan,nan,-0.00022399912,0.09049941,0
281383852,0,0.060988203,0.27111945,0.24402285,0.33249214,nan,nan,nan,nan,nan,0.11644283,0.09041754,0
282383851,0,0.0020060814,0.25078383,0.24872407,0.34367883,nan,nan,nan,nan,nan,0.109325744,0.09047345,0
283383851,0,-0.10417842,0.17478155,0.24773136,0.347828,nan,nan,nan,nan,nan,0.088636234,0.09065666,0
284383850,0,-0.18591517,0.093644954,0.25119004,0.3514503,nan,nan,nan,nan,nan,0.10838971,0.090812206,0
285383852,0,-0.30220115,-0.04054615,0.24860585,0.34472772,nan,nan,nan,nan,nan,0.10525862,0.09086572,0
286383850,0,-0.38897812,-0.14339766,0.24894676,0.34114966,nan,nan,nan,nan,nan,0.08176619,0.090867676,0
287383851,0,-0.45321143,-0.21866947,0.24698302,0.33470112,nan,nan,nan,nan,nan,0.072138,0.09084919,0
288383851,0,-0.49083945,-0.26245576,0.24914277,0.3340885,nan,nan,nan,nan,nan,0.037599284,0.09084345,0
289383851,0,-0.52627796,-0.3033836,0.2499918,0.33188,nan,nan,nan,nan,nan,0.03680049,0.09083136,0
290383851,0,-0.560474,-0.34299052,0.2497126,0.32813823,nan,nan,nan,nan,nan,0.052719977,0.09082052,0
291383851,0,-0.6273283,-0.4261353,0.2489063,0.32151008,nan,nan,nan,nan,nan,0.07691971,0.09086377,0
292383851,0,-0.7169597,-0.54808474,0.24998069,0.31502,nan,nan,nan,nan,nan,0.093550354,0.09089802,0
293383852,0,-0.7741039,-0.6297708,0.25084704,0.30632913,nan,nan,nan,nan,nan,0.04628922,0.09086334,0
294383851,0,-0.8162764,-0.6897223,0.25302613,0.3005087,nan,nan,nan,nan,nan,0.033848315,0.09085381,0
295383852,0,-0.8427985,-0.7265653,0.25625178,0.2953781,nan,nan,nan,nan,nan,0.051333394,0.09085607,0
296383851,0,-0.88578004,-0.78520644,0.2591465,0.29215398,nan,nan,nan,nan,nan,0.057005413,0.0908572,0
297383851,0,-0.91800547,-0.82872397,0.26208806,0.28930214,nan,nan,nan,nan,nan,0.044477984,0.090857916,0
298383851,0,-0.9552237,-0.87836355,0.26389548,0.2847295,nan,nan,nan,nan,nan,0.039128352,0.09086008,0
299383866,0,-0.98006,-0.9112354,0.2646882,0.2786462,nan,nan,nan,nan,nan,0.016136227,0.090853795,0
300383859,0,-1.0079954,-0.9471296,0.26625872,0.27472925,nan,nan,nan,nan,nan,0.05766867,0.090858206,0
301383851,0,-1.0497534,-1.0013279,0.26838717,0.27121538,nan,nan,nan,nan,nan,0.004157072,0.09071058,0
302383852,0,-1.0487639,-1.0137646,0.27664667,0.27240223,nan,nan,nan,nan,nan,0.057771005,0.09030194,0
303383892,0,-1.0380245,-1.0648582,0.28604814,0.27249125,nan,nan,nan,nan,nan,0.044853117,0.09046149,0
304383851,0,-1.0238953,-1.0831481,0.2911485,0.27352646,nan,nan,nan,nan,nan,0.032305583,0.090619236,0
305383851,0,-1.0245811,-1.0833522,0.2979578,0.28117108,nan,nan,nan,nan,nan,-0.03390899,0.09061206,0
306383851,0,-1.0730762,-1.0662452,0.30284223,0.29208368,nan,nan,nan,nan,nan,-0.031385902,0.09029862,0
307383850,0,-1.0499156,-1.0554981,0.30414763,0.30071956,nan,nan,nan,nan,nan,0.047499213,0.09037971,0
308383851,0,-0.9884586,-0.99659216,0.30775082,0.3048274,nan,nan,nan,nan,nan,0.05766281,0.09045357,0
309383851,0,-0.9208505,-0.8511569,0.31561512,0.29951102,nan,nan,nan,nan,nan,0.16109693,0.09094996,0
310383851,0,-0.84692395,-0.65430355,0.3237325,0.2842764,nan,nan,nan,nan,nan,0.086597726,0.09107823,0
311383851,0,-0.82389706,-0.60802835,0.32575855,0.26642144,nan,nan,nan,nan,nan,0.018414697,0.091110714,0
312383850,0,-0.8124737,-0.59015656,0.32849172,0.25791383,nan,nan,nan,nan,nan,-0.017036863,0.09121591,0
313383851,0,-0.871757,-0.6662676,0.32602647,0.24696328,nan,nan,nan,nan,nan,-0.08800334,0.09131513,0
314383875,0,-0.9443737,-0.7544595,0.32494196,0.23964481,nan,nan,nan,nan,nan,-0.07053036,0.09131002,0
315383851,0,-0.96533096,-0.7793891,0.3122153,0.22155593,nan,nan,nan,nan,nan,0.006163368,0.0911965,0
316383851,0,-0.96319944,-0.776883,0.31060758,0.21410032,nan,nan,nan,nan,nan,-0.022279885,0.09116542,0
317383850,0,-0.9343759,-0.74257714,0.30743217,0.20580688,nan,nan,nan,nan,nan,0.057371218,0.09116125,0
318383850,0,-0.96694595,-0.8030478,0.30989587,0.20130442,nan,nan,nan,nan,nan,-0.17175785,0.090780705,0
319383851,0,-0.9390012,-0.70930684,0.31995416,0.19604583,nan,nan,nan,nan,nan,0.2797837,0.091073275,0
320383851,0,-0.8575733,-0.54002273,0.32549596,0.19207497,nan,nan,nan,nan,nan,0.06690694,0.09061957,0
321383864,0,-0.8817223,-0.5550568,0.32068378,0.1934352,nan,nan,nan,nan,nan,-0.11158681,0.091251336,0
322383850,0,-1.0092694,-0.6494975,0.31176597,0.1929197,nan,nan,nan,nan,nan,-0.040118933,0.0909962,0
323383852,0,-0.96893966,-0.61170685,0.3115568,0.19462532,nan,nan,nan,nan,nan,0.08589799,0.09087407,0
324383851,0,-0.92946297,-0.5700182,0.31440616,0.19604689,nan,nan,nan,nan,nan,-0.00050936756,0.0908754,0
325383851,0,-0.88150406,-0.51706564,0.31580096,0.19513074,nan,nan,nan,nan,nan,0.05088995,0.09092634,0
326383851,0,-0.8556392,-0.48865777,0.31563488,0.19247219,nan,nan,nan,nan,nan,0.025825053,0.090965204,0
327383852,0,-0.84788305,-0.48034593,0.31750512,0.1932444,nan,nan,nan,nan,nan,-0.0025121772,0.090960406,0
328383852,0,-0.8403765,-0.472596,0.31951836,0.19453865,nan,nan,nan,nan,nan,0.003103061,0.09092461,0
329383851,0,-0.81502086,-0.44651833,0.3208816,0.19539228,nan,nan,nan,nan,nan,0.027829843,0.09091817,0
330383852,0,-0.78548336,-0.41632333,0.32153237,0.19547033,nan,nan,nan,nan,nan,0.050576143,0.09096471,0
331383850,0,-0.74890244,-0.37911958,0.32582048,0.19948675,nan,nan,nan,nan,nan,0.05306886,0.09104024,0
332383882,0,-0.6823551,-0.31004235,0.32629552,0.19907437,nan,nan,nan,nan,nan,0.08586075,0.09112503,0
333383851,0,-0.6052482,-0.22975957,0.31460992,0.18639798,nan,nan,nan,nan,nan,0.062384993,0.09104489,0
334383861,0,-0.53071684,-0.15269327,0.3135487,0.18442649,nan,nan,nan,nan,nan,0.06675729,0.09099901,0
335383851,0,-0.47034714,-0.08970108,0.3120231,0.1818797,nan,nan,nan,nan,nan,0.06315676,0.090888865,0
336383850,0,-0.40772521,-0.023539627,0.31420568,0.1829096,nan,nan,nan,nan,nan,0.05800057,0.09078764,0
337383850,0,-0.37443152,0.010727776,0.31832296,0.18646021,nan,nan,nan,nan,nan,0.04952546,0.0906884,0
338383850,0,-0.3602544,0.022596234,0.3187292,0.19114394,nan,nan,nan,nan,nan,0.010695559,0.09071246,0
339383851,0,-0.3626375,0.022501985,0.31417006,0.19566432,nan,nan,nan,nan,nan,-0.044310283,0.09066298,0
340383851,0,-0.43532038,-0.010615378,0.3050662,0.20160262,nan,nan,nan,nan,nan,-0.07330828,0.09070956,0
341383851,0,-0.48134738,-0.026119743,0.30398828,0.21226339,nan,nan,nan,nan,nan,-0.042761065,0.090611316,0
342383851,0,-0.5782622,-0.041813646,0.29828298,0.22179228,nan,nan,nan,nan,nan,-0.07410067,0.09058033,0
343383851,0,-0.60654706,-0.04200375,0.29748732,0.23176306,nan,nan,nan,nan,nan,-0.013780503,0.09047788,0
344383851,0,-0.62954634,-0.033909675,0.30266228,0.24310745,nan,nan,nan,nan,nan,-0.04306348,0.09037713,0
345383851,0,-0.6537988,-0.007413074,0.3097742,0.24971046,nan,nan,nan,nan,nan,-0.04575567,0.09036408,0
346383850,0,-0.6606684,0.024519848,0.3194148,0.25467876,nan,nan,nan,nan,nan,-0.050920255,0.09039345,0
347383851,0,-0.6488908,0.0723562,0.32856175,0.25446957,nan,nan,nan,nan,nan,-0.03428927,0.09054172,0
348383851,0,-0.6309043,0.10624524,0.3367086,0.25331667,nan,nan,nan,nan,nan,-0.02669182,0.09065394,0
349383852,0,-0.59746504,0.14840738,0.33824348,0.2497492,nan,nan,nan,nan,nan,-0.041427813,0.09082305,0
350383851,0,-0.5574194,0.18867262,0.33446613,0.24589804,nan,nan,nan,nan,nan,-0.03350964,0.09089258,0
351383851,0,-0.52786046,0.21317545,0.32397228,0.2419675,nan,nan,nan,nan,nan,-0.017723953,0.09091658,0
352383851,0,-0.52235395,0.21718764,0.3116592,0.24156542,nan,nan,nan,nan,nan,-0.0013504251,0.09088489,0
353383887,0,-0.51813185,0.21950148,0.30315807,0.24608819,nan,nan,nan,nan,nan,-0.00027863085,0.090766415,0
354383851,0,-0.521834,0.21788444,0.2957807,0.25311935,nan,nan,nan,nan,nan,-0.0014451756,0.09059525,0
355383849,0,-0.52053505,0.21833338,0.29317835,0.2623373,nan,nan,nan,nan,nan,0.0029433235,0.09044898,0
356383851,0,-0.52741134,0.21899506,0.2967968,0.27226356,nan,nan,nan,nan,nan,0.016344795,0.09031831,0
357383851,0,-0.5419286,0.23119277,0.30433476,0.2808845,nan,nan,nan,nan,nan,0.038992237,0.09026809,0
358383851,0,-0.5438528,0.23148653,0.3162518,0.2888987,nan,nan,nan,nan,nan,-0.020882875,0.09032494,0
359383851,0,-0.5665979,0.17276564,0.32673812,0.28935212,nan,nan,nan,nan,nan,-0.08726798,0.09046521,0
360383851,0,-0.62479854,0.078562535,0.33102596,0.28507015,nan,nan,nan,nan,nan,-0.08288251,0.09065288,0
361383851,0,-0.70737255,-0.0216731,0.33415043,0.28411484,nan,nan,nan,nan,nan,-0.090846285,0.09082361,0
362383852,0,-0.8641297,-0.17410305,0.3248363,0.27582997,nan,nan,nan,nan,nan,-0.11203188,0.091034964,0
363383851,0,-0.9393615,-0.23512726,0.30484065,0.2625489,nan,nan,nan,nan,nan,-0.086288504,0.09087644,0
364383865,0,-1.0995663,-0.34649396,0.29561725,0.26430118,nan,nan,nan,nan,nan,-0.10947952,0.09077256,0
365383851,0,-1.2103217,-0.40570244,0.28719163,0.26910752,nan,nan,nan,nan,nan,-0.06146694,0.09063013,0
366383851,0,-1.270824,-0.42888826,0.28444353,0.27893326,nan,nan,nan,nan,nan,-0.053499877,0.09044383,0
367383851,0,-1.3327123,-0.43433753,0.285247,0.28874052,nan,nan,nan,nan,nan,-0.060081944,0.090335466,0
368383904,0,-1.3653414,-0.42100453,0.2914065,0.29785472,nan,nan,nan,nan,nan,-0.027959445,0.09028427,0
369383856,0,-1.3746381,-0.3875809,0.3007983,0.304715,nan,nan,nan,nan,nan,-0.10819242,0.0903304,0
370383851,0,-1.3635187,-0.32539645,0.31255713,0.31023315,nan,nan,nan,nan,nan,-0.066282615,0.09045857,0
371383851,0,-1.3239213,-0.24374807,0.32194263,0.31093618,nan,nan,nan,nan,nan,-0.09904763,0.09065383,0
372383851,0,-1.2429379,-0.12194557,0.32306874,0.30111772,nan,nan,nan,nan,nan,-0.087205246,0.09090831,0
373383851,0,-1.1833994,-0.04534735,0.32132912,0.29083914,nan,nan,nan,nan,nan,-0.050048918,0.091086574,0
374383866,0,-1.1223692,0.02184703,0.3120808,0.2776599,nan,nan,nan,nan,nan,-0.04317388,0.09116813,0
375383851,0,-1.0860665,0.05748737,0.30551624,0.27187768,nan,nan,nan,nan,nan,-0.02827609,0.09117806,0
376383851,0,-1.042692,0.09548895,0.2920525,0.26427478,nan,nan,nan,nan,nan,-0.03213541,0.09109678,0
377383851,0,-1.0147599,0.117096394,0.27845624,0.26042765,nan,nan,nan,nan,nan,-0.0131434295,0.090942815,0
378383851,0,-0.99465567,0.13024184,0.2673447,0.26113886,nan,nan,nan,nan,nan,-0.019120462,0.090695865,0
379383852,0,-0.9847524,0.13578856,0.2652924,0.2677556,nan,nan,nan,nan,nan,0.00011683424,0.09050045,0
380383898,0,-0.98496366,0.13559608,0.26933807,0.2790844,nan,nan,nan,nan,nan,-0.0020555884,0.0903336,0
381383851,0,-0.9768735,0.13484816,0.2762341,0.28886718,nan,nan,nan,nan,nan,0.009087603,0.090230435,0
382383851,0,-0.97971326,0.14110301,0.28582603,0.2969479,nan,nan,nan,nan,nan,0.006859635,0.090241924,0
383383851,0,-0.9804476,0.1377293,0.2946903,0.29778636,nan,nan,nan,nan,nan,0.004343153,0.09042795,0
384383852,0,-0.9804476,0.1377293,0.30469033,0.30778638,nan,nan,nan,nan,nan,0.004343153,0.09042795,0
385383851,0,-0.9804476,0.1377293,0.3167903,0.31988636,nan,nan,nan,nan,nan,0.004343153,0.09042795,0
386383851,0,-0.9804476,0.1377293,0.3267903,0.32988635,nan,nan,nan,nan,nan,0.004343153,0.09042795,0
387383851,0,-0.9804476,0.1377293,0.3367903,0.33988634,nan,nan,nan,nan,nan,0.004343153,0.09042795,0
388383851,0,-0.9804476,0.1377293,0.3467903,0.34988636,nan,nan,nan,nan,nan,0.004343153,0.09042795,0
389383851,0,-0.9804476,0.1377293,0.3588903,0.36198634,nan,nan,nan,nan,nan,0.004343153,0.09042795,0
390383852,0,-0.9804476,0.1377293,0.36889032,0.37198636,nan,nan,nan,nan,nan,0.004343153,0.09042795,0
391383850,0,-0.9804476,0.1377293,0.36889032,0.37198636,nan,nan,nan,nan,nan,0.004343153,0.09042795,0
392383866,0,-0.9804476,0.1377293,0.3809903,0.38408634,nan,nan,nan,nan,nan,0.004343153,0.09042795,0
393383862,0,-0.9804476,0.1377293,0.3930903,0.39618635,nan,nan,nan,nan,nan,0.004343153,0.09042795,0
394383851,0,-0.9804476,0.1377293,0.40309033,0.40618637,nan,nan,nan,nan,nan,0.004343153,0.09042795,0
395383850,0,-0.9804476,0.1377293,0.4151903,0.41828635,nan,nan,nan,nan,nan,0.004343153,0.09042795,0
396383851,0,-0.9804476,0.1377293,0.42519057,0.4282866,nan,nan,nan,nan,nan,0.004343153,0.09042795,0
397383852,0,-0.9804476,0.1377293,0.43729025,0.4403863,nan,nan,nan,nan,nan,0.004343153,0.09042795,0
398383850,0,-0.9804476,0.1377293,0.44729027,0.45038632,nan,nan,nan,nan,nan,0.004343153,0.09042795,0
399383850,0,-0.9804476,0.1377293,0.45729032,0.46038637,nan,nan,nan,nan,nan,0.004343153,0.09042795,0
400383861,0,-0.9804476,0.1377293,0.4672906,0.47038665,nan,nan,nan,nan,nan,0.004343153,0.09042795,0
401383882,0,-0.9804476,0.1377293,0.4793903,0.48248634,nan,nan,nan,nan,nan,0.004343153,0.09042795,0
402383852,0,-0.9804476,0.1377293,0.48939028,0.49248633,nan,nan,nan,nan,nan,0.004343153,0.09042795,0
403383851,0,-0.9804476,0.1377293,0.5014903,0.50458634,nan,nan,nan,nan,nan,0.004343153,0.09042795,0
404383851,0,-0.9804476,0.1377293,0.5114904,0.51458645,nan,nan,nan,nan,nan,0.004343153,0.09042795,0
405383931,0,-0.9804476,0.1377293,0.5214911,0.52458715,nan,nan,nan,nan,nan,0.004343153,0.09042795,0
406383855,0,-0.9804476,0.1377293,0.53359056,0.5366866,nan,nan,nan,nan,nan,0.004343153,0.09042795,0
407383851,0,-0.9804476,0.1377293,0.54569024,0.5487863,nan,nan,nan,nan,nan,0.004343153,0.09042795,0
408383850,0,-0.9804476,0.1377293,0.5556902,0.5587863,nan,nan,nan,nan,nan,0.004343153,0.09042795,0
409383851,0,-0.9804476,0.1377293,0.5656902,0.56878626,nan,nan,nan,nan,nan,0.004343153,0.09042795,0
410383851,0,-0.9804476,0.1377293,0.5777902,0.58088624,nan,nan,nan,nan,nan,0.004343153,0.09042795,0
411383851,0,-0.9804476,0.1377293,0.5877902,0.59088624,nan,nan,nan,nan,nan,0.004343153,0.09042795,0
412383857,0,-0.9804476,0.1377293,0.5977902,0.6008862,nan,nan,nan,nan,nan,0.004343153,0.09042795,0
413383853,0,-0.9804476,0.1377293,0.6077902,0.6108862,nan,nan,nan,nan,nan,0.004343153,0.09042795,0
414383851,0,-0.9804476,0.1377293,0.61779016,0.6208862,nan,nan,nan,nan,nan,0.004343153,0.09042795,0
415383865,0,-0.9804476,0.1377293,0.62779015,0.6308862,nan,nan,nan,nan,nan,0.004343153,0.09042795,0
416383851,0,-0.9804476,0.1377293,0.63989013,0.6429862,nan,nan,nan,nan,nan,0.004343153,0.09042795,0
417383851,0,-0.9804476,0.1377293,0.6498901,0.65298617,nan,nan,nan,nan,nan,0.004343153,0.09042795,0
418383850,0,-0.9804476,0.1377293,0.6498901,0.65298617,nan,nan,nan,nan,nan,0.004343153,0.09042795,0
419383851,0,-0.9804476,0.1377293,0.6619901,0.66508615,nan,nan,nan,nan,nan,0.004343153,0.09042795,0
420383852,0,-0.9804476,0.1377293,0.6719901,0.67508614,nan,nan,nan,nan,nan,0.004343153,0.09042795,0
421383850,0,-0.9804476,0.1377293,0.6819901,0.68508613,nan,nan,nan,nan,nan,0.004343153,0.09042795,0
422383851,0,-0.9804476,0.1377293,0.6919901,0.6950861,nan,nan,nan,nan,nan,0.004343153,0.09042795,0
423383850,0,-0.9804476,0.1377293,0.70199007,0.7050861,nan,nan,nan,nan,nan,0.004343153,0.09042795,0
424383851,0,-0.9804476,0.1377293,0.71199006,0.7150861,nan,nan,nan,nan,nan,0.004343153,0.09042795,0
425383851,0,-0.9804476,0.1377293,0.72409004,0.7271861,nan,nan,nan,nan,nan,0.004343153,0.09042795,0
426383851,0,-0.9804476,0.1377293,0.7361907,0.7392867,nan,nan,nan,nan,nan,0.004343153,0.09042795,0
427383850,0,-0.9804476,0.1377293,0.74829006,0.7513861,nan,nan,nan,nan,nan,0.004343153,0.09042795,0
428383851,0,-0.9804476,0.1377293,0.76039004,0.7634861,nan,nan,nan,nan,nan,0.004343153,0.09042795,0
429383851,0,-0.9804476,0.1377293,0.77039003,0.7734861,nan,nan,nan,nan,nan,0.004343153,0.09042795,0
430383851,0,-0.9804476,0.1377293,0.78039,0.78348607,nan,nan,nan,nan,nan,0.004343153,0.09042795,0
431383851,0,-0.9804476,0.1377293,0.79039,0.79348606,nan,nan,nan,nan,nan,0.004343153,0.09042795,0
432383852,0,-0.9804476,0.1377293,0.80039,0.80348605,nan,nan,nan,nan,nan,0.004343153,0.09042795,0
433383851,0,-0.9804476,0.1377293,0.81039,0.81348604,nan,nan,nan,nan,nan,0.004343153,0.09042795,0
434383851,0,-0.9804476,0.1377293,0.82039,0.82348603,nan,nan,nan,nan,nan,0.004343153,0.09042795,0
435383889,0,-0.9804476,0.1377293,0.83039,0.833486,nan,nan,nan,nan,nan,0.004343153,0.09042795,0
436383859,0,-0.9804476,0.1377293,0.84038997,0.843486,nan,nan,nan,nan,nan,0.004343153,0.09042795,0
437383852,0,-0.9804476,0.1377293,0.85038996,0.853486,nan,nan,nan,nan,nan,0.004343153,0.09042795,0
438383871,0,-0.9804476,0.1377293,0.86038995,0.863486,nan,nan,nan,nan,nan,0.004343153,0.09042795,0
439383851,0,-0.9804476,0.1377293,0.87039113,0.8734872,nan,nan,nan,nan,nan,0.004343153,0.09042795,0
440383851,0,-0.9804476,0.1377293,0.8824898,0.88558584,nan,nan,nan,nan,nan,0.004343153,0.09042795,0
441383851,0,-0.9804476,0.1377293,0.8924898,0.89558583,nan,nan,nan,nan,nan,0.004343153,0.09042795,0
442383865,0,-0.9804476,0.1377293,0.9024898,0.9055858,nan,nan,nan,nan,nan,0.004343153,0.09042795,0
443383851,0,-0.9804476,0.1377293,0.9124906,0.91558665,nan,nan,nan,nan,nan,0.004343153,0.09042795,0
444383850,0,-0.9804476,0.1377293,0.9245897,0.92768574,nan,nan,nan,nan,nan,0.004343153,0.09042795,0
445383851,0,-0.9804476,0.1377293,0.9366897,0.9397857,nan,nan,nan,nan,nan,0.004343153,0.09042795,0
446383851,0,-0.9804476,0.1377293,0.94668967,0.9497857,nan,nan,nan,nan,nan,0.004343153,0.09042795,0
447383851,0,-0.9804476,0.1377293,0.95668966,0.9597857,nan,nan,nan,nan,nan,0.004343153,0.09042795,0
448383852,0,-0.9804476,0.1377293,0.96668965,0.9697857,nan,nan,nan,nan,nan,0.004343153,0.09042795,0
449383851,0,-0.9804476,0.1377293,0.97668964,0.9797857,nan,nan,nan,nan,nan,0.004343153,0.09042795,0
450383851,0,-0.9804476,0.1377293,0.9866896,0.9897857,nan,nan,nan,nan,nan,0.004343153,0.09042795,0
451383852,0,-0.9804476,0.1377293,0.9966896,0.99978566,nan,nan,nan,nan,nan,0.004343153,0.09042795,0
452383851,0,-0.9804476,0.1377293,1.0066903,1.0097864,nan,nan,nan,nan,nan,0.004343153,0.09042795,0
453383880,0,-0.9804476,0.1377293,1.0187895,1.0218856,nan,nan,nan,nan,nan,0.004343153,0.09042795,0
454383864,0,-0.9804476,0.1377293,1.0287895,1.0318856,nan,nan,nan,nan,nan,0.004343153,0.09042795,0
455383851,0,-0.9804476,0.1377293,1.0387895,1.0418856,nan,nan,nan,nan,nan,0.004343153,0.09042795,0
456383851,0,-0.9804476,0.1377293,1.0508895,1.0539856,nan,nan,nan,nan,nan,0.004343153,0.09042795,0
457383851,0,-0.9804476,0.1377293,1.0608895,1.0639856,nan,nan,nan,nan,nan,0.004343153,0.09042795,0
458383850,0,-0.9804476,0.1377293,1.0608895,1.0639856,nan,nan,nan,nan,nan,0.004343153,0.09042795,0
459383851,0,-0.9804476,0.1377293,1.0729895,1.0760856,nan,nan,nan,nan,nan,0.004343153,0.09042795,0
460383870,0,-0.9804476,0.1377293,1.0829895,1.0860856,nan,nan,nan,nan,nan,0.004343153,0.09042795,0
461383852,0,-0.9804476,0.1377293,1.0929894,1.0960855,nan,nan,nan,nan,nan,0.004343153,0.09042795,0
462383865,0,-0.9804476,0.1377293,1.1029896,1.1060857,nan,nan,nan,nan,nan,0.004343153,0.09042795,0
463383856,0,-0.9804476,0.1377293,1.1150901,1.1181862,nan,nan,nan,nan,nan,0.004343153,0.09042795,0
464383851,0,-0.9804476,0.1377293,1.1271895,1.1302856,nan,nan,nan,nan,nan,0.004343153,0.09042795,0
465383854,0,-0.9804476,0.1377293,1.1371896,1.1402857,nan,nan,nan,nan,nan,0.004343153,0.09042795,0
466383907,0,-0.9804476,0.1377293,1.1492895,1.1523856,nan,nan,nan,nan,nan,0.004343153,0.09042795,0
467383851,0,-0.9804476,0.1377293,1.1592895,1.1623856,nan,nan,nan,nan,nan,0.004343153,0.09042795,0
468383851,0,-0.9804476,0.1377293,1.1692898,1.1723859,nan,nan,nan,nan,nan,0.004343153,0.09042795,0
469383851,0,-0.9804476,0.1377293,1.1813893,1.1844854,nan,nan,nan,nan,nan,0.004343153,0.09042795,0
470383851,0,-0.9804476,0.1377293,1.1913893,1.1944854,nan,nan,nan,nan,nan,0.004343153,0.09042795,0
471383850,0,-0.9804476,0.1377293,1.2013893,1.2044854,nan,nan,nan,nan,nan,0.004343153,0.09042795,0
472383851,0,-0.9804476,0.1377293,1.2113893,1.2144854,nan,nan,nan,nan,nan,0.004343153,0.09042795,0
473383851,0,-0.9804476,0.1377293,1.2213893,1.2244854,nan,nan,nan,nan,nan,0.004343153,0.09042795,0
474383851,0,-0.9804476,0.1377293,1.2313893,1.2344854,nan,nan,nan,nan,nan,0.004343153,0.09042795,0
475383851,0,-0.9804476,0.1377293,1.2413893,1.2444854,nan,nan,nan,nan,nan,0.004343153,0.09042795,0
476383852,0,-0.9804476,0.1377293,1.2513893,1.2544854,nan,nan,nan,nan,nan,0.004343153,0.09042795,0
477383851,0,-0.9804476,0.1377293,1.2613893,1.2644854,nan,nan,nan,nan,nan,0.004343153,0.09042795,0
478383851,0,-0.9804476,0.1377293,1.2734892,1.2765853,nan,nan,nan,nan,nan,0.004343153,0.09042795,0
479383852,0,-0.9804476,0.1377293,1.2834892,1.2865853,nan,nan,nan,nan,nan,0.004343153,0.09042795,0
480383851,0,-0.9804476,0.1377293,1.2955892,1.2986853,nan,nan,nan,nan,nan,0.004343153,0.09042795,0
481383851,0,-0.9804476,0.1377293,1.3055892,1.3086853,nan,nan,nan,nan,nan,0.004343153,0.09042795,0
482383851,0,-0.9804476,0.1377293,1.3155892,1.3186853,nan,nan,nan,nan,nan,0.004343153,0.09042795,0
483383851,0,-0.9804476,0.1377293,1.3255892,1.3286853,nan,nan,nan,nan,nan,0.004343153,0.09042795,0
484383851,0,-0.9804476,0.1377293,1.3355892,1.3386853,nan,nan,nan,nan,nan,0.004343153,0.09042795,0
485383851,0,-0.9804476,0.1377293,1.3455892,1.3486853,nan,nan,nan,nan,nan,0.004343153,0.09042795,0
486383851,0,-0.9804476,0.1377293,1.3576894,1.3607855,nan,nan,nan,nan,nan,0.004343153,0.09042795,0
487383868,0,-0.9804476,0.1377293,1.3697891,1.3728852,nan,nan,nan,nan,nan,0.004343153,0.09042795,0
488383851,0,-0.9804476,0.1377293,1.3797891,1.3828852,nan,nan,nan,nan,nan,0.004343153,0.09042795,0
489383851,0,-0.9804476,0.1377293,1.3897891,1.3928852,nan,nan,nan,nan,nan,0.004343153,0.09042795,0
490383855,0,-0.9804476,0.1377293,1.3997908,1.4028869,nan,nan,nan,nan,nan,0.004343153,0.09042795,0
491383850,0,-0.9804476,0.1377293,1.411889,1.4149851,nan,nan,nan,nan,nan,0.004343153,0.09042795,0
492383851,0,-0.9804476,0.1377293,1.421889,1.424985,nan,nan,nan,nan,nan,0.004343153,0.09042795,0
493383850,0,-0.9804476,0.1377293,1.421889,1.424985,nan,nan,nan,nan,nan,0.004343153,0.09042795,0
494383855,0,-0.9804476,0.1377293,1.4339893,1.4370854,nan,nan,nan,nan,nan,0.004343153,0.09042795,0
495383851,0,-0.9804476,0.1377293,1.4460889,1.449185,nan,nan,nan,nan,nan,0.004343153,0.09042795,0
496383851,0,-0.9804476,0.1377293,1.4560889,1.459185,nan,nan,nan,nan,nan,0.004343153,0.09042795,0
497383851,0,-0.9804476,0.1377293,1.4660889,1.469185,nan,nan,nan,nan,nan,0.004343153,0.09042795,0
498383851,0,-0.9804476,0.1377293,1.4760889,1.479185,nan,nan,nan,nan,nan,0.004343153,0.09042795,0
499383851,0,-0.9804476,0.1377293,1.4860889,1.489185,nan,nan,nan,nan,nan,0.004343153,0.09042795,0
500383851,0,-0.9804476,0.1377293,1.496089,1.4991851,nan,nan,nan,nan,nan,0.004343153,0.09042795,0
501383851,0,-0.9804476,0.1377293,1.5081888,1.511285,nan,nan,nan,nan,nan,0.004343153,0.09042795,0
502383850,0,-0.9804476,0.1377293,1.5181888,1.5212849,nan,nan,nan,nan,nan,0.004343153,0.09042795,0
503383851,0,-0.9804476,0.1377293,1.5302888,1.5333849,nan,nan,nan,nan,nan,0.004343153,0.09042795,0
504383851,0,-0.9804476,0.1377293,1.5402888,1.5433849,nan,nan,nan,nan,nan,0.004343153,0.09042795,0
505383850,0,-0.9804476,0.1377293,1.5502888,1.5533849,nan,nan,nan,nan,nan,0.004343153,0.09042795,0
506383852,0,-0.9804476,0.1377293,1.5602888,1.5633849,nan,nan,nan,nan,nan,0.004343153,0.09042795,0
507383852,0,-0.9804476,0.1377293,1.570289,1.5733851,nan,nan,nan,nan,nan,0.004343153,0.09042795,0
508383880,0,-0.9804476,0.1377293,1.5823889,1.585485,nan,nan,nan,nan,nan,0.004343153,0.09042795,0
509383852,0,-0.9804476,0.1377293,1.5923892,1.5954853,nan,nan,nan,nan,nan,0.004343153,0.09042795,0
510383852,0,-0.9804476,0.1377293,1.6044888,1.607585,nan,nan,nan,nan,nan,0.004343153,0.09042795,0
