timestamp,timestamp_sample,baro_device_id,bias,bias_var,innov,innov_var,innov_test_ratio
217663877,217540047,4028193,3.5667703,0.032009814,3.4433575,14.883764,0.08851338
218263986,218147273,4028193,3.5886765,0.032016255,3.3923635,14.842002,0.086152874
218663938,218522975,4028193,3.603199,0.03204479,3.294598,14.816495,0.0813986
219264074,219123408,4028193,3.6251884,0.031838167,3.4155495,14.771991,0.08774848
219664046,219556075,4028193,3.6390343,0.031701624,3.3809755,14.74667,0.08612864
220264164,220162258,4028193,3.6603682,0.031498514,3.1756425,14.705816,0.076195896
220664165,220547601,4028193,3.6749647,0.03136423,3.3629613,14.680832,0.08559542
221264208,221125030,4028193,3.6964924,0.031164523,3.349578,14.646675,0.08511353
221654202,221510371,4028193,3.71024,0.031032577,3.3233988,14.625059,0.08391214
222264256,222109002,4028193,3.7320285,0.03083642,3.4002244,14.594343,0.08802137
222674305,222548320,4028193,3.746112,0.030706866,3.1313927,14.575997,0.074747086
223264348,223140584,4028193,3.7705934,0.03051418,3.8891037,14.551628,0.11549014
223664387,223522471,4028193,3.787542,0.030386863,4.3796234,14.530451,0.14667359
224254439,224116974,4028193,3.8085628,0.030197546,3.53665,14.500361,0.09584353
224664507,224549310,4028193,3.8224955,0.030072514,3.3805733,14.48536,0.087661505
225264489,225143434,4028193,3.8437302,0.029886546,3.5104804,14.455573,0.094722964
225664543,225521813,4028193,3.8580165,0.029763658,3.36492,14.443666,0.08710228
226264577,226116550,4028193,3.879096,0.02958105,3.3549724,14.425867,0.086694874
226664629,226548858,4028193,3.8914278,0.029460462,3.068456,14.411121,0.07259379
227274727,227143536,4028193,3.9077601,0.029281138,3.0881526,14.39055,0.073633865
227664653,227518322,4028193,3.921461,0.029162673,3.4525242,14.381722,0.092091605
228264717,228117614,4028193,3.9401028,0.028986648,2.9275522,14.3641815,0.06629579
228664799,228515635,4028193,3.954175,0.028870368,4.0237217,14.349649,0.12536377
229264801,229122127,4028193,3.9708035,0.028697575,2.154764,14.329379,0.036002237
229664935,229556027,4028193,3.985091,0.02858335,3.7609143,14.31497,0.10978776
230264903,230112349,4028193,4.0034213,0.028413396,3.2571018,14.292031,0.08247574
230654983,230537896,4028193,4.0148916,0.02830114,2.5752354,14.280582,0.051599495
231264995,231151779,4028193,4.0323687,0.028134298,2.9633484,14.26629,0.06839304
231665014,231536473,4028193,4.043063,0.02802399,3.0253038,14.252105,0.0713537
232275088,232156547,4028193,4.0597014,0.02786005,2.5656252,14.23232,0.05138877
232675106,232541905,4028193,4.0708804,0.027751645,2.581437,14.218255,0.0520756
233265132,233136582,4028193,4.0852165,0.027590474,1.9684377,14.206965,0.030303968
233665242,233515100,4028193,4.0953403,0.027484024,2.6800294,14.206859,0.056174416
234265281,234124317,4028193,4.1108794,0.027325975,2.4189553,14.2067,0.04576358
234655282,234504206,4028193,4.1192846,0.02722159,1.944643,14.209374,0.029570749
235265312,235153472,4028193,4.1330905,0.027066603,3.2897062,14.209219,0.08462556
235665357,235535697,4028193,4.142589,0.026964197,2.4966364,14.209116,0.048741743
236265487,236144917,4028193,4.1580124,0.026812116,3.5921307,14.208963,0.1009019
236665449,236527210,4028193,4.1652765,0.02671164,2.4571886,14.208862,0.04721448
237245506,237118140,4028193,4.181769,0.026562346,3.4539008,14.208713,0.0932873
237665543,237548305,4028193,4.19329,0.026463792,3.1606932,14.208613,0.07812148
238265613,238156398,4028193,4.2054067,0.026317297,1.8098006,14.2056875,0.025618676
238665695,238538359,4028193,4.2084513,0.026220487,0.9764123,14.20559,0.0074570095
239265761,239136614,4028193,4.224772,0.026076641,2.9684696,14.205446,0.06892358
239665716,239514758,4028193,4.2326236,0.025981588,2.740828,14.205351,0.058758285
240265781,240111416,4028193,4.243175,0.02584035,1.313137,14.205209,0.013487454
240685859,240547565,4028193,4.2498536,0.025747098,1.1286168,14.205115,0.009963359
241265922,241139363,4028193,4.2590513,0.025608394,1.156002,14.204976,0.010452838
241665903,241514207,4028193,4.267372,0.02551673,1.3663177,14.204884,0.014602366
242275956,242128195,4028193,4.2707963,0.025380572,0.542058,14.204747,0.0022983465
242675991,242560922,4028193,4.2758803,0.025290621,1.5257778,14.204658,0.018209973
243266105,243146978,4028193,4.2826376,0.025156777,2.2737894,14.204523,0.04044188
243666097,243527551,4028193,4.288609,0.025068322,1.8848805,14.201657,0.027796244
243866151,243744219,4028193,4.2901106,0.025024353,0.8504195,14.198837,0.00565941
244666246,244555174,4028193,4.2957473,0.024849929,1.6061487,14.198663,0.020187456
245266231,245142682,4028193,4.2985277,0.02472066,-1.2535,14.19576,0.012298369
245656303,245523914,4028193,4.302033,0.024635237,0.6624708,14.198447,0.0034343943
246066409,245956265,4028193,4.3035645,0.024550475,0.41337633,14.198362,0.0013372434
246656403,246551209,4028193,4.3073287,0.024424355,1.4593272,14.1982355,0.016665889
247266490,247146223,4028193,4.309589,0.024299534,0.44043016,14.198111,0.0015180324
247456510,247308556,4028193,4.3117466,0.024258163,1.260819,14.198069,0.012440382
248266524,248128050,4028193,4.314384,0.024094345,0.5848875,14.20068,0.0026766588
250866772,250747071,4028193,4.3127,0.02357691,-0.5398202,14.202937,0.0022796995
251466899,251355372,4028193,4.3114476,0.023460757,-0.21822262,14.208381,0.00037240237
251866863,251733970,4028193,4.313618,0.023383902,1.2364707,14.205523,0.011958258
252056932,251951525,4028193,4.314897,0.023345703,0.77694654,14.205484,0.0047215405
252496947,252384248,4028193,4.313797,0.023269681,-0.49723768,14.205408,0.0019338904
253066995,252925303,4028193,4.312259,0.023156445,-0.6063204,14.210858,0.0028743623
253276995,253141602,4028193,4.3152685,0.023119003,1.8468747,14.210821,0.026669396
253867134,253765663,4028193,4.312526,0.023007507,-0.08123922,14.227449,5.1542083e-05
254267132,254165372,4028193,4.3139086,0.022933846,0.7764168,14.241381,0.0047032195
255867240,255722944,4028193,4.3161225,0.022644186,1.2515574,14.257961,0.012206792
256067329,255939273,4028193,4.317761,0.022608498,1.031095,14.252294,0.008288389
256487304,256376312,4028193,4.3189077,0.022537459,0.96027803,14.246599,0.0071918443
257067348,256917361,4028193,4.320854,0.02243156,0.8671627,14.243683,0.0058659236
257267521,257133574,4028193,4.3231893,0.02239652,1.4823875,14.240842,0.01714531
257477396,257349755,4028193,4.3251934,0.022361584,1.2740283,14.238001,0.012666791
258257560,258117674,4028193,4.3264313,0.022222847,1.7850609,14.249094,0.024847133
258657697,258550673,4028193,4.3285813,0.022154257,1.8339787,14.260289,0.026207024
259457809,259308069,4028193,4.326193,0.022018395,-1.9755054,14.285614,0.030353935
259857820,259740765,4028193,4.3250957,0.021951225,-1.3007636,14.291226,0.013154816
260477692,260336425,4028193,4.326175,0.02185122,0.23867369,14.299661,0.00044263
260867826,260715042,4028193,4.3283134,0.021785052,0.91859055,14.299594,0.0065565854
262068030,261915179,4028193,4.331639,0.021588955,1.5573635,14.290863,0.01885728
262667990,262564206,4028193,4.3336987,0.02149228,0.8421531,14.293609,0.0055131232
263248183,263105296,4028193,4.336591,0.021396382,1.4917359,14.302053,0.01728793
264258227,264140746,4028193,4.3382235,0.021238763,0.62439346,14.310455,0.003027058
264503081,264356897,4028193,4.3396063,0.021207528,0.93155193,14.307569,0.006739161
264668316,264522707,4028193,4.3481355,0.021176329,5.7551203,14.310392,0.2571667
265068179,264955238,4028193,4.3462396,0.021114297,-1.071579,14.298922,0.008922829
265668239,265553497,4028193,4.3549,0.021021804,2.0771427,14.287453,0.03355331
266258378,266144796,4028193,4.364489,0.020930044,2.5874214,14.27885,0.05209531
266668360,266533957,4028193,4.368395,0.020869302,2.8109646,14.273125,0.061510485
267258433,267113303,4028193,4.384725,0.020778779,3.2749615,14.2702055,0.08351022
267658593,267546185,4028193,4.3955092,0.020718947,3.6140332,14.270145,0.10169823
268068502,267921234,4028193,4.4072847,0.020659361,4.085112,14.267259,0.12996455
268668562,268519996,4028193,4.425853,0.020570673,4.601323,14.264344,0.16491917
269058562,268952936,4028193,4.4383435,0.020512015,3.2583804,14.264285,0.08270105
269658579,269536368,4028193,4.4505854,0.020424534,3.7618413,14.261374,0.11025468
270058660,269919719,4028193,4.4665594,0.02036665,5.149102,14.26414,0.2065261
270668687,270518881,4028193,4.4807897,0.020280471,3.4563446,14.264053,0.0930569
271258720,271109995,4028193,4.4966865,0.02019504,4.4949646,14.27528,0.15726258
271668742,271542510,4028193,4.50462,0.0201386,2.054627,14.286568,0.032831866
272068810,271924521,4028193,4.5154505,0.020082463,3.8768663,14.297887,0.11680119
272659011,272522860,4028193,4.534584,0.019998943,6.2313166,14.309212,0.30150983
273259112,273113509,4028193,4.5524964,0.01991614,4.416605,14.314844,0.1514077
273649020,273545769,4028193,4.5647044,0.019861389,4.2664633,14.317651,0.14126083
274259077,274145149,4028193,4.585215,0.01977981,3.7230597,14.326163,0.10750473
274659051,274519802,4028193,4.5965395,0.019725775,3.5703087,14.328979,0.0988448
275259128,275113159,4028193,4.613848,0.019645317,2.9174109,14.323162,0.06602581
275659235,275545581,4028193,4.6237283,0.019592088,4.5264807,14.323109,0.15894306
276249335,276146974,4028193,4.642815,0.019512769,4.47798,14.337384,0.1554003
276659216,276528784,4028193,4.662231,0.01946026,9.457264,14.340207,0.6929998
277249302,277126990,4028193,4.68371,0.019382082,5.388204,14.345889,0.22486304
277659528,277555768,4028193,4.697808,0.01933036,5.2058597,14.348721,0.20985979
278259625,278145618,4028193,4.7123456,0.019253273,5.779445,14.360196,0.25844577
278649439,278524026,4028193,4.72342,0.019202283,4.8453116,14.386253,0.18132313
279259506,279107709,4028193,4.7361493,0.019126564,3.1073337,14.444777,0.07427154
279649597,279541959,4028193,4.742191,0.019076671,1.6887245,14.483246,0.021878079
280259588,280143412,4028193,4.7569804,0.019002387,4.139417,14.507044,0.1312372
280649798,280521575,4028193,4.766831,0.018953197,4.4081726,14.512982,0.14877091
281259712,281159033,4028193,4.783487,0.018879982,3.6502624,14.509913,0.10203304
281659765,281538300,4028193,4.7942386,0.018831404,4.221012,14.500893,0.13651991
282249815,282136789,4028193,4.8147073,0.01875902,4.889707,14.494848,0.18327765
282670037,282565677,4028193,4.8299403,0.018711118,6.4170194,14.50376,0.3154595
283259934,283106192,4028193,4.8472276,0.018639702,5.9672585,14.527673,0.27233982
283659933,283538354,4028193,4.856639,0.01859256,4.2255783,14.545698,0.136394
283860133,283754576,4028193,4.862024,0.018569093,4.213475,14.548693,0.13558587
284660046,284521340,4028193,4.871501,0.018475784,3.8689432,14.566755,0.1141772
285060235,284954303,4028193,4.883925,0.01842956,7.365222,14.563678,0.4138644
285670147,285545141,4028193,4.8977795,0.018360583,2.7485757,14.569674,0.057613343
285860141,285710759,4028193,4.9023213,0.018337676,3.604002,14.569651,0.099055454
286650282,286526059,4028193,4.921606,0.018246843,3.4451342,14.57867,0.09045902
287060290,286952247,4028193,4.928458,0.018201793,2.25352,14.578625,0.038704704
287660376,287556772,4028193,4.939937,0.018134624,1.4068351,14.581598,0.015081299
288260378,288147606,4028193,4.951277,0.01806793,3.6366653,14.584575,0.100755885
288660401,288522318,4028193,4.9567986,0.018023718,1.7739964,14.581488,0.023980659
289250450,289127579,4028193,4.969034,0.017957909,3.6967688,14.590556,0.10407112
289660553,289558102,4028193,4.975484,0.017914351,3.5978498,14.596613,0.09853521
290060715,289940393,4028193,4.9765487,0.017870963,0.10371399,14.599622,8.186355e-05
290660643,290539808,4028193,4.985679,0.017806344,3.56492,14.611789,0.096639276
291260683,291125006,4028193,4.9962454,0.017742157,2.0939565,14.599493,0.03336991
291660762,291551098,4028193,5.0049014,0.017699644,4.9166155,14.593347,0.18404968
292260769,292149965,4028193,5.014691,0.017636208,3.3717256,14.590234,0.08657643
292680825,292531816,4028193,5.023986,0.017594138,5.2604427,14.587145,0.21078117
293060820,292913866,4028193,5.025174,0.017552285,1.7137594,14.593199,0.022361798
293660897,293509445,4028193,5.031661,0.01748992,1.8172174,14.59924,0.025132807
294260994,294158762,4028193,5.0470166,0.017428098,3.1135254,14.60529,0.07374831
294660977,294537093,4028193,5.0507655,0.017387053,3.5143905,14.602192,0.09398088
295261017,295131673,4028193,5.0646734,0.017325932,6.4388475,14.617435,0.31513935
295661109,295510071,4028193,5.0705996,0.017285436,2.0236373,14.626602,0.031108525
296061068,295935683,4028193,5.0747504,0.017245194,2.0939126,14.626561,0.03330676
296661218,296539980,4028193,5.081548,0.017185196,1.1274571,14.635726,0.009650356
297051202,296914715,4028193,5.090752,0.01714541,4.020398,14.644929,0.12263327
297661265,297505671,4028193,5.093031,0.017086115,1.0138745,14.635627,0.0078039523
298261367,298157835,4028193,5.105998,0.017027268,2.216681,14.623272,0.037335273
298661348,298532527,4028193,5.1129656,0.01698816,3.1862845,14.620164,0.07715683
299061346,298914387,4028193,5.11564,0.016949235,-1.6306605,14.6109295,0.020221192
299651425,299508528,4028193,5.125195,0.01689115,2.6341329,14.592536,0.05283261
300061467,299941026,4028193,5.131268,0.016852641,2.4963474,14.574234,0.047509648
300681494,300539088,4028193,5.140726,0.016795062,3.158002,14.549935,0.07615899
301061607,300913785,4028193,5.145232,0.016756812,2.6718235,14.537826,0.054559905
301661618,301504755,4028193,5.154203,0.016699703,4.3489885,14.498755,0.14494503
302251671,302102866,4028193,5.1665955,0.016642893,4.344503,14.480805,0.14482547
302661783,302541870,4028193,5.1752234,0.016605288,2.8280993,14.483746,0.061357252
303071699,302919803,4028193,5.182159,0.01656778,3.4700985,14.489668,0.09233847
303662057,303517968,4028193,5.19612,0.01651187,5.4613304,14.4777,0.22890475
304061974,303950414,4028193,5.2067804,0.016474802,2.1468725,14.459855,0.035416532
304681855,304559248,4028193,5.209872,0.01641937,3.0225425,14.424399,0.07037276
305072036,304933932,4028193,5.21781,0.016382504,4.246156,14.409698,0.13902554
305481922,305323817,4028193,5.2221875,0.016345829,1.9637523,14.400886,0.029753748
306062031,305922913,4028193,5.2224574,0.016291067,-1.8325295,14.383335,0.025941785
306662051,306520812,4028193,5.2313385,0.016236626,2.3548975,14.371656,0.042874068
307062162,306953288,4028193,5.237394,0.016200565,3.145104,14.37162,0.076475404
307442126,307327820,4028193,5.2374644,0.016164588,-1.0436511,14.374487,0.008419298
307852268,307709739,4028193,5.239274,0.01612883,1.1454263,14.391911,0.010129157
308652265,308527287,4028193,5.242404,0.01605797,2.7805567,14.429917,0.05953291
309062302,308959699,4028193,5.2441382,0.01602288,0.70120907,14.444617,0.0037822174
310862409,310742933,4028193,5.243102,0.015866624,-0.4569993,14.429726,0.0016081646
311262470,311120760,4028193,5.241386,0.015832284,-0.7129216,14.432634,0.0039128703
312262493,312144137,4028193,5.240212,0.015747266,-0.29862785,14.447293,0.00068585394
315062734,314954385,4028193,5.241504,0.015514088,0.36991882,14.432315,0.0010534995
315462891,315339737,4028193,5.242612,0.015481277,0.45784473,14.420522,0.0016151504
315852789,315719190,4028193,5.244155,0.015448564,0.82572985,14.408761,0.0052578333
316062926,315935040,4028193,5.245204,0.015432284,0.97793484,14.402892,0.0073778126
316462836,316317114,4028193,5.2472525,0.015399755,0.9511709,14.394097,0.0069837742
317062864,316907940,4028193,5.2499957,0.015351195,1.090745,14.379484,0.009193071
317462911,317340848,4028193,5.2525797,0.015319022,1.1808133,14.370736,0.0107805515
318062953,317945928,4028193,5.2566733,0.015270936,1.0969248,14.359097,0.009310737
318483042,318378092,4028193,5.2584133,0.015239061,0.81139994,14.35328,0.0050965496
319053034,318919074,4028193,5.2630463,0.015191337,1.3618889,14.344571,0.014366576
319463053,319308746,4028193,5.2667284,0.015159723,1.9185414,14.3358965,0.02852824
320063164,319957552,4028193,5.2718177,0.015112609,1.3396573,14.338728,0.0139070265
320263176,320112100,4028193,5.2741942,0.015096882,2.25524,14.341594,0.03940448
321063359,320924806,4028193,5.2826815,0.015034601,1.6300254,14.341531,0.020584991
321653264,321519386,4028193,5.292062,0.014988239,9.582422,14.353029,0.710828
322063303,321951703,4028193,5.298533,0.014957561,3.426341,14.358783,0.090844996
322463291,322329989,4028193,5.308333,0.014926938,4.321612,14.358751,0.14452146
323063350,322939562,4028193,5.315384,0.014881318,3.6722903,14.3529215,0.10439776
323463370,323318793,4028193,5.3249593,0.014850988,4.735551,14.344231,0.17370856
323863425,323748366,4028193,5.3363333,0.014820826,5.708823,14.335557,0.2526016
324483474,324344833,4028193,5.352077,0.0147757325,6.2886662,14.324016,0.30676782
325063536,324942979,4028193,5.3623056,0.014730882,2.6495695,14.309646,0.054510385
325453635,325317805,4028193,5.365289,0.014701063,1.1518812,14.2953415,0.010312841
326063830,325916781,4028193,5.3775096,0.014656585,8.454819,14.281072,0.5561671
326483611,326350755,4028193,5.3850207,0.0146271065,6.9016314,14.272531,0.37081733
326853706,326729195,4028193,5.399285,0.014597656,9.403825,14.266837,0.6887139
327463704,327323804,4028193,5.401594,0.014553716,4.057118,14.255489,0.12829526
328063738,327931676,4028193,5.42033,0.014510036,8.519727,14.235741,0.5665376
328473833,328369475,4028193,5.4257383,0.014481065,2.1515079,14.221697,0.03616529
329063815,328910282,4028193,5.4378705,0.0144376,4.046903,14.199333,0.12815487
329453852,329342500,4028193,5.4491267,0.014408833,5.83962,14.185419,0.26710653
330053927,329951337,4028193,5.4625278,0.014365799,4.540943,14.157757,0.16182856
330494023,330383642,4028193,5.4651465,0.014337238,2.3439136,14.143993,0.043158725
331063961,330916802,4028193,5.474408,0.014294408,8.25778,14.130265,0.5362086
331464025,331349348,4028193,5.486553,0.014266096,4.2532797,14.127505,0.1422787
332054079,331947098,4028193,5.501973,0.014223731,4.84911,14.105688,0.18521975
332474133,332328998,4028193,5.5121245,0.014195578,2.4531717,14.094819,0.047441006
332864193,332761382,4028193,5.51639,0.014167582,1.7696066,14.086682,0.024700299
333444220,333297481,4028193,5.5286016,0.014125608,5.9993405,14.073165,0.28416643
334064247,333946090,4028193,5.5302525,0.01408398,1.7155843,14.046323,0.023281928
334474239,334324339,4028193,5.5395784,0.014056253,8.380484,14.035632,0.5559858
335064304,334918921,4028193,5.557794,0.0140148895,3.9587317,14.027613,0.1241326
335464328,335351178,4028193,5.5659537,0.013987478,3.7079182,14.014331,0.10900475
336054425,335945510,4028193,5.579522,0.013946439,8.013139,13.995817,0.5097586
336494422,336377810,4028193,5.5897655,0.013919226,6.784248,13.974797,0.36594462
336854422,336701809,4028193,5.595013,0.013891946,2.2052088,13.964322,0.038693413
337454505,337350276,4028193,5.6023555,0.01385143,5.691083,13.953866,0.25790083
338064505,337944749,4028193,5.6158566,0.013810913,4.4531255,13.894554,0.15857792
338464768,338323176,4028193,5.627994,0.013784004,7.7177415,13.902198,0.4760521
339054593,338928225,4028193,5.637718,0.013743948,3.4645858,13.920127,0.095811345
339454634,339306395,4028193,5.6452584,0.0137173645,4.285487,13.93558,0.14643094
340064701,339954914,4028193,5.6565866,0.01367784,7.1098022,13.9536915,0.40251628
340464749,340329327,4028193,5.6646,0.013651568,4.363855,13.96669,0.1514972
341064759,340932722,4028193,5.6769753,0.013612478,3.9843602,13.98497,0.12612846
341464806,341311119,4028193,5.6874886,0.013586518,3.3209548,13.987569,0.08760748
342054951,341905674,4028193,5.703332,0.013547754,6.1561117,13.96137,0.3016077
342484849,342337901,4028193,5.714775,0.013522059,4.2007904,13.956137,0.14049289
343064955,342932728,4028193,5.723212,0.013483612,3.917426,13.945705,0.12226964
343475105,343365078,4028193,5.7310796,0.013458128,4.086495,13.932735,0.13317509
344055022,343904734,4028193,5.7459054,0.013419894,1.8685832,13.912088,0.027886245
344465018,344340204,4028193,5.7538147,0.013394607,3.8548589,13.901808,0.11876902
345065043,344938285,4028193,5.769191,0.013356755,6.3691773,13.891545,0.3244693
345465093,345320347,4028193,5.7786164,0.013331605,3.1167073,13.883874,0.077738985
346055147,345911273,4028193,5.787775,0.013294057,3.9929261,13.878748,0.12764087
346455207,346343409,4028193,5.794524,0.0132691935,3.0153213,13.876182,0.07280391
347065209,346934542,4028193,5.8048472,0.013231979,3.5510468,13.868534,0.10102753
347265199,347150719,4028193,5.8084517,0.013219648,3.778544,13.871057,0.114365995
348055382,347914395,4028193,5.8107166,0.013170448,3.0237966,13.876082,0.07321428
348465398,348362138,4028193,5.813527,0.013146101,1.5733733,13.876059,0.01982234
349045427,348900524,4028193,5.8186927,0.013109536,1.6643682,13.881105,0.022173397
349455469,349339074,4028193,5.8239217,0.0130854035,2.8389888,13.886174,0.064491466
350255573,350152190,4028193,5.8262825,0.013037341,3.0515208,13.901449,0.07442693
350475481,350368474,4028193,5.8300557,0.01302541,4.024864,13.906562,0.12943156
351055562,350908930,4028193,5.8382716,0.012989619,4.1774306,13.914227,0.13935319
351455571,351333742,4028193,5.841164,0.012965948,4.755267,13.9116335,0.18060477
352055610,351930361,4028193,5.8465447,0.01293056,2.115385,13.9064665,0.03575358
352475679,352363468,4028193,5.851517,0.012907127,1.8880372,13.909009,0.028476223
352655717,352531034,4028193,5.8538384,0.012895383,2.5015597,13.908997,0.049990036
353265715,353136115,4028193,5.856015,0.01286041,2.6255336,13.906397,0.05507798
353645739,353514962,4028193,5.8579135,0.012837165,1.0243039,13.911505,0.008379943
354235819,354118508,4028193,5.859253,0.012802556,0.47233152,13.932078,0.0017792438
355045853,354925403,4028193,5.871211,0.01275677,5.270354,13.963185,0.22103065
355445846,355300231,4028193,5.8731165,0.012734006,2.2656178,13.981467,0.040792286
356055948,355948656,4028193,5.876093,0.012700204,2.200614,14.015688,0.038391124
356455978,356325168,4028193,5.87871,0.012677748,1.3764672,14.039578,0.014994609
357045987,356938380,4028193,5.8813787,0.0126443505,2.5809522,14.055577,0.052658524
357446201,357313904,4028193,5.881917,0.012622136,3.4678626,14.063598,0.09501339
357856046,357746532,4028193,5.886959,0.012600083,4.894588,14.060892,0.18931146
358256065,358121342,4028193,5.8884807,0.0125779845,1.8121552,14.023519,0.026019042
358856257,358713469,4028193,5.8863263,0.012544872,-2.9729772,13.960365,0.07034672
359256131,359145713,4028193,5.8892655,0.012522929,3.398625,13.962951,0.09191508
359866167,359740498,4028193,5.892085,0.012490043,2.2265825,13.926602,0.039553955
360476241,360339838,4028193,5.8875217,0.01245733,-2.1626773,13.931732,0.03730232
360666235,360556024,4028193,5.8860874,0.012446464,-1.6011257,13.908547,0.020479841
361456250,361312855,4028193,5.883443,0.0124029,-1.9211926,13.83744,0.029637637
361856375,361748489,4028193,5.8857183,0.012381266,2.8089056,13.8349085,0.063365884
362656356,362522175,4028193,5.883267,0.012338229,-3.748282,13.890525,0.1123837
362856402,362738764,4028193,5.8787813,0.012327574,-5.0555806,13.905863,0.20422158
363456429,363333346,4028193,5.8776746,0.012295714,-0.5118389,13.949707,0.002086695
364056442,363927672,4028193,5.870668,0.012264122,-2.162065,13.996764,0.03710798
364476467,364360089,4028193,5.875432,0.012243259,1.7290611,14.017879,0.023697138
365266521,365116750,4028193,5.877863,0.012201637,3.5474124,14.031112,0.09965263
365456550,365332967,4028193,5.8802915,0.012191318,2.7923489,14.031102,0.06174546
365656770,365549196,4028193,5.877371,0.012181014,-3.3605123,14.028433,0.08944566
366476850,366373946,4028193,5.8791375,0.0121399425,-1.6887412,14.017776,0.022605004
366646759,366532474,4028193,5.882292,0.01212963,3.6392493,14.007181,0.105058305
367666692,367555347,4028193,5.880994,0.012078588,-1.5972729,13.972953,0.020287454
368056766,367937965,4028193,5.881087,0.012058215,-1.2908497,13.946873,0.013274923
368856881,368746700,4028193,5.8824,0.012017681,1.4384942,13.933877,0.016500676
369646856,369493676,4028193,5.883936,0.0119773215,1.3863492,13.933837,0.015326113
369846856,369710301,4028193,5.8872633,0.011967318,3.8705578,13.933826,0.11946322
370056868,369926505,4028193,5.884418,0.0119573325,-3.3136244,13.936404,0.087541364
370466909,370359041,4028193,5.8842816,0.011937414,2.351037,13.936384,0.044068303
371257123,371115587,4028193,5.88824,0.011897638,3.9401917,13.938932,0.12375498
371456980,371331792,4028193,5.891797,0.011887777,4.168294,13.941514,0.13847272
372047058,371926366,4028193,5.8965745,0.0118582295,1.0406818,13.949269,0.008626645
372467040,372325876,4028193,5.8926516,0.011838664,-4.098086,13.951849,0.13374816
372857093,372713457,4028193,5.889155,0.011819133,-4.163194,13.959639,0.13795474
373847132,373689171,4028193,5.891943,0.011770625,3.2337074,13.977881,0.083122306
374257189,374121592,4028193,5.8888454,0.011751414,-2.7693014,13.990987,0.06090453
374647216,374513955,4028193,5.8869743,0.011732259,1.6303835,14.009426,0.021082237
375037255,374903161,4028193,5.884714,0.011713186,-3.117208,14.027964,0.076965205
375457232,375336798,4028193,5.884916,0.011694233,2.0319328,14.030604,0.03269639
376057268,375931266,4028193,5.8834743,0.0116658285,0.13041306,14.022605,0.00013476308
376647375,376525964,4028193,5.8804317,0.011637556,-2.9493337,14.019923,0.06893816
376857374,376742165,4028193,5.8839364,0.011628185,4.221085,14.017262,0.14123504
377857409,377715360,4028193,5.8862834,0.011581417,2.3543906,14.019867,0.043930955
378477536,378363689,4028193,5.8879676,0.011553654,1.9283109,14.035788,0.02943573
378837476,378687914,4028193,5.8850813,0.011535096,-3.7726922,14.04644,0.11258849
379047525,378904000,4028193,5.8885703,0.011525919,4.2509813,14.054457,0.14286368
379447505,379336470,4028193,5.88933,0.011507626,3.9369445,14.067854,0.12241883
380237594,380093004,4028193,5.8906693,0.011471151,1.3436236,14.11108,0.014215183
380647592,380525561,4028193,5.8902283,0.011453112,-3.9044404,14.124687,0.119921274
381047777,380904425,4028193,5.8884478,0.011435091,-0.986341,14.152069,0.0076382123
381647842,381503938,4028193,5.8890376,0.011408268,-0.27184772,14.176873,0.00057919987
383277822,383125134,4028193,5.8903694,0.011337398,2.7527766,14.119116,0.059633724
383658010,383499946,4028193,5.8886847,0.011319649,-1.5124998,14.062293,0.018075569
383857872,383716586,4028193,5.886688,0.011310817,-2.4758582,14.038209,0.048517376
384258084,384146153,4028193,5.8818316,0.011293173,-3.119605,14.027543,0.07708593
384647930,384525833,4028193,5.8756795,0.011275511,-3.8193088,14.022214,0.11558738
385248085,385121669,4028193,5.866894,0.01124916,-3.363257,14.027499,0.08959779
385638002,385500720,4028193,5.861527,0.011231659,-3.4141145,14.040797,0.09224055
386248029,386109471,4028193,5.8533053,0.011205627,-3.5022755,14.07293,0.09684418
386648301,386545162,4028193,5.8480945,0.011188412,-2.8694015,14.097222,0.064894296
387248321,387144020,4028193,5.838125,0.01116268,-4.3207774,14.132595,0.14677745
387648131,387519587,4028193,5.83091,0.011145576,-4.332841,14.138055,0.1475412
388260725,388110791,4028193,5.821997,0.01112004,-3.8605928,14.138029,0.117132284
388658211,388553999,4028193,5.8158536,0.011103161,-4.21166,14.129802,0.13948517
389248230,389101970,4028193,5.8091483,0.011077782,-3.3529048,14.13251,0.088385426
389648244,389534985,4028193,5.8054843,0.01106098,-2.1703167,14.102519,0.037111375
390258293,390127285,4028193,5.801564,0.011035814,-1.9608817,14.116089,0.030265363
390648344,390502171,4028193,5.797158,0.011019062,-2.8941917,14.110627,0.06595774
391258423,391151206,4028193,5.7914653,0.010994153,-1.7405086,14.102452,0.023867954
391658607,391533424,4028193,5.787521,0.010977552,-3.3302603,14.107867,0.0873479
392258432,392131843,4028193,5.783481,0.010952778,-1.5064645,14.110561,0.017870264
392658440,392507430,4028193,5.7797313,0.010936298,-2.2008295,14.115989,0.0381258
393248511,393098848,4028193,5.773291,0.010911727,-2.1825671,14.126877,0.037466798
393658522,393531564,4028193,5.769913,0.010895474,-2.5475326,14.132328,0.05102503
394258548,394127398,4028193,5.7646594,0.010871117,-1.8516378,14.126836,0.026966505
394668636,394566891,4028193,5.7605047,0.010855005,-2.5994787,14.12682,0.05314784
395258636,395100406,4028193,5.755834,0.01083073,-1.6435318,14.126796,0.021245651
395648841,395532965,4028193,5.752178,0.010814721,-2.8307629,14.12678,0.06302622
396248845,396131820,4028193,5.746793,0.010790737,-2.4393353,14.126756,0.046801317
396648922,396507488,4028193,5.7443404,0.010774765,-1.4847088,14.124008,0.017341318
397248801,397104979,4028193,5.740902,0.010750953,-1.5821457,14.121256,0.019695958
397658846,397537768,4028193,5.7374964,0.010735183,-2.1930108,14.12124,0.037841316
398258962,398137577,4028193,5.7317886,0.010711555,-3.1159253,14.118488,0.076408796
398648937,398520618,4028193,5.7283597,0.010695838,-2.2011476,14.115748,0.03813747
399249050,399111915,4028193,5.72252,0.010672356,-2.5682282,14.115725,0.05191843
399649015,399497488,4028193,5.7180853,0.010656758,-3.0354576,14.112987,0.072541565
400249040,400102887,4028193,5.71253,0.010633488,-2.3913007,14.112963,0.045020226
400659002,400536017,4028193,5.708157,0.0106180655,-3.1069956,14.11567,0.075986646
401259090,401131045,4028193,5.703053,0.010594948,-1.6486197,14.115647,0.021394279
401649114,401513735,4028193,5.6983976,0.01057958,-3.1051345,14.112909,0.07591049
402249154,402108382,4028193,5.691572,0.010556627,-3.7499633,14.112886,0.11071225
402649192,402540927,4028193,5.687368,0.010541428,-2.581777,14.110149,0.052488405
403249257,403139266,4028193,5.680587,0.010518653,-3.3550143,14.1101265,0.08863706
403639296,403514223,4028193,5.676673,0.01050348,-3.1810079,14.107392,0.07969668
404249261,404106283,4028193,5.6703568,0.01048085,-2.8390942,14.101938,0.063509434
404649385,404539159,4028193,5.6660876,0.010465865,-2.976416,14.0964985,0.06982863
405249378,405137286,4028193,5.658024,0.010443391,-4.2301927,14.088356,0.14112939
405649396,405519312,4028193,5.653807,0.010428438,-2.872756,14.082936,0.065112114
406249362,406110502,4028193,5.647082,0.010406089,-3.3304925,14.074823,0.08756518
406649436,406542753,4028193,5.642924,0.010391296,-2.455606,14.072115,0.047611896
407249448,407133711,4028193,5.6365976,0.010369088,-2.5923076,14.058658,0.05311127
407649474,407515738,4028193,5.6341033,0.010354318,-1.3763294,14.050606,0.014979842
408249496,408114199,4028193,5.6279144,0.010332262,-2.875153,14.039896,0.065420754
408649576,408547116,4028193,5.6238403,0.010317641,-2.8672838,14.0265665,0.06512496
409249582,409138940,4028193,5.6172934,0.01029568,-3.2677956,14.005344,0.084717564
409649594,409513707,4028193,5.6129603,0.010281045,-3.057557,13.992145,0.07423734
410249858,410111917,4028193,5.606623,0.0102592055,-2.332634,13.97113,0.04327321
410649699,410544421,4028193,5.602836,0.010244724,-3.32765,13.960669,0.08813056
411259696,411143124,4028193,5.5968814,0.010223007,-2.5249758,13.950231,0.050779745
411649743,411518732,4028193,5.59315,0.010208536,-2.6779752,13.942425,0.05715211
412249827,412110116,4028193,5.5873485,0.010186927,-2.7807364,13.929459,0.061679795
412649967,412542547,4028193,5.5835032,0.010172611,-2.9967942,13.913977,0.07171666
413259851,413140766,4028193,5.576739,0.010151117,-2.6800098,13.888334,0.057461914
413649880,413523258,4028193,5.572154,0.010136801,-3.105801,13.873044,0.07725614
414249936,414114711,4028193,5.5650005,0.010115364,-2.8929844,13.832639,0.06722714
414649977,414547857,4028193,5.559556,0.010101151,-3.7459493,13.807645,0.1129176
415250015,415139140,4028193,5.5512576,0.010079784,-3.794962,13.7902565,0.11603794
415650015,415521487,4028193,5.548148,0.010065579,-1.9688144,13.785297,0.031242868
416250068,416126516,4028193,5.539588,0.010044396,-3.748693,13.782808,0.11328686
416640115,416508505,4028193,5.534845,0.010030286,-3.0418596,13.780327,0.07460643
417250149,417099703,4028193,5.5282145,0.010009182,-3.258613,13.743541,0.08584687
417650322,417532483,4028193,5.5224643,0.00999517,-4.046627,13.7072115,0.13273783
418240241,418124130,4028193,5.5127177,0.009974082,-4.829128,13.659471,0.18969724
418650264,418506727,4028193,5.5061016,0.009960042,-4.536648,13.647651,0.16755976
419250267,419105625,4028193,5.4961,0.009939081,-4.2284684,13.645275,0.1455933
419650315,419538717,4028193,5.4898124,0.009925202,-4.2823424,13.647616,0.14930126
420250469,420130525,4028193,5.479928,0.009904382,-4.3842225,13.652311,0.15643592
420670422,420562954,4028193,5.473442,0.009890608,-4.3865833,13.654659,0.15657751
421250462,421103554,4028193,5.464517,0.009869884,-4.1241503,13.6570015,0.13837929
421650515,421536556,4028193,5.4582696,0.009856215,-4.8086967,13.656987,0.1881297
422250494,422134761,4028193,5.448331,0.009835726,-4.244422,13.664068,0.14649223
422650600,422509514,4028193,5.4422903,0.009822083,-4.6280518,13.671174,0.17407969
423250651,423149571,4028193,5.4330034,0.009801807,-4.4507213,13.678289,0.16091128
423650588,423532071,4028193,5.4268084,0.009788295,-4.5164485,13.683044,0.1656414
424250626,424123620,4028193,5.417628,0.009768125,-4.3531013,13.690191,0.15379615
424650675,424505977,4028193,5.4121275,0.00975472,-4.0131173,13.694966,0.13066529
425260734,425154705,4028193,5.4032536,0.0097347805,-3.909624,13.694946,0.12401299
425640834,425537519,4028193,5.3978963,0.00972148,-3.611311,13.6973295,0.10579164
426250790,426129697,4028193,5.3897934,0.009701611,-3.6487083,13.6973095,0.10799422
426640835,426504553,4028193,5.3846774,0.009688383,-3.487701,13.699696,0.09865636
427250934,427103168,4028193,5.3768916,0.009668674,-4.0696993,13.702077,0.13430609
427660999,427536547,4028193,5.371563,0.009655631,-3.452095,13.704467,0.096618615
428250951,428135212,4028193,5.3639665,0.009636069,-3.5220914,13.706852,0.10055902
428651010,428509960,4028193,5.3597817,0.009623031,-3.135044,13.70684,0.07967232
429251092,429101287,4028193,5.3531723,0.009603588,-3.0195384,13.709227,0.0738968
429641259,429533960,4028193,5.3485856,0.009590729,-3.1130443,13.711623,0.078530654
430251109,430133283,4028193,5.3418374,0.009571452,-3.3707428,13.709194,0.09208667
430651205,430515406,4028193,5.3372045,0.009558618,-3.286481,13.709182,0.08754033
431251190,431106482,4028193,5.33121,0.00953945,-2.7770977,13.713983,0.062485065
431651232,431539133,4028193,5.3272214,0.009526774,-2.7774396,13.716382,0.062489517
432241266,432129974,4028193,5.321785,0.009507749,-2.2908225,13.721196,0.042496033
432651331,432532993,4028193,5.317625,0.009495166,-3.0833097,13.723601,0.07697039
433251406,433127888,4028193,5.311998,0.00947629,-3.1778636,13.726004,0.08174927
433651412,433507018,4028193,5.308691,0.009463732,-2.6714382,13.730839,0.05774983
434061427,433940383,4028193,5.305311,0.009451284,-2.3365035,13.7332535,0.044168934
434651507,434535387,4028193,5.3016567,0.009432604,-2.5401578,13.735664,0.05219504
435251504,435129695,4028193,5.2968283,0.009413997,-2.3001375,13.735645,0.042797267
435651586,435508096,4028193,5.2937174,0.009401615,-2.3561673,13.740497,0.044891834
436251643,436102804,4028193,5.289526,0.009383146,-1.9420638,13.742914,0.030493386
436651653,436535575,4028193,5.286609,0.009370927,-1.9937878,13.745338,0.03213364
437051683,436914777,4028193,5.2841377,0.009358673,-2.0253682,13.747766,0.033153806
437641724,437509751,4028193,5.2811923,0.009340391,-1.6918902,13.750188,0.023130937
438251737,438104284,4028193,5.2773166,0.009322183,-2.019102,13.75017,0.032943215
438481839,438374941,4028193,5.276071,0.009316229,-1.8367324,13.750163,0.027260978
439251785,439132473,4028193,5.2722178,0.009292054,-1.8922086,13.750139,0.028932665
439651897,439511116,4028193,5.269661,0.009280015,-2.103088,13.750127,0.035740912
440251864,440106506,4028193,5.2663484,0.00926206,-1.5232935,13.752553,0.018747414
440651976,440539250,4028193,5.2639146,0.009250179,-1.7647419,13.754986,0.025157051
441061971,440917836,4028193,5.2612605,0.009238256,-2.242365,13.754974,0.040617228
441662023,441512672,4028193,5.259189,0.009220467,-1.5202475,13.754956,0.018669248
442052112,441946033,4028193,5.257206,0.009208701,-1.717629,13.754944,0.02383183
442452199,442324995,4028193,5.2553015,0.009196892,-1.6279593,13.754932,0.021408495
443252226,443136283,4028193,5.251902,0.00917344,-1.3633218,13.757356,0.015011334
443652211,443514911,4028193,5.25039,0.009161726,-1.2732472,13.759792,0.013090947
444062279,443907548,4028193,5.249129,0.009150087,-0.93959045,13.764686,0.00712637
444482255,444341725,4028193,5.247723,0.009138519,-0.86307096,13.767129,0.0060118358
445242366,445098812,4028193,5.244752,0.009115328,-1.0660238,13.774482,0.009166764
445642413,445531395,4028193,5.243297,0.00910386,-1.0170312,13.779399,0.00834057
446052505,445924188,4028193,5.2418356,0.009092392,-1.11267,13.784323,0.009979407
446462504,446357289,4028193,5.2407603,0.009080995,-0.79736376,13.786783,0.0051239813
447052674,446948276,4028193,5.2394667,0.009063873,-0.64915514,13.791714,0.0033949723
447652674,447539353,4028193,5.238194,0.0090468265,-0.834836,13.799134,0.005611875
448252680,448137550,4028193,5.2366166,0.009029873,-0.94610023,13.804085,0.007204837
448852706,448736089,4028193,5.235427,0.009012991,-0.50629044,13.806555,0.0020628688
449652785,449545028,4028193,5.234147,0.008990588,-0.4946108,13.799077,0.0019698567
450042808,449915503,4028193,5.233113,0.008979369,-0.7661128,13.799067,0.004725995
450462900,450354275,4028193,5.2319245,0.008968293,-0.76405096,13.796574,0.00470144
450852891,450730431,4028193,5.2308426,0.008957142,-0.7728181,13.791607,0.0048116846
451253009,451150206,4028193,5.229621,0.008946065,-1.0566392,13.789122,0.008996516
451643057,451525148,4028193,5.228615,0.008934965,-1.149807,13.786637,0.010654891
452052993,451907558,4028193,5.2274394,0.008923915,-0.9739733,13.786626,0.0076452834
452463088,452340266,4028193,5.22635,0.008912956,-0.743062,13.786615,0.0044498974
453253084,453098150,4028193,5.2239695,0.008890981,-0.89808893,13.786593,0.006500387
453853162,453747682,4028193,5.222905,0.008874684,-0.4523492,13.786577,0.0016491063
454243157,454122642,4028193,5.221558,0.008863769,-0.9175601,13.786566,0.0067853215
458043491,457927178,4028193,5.220454,0.008761859,-0.342484,13.786464,0.0009453338
460243750,460140992,4028193,5.2217274,0.008703965,0.82659197,13.7864065,0.0055066664
461043813,460898974,4028193,5.222749,0.008683057,0.44560623,13.786386,0.0016003301
461643950,461504361,4028193,5.2242846,0.008667507,0.9465771,13.786369,0.007221369
462243943,462102938,4028193,5.225307,0.008651994,0.5380187,13.788827,0.0023325174
463244006,463127589,4028193,5.2266073,0.008626302,0.526783,13.788801,0.0022361167
464054092,463935361,4028193,5.227617,0.008605846,0.6194773,13.791256,0.0030917502
464864188,464749726,4028193,5.2286253,0.008585511,0.56803894,13.793712,0.0025991572
465454320,465351815,4028193,5.2302217,0.008570324,1.2477756,13.793696,0.012541509
465844243,465719546,4028193,5.2312927,0.008560165,0.6739092,13.793687,0.003658305
466454330,466318284,4028193,5.232367,0.008545067,0.87825537,13.79615,0.0062121395
467054393,466917454,4028193,5.233568,0.008530029,0.5746875,13.798616,0.0026594107
467844512,467724742,4028193,5.234882,0.0085100625,1.0140195,13.80108,0.008278222
468464551,468316514,4028193,5.2361407,0.008495142,1.0221038,13.806036,0.008407724
468844594,468699327,4028193,5.2375426,0.008485222,1.3120484,13.808516,0.013851928
469254592,469132281,4028193,5.2387233,0.008475387,0.71964073,13.80353,0.0041686823
469654638,469515688,4028193,5.240191,0.00846551,1.6109071,13.801035,0.020892328
470244668,470114191,4028193,5.241502,0.008450763,0.861341,13.796056,0.0059752045
470644745,470489309,4028193,5.242565,0.00844092,1.0181403,13.798527,0.008347184
471044761,470921762,4028193,5.244083,0.008431183,1.3995781,13.798517,0.015773183
471444845,471296848,4028193,5.245366,0.008421389,0.9088974,13.796026,0.0066532404
471854832,471730198,4028193,5.2464128,0.008411705,1.0462561,13.793538,0.008817749
474045126,473892648,4028193,5.247418,0.008358407,0.3153882,13.754093,0.0008035565
474835183,474718049,4028193,5.2487035,0.008339267,0.60878897,13.758969,0.002992989
476035281,475909807,4028193,5.2498074,0.008310649,0.39002037,13.758941,0.0012284206
477235422,477107742,4028193,5.2509403,0.008282246,0.29282856,13.751572,0.0006928385
482455954,482344966,4028193,5.24978,0.008160937,-0.3143692,13.643495,0.00080484425
483246045,483102042,4028193,5.2487063,0.008142457,-0.35253668,13.629388,0.0010131873
484056185,483917121,4028193,5.2475977,0.008124129,-0.4928546,13.613026,0.0019826244
484836257,484725183,4028193,5.2464075,0.0081058545,-0.5737052,13.603711,0.0026882994
485436282,485316390,4028193,5.245247,0.008092172,-0.9271164,13.599061,0.00702291
486246407,486124431,4028193,5.244083,0.008074037,-0.62582064,13.601359,0.0031994472
487046508,486934331,4028193,5.242942,0.008056013,-0.5818529,13.619949,0.002761903
487636654,487482319,4028193,5.2416525,0.008042478,-0.9276142,13.6152725,0.007022083
488236782,488083910,4028193,5.240288,0.008029063,-0.6426592,13.605955,0.0033727947
488646731,488516446,4028193,5.2391696,0.008020165,-0.8880944,13.582827,0.0064518703
489046786,488898263,4028193,5.2381573,0.008011212,-0.9602709,13.5667515,0.0075521246
489436840,489324907,4028193,5.236842,0.008002316,-1.1627526,13.546232,0.011089543
489846917,489700790,4028193,5.2354574,0.0079933675,-1.2845049,13.53716,0.01354258
490247011,490133715,4028193,5.2339964,0.007984519,-1.2557502,13.53263,0.012947376
490647058,490508560,4028193,5.2325664,0.0079756025,-1.1369281,13.530364,0.010614853
491047035,490941017,4028193,5.231177,0.007966792,-1.1998534,13.534872,0.0118184285
491447015,491323385,4028193,5.2296276,0.007957949,-1.124835,13.548458,0.010376365
491857170,491712653,4028193,5.228281,0.007949161,-1.1672845,13.564403,0.011161184
492637193,492527589,4028193,5.225826,0.007931695,-0.99746513,13.596585,0.008130609
493047212,492902555,4028193,5.224481,0.00792296,-1.0898657,13.617484,0.0096918475
493437224,493301885,4028193,5.2232356,0.007914323,-1.175653,13.631503,0.01126606
493847388,493690914,4028193,5.2219095,0.007905692,-1.0297742,13.652672,0.00863026
494457380,494331867,4028193,5.2205334,0.007892861,-0.744576,13.683534,0.004501708
494867568,494720200,4028193,5.2192945,0.007884309,-0.96743584,13.70029,0.00759053
495647512,495528645,4028193,5.216388,0.007867299,-1.4016285,13.717135,0.015913287
496047553,495911413,4028193,5.2150683,0.007858809,-1.2147565,13.719544,0.011950781
496447571,496308168,4028193,5.21313,0.007850377,-1.9866776,13.721954,0.031959232
496837610,496690935,4028193,5.211751,0.007841923,-1.2914815,13.721947,0.013505732
497657818,497556095,4028193,5.2087426,0.0078252405,-1.4492354,13.785526,0.01692825
498057747,497931228,4028193,5.2071805,0.007816892,-1.3352027,13.845422,0.014306906
498457805,498320657,4028193,5.2057548,0.0078086485,-1.2427206,13.914183,0.012332377
