timestamp,timestamp_sample,gyro_device_id,gyro_bias[0],gyro_bias[1],gyro_bias[2],gyro_bias_limit,gyro_bias_variance[0],gyro_bias_variance[1],gyro_bias_variance[2],accel_device_id,accel_bias[0],accel_bias[1],accel_bias[2],accel_bias_limit,accel_bias_variance[0],accel_bias_variance[1],accel_bias_variance[2],mag_device_id,mag_bias[0],mag_bias[1],mag_bias[2],mag_bias_limit,mag_bias_variance[0],mag_bias_variance[1],mag_bias_variance[2],gyro_bias_valid,gyro_bias_stable,accel_bias_valid,accel_bias_stable,mag_bias_valid,mag_bias_stable
217088715,216988220,4325386,0.0018856978,0.002268718,-0.00040891528,0.34906584,2.1831801e-07,2.2095405e-07,4.2909053e-07,4259850,0.109859355,0.017623127,-0.017847314,0.4,0.0005001152,0.0006021447,0.0005001134,396321,0.0,0.0,0.0,0.5,0.0025000002,0.0025000002,0.0025000002,1,1,1,0,1,0
218098893,217998302,4325386,0.0019083986,0.0022748017,-0.00050713815,0.34906584,2.1585736e-07,2.186026e-07,4.2994228e-07,4259850,0.10984859,0.017840639,-0.01725355,0.4,0.00050030823,0.0006022387,0.00050030503,396321,0.0,0.0,0.0,0.5,0.0025000002,0.0025000002,0.0025000002,1,1,1,0,1,0
219108846,219008385,4325386,0.0019052542,0.0022685074,-0.00067700393,0.34906584,2.1294206e-07,2.1569116e-07,4.290118e-07,4259850,0.109746404,0.018170277,-0.017193435,0.4,0.00049931253,0.00060100027,0.00049931044,396321,0.0,0.0,0.0,0.5,0.0025000002,0.0025000002,0.0025000002,1,0,1,0,1,0
220119006,220018469,4325386,0.0019282801,0.0022555979,-0.000714753,0.34906584,2.107719e-07,2.1344522e-07,4.2986443e-07,4259850,0.10980618,0.01814764,-0.016661208,0.4,0.00049958914,0.00060120085,0.0004995865,396321,0.0,0.0,0.0,0.5,0.0025000002,0.0025000002,0.0025000002,1,0,1,0,1,0
221059464,220958546,4325386,0.0019454552,0.0022780783,-0.000576578,0.34906584,2.0829108e-07,2.1081728e-07,4.3018633e-07,4259850,0.10993062,0.01786286,-0.015564246,0.4,0.00050010136,0.0006015593,0.00050010136,396321,0.0,0.0,0.0,0.5,0.0025000002,0.0025000002,0.0025000002,1,0,1,0,1,0
221469258,221368581,4325386,0.0019470667,0.0022867946,-0.00047645977,0.34906584,2.0737414e-07,2.0982654e-07,4.3022203e-07,4259850,0.109876834,0.017654682,-0.014344376,0.4,0.00049964257,0.00060087646,0.00049964257,396321,0.0,0.0,0.0,0.5,0.0025000002,0.0025000002,0.0025000002,1,0,1,0,1,0
221999192,221898625,4325386,0.0019548265,0.0022934328,-0.00028152592,0.34906584,2.0791515e-07,2.102864e-07,4.3035573e-07,4259850,0.10984624,0.017199423,-0.01342294,0.4,0.00049962994,0.0006007137,0.0004996183,396321,0.0,0.0,0.0,0.5,0.0025000002,0.0025000002,0.0025000002,1,0,1,0,1,0
222809265,222708693,4325386,0.0019645225,0.0023189671,0.00014982928,0.34906584,2.0652108e-07,2.087233e-07,4.3033344e-07,4259850,0.10981489,0.016309725,-0.012888762,0.4,0.0004996073,0.0006003636,0.0004995948,396321,0.0,0.0,0.0,0.5,0.0025000002,0.0025000002,0.0025000002,1,0,1,0,1,0
223149252,223048722,4325386,0.0019586408,0.0023368155,0.0003506496,0.34906584,2.052966e-07,2.074251e-07,4.3061854e-07,4259850,0.10976271,0.015973348,-0.011787188,0.4,0.00049942144,0.000599945,0.0004994134,396321,0.0,0.0,0.0,0.5,0.0025000002,0.0025000002,0.0025000002,1,0,1,0,1,0
224019417,223918795,4325386,0.001984526,0.002385654,0.00091980724,0.34906584,2.0501359e-07,2.0701034e-07,4.3107028e-07,4259850,0.11003324,0.014962211,-0.0119191585,0.4,0.0005002455,0.00060036377,0.0005002331,396321,0.0,0.0,0.0,0.5,0.0025000002,0.0025000002,0.0025000002,1,0,1,0,1,0
224779449,224678860,4325386,0.0020044355,0.0024041831,0.0013591255,0.34906584,2.0308983e-07,2.0482085e-07,4.3053856e-07,4259850,0.10992658,0.014024246,-0.011545649,0.4,0.00049951184,0.0005989241,0.000499504,396321,0.0,0.0,0.0,0.5,0.0025000002,0.0025000002,0.0025000002,1,0,1,0,1,0
225459732,225358918,4325386,0.0020294047,0.0024430703,0.0017529657,0.34906584,2.0100344e-07,2.0251144e-07,4.3088255e-07,4259850,0.11011041,0.013335827,-0.012697408,0.4,0.00049985637,0.00059890084,0.00049985637,396321,0.0,0.0,0.0,0.5,0.0025000002,0.0025000002,0.0025000002,1,0,1,0,1,0
226379572,226278997,4325386,0.0020053126,0.0024533027,0.0022595895,0.34906584,2.015283e-07,2.0284158e-07,4.3153668e-07,4259850,0.10991832,0.012503079,-0.012086389,0.4,0.00050034904,0.0005991995,0.0005003392,396321,0.0,0.0,0.0,0.5,0.0025000002,0.0025000002,0.0025000002,1,0,1,0,1,0
227189604,227089066,4325386,0.0019669472,0.0025083239,0.0026657719,0.34906584,2.0097846e-07,2.0217635e-07,4.322012e-07,4259850,0.11000829,0.0120081315,-0.011220348,0.4,0.000500334,0.0005990296,0.0005003223,396321,0.0,0.0,0.0,0.5,0.0025000002,0.0025000002,0.0025000002,1,0,1,0,1,0
228059947,227959141,4325386,0.001974621,0.0025676845,0.0031272473,0.34906584,1.9892872e-07,2.0004516e-07,4.316364e-07,4259850,0.11008995,0.011236828,-0.011970811,0.4,0.00049998943,0.0005985596,0.00049998943,396321,0.0,0.0,0.0,0.5,0.0025000002,0.0025000002,0.0025000002,1,0,1,0,1,0
228659950,228559193,4325386,0.0019784425,0.0025978123,0.0034416018,0.34906584,1.9852399e-07,1.9958831e-07,4.3147583e-07,4259850,0.11013475,0.010704417,-0.010822914,0.4,0.0004997723,0.0005982905,0.0004997723,396321,0.0,0.0,0.0,0.5,0.0025000002,0.0025000002,0.0025000002,1,0,1,0,1,0
229259917,229159246,4325386,0.001997213,0.0026432786,0.00372606,0.34906584,1.9858409e-07,1.9959167e-07,4.3286607e-07,4259850,0.110328235,0.010249103,-0.00924311,0.4,0.00050050404,0.00059915456,0.00050050404,396321,0.0,0.0,0.0,0.5,0.0025000002,0.0025000002,0.0025000002,1,0,1,0,1,0
230060012,229959316,4325386,0.0020364749,0.0026631746,0.004164,0.34906584,1.9828671e-07,1.9920502e-07,4.3254485e-07,4259850,0.1103966,0.009548157,-0.010291694,0.4,0.0005004433,0.00059902295,0.0005004433,396321,0.0,0.0,0.0,0.5,0.0025000002,0.0025000002,0.0025000002,1,0,1,0,1,0
231070022,230969409,4325386,0.002082024,0.0026917807,0.0046332777,0.34906584,1.9775938e-07,1.9850125e-07,4.3229255e-07,4259850,0.11049054,0.00884575,-0.010101898,0.4,0.00049985736,0.0005981965,0.00049985736,396321,0.0,0.0,0.0,0.5,0.0025000002,0.0025000002,0.0025000002,1,0,1,0,1,0
231480153,231379441,4325386,0.0020694507,0.002672278,0.004849591,0.34906584,1.9791239e-07,1.9857264e-07,4.3231128e-07,4259850,0.11043228,0.008421843,-0.009125948,0.4,0.00050042657,0.00059882074,0.00050042657,396321,0.0,0.0,0.0,0.5,0.0025000002,0.0025000002,0.0025000002,1,0,1,0,1,0
232480246,232379529,4325386,0.0021217004,0.0026209722,0.005278695,0.34906584,1.9720909e-07,1.9772247e-07,4.3169973e-07,4259850,0.11040638,0.0074962475,-0.008612475,0.4,0.00049950887,0.00059759733,0.00049950887,396321,0.0,0.0,0.0,0.5,0.0025000002,0.0025000002,0.0025000002,1,0,1,0,1,0
233070235,232969581,4325386,0.002124487,0.0025625636,0.005529382,0.34906584,1.972384e-07,1.9771095e-07,4.323356e-07,4259850,0.11035608,0.0069132294,-0.0070523988,0.4,0.00050035067,0.0005985642,0.00050035067,396321,0.0,0.0,0.0,0.5,0.0025000002,0.0025000002,0.0025000002,1,0,1,0,1,0
233670278,233569635,4325386,0.0021164396,0.0025243366,0.005749292,0.34906584,1.9687862e-07,1.9732971e-07,4.319342e-07,4259850,0.11020525,0.0065217335,-0.008002697,0.4,0.0004999103,0.0005980303,0.0004998958,396321,0.0,0.0,0.0,0.5,0.0025000002,0.0025000002,0.0025000002,1,0,1,0,1,0
234070297,233969670,4325386,0.002124385,0.0025125719,0.005881906,0.34906584,1.965303e-07,1.9697472e-07,4.3168916e-07,4259850,0.11011662,0.0063176854,-0.009347649,0.4,0.0004993869,0.00059740024,0.00049935014,396321,0.0,0.0,0.0,0.5,0.0025000002,0.0025000002,0.0025000002,1,0,1,0,1,0
234280238,234179689,4325386,0.0021187847,0.0025101097,0.005961103,0.34906584,1.9677677e-07,1.9722016e-07,4.319475e-07,4259850,0.11015549,0.006226297,-0.010543099,0.4,0.00049988145,0.00059798895,0.0004998329,396321,0.0,0.0,0.0,0.5,0.0025000002,0.0025000002,0.0025000002,1,0,1,0,1,0
234560263,234459714,4325386,0.0021260849,0.0025082605,0.0060394085,0.34906584,1.975616e-07,1.9800356e-07,4.3270262e-07,4259850,0.11016155,0.0061246012,-0.011541205,0.4,0.0005001448,0.0005982997,0.00050008064,396321,0.0,0.0,0.0,0.5,0.0025000002,0.0025000002,0.0025000002,1,0,1,0,1,0
234830242,234729738,4325386,0.0021284323,0.0025076226,0.0061406223,0.34906584,1.9817924e-07,1.9861857e-07,4.3229375e-07,4259850,0.11013267,0.0059914533,-0.012571334,0.4,0.00050002744,0.0005981538,0.0004999516,396321,0.0,0.0,0.0,0.5,0.0025000002,0.0025000002,0.0025000002,1,0,1,0,1,0
235060470,234959759,4325386,0.0021117777,0.0025192115,0.0062104627,0.34906584,1.9622428e-07,1.9665607e-07,4.319342e-07,4259850,0.11013759,0.0058667734,-0.014003028,0.4,0.0004995489,0.0005975815,0.00049949304,396321,0.0,0.0,0.0,0.5,0.0025000002,0.0025000002,0.0025000002,1,0,1,0,1,0
235260477,235159777,4325386,0.0021039534,0.002514722,0.0063011413,0.34906584,1.9628096e-07,1.9670634e-07,4.3199165e-07,4259850,0.11016965,0.0057946695,-0.0155520905,0.4,0.0004998769,0.00059797225,0.000499838,396321,0.0,0.0,0.0,0.5,0.0025000002,0.0025000002,0.0025000002,1,0,1,0,1,0
235460515,235359795,4325386,0.0020983182,0.0025158096,0.006366876,0.34906584,1.9625254e-07,1.9666923e-07,4.327901e-07,4259850,0.11021619,0.005742024,-0.016633052,0.4,0.0005001775,0.00059833156,0.0005001775,396321,0.0,0.0,0.0,0.5,0.0025000002,0.0025000002,0.0025000002,1,0,1,0,1,0
235670420,235569814,4325386,0.0020972947,0.002537816,0.006460661,0.34906584,1.9578495e-07,1.9618892e-07,4.3201064e-07,4259850,0.11024728,0.0055062203,-0.0194232,0.4,0.0004994442,0.0005973616,0.0004994442,396321,0.0,0.0,0.0,0.5,0.0025000002,0.0025000002,0.0025000002,1,0,1,0,1,0
235860498,235759831,4325386,0.0020989152,0.0025427649,0.006560516,0.34906584,1.9536199e-07,1.9575172e-07,4.3163647e-07,4259850,0.11025489,0.005364949,-0.020747207,0.4,0.0004994169,0.000597187,0.0004994169,396321,0.0,0.0,0.0,0.5,0.0025000002,0.0025000002,0.0025000002,1,0,1,0,1,0
236870414,236769922,4325386,0.002113975,0.0025956302,0.006889194,0.34906584,1.9485233e-07,1.9517941e-07,4.3246743e-07,4259850,0.11057352,0.0046975063,-0.020293681,0.4,0.0005000413,0.00059731613,0.0005000413,396321,0.0,0.0,0.0,0.5,0.0025000002,0.0025000002,0.0025000002,1,0,1,0,1,0
237250584,237149956,4325386,0.0021283675,0.0026044059,0.0070190923,0.34906584,1.9464727e-07,1.9494155e-07,4.3244654e-07,4259850,0.1105511,0.004485739,-0.018870294,0.4,0.000499994,0.0005971028,0.000499994,396321,0.0,0.0,0.0,0.5,0.0025000002,0.0025000002,0.0025000002,1,0,1,0,1,0
237670663,237569995,4325386,0.0021450883,0.0025989485,0.007177333,0.34906584,1.9478784e-07,1.950492e-07,4.3189868e-07,4259850,0.110448815,0.0043450063,-0.01737429,0.4,0.0004997476,0.0005967007,0.0004997476,396321,0.0,0.0,0.0,0.5,0.0025000002,0.0025000002,0.0025000002,1,0,1,0,1,0
237880635,237780014,4325386,0.002165603,0.0026008203,0.0072335806,0.34906584,1.9513324e-07,1.9537711e-07,4.3289154e-07,4259850,0.11043603,0.0042794785,-0.01630056,0.4,0.00050022604,0.0005972343,0.0005002243,396321,0.0,0.0,0.0,0.5,0.0025000002,0.0025000002,0.0025000002,1,0,1,0,1,0
238070733,237970031,4325386,0.0021737083,0.0026019635,0.0073188785,0.34906584,1.9505826e-07,1.95286e-07,4.3248434e-07,4259850,0.11040737,0.004191386,-0.0152866235,0.4,0.00050016557,0.00059713534,0.00050016557,396321,0.0,0.0,0.0,0.5,0.0025000002,0.0025000002,0.0025000002,1,0,1,0,1,0
238590587,238490078,4325386,0.0021884206,0.002612296,0.007527982,0.34906584,1.9636407e-07,1.965665e-07,4.3234854e-07,4259850,0.11037569,0.0039534275,-0.014242134,0.4,0.0005000705,0.0005969849,0.0005000597,396321,0.0,0.0,0.0,0.5,0.0025000002,0.0025000002,0.0025000002,1,0,1,0,1,0
238670721,238570086,4325386,0.002191048,0.0026166758,0.0075555244,0.34906584,1.9518008e-07,1.953711e-07,4.3229625e-07,4259850,0.11036332,0.003919833,-0.013193571,0.4,0.0004999494,0.000596834,0.00049994874,396321,0.0,0.0,0.0,0.5,0.0025000002,0.0025000002,0.0025000002,1,0,1,0,1,0
238910644,238810108,4325386,0.0021930016,0.002613295,0.0076421783,0.34906584,1.9551352e-07,1.9569526e-07,4.3216914e-07,4259850,0.11032349,0.0038532047,-0.012092225,0.4,0.0004996298,0.0005964416,0.0004996214,396321,0.0,0.0,0.0,0.5,0.0025000002,0.0025000002,0.0025000002,1,0,1,0,1,0
239070751,238970122,4325386,0.0022038228,0.002617948,0.007697926,0.34906584,1.9507479e-07,1.9524768e-07,4.3206916e-07,4259850,0.110281266,0.0037977034,-0.010849188,0.4,0.0004994008,0.00059616,0.000499389,396321,0.0,0.0,0.0,0.5,0.0025000002,0.0025000002,0.0025000002,1,0,1,0,1,0
239270766,239170141,4325386,0.0022191196,0.0026118683,0.0077836234,0.34906584,1.9515973e-07,1.9532327e-07,4.3189922e-07,4259850,0.110262915,0.0037546041,-0.009470906,0.4,0.0004994971,0.00059626537,0.00049947575,396321,0.0,0.0,0.0,0.5,0.0025000002,0.0025000002,0.0025000002,1,0,1,0,1,0
239470789,239370159,4325386,0.0022318375,0.0025998454,0.0078429235,0.34906584,1.9533653e-07,1.9549209e-07,4.3269029e-07,4259850,0.110276796,0.003750573,-0.00828091,0.4,0.000499843,0.00059666956,0.0004998096,396321,0.0,0.0,0.0,0.5,0.0025000002,0.0025000002,0.0025000002,1,0,1,0,1,0
239790679,239690188,4325386,0.0022341674,0.0025958095,0.007983586,0.34906584,1.9642023e-07,1.9656954e-07,4.3176368e-07,4259850,0.11021827,0.003623034,-0.0072899708,0.4,0.00049941475,0.0005961457,0.0004993578,396321,0.0,0.0,0.0,0.5,0.0025000002,0.0025000002,0.0025000002,1,0,1,0,1,0
239870814,239770195,4325386,0.0022359448,0.0025906772,0.008020677,0.34906584,1.9568301e-07,1.9582754e-07,4.32776e-07,4259850,0.110340424,0.0036188862,-0.005882526,0.4,0.0005005301,0.0005974717,0.0005004676,396321,0.0,0.0,0.0,0.5,0.0025000002,0.0025000002,0.0025000002,1,0,1,0,1,0
240600789,240500263,4325386,0.002232102,0.0025742175,0.008264384,0.34906584,1.9657854e-07,1.9671585e-07,4.3242432e-07,4259850,0.11019947,0.003377535,-0.0049078856,0.4,0.00049951486,0.00059623225,0.00049939146,396321,0.0,0.0,0.0,0.5,0.0025000002,0.0025000002,0.0025000002,1,0,1,0,1,0
241471018,241370343,4325386,0.0022461878,0.0025949033,0.008606604,0.34906584,1.9527384e-07,1.9542186e-07,4.3207802e-07,4259850,0.11015251,0.0030836652,-0.0036147516,0.4,0.00049949926,0.0005961723,0.0004993124,396321,0.0,0.0,0.0,0.5,0.0025000002,0.0025000002,0.0025000002,1,0,1,0,1,0
241971005,241870389,4325386,0.0022556745,0.0026235906,0.0088052275,0.34906584,1.9654172e-07,1.9669525e-07,4.3238575e-07,4259850,0.110218324,0.0029722427,-0.0025613478,0.4,0.0005001678,0.00059694855,0.0004999498,396321,0.0,0.0,0.0,0.5,0.0025000002,0.0025000002,0.0025000002,1,0,1,0,1,0
242981240,242880483,4325386,0.0022965977,0.0026846812,0.0091616055,0.34906584,1.9671029e-07,1.9685238e-07,4.3300486e-07,4259850,0.11031773,0.0028071017,-0.002739248,0.4,0.00050056615,0.00059737195,0.00050030753,396321,0.0,0.0,0.0,0.5,0.0025000002,0.0025000002,0.0025000002,1,0,1,0,1,0
243251079,243150508,4325386,0.0023118425,0.002697256,0.009263485,0.34906584,1.9742043e-07,1.9755488e-07,4.32757e-07,4259850,0.11035417,0.0027589859,-0.0016899189,0.4,0.0005006588,0.00059747073,0.0005003874,396321,0.0,0.0,0.0,0.5,0.0025000002,0.0025000002,0.0025000002,1,0,1,0,1,0
243471223,243370528,4325386,0.0023329651,0.002679084,0.009330321,0.34906584,1.9534514e-07,1.9545716e-07,4.3214385e-07,4259850,0.110332675,0.0026623248,-0.00023440963,0.4,0.00050006097,0.00059674523,0.00049979123,396321,0.0,0.0,0.0,0.5,0.0025000002,0.0025000002,0.0025000002,1,0,1,0,1,0
244011079,243910579,4325386,0.0023597323,0.0026541282,0.009492839,0.34906584,1.967312e-07,1.9681823e-07,4.3219052e-07,4259850,0.11037277,0.0024735797,-0.0012662952,0.4,0.00050002005,0.00059667864,0.000499717,396321,0.0,0.0,0.0,0.5,0.0025000002,0.0025000002,0.0025000002,1,0,1,0,1,0
244671292,244570640,4325386,0.0023963635,0.002615031,0.009562021,0.34906584,1.9546825e-07,1.9552655e-07,4.3566922e-07,4259850,0.110463,0.0023759347,-8.9342284e-05,0.4,0.00050066755,0.0005974337,0.0005003188,396321,0.0,0.0,0.0,0.5,0.0025000002,0.0025000002,0.0025000002,1,0,1,0,1,0
245261400,245160695,4325386,0.0023786305,0.0025801756,0.009553915,0.34906584,1.951055e-07,1.9516862e-07,4.3873203e-07,4259850,0.11036571,0.0023377794,0.000958784,0.4,0.00050006807,0.00059670664,0.0004996704,396321,0.0,0.0,0.0,0.5,0.0025000002,0.0025000002,0.0025000002,1,0,1,0,1,0
246271326,246170790,4325386,0.002299416,0.0025408338,0.009548892,0.34906584,1.9521985e-07,1.9532936e-07,4.4482536e-07,4259850,0.11035739,0.002302044,0.0015080638,0.4,0.00050045527,0.0005971502,0.0004999709,396321,0.0,0.0,0.0,0.5,0.0025000002,0.0025000002,0.0025000002,1,0,1,0,1,0
247281453,247180884,4325386,0.0022155065,0.0026062888,0.009535582,0.34906584,1.9538862e-07,1.955578e-07,4.5087432e-07,4259850,0.110391386,0.0022926673,0.0018724783,0.4,0.0005008447,0.0005975939,0.0005002723,396321,0.0,0.0,0.0,0.5,0.0025000002,0.0025000002,0.0025000002,1,0,1,0,1,0
247651551,247550919,4325386,0.0022012882,0.0026532512,0.009529934,0.34906584,1.9526831e-07,1.9545908e-07,4.530283e-07,4259850,0.11041388,0.0022730546,0.0033037106,0.4,0.0005011037,0.00059789215,0.0005004969,396321,0.0,0.0,0.0,0.5,0.0025000002,0.0025000002,0.0025000002,1,0,1,0,1,0
248271722,248170977,4325386,0.0022241944,0.0027240391,0.009503273,0.34906584,1.9533753e-07,1.955513e-07,4.5526542e-07,4259850,0.11014437,0.002327384,0.0046927542,0.4,0.00049999356,0.0005965264,0.000499352,396321,0.0,0.0,0.0,0.5,0.0025000002,0.0025000002,0.0025000002,1,0,1,0,1,0
248661748,248561014,4325386,0.0022543585,0.0027570073,0.009496893,0.34906584,1.956252e-07,1.958363e-07,4.5753416e-07,4259850,0.11006727,0.00242276,0.0061374153,0.4,0.0005002972,0.00059684936,0.0004996464,396321,0.0,0.0,0.0,0.5,0.0025000002,0.0025000002,0.0025000002,1,0,1,0,1,0
249471718,249371090,4325386,0.002341307,0.002786937,0.009478667,0.34906584,1.9632009e-07,1.9645292e-07,4.6151987e-07,4259850,0.10992717,0.002776474,0.007408293,0.4,0.0005005357,0.0005970432,0.0004998734,396321,0.0,0.0,0.0,0.5,0.0025000002,0.0025000002,0.0025000002,1,1,1,1,1,0
249661802,249561108,4325386,0.002358351,0.002776348,0.009473438,0.34906584,1.9630352e-07,1.964033e-07,4.6253584e-07,4259850,0.10993464,0.00283243,0.008675314,0.4,0.0005004875,0.00059696636,0.00049981946,396321,0.0,0.0,0.0,0.5,0.0025000002,0.0025000002,0.0025000002,1,1,1,1,1,0
249861868,249761126,4325386,0.0023817807,0.0027649235,0.009470442,0.34906584,1.9651358e-07,1.9657783e-07,4.6361816e-07,4259850,0.109985344,0.0029058203,0.009879241,0.4,0.0005008122,0.00059733586,0.0005001355,396321,0.0,0.0,0.0,0.5,0.0025000002,0.0025000002,0.0025000002,1,1,1,1,1,0
250251785,250151163,4325386,0.0024288064,0.0027133643,0.00944887,0.34906584,1.9626465e-07,1.9626246e-07,4.6479983e-07,4259850,0.1099936,0.003029855,0.011567991,0.4,0.0005001061,0.00059646455,0.0004994096,396321,0.0,0.0,0.0,0.5,0.0025000002,0.0025000002,0.0025000002,1,1,1,1,1,0
251261792,251161259,4325386,0.002477812,0.002601916,0.009431702,0.34906584,1.9844785e-07,1.9838228e-07,4.6953318e-07,4259850,0.1102005,0.0029895979,0.01144019,0.4,0.00050054607,0.00059694966,0.0004997802,396321,0.0,0.0,0.0,0.5,0.0025000002,0.0025000002,0.0025000002,1,1,1,1,1,0
251862039,251761315,4325386,0.0026030364,0.0025598218,0.009366745,0.34906584,1.961167e-07,1.9589508e-07,4.706739e-07,4259850,0.11052539,0.0029022724,0.010230319,0.4,0.0005000969,0.0005964117,0.00049932784,396321,0.0,0.0,0.0,0.5,0.0025000002,0.0025000002,0.0025000002,1,1,1,1,1,0
252262097,252161353,4325386,0.0027484556,0.0025104473,0.009284303,0.34906584,1.9638497e-07,1.9597191e-07,4.7192373e-07,4259850,0.111110136,0.0025309979,0.008598156,0.4,0.0005007536,0.0005972133,0.0005000261,396321,0.0,0.0,0.0,0.5,0.0025000002,0.0025000002,0.0025000002,1,1,1,1,1,0
252682128,252581393,4325386,0.0028102659,0.0024125108,0.009250482,0.34906584,1.962328e-07,1.9576106e-07,4.7312258e-07,4259850,0.11120809,0.0018562507,0.007822913,0.4,0.0005003898,0.0005967833,0.0004997601,396321,0.0,0.0,0.0,0.5,0.0025000002,0.0025000002,0.0025000002,1,1,1,1,1,0
253032023,252931426,4325386,0.002801718,0.002370136,0.009243277,0.34906584,1.9751735e-07,1.970789e-07,4.7460685e-07,4259850,0.11104152,0.0016141522,0.0067740064,0.4,0.000500059,0.00059637777,0.0004994823,396321,0.0,0.0,0.0,0.5,0.0025000002,0.0025000002,0.0025000002,1,1,1,1,1,0
253482142,253381469,4325386,0.0026494188,0.0022090294,0.009135222,0.34906584,1.9554504e-07,1.9537133e-07,4.7441333e-07,4259850,0.109605335,0.000977593,0.00635932,0.4,0.000499924,0.0005961506,0.00049965276,396321,0.0,0.0,0.0,0.5,0.0025000002,0.0025000002,0.0025000002,1,1,1,1,1,0
253672174,253571487,4325386,0.0024954397,0.0021738536,0.008981243,0.34906584,1.9532133e-07,1.9527809e-07,4.7233564e-07,4259850,0.10842896,0.0013680757,0.0063692466,0.4,0.00050000957,0.0005962122,0.0004998429,396321,0.0,0.0,0.0,0.5,0.0025000002,0.0025000002,0.0025000002,1,1,1,1,1,0
253872187,253771506,4325386,0.0023115263,0.0021685204,0.008743136,0.34906584,1.9530567e-07,1.9536328e-07,4.693566e-07,4259850,0.10717721,0.0021480701,0.005780781,0.4,0.0005002555,0.00059646065,0.00050018076,396321,0.0,0.0,0.0,0.5,0.0025000002,0.0025000002,0.0025000002,1,1,1,1,1,0
254062094,253961524,4325386,0.0021036044,0.002184067,0.008411777,0.34906584,1.9522825e-07,1.9533435e-07,4.6408323e-07,4259850,0.10591517,0.0032337303,0.004562186,0.4,0.0005003708,0.0005965536,0.0005003708,396321,0.0,0.0,0.0,0.5,0.0025000002,0.0025000002,0.0025000002,1,1,1,1,1,0
254262072,254161543,4325386,0.0018729136,0.0022296163,0.007981671,0.34906584,1.9528343e-07,1.9538089e-07,4.5790722e-07,4259850,0.10481737,0.0047364314,0.002335531,0.4,0.000500455,0.0005965442,0.000500455,396321,0.0,0.0,0.0,0.5,0.0025000002,0.0025000002,0.0025000002,1,1,1,1,1,0
254482073,254381564,4325386,0.001674316,0.002324743,0.007583111,0.34906584,1.9534463e-07,1.9543378e-07,4.5210848e-07,4259850,0.10422822,0.0060673445,0.0025487705,0.4,0.000499859,0.00059577246,0.000499859,396321,0.0,0.0,0.0,0.5,0.0025000002,0.0025000002,0.0025000002,1,1,1,1,1,0
254882040,254781602,4325386,0.001659712,0.0023323102,0.007566081,0.34906584,1.9872111e-07,1.9882499e-07,4.533282e-07,4259850,0.1041089,0.006158122,0.0012225794,0.4,0.000499317,0.000595115,0.0004992892,396321,0.0,0.0,0.0,0.5,0.0025000002,0.0025000002,0.0025000002,1,1,1,1,1,0
255272075,255171639,4325386,0.0016252397,0.002364298,0.007518302,0.34906584,2.0204578e-07,2.0218926e-07,4.5501568e-07,4259850,0.10409229,0.0064339116,-7.569324e-05,0.4,0.0004996232,0.00059545255,0.0004995755,396321,0.0,0.0,0.0,0.5,0.0025000002,0.0025000002,0.0025000002,1,1,1,1,1,0
255662156,255561676,4325386,0.0015737028,0.0024324718,0.007422725,0.34906584,2.0508124e-07,2.0528809e-07,4.5620627e-07,4259850,0.10425066,0.0068497937,-0.0010590242,0.4,0.0005001555,0.0005960248,0.00050009636,396321,0.0,0.0,0.0,0.5,0.0025000002,0.0025000002,0.0025000002,1,1,1,1,1,0
255862207,255761695,4325386,0.0015571429,0.0028106326,0.007012306,0.34906584,2.0231406e-07,2.0301385e-07,4.5180533e-07,4259850,0.10621084,0.005694199,-0.0008830426,0.4,0.00050041435,0.0005962025,0.00050041435,396321,0.0,0.0,0.0,0.5,0.0025000002,0.0025000002,0.0025000002,1,1,1,1,1,0
256072210,255971715,4325386,0.0015887298,0.0030947656,0.006754025,0.34906584,2.0003438e-07,2.0119579e-07,4.4920517e-07,4259850,0.10747673,0.004137851,-9.5395895e-05,0.4,0.0004996586,0.0005950543,0.0004996586,396321,0.0,0.0,0.0,0.5,0.0025000002,0.0025000002,0.0025000002,1,1,1,1,1,0
256262265,256161734,4325386,0.001679879,0.0032591496,0.0065936567,0.34906584,1.9857625e-07,2.0003898e-07,4.477461e-07,4259850,0.10782979,0.0027570361,0.00027714254,0.4,0.0004998353,0.0005949622,0.0004998353,396321,0.0,0.0,0.0,0.5,0.0025000002,0.0025000002,0.0025000002,1,1,1,1,1,0
256482282,256381755,4325386,0.0018243677,0.0033565012,0.0064289537,0.34906584,1.9781929e-07,1.9935838e-07,4.4619966e-07,4259850,0.10732913,0.001442323,0.00087002874,0.4,0.00049997575,0.00059474626,0.00049997575,396321,0.0,0.0,0.0,0.5,0.0025000002,0.0025000002,0.0025000002,1,1,1,1,1,0
256662258,256561772,4325386,0.0019867944,0.0033930845,0.00623258,0.34906584,1.97039e-07,1.984562e-07,4.4353686e-07,4259850,0.106203936,0.0006162799,0.00042880967,0.4,0.0005000144,0.0005943254,0.0005000144,396321,0.0,0.0,0.0,0.5,0.0025000002,0.0025000002,0.0025000002,1,1,1,1,1,0
256862318,256761791,4325386,0.0021485647,0.003368421,0.0059918226,0.34906584,1.9680998e-07,1.9795408e-07,4.3994862e-07,4259850,0.104560286,0.00041778028,-4.6751225e-05,0.4,0.00050032756,0.0005941178,0.00050032756,396321,0.0,0.0,0.0,0.5,0.0025000002,0.0025000002,0.0025000002,1,1,1,1,1,0
257062309,256961810,4325386,0.0023009535,0.003324342,0.005733137,0.34906584,1.9629223e-07,1.9709182e-07,4.350364e-07,4259850,0.10251441,0.00042377354,-0.00028496588,0.4,0.00049941574,0.00059234747,0.00049941574,396321,0.0,0.0,0.0,0.5,0.0025000002,0.0025000002,0.0025000002,1,1,1,1,1,0
257272319,257171830,4325386,0.0024480235,0.0032715353,0.0054816226,0.34906584,1.9657082e-07,1.9699806e-07,4.3193555e-07,4259850,0.10034751,0.00069714943,0.000567245,0.4,0.0004998901,0.0005921101,0.0004998901,396321,0.0,0.0,0.0,0.5,0.0025000002,0.0025000002,0.0025000002,1,1,1,1,1,0
257472348,257371849,4325386,0.0025818746,0.0032131486,0.0052527734,0.34906584,1.9681191e-07,1.9686948e-07,4.2899356e-07,4259850,0.09803707,0.0012530972,0.0011466629,0.4,0.0005002004,0.00059157726,0.0005002004,396321,0.0,0.0,0.0,0.5,0.0025000002,0.0025000002,0.0025000002,1,1,1,1,1,0
257662481,257561868,4325386,0.0026863853,0.003141657,0.0050771814,0.34906584,1.9685939e-07,1.9659969e-07,4.2698034e-07,4259850,0.09577836,0.0023201138,0.00055946305,0.4,0.0005001198,0.00059049285,0.0005001198,396321,0.0,0.0,0.0,0.5,0.0025000002,0.0025000002,0.0025000002,1,1,1,1,1,0
257862438,257761887,4325386,0.0027621246,0.0030717955,0.0049733897,0.34906584,1.971614e-07,1.9667965e-07,4.2712156e-07,4259850,0.09387453,0.003665651,0.0002835609,0.4,0.0005004337,0.0005897905,0.0005004337,396321,0.0,0.0,0.0,0.5,0.0025000002,0.0025000002,0.0025000002,1,1,1,1,1,0
258052511,257951905,4325386,0.002805707,0.0030045891,0.0049136276,0.34906584,1.9682187e-07,1.9622786e-07,4.2658456e-07,4259850,0.09232152,0.00514265,-0.00019730807,0.4,0.00049938954,0.00058743125,0.00049938954,396321,0.0,0.0,0.0,0.5,0.0025000002,0.0025000002,0.0025000002,1,1,1,1,1,0
258262501,258161927,4325386,0.0027991426,0.0029212649,0.004877514,0.34906584,1.9714633e-07,1.9657931e-07,4.2778976e-07,4259850,0.091787115,0.0074396757,-0.0010135962,0.4,0.0004998456,0.0005867559,0.0004998456,396321,0.0,0.0,0.0,0.5,0.0025000002,0.0025000002,0.0025000002,1,1,1,1,1,0
258492544,258391947,4325386,0.0027484547,0.0028296893,0.004815489,0.34906584,1.9714746e-07,1.9672791e-07,4.2756102e-07,4259850,0.0920763,0.009912039,-0.0014605524,0.4,0.0004993537,0.00058488635,0.0004993537,396321,0.0,0.0,0.0,0.5,0.0025000002,0.0025000002,0.0025000002,1,1,1,1,1,0
258662524,258561964,4325386,0.0026834654,0.0027711724,0.0047482755,0.34906584,1.9731878e-07,1.9704851e-07,4.28032e-07,4259850,0.093268506,0.011657369,-0.0017967334,0.4,0.0005004765,0.0005849232,0.0005004765,396321,0.0,0.0,0.0,0.5,0.0025000002,0.0025000002,0.0025000002,1,1,1,1,1,0
258862516,258761983,4325386,0.0025799526,0.0027166985,0.004634524,0.34906584,1.9689833e-07,1.967777e-07,4.2639832e-07,4259850,0.09510677,0.013216995,-0.0037352073,0.4,0.0004993339,0.000582278,0.0004993339,396321,0.0,0.0,0.0,0.5,0.0025000002,0.0025000002,0.0025000002,1,1,1,1,1,0
259062554,258962002,4325386,0.0024698584,0.0026826183,0.004514227,0.34906584,1.970883e-07,1.9707916e-07,4.2561285e-07,4259850,0.09746903,0.014259762,-0.0049898755,0.4,0.00049966876,0.0005813498,0.00049966876,396321,0.0,0.0,0.0,0.5,0.0025000002,0.0025000002,0.0025000002,1,1,1,1,1,0
259252640,259152021,4325386,0.0023886522,0.002654435,0.0044317194,0.34906584,1.9723235e-07,1.972707e-07,4.251346e-07,4259850,0.099222146,0.015075891,-0.006225555,0.4,0.0004998666,0.0005802977,0.0004998666,396321,0.0,0.0,0.0,0.5,0.0025000002,0.0025000002,0.0025000002,1,1,1,1,1,0
259462650,259362041,4325386,0.0023338115,0.0026347782,0.0043826113,0.34906584,1.9769789e-07,1.9773371e-07,4.2578665e-07,4259850,0.10041339,0.015719624,-0.0077277212,0.4,0.00050033286,0.00057959807,0.00050033286,396321,0.0,0.0,0.0,0.5,0.0025000002,0.0025000002,0.0025000002,1,1,1,1,1,0
259662658,259562060,4325386,0.0022868728,0.0025871194,0.0043290793,0.34906584,1.9752197e-07,1.9752493e-07,4.2505886e-07,4259850,0.1011321,0.016841806,-0.008150707,0.4,0.0004994111,0.0005773692,0.0004994111,396321,0.0,0.0,0.0,0.5,0.0025000002,0.0025000002,0.0025000002,1,1,1,1,1,0
259862721,259762080,4325386,0.0022399004,0.0025457612,0.00428603,0.34906584,1.9778068e-07,1.9773766e-07,4.2550974e-07,4259850,0.10204139,0.017810134,-0.008519893,0.4,0.00049950194,0.000576394,0.00049950194,396321,0.0,0.0,0.0,0.5,0.0025000002,0.0025000002,0.0025000002,1,1,1,1,1,0
260062735,259962099,4325386,0.0021964458,0.0025082151,0.0042562825,0.34906584,1.981247e-07,1.9803197e-07,4.2675265e-07,4259850,0.10288703,0.018735494,-0.009735455,0.4,0.00049982144,0.00057575986,0.00049982144,396321,0.0,0.0,0.0,0.5,0.0025000002,0.0025000002,0.0025000002,1,1,1,1,1,0
260262761,260162118,4325386,0.0021723197,0.0024790245,0.0042407294,0.34906584,1.9846472e-07,1.9831799e-07,4.2787116e-07,4259850,0.103340514,0.019456072,-0.010835886,0.4,0.00050014246,0.0005752135,0.00050014246,396321,0.0,0.0,0.0,0.5,0.0025000002,0.0025000002,0.0025000002,1,1,1,1,1,0
260472662,260372138,4325386,0.0021495307,0.0024632283,0.0042281067,0.34906584,1.9845064e-07,1.9825006e-07,4.2830848e-07,4259850,0.10361683,0.019781,-0.011875178,0.4,0.0004993825,0.00057350815,0.0004993825,396321,0.0,0.0,0.0,0.5,0.0025000002,0.0025000002,0.0025000002,1,1,1,1,1,0
260652698,260552156,4325386,0.0021443455,0.0024437488,0.0042213,0.34906584,1.9849084e-07,1.9824425e-07,4.2945678e-07,4259850,0.10367524,0.020251505,-0.0129390415,0.4,0.0004994168,0.0005728101,0.0004994168,396321,0.0,0.0,0.0,0.5,0.0025000002,0.0025000002,0.0025000002,1,1,1,1,1,0
260862835,260762176,4325386,0.0021809211,0.0024327459,0.004209848,0.34906584,1.9895042e-07,1.986718e-07,4.306959e-07,4259850,0.103096284,0.020624712,-0.01384791,0.4,0.00049989024,0.0005727021,0.00049989024,396321,0.0,0.0,0.0,0.5,0.0025000002,0.0025000002,0.0025000002,1,1,1,1,1,0
261102534,261002199,4325386,0.0022369209,0.0024112673,0.004169113,0.34906584,1.9930692e-07,1.9901962e-07,4.3066467e-07,4259850,0.10215782,0.021068973,-0.013928984,0.4,0.000499306,0.0005714748,0.0004993026,396321,0.0,0.0,0.0,0.5,0.0025000002,0.0025000002,0.0025000002,1,1,1,1,1,0
261272799,261172216,4325386,0.0023122178,0.0023841695,0.0041009863,0.34906584,1.9962475e-07,1.9935045e-07,4.3088232e-07,4259850,0.10130648,0.02171836,-0.0139774885,0.4,0.0005004359,0.0005723053,0.0005004359,396321,0.0,0.0,0.0,0.5,0.0025000002,0.0025000002,0.0025000002,1,1,1,1,1,0
261462791,261362234,4325386,0.0023882024,0.0023384758,0.0039999876,0.34906584,1.9926573e-07,1.9901489e-07,4.2887706e-07,4259850,0.10028581,0.02240172,-0.014127119,0.4,0.00049939373,0.0005707455,0.00049939373,396321,0.0,0.0,0.0,0.5,0.0025000002,0.0025000002,0.0025000002,1,1,1,1,1,0
261722590,261622259,4325386,0.002460316,0.0022984832,0.003912241,0.34906584,2.0000685e-07,1.9977152e-07,4.2863124e-07,4259850,0.09958435,0.02295232,-0.013654869,0.4,0.00049934787,0.00057040545,0.0004993453,396321,0.0,0.0,0.0,0.5,0.0025000002,0.0025000002,0.0025000002,1,1,1,1,1,0
262062900,261962292,4325386,0.002581053,0.0022296198,0.0037948468,0.34906584,2.0013411e-07,1.9988182e-07,4.2891634e-07,4259850,0.09884128,0.023802578,-0.01407103,0.4,0.0005003857,0.0005712323,0.0005003857,396321,0.0,0.0,0.0,0.5,0.0025000002,0.0025000002,0.0025000002,1,1,1,1,1,0
263072888,262972391,4325386,0.002806479,0.002097956,0.0036363478,0.34906584,2.0042333e-07,2.0007009e-07,4.316924e-07,4259850,0.09851596,0.024459489,-0.013548412,0.4,0.0004994967,0.00057001936,0.0004994967,396321,0.0,0.0,0.0,0.5,0.0025000002,0.0025000002,0.0025000002,1,1,1,1,1,0
263863030,263762468,4325386,0.0028762307,0.0020039505,0.0036113579,0.34906584,2.0075542e-07,2.0038458e-07,4.370978e-07,4259850,0.09919627,0.024037527,-0.012186965,0.4,0.0005004084,0.00057083106,0.0005004084,396321,0.0,0.0,0.0,0.5,0.0025000002,0.0025000002,0.0025000002,1,1,1,1,1,0
263982859,263882480,4325386,0.002873952,0.002002279,0.003608639,0.34906584,2.0164197e-07,2.0127165e-07,4.3704154e-07,4259850,0.099148996,0.023939254,-0.010405474,0.4,0.00049964164,0.0005699505,0.0004996313,396321,0.0,0.0,0.0,0.5,0.0025000002,0.0025000002,0.0025000002,1,1,1,1,1,0
264142867,264042495,4325386,0.0028768901,0.0019122228,0.0035926357,0.34906584,2.0103062e-07,2.0077307e-07,4.3745337e-07,4259850,0.09950878,0.0231754,-0.009664265,0.4,0.0004993894,0.0005695231,0.00049938256,396321,0.0,0.0,0.0,0.5,0.0025000002,0.0025000002,0.0025000002,1,1,1,1,1,0
264263056,264162509,4325386,0.0028160696,0.0018210489,0.0035032784,0.34906584,2.0016245e-07,2.0015152e-07,4.3596464e-07,4259850,0.09948494,0.022053415,-0.008522335,0.4,0.0004998137,0.0005698122,0.0004998137,396321,0.0,0.0,0.0,0.5,0.0025000002,0.0025000002,0.0025000002,1,1,1,1,1,0
264412901,264312522,4325386,0.0028149416,0.0018201392,0.0035019803,0.34906584,2.0150054e-07,2.0148833e-07,4.3653853e-07,4259850,0.09946172,0.021984637,-0.0070365933,0.4,0.0004994294,0.00056936836,0.0004994163,396321,0.0,0.0,0.0,0.5,0.0025000002,0.0025000002,0.0025000002,1,1,1,1,1,0
264493149,264392531,4325386,0.0026971137,0.0016956271,0.0032629229,0.34906584,2.0026943e-07,2.0053726e-07,4.3158767e-07,4259850,0.09908957,0.02010092,-0.0068811304,0.4,0.00050027965,0.0005700779,0.00050027965,396321,0.0,0.0,0.0,0.5,0.0025000002,0.0025000002,0.0025000002,1,1,1,1,1,0
264633000,264532547,4325386,0.002695777,0.0016945218,0.0032614176,0.34906584,2.0147077e-07,2.0173643e-07,4.3201e-07,4259850,0.099046834,0.020038644,-0.005519253,0.4,0.00049979443,0.0005695195,0.0004997821,396321,0.0,0.0,0.0,0.5,0.0025000002,0.0025000002,0.0025000002,1,1,1,1,1,0
264663162,264562548,4325386,0.0025201775,0.0016013291,0.002875696,0.34906584,1.9974775e-07,2.0015692e-07,4.24334e-07,4259850,0.097905576,0.018056849,-0.0052676713,0.4,0.00050019583,0.0005696763,0.00050019583,396321,0.0,0.0,0.0,0.5,0.0025000002,0.0025000002,0.0025000002,1,1,1,1,1,0
264873120,264772567,4325386,0.0023150698,0.0015048281,0.002407171,0.34906584,1.994922e-07,1.9981798e-07,4.1395114e-07,4259850,0.09614396,0.015823208,-0.0047667227,0.4,0.00049941306,0.00056841795,0.00049941306,396321,0.0,0.0,0.0,0.5,0.0025000002,0.0025000002,0.0025000002,1,1,1,1,1,0
265012952,264912580,4325386,0.0023144602,0.0014999945,0.0024979895,0.34906584,2.0118287e-07,2.0150473e-07,4.1470142e-07,4259850,0.0961505,0.01597806,-0.0037316803,0.4,0.00050015165,0.00056925084,0.00050013966,396321,0.0,0.0,0.0,0.5,0.0025000002,0.0025000002,0.0025000002,1,1,1,1,1,0
265443028,265342623,4325386,0.0022959898,0.0014793797,0.0026948636,0.34906584,2.0509668e-07,2.0527308e-07,4.1548105e-07,4259850,0.09609059,0.016313123,-0.0026445517,0.4,0.00050000934,0.00056909776,0.0004999943,396321,0.0,0.0,0.0,0.5,0.0025000002,0.0025000002,0.0025000002,1,1,1,1,1,0
265613029,265512639,4325386,0.0022739596,0.0014628931,0.0027688467,0.34906584,2.0639759e-07,2.0646814e-07,4.1452466e-07,4259850,0.095799305,0.016388206,-0.0016907111,0.4,0.0004996813,0.0005687211,0.00049967016,396321,0.0,0.0,0.0,0.5,0.0025000002,0.0025000002,0.0025000002,1,1,1,1,1,0
265663220,265562644,4325386,0.002245213,0.0014472797,0.0027204612,0.34906584,2.0683454e-07,2.067755e-07,4.1463917e-07,4259850,0.09522592,0.016183903,0.0005482596,0.4,0.0005003569,0.000569482,0.0005003569,396321,0.0,0.0,0.0,0.5,0.0025000002,0.0025000002,0.0025000002,1,1,1,1,1,0
265853116,265752663,4325386,0.002197094,0.001428933,0.0027217523,0.34906584,2.0787272e-07,2.0764291e-07,4.1230842e-07,4259850,0.09479705,0.016034992,0.0014424499,0.4,0.00049931585,0.00056826446,0.00049931585,396321,0.0,0.0,0.0,0.5,0.0025000002,0.0025000002,0.0025000002,1,1,1,1,1,0
265923161,265822670,4325386,0.0021980887,0.001427573,0.0027530643,0.34906584,2.0898011e-07,2.0874789e-07,4.1320627e-07,4259850,0.094812505,0.016060978,0.0027861735,0.4,0.0005002995,0.00056938187,0.00050029485,396321,0.0,0.0,0.0,0.5,0.0025000002,0.0025000002,0.0025000002,1,1,1,1,1,0
266063227,265962684,4325386,0.0021357331,0.0014058463,0.0026819848,0.34906584,2.096436e-07,2.0919278e-07,4.1068898e-07,4259850,0.09410956,0.015713565,0.0040234514,0.4,0.0004997963,0.000568757,0.0004997963,396321,0.0,0.0,0.0,0.5,0.0025000002,0.0025000002,0.0025000002,1,1,1,1,1,0
266413093,266312718,4325386,0.0020561505,0.0013829254,0.0026165429,0.34906584,2.1252012e-07,2.1178059e-07,4.087081e-07,4259850,0.09345247,0.015255731,0.0047030263,0.4,0.0004997836,0.0005686702,0.0004997778,396321,0.0,0.0,0.0,0.5,0.0025000002,0.0025000002,0.0025000002,1,1,1,1,1,0
266483215,266382725,4325386,0.0019615795,0.0013582993,0.0024137127,0.34906584,2.1240639e-07,2.1130013e-07,4.0449316e-07,4259850,0.09272858,0.014476841,0.004473299,0.4,0.00049952883,0.0005682672,0.00049952883,396321,0.0,0.0,0.0,0.5,0.0025000002,0.0025000002,0.0025000002,1,1,1,1,1,0
266663251,266562743,4325386,0.0018522413,0.0013394773,0.0021899668,0.34906584,2.1349246e-07,2.119359e-07,4.0050364e-07,4259850,0.09177287,0.0136730615,0.0049561714,0.4,0.0004995949,0.000568207,0.0004995949,396321,0.0,0.0,0.0,0.5,0.0025000002,0.0025000002,0.0025000002,1,1,1,1,1,0
266853126,266752761,4325386,0.0018465577,0.0013326945,0.0022590666,0.34906584,2.1536549e-07,2.1380804e-07,4.0081565e-07,4259850,0.091532946,0.013744112,0.0063960734,0.4,0.000499555,0.0005681739,0.000499555,396321,0.0,0.0,0.0,0.5,0.0025000002,0.0025000002,0.0025000002,1,1,1,1,1,0
266863265,266762763,4325386,0.0017299168,0.0013238789,0.0019443366,0.34906584,2.1475093e-07,2.1263865e-07,3.956163e-07,4259850,0.09099637,0.012718811,0.0050616423,0.4,0.00049969635,0.00056816003,0.00049969635,396321,0.0,0.0,0.0,0.5,0.0025000002,0.0025000002,0.0025000002,1,1,1,1,1,0
267053264,266952781,4325386,0.0015992605,0.0013192497,0.001658037,0.34906584,2.159417e-07,2.1317209e-07,3.9041996e-07,4259850,0.09040907,0.011751328,0.0037421684,0.4,0.0004999042,0.00056820904,0.0004999042,396321,0.0,0.0,0.0,0.5,0.0025000002,0.0025000002,0.0025000002,1,1,1,1,1,0
267163234,267062792,4325386,0.0015973733,0.0013170467,0.0016766486,0.34906584,2.1716673e-07,2.1439755e-07,3.9130478e-07,4259850,0.09029204,0.011763455,0.0047914153,0.4,0.00050020654,0.0005685605,0.00050020654,396321,0.0,0.0,0.0,0.5,0.0025000002,0.0025000002,0.0025000002,1,1,1,1,1,0
267253309,267152801,4325386,0.0014641898,0.0013122645,0.0013254433,0.34906584,2.1728135e-07,2.1373043e-07,3.8562538e-07,4259850,0.089444734,0.01067747,0.003948352,0.4,0.0005002304,0.00056837086,0.0005002304,396321,0.0,0.0,0.0,0.5,0.0025000002,0.0025000002,0.0025000002,1,1,1,1,1,0
267373183,267272813,4325386,0.0014579939,0.0013072138,0.0013587625,0.34906584,2.1813133e-07,2.1459536e-07,3.853999e-07,4259850,0.08916078,0.010708878,0.0051087346,0.4,0.0004994618,0.000567505,0.0004994618,396321,0.0,0.0,0.0,0.5,0.0025000002,0.0025000002,0.0025000002,1,1,1,1,1,0
267463298,267362822,4325386,0.0013209602,0.001291347,0.000998361,0.34906584,2.1824421e-07,2.1379563e-07,3.7959083e-07,4259850,0.08806462,0.00953624,0.0049909265,0.4,0.00049949356,0.00056730094,0.00049949356,396321,0.0,0.0,0.0,0.5,0.0025000002,0.0025000002,0.0025000002,1,1,1,1,1,0
267593234,267492835,4325386,0.0013162644,0.0012882289,0.0010323102,0.34906584,2.197848e-07,2.1534292e-07,3.8057877e-07,4259850,0.08788854,0.009571805,0.0061539747,0.4,0.00050008274,0.0005679798,0.00050008274,396321,0.0,0.0,0.0,0.5,0.0025000002,0.0025000002,0.0025000002,1,1,1,1,1,0
267663306,267562841,4325386,0.001182953,0.0012818195,0.00067586655,0.34906584,2.1959507e-07,2.1412957e-07,3.7453253e-07,4259850,0.08749114,0.0083581805,0.0040280945,0.4,0.0004998284,0.00056743424,0.0004998284,396321,0.0,0.0,0.0,0.5,0.0025000002,0.0025000002,0.0025000002,1,1,1,1,1,0
267813271,267712856,4325386,0.0011762223,0.0012775045,0.00070916885,0.34906584,2.2090822e-07,2.1546258e-07,3.7505475e-07,4259850,0.08720977,0.008387824,0.0051778615,0.4,0.00049945415,0.0005670212,0.00049945415,396321,0.0,0.0,0.0,0.5,0.0025000002,0.0025000002,0.0025000002,1,1,1,1,1,0
267863359,267762861,4325386,0.001048571,0.0012661294,0.00035157937,0.34906584,2.2097711e-07,2.1438078e-07,3.701439e-07,4259850,0.08645578,0.0072668777,0.004573384,0.4,0.0005001558,0.0005675484,0.0005001558,396321,0.0,0.0,0.0,0.5,0.0025000002,0.0025000002,0.0025000002,1,1,1,1,1,0
268023268,267922877,4325386,0.0010405347,0.0012614502,0.00038496693,0.34906584,2.2222764e-07,2.1566194e-07,3.7056512e-07,4259850,0.08612199,0.0073043345,0.0057207854,0.4,0.0004994274,0.00056673447,0.0004994274,396321,0.0,0.0,0.0,0.5,0.0025000002,0.0025000002,0.0025000002,1,1,1,1,1,0
268063358,267962881,4325386,0.00091605494,0.0012531728,6.634961e-05,0.34906584,2.2215372e-07,2.1435935e-07,3.6551148e-07,4259850,0.08579353,0.006243385,0.003683485,0.4,0.00049998827,0.00056709413,0.00049998827,396321,0.0,0.0,0.0,0.5,0.0025000002,0.0025000002,0.0025000002,1,1,1,1,1,0
268193259,268092894,4325386,0.00090715726,0.0012486277,0.000100642006,0.34906584,2.231359e-07,2.1537747e-07,3.657506e-07,4259850,0.08543725,0.006286372,0.0049137417,0.4,0.0004993439,0.0005663733,0.0004993439,396321,0.0,0.0,0.0,0.5,0.0025000002,0.0025000002,0.0025000002,1,1,1,1,1,0
268263409,268162901,4325386,0.00078851293,0.0012420348,-0.00019443016,0.34906584,2.2357035e-07,2.1450361e-07,3.61767e-07,4259850,0.08524978,0.0053104707,0.0029436876,0.4,0.00050031923,0.0005672019,0.00050031923,396321,0.0,0.0,0.0,0.5,0.0025000002,0.0025000002,0.0025000002,1,1,1,1,1,0
268413383,268312916,4325386,0.00077933684,0.0012381537,-0.00016127323,0.34906584,2.2487308e-07,2.1584397e-07,3.6245592e-07,4259850,0.08491282,0.0053627887,0.004105385,0.4,0.00049995503,0.0005668007,0.00049995503,396321,0.0,0.0,0.0,0.5,0.0025000002,0.0025000002,0.0025000002,1,1,1,1,1,0
268463418,268362920,4325386,0.0006691429,0.0012240873,-0.00044361217,0.34906584,2.2446125e-07,2.1408252e-07,3.5793082e-07,4259850,0.084373854,0.004479849,0.0031420798,0.4,0.00049941166,0.00056590536,0.00049941166,396321,0.0,0.0,0.0,0.5,0.0025000002,0.0025000002,0.0025000002,1,1,1,1,1,0
268573329,268472931,4325386,0.0006602998,0.0012215595,-0.00041240442,0.34906584,2.256634e-07,2.153137e-07,3.587472e-07,4259850,0.08411574,0.0045323144,0.004130112,0.4,0.0004997234,0.0005662671,0.0004997234,396321,0.0,0.0,0.0,0.5,0.0025000002,0.0025000002,0.0025000002,1,1,1,1,1,0
268663411,268562941,4325386,0.0005521547,0.0012082031,-0.00065105135,0.34906584,2.2590126e-07,2.1418204e-07,3.552845e-07,4259850,0.083610885,0.0037929355,0.003242731,0.4,0.00049975415,0.00056602503,0.00049975415,396321,0.0,0.0,0.0,0.5,0.0025000002,0.0025000002,0.0025000002,1,1,1,1,1,0
268793415,268692953,4325386,0.000542368,0.0012055725,-0.00061958074,0.34906584,2.2741959e-07,2.1572632e-07,3.5651507e-07,4259850,0.08329482,0.003853502,0.004581205,0.4,0.0005003295,0.00056668697,0.0005003295,396321,0.0,0.0,0.0,0.5,0.0025000002,0.0025000002,0.0025000002,1,1,1,1,1,0
268863466,268762960,4325386,0.00013062547,0.0012649315,-0.001340946,0.34906584,2.2423984e-07,2.0720687e-07,3.4564655e-07,4259850,0.08062945,0.0035089273,0.0040337453,0.4,0.0005000832,0.0005654245,0.0005000832,396321,0.0,0.0,0.0,0.5,0.0025000002,0.0025000002,0.0025000002,1,1,1,1,1,0
269063488,268962980,4325386,-6.882115e-05,0.0013427441,-0.0011568122,0.34906584,2.2341568e-07,2.0320175e-07,0.010008936,4259850,0.079179354,0.0039612837,0.004187619,0.4,0.00050017174,0.0005648822,0.00050017174,396321,0.0,0.0,0.0,0.5,0.0025000002,0.0025000002,0.0025000002,1,0,1,1,1,0
269093535,268992983,4325386,-6.8765155e-05,0.0013416515,-0.0011558709,0.34906584,2.2335179e-07,2.0317076e-07,0.009992654,4259850,0.07911493,0.0039580604,0.004184211,0.4,0.0004993608,0.00056396594,0.0004993608,396321,0.016279383,-0.0064116153,0.0077675176,0.5,0.0013249118,0.001609973,0.0016669524,1,0,1,1,1,0
269163518,269062990,4325386,-6.8898255e-05,0.0013427935,-0.0011570571,0.34906584,2.2448796e-07,2.0426695e-07,0.010012141,4259850,0.07916033,0.0039641326,0.0043525933,0.4,0.00050033187,0.00056507194,0.00050033187,396321,0.043511674,-0.010124317,0.026630687,0.5,0.000954099,0.0014083452,0.00149849,1,0,1,1,1,0
269263441,269163000,4325386,-0.00017688991,0.0014064334,0.0024108791,0.34906584,2.2271686e-07,2.0083034e-07,0.010011872,4259850,0.07859032,0.0044547496,0.0030918394,0.4,0.00050048763,0.00056474673,0.00050048763,396321,0.043712858,-0.010163816,0.026450716,0.5,0.0009540214,0.0014083323,0.0014984813,1,0,1,1,1,0
269433364,269333017,4325386,-0.00017735224,0.0014051187,0.002410775,0.34906584,2.243819e-07,2.0249824e-07,0.010010209,4259850,0.078298755,0.0044809855,0.0045524603,0.4,0.0005004044,0.0005646676,0.0005004044,396321,0.043718792,-0.010165477,0.0264482,0.5,0.000953984,0.0014083236,0.0014984813,1,0,1,1,1,0
269463521,269363020,4325386,-0.00019720249,0.0013994174,0.0030305863,0.34906584,2.2187868e-07,1.9901404e-07,0.00998276,4259850,0.07772702,0.004460962,0.0064258156,0.4,0.00049960846,0.0005633395,0.00049960846,396321,0.043921474,-0.010120627,0.02638268,0.5,0.0009538965,0.0014083099,0.0014984747,1,0,1,1,1,0
269533364,269433027,4325386,-0.00019753932,0.0013982231,0.0030333223,0.34906584,2.2246321e-07,1.9961013e-07,0.009977608,4259850,0.07746087,0.0044839643,0.0076815225,0.4,0.0004993506,0.00056305475,0.0004993506,396321,0.043925807,-0.010122117,0.026380666,0.5,0.0009538965,0.0014083099,0.0014984747,1,0,1,1,1,0
269653497,269553039,4325386,-0.00019252156,0.0014059924,0.0077937194,0.34906584,2.2177932e-07,1.9830229e-07,0.009857515,4259850,0.07720244,0.004518648,0.00890365,0.4,0.0004998042,0.00056317,0.0004998042,396321,0.04397745,-0.010077576,0.026366958,0.5,0.00095373957,0.001408286,0.0014984695,1,0,1,1,1,0
269753382,269653049,4325386,-0.00019277407,0.001405601,0.00784099,0.34906584,2.2285278e-07,1.9936778e-07,0.009860775,4259850,0.07699864,0.0045452006,0.010009144,0.4,0.00049996946,0.0005633649,0.00049996946,396321,0.043980613,-0.010078795,0.026365347,0.5,0.00095372106,0.0014082817,0.0014984695,1,0,1,1,1,0
269863434,269763060,4325386,-0.00019282228,0.0014054133,0.007949321,0.34906584,2.2409147e-07,2.0059169e-07,0.009866861,4259850,0.07681653,0.0045743855,0.0110759875,0.4,0.00050027843,0.00056372234,0.00050027843,396321,0.043983806,-0.010079431,0.026363932,0.5,0.0009536842,0.0014082731,0.0014984695,1,0,1,1,1,0
269873519,269773061,4325386,-3.8970098e-05,0.0014007764,0.021932198,0.34906584,2.215664e-07,1.9879498e-07,0.008632813,4259850,0.07838285,0.0036033352,0.00784461,0.4,0.00050041324,0.0005634671,0.00050041324,396321,0.043896664,-0.009803827,0.026564073,0.5,0.00095322833,0.0014081832,0.0014984645,1,0,1,1,1,0
270063578,269963079,4325386,0.00013221364,0.0014113481,-0.006875674,0.34906584,2.1965701e-07,1.9941467e-07,0.0063061942,4259850,0.07991924,0.0020351913,0.0060867257,0.4,0.00049938407,0.0005619533,0.00049938407,396321,0.044377744,-0.009243958,0.026767239,0.5,0.0009525216,0.001408009,0.0014984596,1,0,1,1,1,0
270253443,270153098,4325386,0.00013260214,0.0014108381,-0.006768942,0.34906584,2.215315e-07,2.0129134e-07,0.006305505,4259850,0.079721704,0.002059517,0.0071170246,0.4,0.000499331,0.00056190975,0.000499331,396321,0.04438083,-0.009243596,0.02676636,0.5,0.00095246674,0.001407996,0.0014984596,1,0,1,1,1,0
270263551,270163099,4325386,0.00030785453,0.0014517799,-0.08320678,0.34906584,2.1877811e-07,2.008203e-07,0.004518863,4259850,0.081705034,0.00020316623,0.0056618312,0.4,0.0004994739,0.0005617518,0.0004994739,396321,0.045392927,-0.0084335925,0.026961723,0.5,0.00095198624,0.0014078582,0.0014984546,1,0,1,1,1,0
270443595,270343117,4325386,0.0003083008,0.0014516655,-0.08318471,0.34906584,2.2059693e-07,2.0263779e-07,0.004519278,4259850,0.08158872,0.00021734532,0.0063250684,0.4,0.0004995238,0.00056181964,0.0004995238,396321,0.08578954,-0.030143417,0.05822826,0.5,0.0006696872,0.0011900177,0.0013556592,1,0,1,1,1,0
270493675,270393122,4325386,0.00045042837,0.0014930718,-0.18017538,0.34906584,2.1952349e-07,2.0251692e-07,0.0035466058,4259850,0.08347115,-0.001322771,0.008311165,0.4,0.00050021586,0.0005623741,0.00050021586,396321,0.08802385,-0.029222347,0.057613328,0.5,0.0006690022,0.001189935,0.0013556116,1,0,1,1,1,0
270513715,270413124,4325386,0.0004506306,0.0014934539,-0.1802206,0.34906584,2.1984101e-07,2.028255e-07,0.0035485104,4259850,0.08347523,-0.0013210666,0.008416026,0.4,0.0005004845,0.0005626777,0.0005004845,396321,0.1075978,-0.04566923,0.065485455,0.5,0.0005326851,0.00104545,0.001298626,1,0,1,1,1,0
270593640,270493132,4325386,0.0004506623,0.0014932788,-0.18020432,0.34906584,2.2059142e-07,2.0358007e-07,0.003547699,4259850,0.08344944,-0.001319058,0.008509159,0.4,0.0005003728,0.00056255615,0.0005003728,396321,0.12132079,-0.056980725,0.0722027,0.5,0.00045769307,0.0009564131,0.0012710717,1,0,1,1,1,0
270663785,270563139,4325386,0.00050882314,0.0014971057,-0.22432095,0.34906584,2.2003456e-07,2.0313327e-07,0.003086506,4259850,0.084330365,-0.0022910193,0.010423048,0.4,0.0005001291,0.0005620058,0.0005001291,396321,0.12997092,-0.06289568,0.076326884,0.5,0.00040962503,0.00089513947,0.0012532558,1,0,1,1,1,0
270743629,270643147,4325386,0.00050890434,0.0014969172,-0.2242892,0.34906584,2.2078612e-07,2.0388914e-07,0.003085824,4259850,0.084293045,-0.0022877697,0.010578345,0.4,0.00050002,0.0005618891,0.00050002,396321,0.13413611,-0.06720867,0.07963647,0.5,0.00037863076,0.0008361194,0.0012318629,1,0,1,1,1,0
270823597,270723155,4325386,0.0005091024,0.0014968158,-0.22430739,0.34906584,2.2153563e-07,2.0464284e-07,0.0030851096,4259850,0.0842418,-0.0022820476,0.010834508,0.4,0.00049990864,0.00056176796,0.00049990864,396321,0.13820492,-0.07184584,0.08579743,0.5,0.0003561987,0.0007887577,0.0012006311,1,0,1,1,1,0
270873636,270773160,4325386,0.00061389076,0.0014452697,-0.24018005,0.34906584,2.2010339e-07,2.0355614e-07,0.00292459,4259850,0.08606372,-0.0049510254,0.01024757,0.4,0.00049936527,0.00056023506,0.00049936527,396321,0.14038557,-0.071743205,0.08537378,0.5,0.0003556553,0.0007886256,0.001200583,1,0,1,1,1,0
270893788,270793162,4325386,0.000613673,0.0014455712,-0.24018817,0.34906584,2.2042835e-07,2.0387198e-07,0.0029262442,4259850,0.08615456,-0.004961325,0.009847655,0.4,0.0004996491,0.0005605551,0.0004996491,396321,0.14392254,-0.08056074,0.094546996,0.5,0.00033919717,0.0007443681,0.0011577893,1,0,1,1,1,0
270973613,270873170,4325386,0.0006136903,0.0014454356,-0.24017978,0.34906584,2.2117419e-07,2.046221e-07,0.0029255203,4259850,0.08612976,-0.004958614,0.0099381,0.4,0.0004995303,0.00056042685,0.0004995303,396321,0.14853923,-0.088852994,0.098119415,0.5,0.0003261779,0.0007049625,0.0011004508,1,0,1,1,1,0
271043699,270943177,4325386,0.00061432907,0.001446849,-0.240424,0.34906584,2.2229895e-07,2.0571537e-07,0.0029311082,4259850,0.086205035,-0.0049622147,0.009996537,0.4,0.00050049135,0.0005615091,0.00050049135,396321,0.15299304,-0.09880255,0.10288435,0.5,0.00031561725,0.0006701598,0.0010369654,1,0,1,1,1,0
271053664,270953178,4325386,0.00076192385,0.0013584107,-0.21870227,0.34906584,2.1870957e-07,2.037298e-07,0.0027861288,4259850,0.08870013,-0.008863054,0.009096653,0.4,0.00049940555,0.0005584459,0.00049940555,396321,0.1548751,-0.09981443,0.102696136,0.5,0.00031520083,0.00066985295,0.0010369607,1,0,1,1,1,0
271123682,271023185,4325386,0.000762962,0.0013598774,-0.21899226,0.34906584,2.1983344e-07,2.0482493e-07,0.0027915004,4259850,0.088740736,-0.008864636,0.00940062,0.4,0.0005003738,0.00055953366,0.0005003738,396321,0.15842937,-0.11488723,0.112812564,0.5,0.00030590157,0.00064099074,0.0009779191,1,0,1,1,1,0
271193748,271093192,4325386,0.00076248904,0.0013593863,-0.21885802,0.34906584,2.2042744e-07,2.054265e-07,0.0027901141,4259850,0.08875881,-0.008868818,0.009127596,0.4,0.00050013297,0.0005592686,0.00050013297,396321,0.16322197,-0.12890956,0.1196307,0.5,0.00029812165,0.00061641954,0.0009270829,1,0,1,1,1,0
271263646,271163199,4325386,0.0009883071,0.0012199193,-0.15386775,0.34906584,2.1535189e-07,2.0413925e-07,0.0024361876,4259850,0.09268732,-0.014740709,0.007967905,0.4,0.00049988745,0.00055618305,0.00049988745,396321,0.16471355,-0.1317538,0.11871732,0.5,0.00029792194,0.0006157201,0.00092700904,1,0,1,1,1,0
271273707,271173200,4325386,0.0009884776,0.0012201045,-0.15389745,0.34906584,2.1551112e-07,2.042957e-07,0.0024368353,4259850,0.09269579,-0.014742098,0.007998643,0.4,0.000500026,0.0005563379,0.000500026,396321,0.16937397,-0.14413507,0.12483936,0.5,0.00028881987,0.0005980962,0.000888447,1,0,1,1,1,0
271353655,271253208,4325386,0.0009884572,0.0012198387,-0.15391992,0.34906584,2.1616162e-07,2.0495439e-07,0.0024351191,4259850,0.09262774,-0.014731737,0.008256141,0.4,0.00049968186,0.00055596005,0.00049968186,396321,0.17428507,-0.15246168,0.12773246,0.5,0.00028066867,0.00058134086,0.00085301674,1,0,1,1,1,0
271423661,271323215,4325386,0.0009885025,0.001219664,-0.15394586,0.34906584,2.1674653e-07,2.0554572e-07,0.0024338095,4259850,0.09257352,-0.01472364,0.008483367,0.4,0.00049942144,0.0005556745,0.00049942144,396321,0.17947406,-0.16028598,0.13207735,0.5,0.00027323532,0.00056527584,0.0008199707,1,0,1,1,1,0
271463665,271363219,4325386,0.0012361722,0.0010792539,-0.06349047,0.34906584,2.1033867e-07,2.0429738e-07,0.0017529326,4259850,0.09695503,-0.020402787,0.006374415,0.4,0.0004999806,0.0005535444,0.0004999806,396321,0.18029992,-0.16382512,0.12925597,0.5,0.00027317135,0.00056424056,0.00081931276,1,0,1,1,1,0
271503713,271403223,4325386,0.0012355975,0.0010786166,-0.063486435,0.34906584,2.1045346e-07,2.04421e-07,0.0017505494,4259850,0.0968674,-0.020386482,0.006541578,0.4,0.0004993067,0.0005528009,0.0004993067,396321,0.1863257,-0.16870226,0.13470137,0.5,0.00026187868,0.0005513595,0.0007941202,1,0,1,1,1,0
271653728,271553238,4325386,0.0012366344,0.0010795499,-0.06354523,0.34906584,2.1231898e-07,2.0627891e-07,0.0017535676,4259850,0.0969514,-0.020403901,0.0065362696,0.4,0.0005001785,0.00055377925,0.0005001783,396321,0.19431761,-0.16926843,0.13303387,0.5,0.0002518294,0.000539591,0.0007708874,1,0,1,1,1,0
271663738,271563239,4325386,0.0013855855,0.0010136269,-0.005993425,0.34906584,2.0728542e-07,2.0510713e-07,0.0011081184,4259850,0.09984221,-0.023010083,0.0061576436,0.4,0.0005003127,0.000552394,0.0005003127,396321,0.19467552,-0.1707676,0.13081758,0.5,0.00025180425,0.0005391184,0.00076989643,1,0,1,1,1,0
271863739,271763258,4325386,0.001412332,0.0009892096,0.011933865,0.34906584,2.0568345e-07,2.0593583e-07,0.0006895604,4259850,0.10013465,-0.023593472,0.0050102104,0.4,0.0004994128,0.0005507921,0.0004994128,396321,0.19465743,-0.17127056,0.13010971,0.5,0.000251592,0.0005388169,0.0007692834,1,0,1,1,1,0
272073727,271973279,4325386,0.001395352,0.0009781446,0.012481296,0.34906584,2.0559618e-07,2.076993e-07,0.00040768125,4259850,0.099612325,-0.02369928,0.0021471009,0.4,0.0004999014,0.000551156,0.0004999014,396321,0.19464189,-0.17135817,0.13002737,0.5,0.00025124828,0.0005386128,0.000768889,1,0,1,1,1,0
272263770,272163298,4325386,0.0013979933,0.0009879883,0.0017598438,0.34906584,2.0547958e-07,2.0928734e-07,0.00025381465,4259850,0.099750124,-0.023632266,0.0010321727,0.4,0.0005001041,0.0005512723,0.0005001041,396321,0.19489987,-0.17106462,0.13040975,0.5,0.0002508846,0.0005384955,0.00076867663,1,0,1,1,1,0
272493881,272393321,4325386,0.0014104039,0.0009887142,-0.0051117195,0.34906584,2.0526109e-07,2.1095809e-07,0.00016545705,4259850,0.09996318,-0.023757888,-0.0021696917,0.4,0.0004994124,0.00055036857,0.0004994124,396321,0.19517323,-0.17087999,0.13064454,0.5,0.00025050755,0.00053842086,0.0007685523,1,0,1,1,1,0
272663785,272563338,4325386,0.0014581622,0.0010057729,-0.012741971,0.34906584,2.047449e-07,2.123419e-07,0.00012002009,4259850,0.101116434,-0.023764862,-0.002540201,0.4,0.00049934606,0.0005501334,0.00049934606,396321,0.19558236,-0.1705762,0.13096626,0.5,0.00025024533,0.0005383757,0.0007684853,1,0,1,1,1,0
272873805,272773359,4325386,0.0015128686,0.0010205017,-0.017295202,0.34906584,2.0480421e-07,2.1440587e-07,9.3124705e-05,4259850,0.10233772,-0.023691647,-0.0041687847,0.4,0.00049984007,0.0005505002,0.00049984007,396321,0.19593523,-0.17035069,0.13118136,0.5,0.00024989664,0.0005383416,0.0007684336,1,0,1,1,1,0
273063877,272963378,4325386,0.0015667045,0.0010335196,-0.02129777,0.34906584,2.0443574e-07,2.1620417e-07,7.550143e-05,4259850,0.10331551,-0.02372806,-0.0056225876,0.4,0.0005000597,0.00055059744,0.0005000597,396321,0.19629565,-0.17015074,0.13136399,0.5,0.00024964538,0.0005383151,0.0007683989,1,0,1,1,1,0
273263881,273163398,4325386,0.0016506702,0.0010521997,-0.024567133,0.34906584,2.0418973e-07,2.181899e-07,6.387579e-05,4259850,0.10500156,-0.023608558,-0.006747854,0.4,0.0005003823,0.0005508284,0.0005003823,396321,0.19673236,-0.16990815,0.1315599,0.5,0.00024930798,0.0005382924,0.000768365,1,0,1,1,1,0
273463908,273363418,4325386,0.001729382,0.0010655697,-0.026902746,0.34906584,2.0345956e-07,2.1968383e-07,5.5788907e-05,4259850,0.106207825,-0.023447307,-0.008834144,0.4,0.0004995152,0.00054977316,0.0004995152,396321,0.19713289,-0.1697099,0.1317109,0.5,0.0002489792,0.0005382732,0.0007683355,1,0,1,1,1,0
273643890,273543436,4325386,0.0018247799,0.0010810778,-0.029089084,0.34906584,2.0279954e-07,2.2130392e-07,5.0029354e-05,4259850,0.10772493,-0.02333317,-0.010627974,0.4,0.0004993479,0.0005495254,0.0004993479,396321,0.19758144,-0.16949102,0.1318693,0.5,0.00024874555,0.00053825765,0.00076831476,1,0,1,1,1,0
273853915,273753457,4325386,0.0019184178,0.0010933809,-0.03087712,0.34906584,2.0270217e-07,2.2351914e-07,4.5865538e-05,4259850,0.10922828,-0.023263318,-0.011438308,0.4,0.000499841,0.00055002817,0.000499841,396321,0.19801322,-0.16930126,0.13200241,0.5,0.00024842581,0.0005382431,0.0007682901,1,0,1,1,1,0
274063998,273963477,4325386,0.0020156936,0.0011006251,-0.03237551,0.34906584,2.0256888e-07,2.2571386e-07,4.2740536e-05,4259850,0.110567935,-0.02329629,-0.013377926,0.4,0.00050033646,0.0005505556,0.00050033646,396321,0.19845518,-0.16913238,0.13211702,0.5,0.00024819875,0.00053823146,0.0007682728,1,0,1,1,1,0
274263946,274163497,4325386,0.002121268,0.0011038143,-0.03382981,0.34906584,2.0177575e-07,2.2711615e-07,4.038114e-05,4259850,0.111918524,-0.023416344,-0.014972106,0.4,0.00049945916,0.0005495911,0.00049945916,396321,0.1989393,-0.1689594,0.13223399,0.5,0.00024788818,0.00053822005,0.0007682508,1,0,1,1,1,0
274463853,274363517,4325386,0.002122557,0.0011046445,-0.033821348,0.34906584,2.0391708e-07,2.292754e-07,4.041086e-05,4259850,0.11192853,-0.023425538,-0.013948812,0.4,0.00049982645,0.0005499948,0.00049980974,396321,0.19894327,-0.16895841,0.13223435,0.5,0.00024762817,0.00053821673,0.00076823344,1,0,1,1,1,0
274473976,274373518,4325386,0.0021874313,0.0011093778,-0.034951665,0.34906584,2.0170452e-07,2.2917048e-07,3.8698945e-05,4259850,0.112810045,-0.02353077,-0.014599786,0.4,0.0004999525,0.0005501421,0.0004999525,396321,0.19925503,-0.16885754,0.13230363,0.5,0.00024758372,0.00053821027,0.0007682299,1,0,1,1,1,0
274664098,274563537,4325386,0.0022637828,0.0011151716,-0.036339633,0.34906584,2.0139727e-07,2.3078384e-07,3.7437327e-05,4259850,0.11364523,-0.023699254,-0.015739784,0.4,0.00050016417,0.0005503776,0.00050016417,396321,0.19962168,-0.16874495,0.13238132,0.5,0.00024736984,0.0005382027,0.00076821557,1,0,1,1,1,0
274843946,274743555,4325386,0.0022637965,0.001115492,-0.036310792,0.34906584,2.031225e-07,2.32498e-07,3.7424597e-05,4259850,0.11359893,-0.023694804,-0.014609488,0.4,0.0004999938,0.00055018923,0.00049997825,396321,0.19962516,-0.16874391,0.13238174,0.5,0.000247116,0.0005381994,0.00076819863,1,0,1,1,1,0
274854012,274753556,4325386,0.0023271404,0.0011221573,-0.037494004,0.34906584,2.011052e-07,2.3215868e-07,3.647735e-05,4259850,0.11437741,-0.023779728,-0.014706565,0.4,0.00050011644,0.0005503211,0.00050011644,396321,0.19992317,-0.16865101,0.13244592,0.5,0.0002470758,0.0005381951,0.0007681963,1,0,1,1,1,0
275064050,274963577,4325386,0.002391947,0.001116834,-0.03838091,0.34906584,2.0073804e-07,2.3314526e-07,3.5694684e-05,4259850,0.11492493,-0.02399963,-0.015980022,0.4,0.0004993583,0.00054944126,0.0004993583,396321,0.20023042,-0.16858011,0.1324948,0.5,0.0002467845,0.00053818827,0.0007681776,1,0,1,1,1,0
275264042,275163597,4325386,0.0024644115,0.0011156747,-0.039625477,0.34906584,2.0074118e-07,2.3422302e-07,3.5066732e-05,4259850,0.11556187,-0.024400394,-0.017540513,0.4,0.00049968326,0.0005496566,0.00049968326,396321,0.20057943,-0.1685065,0.13254729,0.5,0.00024657423,0.00053818314,0.00076816493,1,0,1,1,1,0
275464071,275363618,4325386,0.0025222448,0.0011187814,-0.04077419,0.34906584,2.0087677e-07,2.3531842e-07,3.439874e-05,4259850,0.116117634,-0.02472781,-0.017483715,0.4,0.00050001,0.000549888,0.00050001,396321,0.20087346,-0.16844898,0.13258755,0.5,0.00024628435,0.00053817773,0.0007681474,1,0,1,1,1,0
