timestamp,timestamp_sample,control[0],control[1],control[2],control[3],control[4],control[5],control[6],control[7]
217458369,217458259,-0.03571478,0.020198138,-0.0004883956,0.001,0.0,0.0,0.0,-1.0
217463367,217463258,-0.03578293,0.020275766,-0.00064540195,0.001,0.0,0.0,0.0,-1.0
217510871,217510762,-0.036392342,0.021842612,-0.000682617,0.001,0.0,0.0,0.0,-1.0
217560874,217560766,-0.035377976,0.02032239,-0.0009717812,0.001,0.0,0.0,0.0,-1.0
217608372,217608270,-0.034678683,0.020513024,-0.00043708645,0.001,0.0,0.0,0.0,-1.0
217660912,217660775,-0.037019376,0.021416828,0.00014537053,0.001,0.0,0.0,0.0,-1.0
217710887,217710779,-0.03546342,0.020542473,-0.00036765117,0.001,0.0,0.0,0.0,-1.0
217760889,217760783,-0.03634004,0.021572525,-0.00055629655,0.001,0.0,0.0,0.0,-1.0
217808392,217808287,-0.03600159,0.021682147,-0.0002084287,0.001,0.0,0.0,0.0,-1.0
217860897,217860791,-0.03572967,0.020464787,-0.0003430963,0.001,0.0,0.0,0.0,-1.0
217910904,217910795,-0.03651524,0.019673916,-0.00044781264,0.001,0.0,0.0,0.0,-1.0
217958403,217958299,-0.035844922,0.019884052,-0.00027701902,0.001,0.0,0.0,0.0,-1.0
218010911,218010803,-0.035433564,0.020974273,-0.00011368348,0.001,0.0,0.0,0.0,-1.0
218060915,218060807,-0.03635198,0.02219246,-0.0005753676,0.001,0.0,0.0,0.0,-1.0
218110916,218110811,-0.035996184,0.020477828,-0.00046109158,0.001,0.0,0.0,0.0,-1.0
218158421,218158315,-0.03715652,0.019763952,0.00045346498,0.001,0.0,0.0,0.0,-1.0
218210926,218210819,-0.035862356,0.020541394,-0.0004290045,0.001,0.0,0.0,0.0,-1.0
218260932,218260824,-0.03494523,0.02164645,-0.00019823584,0.001,0.0,0.0,0.0,-1.0
218308431,218308327,-0.037081607,0.020045267,-0.000251417,0.001,0.0,0.0,0.0,-1.0
218360950,218360832,-0.02013716,0.017361786,-0.0002694422,0.020112313,0.0,0.0,0.0,-1.0
218410941,218410836,-0.032052305,0.020013612,-0.00065994554,0.026899705,0.0,0.0,0.0,-1.0
218460947,218460840,-0.032081414,0.019641537,-0.00048201808,0.034183357,0.0,0.0,0.0,-1.0
218508449,218508344,-0.0318186,0.02215236,-0.00020803451,0.041883383,0.0,0.0,0.0,-1.0
218560958,218560848,-0.03178331,0.019657599,0.00018978115,0.05008929,0.0,0.0,0.0,-1.0
218610957,218610852,-0.03167449,0.020407138,2.2156071e-05,0.05873578,0.0,0.0,0.0,-1.0
218658457,218658356,-0.03185254,0.02108882,-0.00011162803,0.06784964,0.0,0.0,0.0,-1.0
218710966,218710861,-0.030645601,0.02156851,-0.00047382695,0.07751673,0.0,0.0,0.0,-1.0
218760970,218760865,-0.029929645,0.019923752,-0.00017567322,0.087590575,0.0,0.0,0.0,-1.0
218810974,218810869,-0.030737694,0.021232855,-0.0004798375,0.09808444,0.0,0.0,0.0,-1.0
218858473,218858373,-0.030108182,0.021867666,-0.000428244,0.10914438,0.0,0.0,0.0,-1.0
218910981,218910877,-0.031234473,0.022415755,-0.0005029212,0.12059011,0.0,0.0,0.0,-1.0
218960986,218960881,-0.030712662,0.02122776,-0.00012517063,0.13243583,0.0,0.0,0.0,-1.0
219008531,219008385,-0.031335972,0.023733363,-0.0006924918,0.14475274,0.0,0.0,0.0,-1.0
219060994,219060889,-0.0309943,0.021476438,-0.00019725412,0.15752055,0.0,0.0,0.0,-1.0
219111003,219110894,-0.03272097,0.023689488,-0.0005074856,0.17080003,0.0,0.0,0.0,-1.0
219161004,219160898,-0.034378156,0.025908789,-0.0012221024,0.18462619,0.0,0.0,0.0,-1.0
219208503,219208401,-0.038560677,0.02768716,-0.0009578111,0.1988687,0.0,0.0,0.0,-1.0
219261013,219260906,-0.03739523,0.028315963,-0.0010757224,0.2135053,0.0,0.0,0.0,-1.0
219311015,219310910,-0.041592397,0.028681098,0.001261268,0.22863607,0.0,0.0,0.0,-1.0
219358520,219358414,-0.043288857,0.030494234,-0.00033651857,0.24411969,0.0,0.0,0.0,-1.0
219411025,219410918,-0.044416927,0.0331379,-0.0011849058,0.26039106,0.0,0.0,0.0,-1.0
219461026,219460922,-0.04610961,0.03385664,-0.0008257745,0.27694985,0.0,0.0,0.0,-1.0
219511033,219510926,-0.046576414,0.038699746,0.00041532065,0.29227504,0.0,0.0,0.0,-1.0
219558531,219558430,-0.052104536,0.041114677,-0.0027016501,0.29388538,0.0,0.0,0.0,-1.0
219611040,219610935,-0.05281927,0.037622146,-0.0016242643,0.2971691,0.0,0.0,0.0,-1.0
219661043,219660939,-0.055543777,0.0465639,0.0009382046,0.2982181,0.0,0.0,0.0,-1.0
219708546,219708443,-0.055622473,0.03939892,-0.00028907417,0.30202836,0.0,0.0,0.0,-1.0
219761051,219760947,-0.05720565,0.046385597,-0.0013676357,0.30351007,0.0,0.0,0.0,-1.0
219811062,219810951,-0.05825503,0.04891567,-0.00083578064,0.30735967,0.0,0.0,0.0,-1.0
219861060,219860956,-0.061383974,0.049015846,-0.0012931322,0.3094082,0.0,0.0,0.0,-1.0
219908562,219908459,-0.06587471,0.047075406,-0.001904772,0.31218585,0.0,0.0,0.0,-1.0
219961073,219960964,-0.06744145,0.047360215,-0.0038341428,0.31464282,0.0,0.0,0.0,-1.0
220011071,220010968,-0.07075143,0.050905608,-0.0026280438,0.31806275,0.0,0.0,0.0,-1.0
220058574,220058472,-0.06974864,0.05605256,-0.000627436,0.31981513,0.0,0.0,0.0,-1.0
220111086,220110976,-0.06787232,0.052921508,0.00064343645,0.32385528,0.0,0.0,0.0,-1.0
220161086,220160980,-0.06840627,0.05852548,0.0013959737,0.3262028,0.0,0.0,0.0,-1.0
220211089,220210984,-0.069482766,0.053939577,0.0004011247,0.3304897,0.0,0.0,0.0,-1.0
220258593,220258488,-0.069059454,0.05391315,-0.0012764853,0.33282608,0.0,0.0,0.0,-1.0
220311098,220310993,-0.073592626,0.054313634,-0.0032513323,0.337088,0.0,0.0,0.0,-1.0
220361100,220360997,-0.07034336,0.052879173,-0.0037264286,0.3397707,0.0,0.0,0.0,-1.0
220408605,220408501,-0.07290232,0.0592288,-0.003073969,0.34419566,0.0,0.0,0.0,-1.0
220461110,220461005,-0.06873113,0.046807177,-0.002832401,0.34700966,0.0,0.0,0.0,-1.0
220511114,220511009,-0.072725385,0.058371678,-0.0005149531,0.3516333,0.0,0.0,0.0,-1.0
220561118,220561013,-0.070081316,0.06190793,-0.0013321557,0.35474968,0.0,0.0,0.0,-1.0
220608627,220608517,-0.07520432,0.05550465,-0.0041253446,0.35911137,0.0,0.0,0.0,-1.0
220661127,220661022,-0.06933333,0.056658175,-0.0007744427,0.36215675,0.0,0.0,0.0,-1.0
220711133,220711026,-0.07214461,0.05197609,-0.001797838,0.36756578,0.0,0.0,0.0,-1.0
220758635,220758530,-0.06850938,0.06621404,-0.001724876,0.37131435,0.0,0.0,0.0,-1.0
220808641,220808534,-0.068243854,0.066968605,-0.0027122593,0.3759567,0.0,0.0,0.0,-1.0
220858643,220858538,-0.07036452,0.06667628,-0.0010957547,0.37931156,0.0,0.0,0.0,-1.0
220911146,220911042,-0.06996438,0.05562856,-0.0020645307,0.3847492,0.0,0.0,0.0,-1.0
220958653,220958546,-0.073301785,0.05990719,-0.0024207833,0.38938358,0.0,0.0,0.0,-1.0
221011159,221011051,-0.07786379,0.07097056,-0.0013479043,0.3941405,0.0,0.0,0.0,-1.0
221061163,221061055,-0.074696854,0.058174413,-0.0011424014,0.39785758,0.0,0.0,0.0,-1.0
221108666,221108559,-0.069508225,0.06258904,-0.000586704,0.40303427,0.0,0.0,0.0,-1.0
221161172,221161064,-0.06563117,0.06206139,-0.000998229,0.40639472,0.0,0.0,0.0,-1.0
221211172,221211068,-0.069308005,0.064550295,-0.0024900972,0.41210216,0.0,0.0,0.0,-1.0
221261176,221261072,-0.07627233,0.061013214,-0.005025359,0.41706204,0.0,0.0,0.0,-1.0
221308679,221308576,-0.0745083,0.060969368,-0.003816293,0.4231093,0.0,0.0,0.0,-1.0
221361183,221361080,-0.07397192,0.0696684,-0.002368742,0.44353998,0.0,0.0,0.0,-1.0
221411190,221411084,-0.06639614,0.04961604,-0.0007274331,0.4479477,0.0,0.0,0.0,-1.0
221458692,221458588,-0.076441705,0.061583195,-0.0024046283,0.45186964,0.0,0.0,0.0,-1.0
221511206,221511093,-0.06745463,0.047112413,-0.0004780452,0.45762667,0.0,0.0,0.0,-1.0
221561203,221561097,-0.06315174,0.042026933,-0.0017109269,0.46206713,0.0,0.0,0.0,-1.0
221608707,221608601,-0.0598028,0.049976066,-0.0018088779,0.46894246,0.0,0.0,0.0,-1.0
221658708,221658605,-0.065915555,0.04991393,-0.00081603596,0.47315797,0.0,0.0,0.0,-1.0
221711214,221711109,-0.060455557,0.026838198,-0.004772732,0.47855714,0.0,0.0,0.0,-1.0
221761220,221761113,-0.07721284,0.03916468,-0.0061332704,0.4859047,0.0,0.0,0.0,-1.0
221808719,221808618,-0.06144334,0.020649837,-0.00867484,0.49211523,0.0,0.0,0.0,-1.0
221861228,221861122,-0.041342795,0.016943242,-0.009800618,0.4988234,0.0,0.0,0.0,-1.0
221911232,221911126,-0.050230592,0.0157487,-0.0128877405,0.505357,0.0,0.0,0.0,-1.0
221958732,221958630,-0.06525668,0.02517356,-0.017769497,0.51103866,0.0,0.0,0.0,-1.0
222008735,222008634,-0.08494801,0.029981405,-0.019083438,0.51829785,0.0,0.0,0.0,-1.0
222061246,222061139,-0.084726766,0.015987264,-0.019918354,0.5240481,0.0,0.0,0.0,-1.0
222111248,222111143,-0.08149278,0.010580574,-0.023805043,0.53210557,0.0,0.0,0.0,-1.0
222158815,222158647,-0.085787766,0.028068045,-0.022313619,0.5382796,0.0,0.0,0.0,-1.0
222211260,222211151,-0.055826426,0.015414361,-0.021190837,0.544575,0.0,0.0,0.0,-1.0
222261258,222261156,-0.060565274,0.01874611,-0.021463495,0.55182207,0.0,0.0,0.0,-1.0
222311273,222311160,-0.059849724,0.024140611,-0.026046315,0.55790997,0.0,0.0,0.0,-1.0
222358766,222358664,-0.07711249,0.013035563,-0.025323922,0.56594056,0.0,0.0,0.0,-1.0
222411274,222411168,-0.06769453,0.01522666,-0.025895027,0.5731696,0.0,0.0,0.0,-1.0
222461277,222461172,-0.07579875,0.009835654,-0.024690641,0.57821876,0.0,0.0,0.0,-1.0
222508785,222508676,-0.051709823,0.0018113672,-0.023258127,0.5877933,0.0,0.0,0.0,-1.0
222561287,222561181,-0.06472735,0.0066038393,-0.023203058,0.5940936,0.0,0.0,0.0,-1.0
222611289,222611185,-0.035572153,-0.009009108,-0.023736853,0.5998357,0.0,0.0,0.0,-1.0
222658793,222658689,-0.035516497,-0.014890273,-0.019326435,0.6028249,0.0,0.0,0.0,-1.0
222708795,222708693,-0.03726455,-0.0060453936,-0.022816371,0.6099588,0.0,0.0,0.0,-1.0
222761304,222761198,-0.031329166,-0.008095561,-0.02395709,0.6244689,0.0,0.0,0.0,-1.0
222811307,222811202,-0.018790824,-0.017205078,-0.024254473,0.63614845,0.0,0.0,0.0,-1.0
222858808,222858706,-0.029938262,0.02532385,-0.020134537,0.63919824,0.0,0.0,0.0,-1.0
222911315,222911210,-0.007381841,0.008205089,-0.014862829,0.6519597,0.0,0.0,0.0,-1.0
222961320,222961214,-0.018444877,-0.010812646,-0.010884784,0.66176385,0.0,0.0,0.0,-1.0
223008821,223008718,-0.011741455,0.011848551,-0.009067382,0.67014414,0.0,0.0,0.0,-1.0
223058883,223058723,-0.00143854,0.032724444,-0.0064705317,0.6707403,0.0,0.0,0.0,-1.0
223111335,223111227,0.036885012,-0.0029515391,-0.0012410425,0.6776177,0.0,0.0,0.0,-1.0
223161335,223161231,0.022851946,0.026860336,0.0016738606,0.6833157,0.0,0.0,0.0,-1.0
223208837,223208735,0.07992418,0.003173981,0.003701844,0.69331706,0.0,0.0,0.0,-1.0
223261346,223261240,0.0572442,0.0017477223,0.007878094,0.6989891,0.0,0.0,0.0,-1.0
223311352,223311244,0.056111246,-0.001785574,0.008990012,0.70183325,0.0,0.0,0.0,-1.0
223358853,223358748,0.04487453,0.014415568,0.007672287,0.6982298,0.0,0.0,0.0,-1.0
223408857,223408752,0.030512182,0.0003172681,0.007099378,0.6986038,0.0,0.0,0.0,-1.0
223461361,223461257,-0.057800762,0.0017575157,0.006867843,0.7022076,0.0,0.0,0.0,-1.0
223511367,223511261,-0.008683927,0.0011517007,0.011868628,0.69570446,0.0,0.0,0.0,-1.0
223558868,223558765,-0.03277039,-0.008398035,0.010754919,0.6829086,0.0,0.0,0.0,-1.0
223611372,223611269,-0.07014862,0.0060725342,0.008158419,0.6819025,0.0,0.0,0.0,-1.0
223661380,223661273,-0.094211504,-0.0025166383,0.008505629,0.6844422,0.0,0.0,0.0,-1.0
223708892,223708778,-0.045960743,-0.004633156,0.00946086,0.6869041,0.0,0.0,0.0,-1.0
223758884,223758782,-0.03791749,-0.004054747,0.008867928,0.68443,0.0,0.0,0.0,-1.0
223811394,223811286,-0.03724654,-0.017613893,0.01010424,0.6880898,0.0,0.0,0.0,-1.0
223861394,223861290,0.04381312,-0.01171665,0.010130819,0.6886523,0.0,0.0,0.0,-1.0
223908918,223908794,0.012343548,-0.026064005,0.011926732,0.6935894,0.0,0.0,0.0,-1.0
223961408,223961299,0.018615648,-0.009750578,0.012819471,0.6937953,0.0,0.0,0.0,-1.0
224011410,224011303,0.010502522,-0.0054572285,0.0122723365,0.69597477,0.0,0.0,0.0,-1.0
224058912,224058807,0.0090575935,-0.011052798,0.012568533,0.6986658,0.0,0.0,0.0,-1.0
224108946,224108811,-0.00011076867,-0.008112678,0.0124457525,0.70506626,0.0,0.0,0.0,-1.0
224161423,224161316,-0.00306818,0.010913617,0.012977433,0.70666796,0.0,0.0,0.0,-1.0
224211426,224211320,-0.037189472,0.043341387,0.009094897,0.70752704,0.0,0.0,0.0,-1.0
224258925,224258824,-0.03917915,0.031363793,0.01202706,0.70545834,0.0,0.0,0.0,-1.0
224311514,224311329,-0.04337611,0.012598517,0.009698078,0.7056867,0.0,0.0,0.0,-1.0
224361441,224361333,0.0069122617,0.017072432,0.008919956,0.70205253,0.0,0.0,0.0,-1.0
224408937,224408837,-0.022111999,0.022944313,0.0070645693,0.7022666,0.0,0.0,0.0,-1.0
224458947,224458841,0.001913667,-0.009967001,0.0075633144,0.69995564,0.0,0.0,0.0,-1.0
224511468,224511346,0.009485311,-0.009615213,0.005142193,0.7042508,0.0,0.0,0.0,-1.0
224561455,224561350,0.013779194,0.00082231837,0.0050648046,0.7072922,0.0,0.0,0.0,-1.0
224608961,224608854,0.011135977,-0.0050328253,0.0037956922,0.7127644,0.0,0.0,0.0,-1.0
224661468,224661359,0.0039412486,0.013313491,0.0025159882,0.71248466,0.0,0.0,0.0,-1.0
224711498,224711363,0.002604013,0.021444794,0.0007940314,0.7105378,0.0,0.0,0.0,-1.0
224758967,224758866,0.006845877,0.037294094,0.00021306054,0.7088514,0.0,0.0,0.0,-1.0
224808973,224808871,0.013159078,0.013780635,0.0017187102,0.70749044,0.0,0.0,0.0,-1.0
224861480,224861375,0.021937005,0.009373699,0.0011414749,0.70469314,0.0,0.0,0.0,-1.0
224911524,224911380,0.029298536,-0.00030403482,0.002313797,0.7028385,0.0,0.0,0.0,-1.0
224958987,224958884,0.016349655,-0.0073051774,0.0029280563,0.702985,0.0,0.0,0.0,-1.0
225011495,225011388,0.019985044,-0.004940374,0.004864329,0.705322,0.0,0.0,0.0,-1.0
225061498,225061392,0.01996818,0.0049334397,0.0057347496,0.70740914,0.0,0.0,0.0,-1.0
225109148,225108897,0.002852802,-0.013654862,0.004100819,0.7097387,0.0,0.0,0.0,-1.0
225159002,225158901,-0.010013469,-0.01071431,0.004419318,0.7080906,0.0,0.0,0.0,-1.0
225211510,225211405,-0.031294003,0.0032358854,0.003402022,0.7095688,0.0,0.0,0.0,-1.0
225261515,225261410,-0.028536642,-0.014015943,0.004571762,0.70967716,0.0,0.0,0.0,-1.0
225309105,225308913,-0.03916143,0.0023533076,0.0037614668,0.71217006,0.0,0.0,0.0,-1.0
225361524,225361418,-0.0320809,-0.008491721,0.0039116,0.71061426,0.0,0.0,0.0,-1.0
225411526,225411422,-0.011954428,-0.019069657,0.005652575,0.71172726,0.0,0.0,0.0,-1.0
225459029,225458926,-0.011447719,-0.010542061,0.005998576,0.7114211,0.0,0.0,0.0,-1.0
225509131,225508930,-0.015111752,0.013201408,0.0069094934,0.71143585,0.0,0.0,0.0,-1.0
225561544,225561435,0.0118263755,0.01146293,0.0076508,0.7090885,0.0,0.0,0.0,-1.0
225611543,225611439,-0.005218936,0.0101061305,0.0066816164,0.709218,0.0,0.0,0.0,-1.0
225659048,225658944,0.0060695624,-0.0017441565,0.0064004827,0.7079293,0.0,0.0,0.0,-1.0
225709163,225708948,0.0039474578,0.003796225,0.0069602137,0.7089766,0.0,0.0,0.0,-1.0
225761557,225761452,0.012075979,-0.008524993,0.008140041,0.70846117,0.0,0.0,0.0,-1.0
225809061,225808956,-4.5597568e-05,-0.013086609,0.0063956524,0.71136856,0.0,0.0,0.0,-1.0
225859066,225858961,-0.0014438968,-0.012527554,0.0065023964,0.7114923,0.0,0.0,0.0,-1.0
225911663,225911465,-0.019601014,-0.0028964195,0.005812311,0.71402884,0.0,0.0,0.0,-1.0
225961575,225961469,-0.009407358,-0.008194914,0.004890895,0.7124699,0.0,0.0,0.0,-1.0
226009079,226008974,-0.00995896,-0.002109165,0.0051560253,0.71387416,0.0,0.0,0.0,-1.0
226061583,226061478,-0.015986854,-0.0070262686,0.0049187304,0.7115516,0.0,0.0,0.0,-1.0
226111694,226111482,-0.000347093,-0.0003379499,0.005482453,0.7116281,0.0,0.0,0.0,-1.0
226159093,226158986,0.004347412,-0.008293865,0.005620189,0.70908535,0.0,0.0,0.0,-1.0
226209091,226208991,-0.027794586,0.012730441,0.0034509283,0.7082187,0.0,0.0,0.0,-1.0
226261604,226261495,0.016464803,-0.0032844353,0.003443076,0.704067,0.0,0.0,0.0,-1.0
226311722,226311499,-0.011491364,0.0040088687,0.0027099403,0.7041293,0.0,0.0,0.0,-1.0
226359105,226359003,0.007129315,0.0027616418,0.0014259717,0.7015908,0.0,0.0,0.0,-1.0
226411618,226411508,-0.006176213,-0.01385402,0.0022454509,0.70311207,0.0,0.0,0.0,-1.0
226461623,226461512,0.005512527,-0.015596052,0.0022205415,0.7011913,0.0,0.0,0.0,-1.0
226509271,226509016,-0.013100485,-0.013795041,0.00033360324,0.7046203,0.0,0.0,0.0,-1.0
226551628,226551520,-0.026088828,0.0023411447,0.0003458941,0.70415574,0.0,0.0,0.0,-1.0
226611632,226611525,-0.0135819595,0.017061941,0.0013381742,0.7048307,0.0,0.0,0.0,-1.0
226661641,226661529,-0.01659225,0.01206945,0.0014245147,0.7035345,0.0,0.0,0.0,-1.0
226709300,226709033,0.0011946193,0.018795334,0.0017733318,0.7043023,0.0,0.0,0.0,-1.0
226761645,226761538,-0.00037305662,0.014596932,0.0023590592,0.70293725,0.0,0.0,0.0,-1.0
226811650,226811543,0.0078054233,0.007579762,0.0035102759,0.70271456,0.0,0.0,0.0,-1.0
226859149,226859046,-0.00042764033,0.010796733,0.004585805,0.70005685,0.0,0.0,0.0,-1.0
226909159,226909051,0.0025395467,0.0019524684,0.00492905,0.7019973,0.0,0.0,0.0,-1.0
226961663,226961555,-0.0076124854,-0.0050195614,0.0047905557,0.7005524,0.0,0.0,0.0,-1.0
227011666,227011559,-0.00011085039,-0.014521047,0.0058494876,0.7029487,0.0,0.0,0.0,-1.0
227059166,227059064,-0.011422689,-0.0023098567,0.005061327,0.702516,0.0,0.0,0.0,-1.0
227111829,227111568,0.014052211,-0.0116770975,0.0050402083,0.7046889,0.0,0.0,0.0,-1.0
227161682,227161573,-0.0076952823,0.0010786647,0.004826581,0.7044082,0.0,0.0,0.0,-1.0
227209179,227209077,0.00699822,-0.0059157116,0.0045077465,0.706279,0.0,0.0,0.0,-1.0
227259184,227259081,-0.005679825,0.006299042,0.00298275,0.70384926,0.0,0.0,0.0,-1.0
227309189,227309085,-0.017601442,0.013867101,2.2104015e-05,0.7038498,0.0,0.0,0.0,-1.0
227361700,227361590,0.0032577582,0.013711455,-6.326888e-05,0.7010646,0.0,0.0,0.0,-1.0
227409198,227409094,3.0455334e-05,0.009991302,-0.0014554291,0.7013164,0.0,0.0,0.0,-1.0
227461707,227461598,-0.022030126,0.0019091902,-0.0027264226,0.697327,0.0,0.0,0.0,-1.0
227511710,227511603,-0.0103543075,-0.009907323,-0.0037734036,0.69942164,0.0,0.0,0.0,-1.0
227559208,227559107,-0.027646555,0.012010467,-0.0066059628,0.69771194,0.0,0.0,0.0,-1.0
227609214,227609111,-0.01945559,-0.0040986473,-0.0083432095,0.7005466,0.0,0.0,0.0,-1.0
227661723,227661618,-0.023747317,0.02503055,-0.009341327,0.69890016,0.0,0.0,0.0,-1.0
227711728,227711620,-0.042906098,0.0292281,-0.011392015,0.7006795,0.0,0.0,0.0,-1.0
227759227,227759124,-0.022944517,0.017726637,-0.011873781,0.6965397,0.0,0.0,0.0,-1.0
227811733,227811629,-0.023540316,0.024879463,-0.013770501,0.69877905,0.0,0.0,0.0,-1.0
227861737,227861633,-0.033051394,0.01102414,-0.014814024,0.69215924,0.0,0.0,0.0,-1.0
227909242,227909137,-0.046053164,0.029114382,-0.01538264,0.6930803,0.0,0.0,0.0,-1.0
227959244,227959141,-0.028531574,0.01172905,-0.015940735,0.6895003,0.0,0.0,0.0,-1.0
228011750,228011646,-0.021071592,0.004442622,-0.017610349,0.6918557,0.0,0.0,0.0,-1.0
228059254,228059150,-0.027187224,0.0071419906,-0.01739809,0.6877736,0.0,0.0,0.0,-1.0
228109259,228109154,-0.027558552,0.0084137535,-0.01854251,0.6910733,0.0,0.0,0.0,-1.0
228161764,228161659,-0.010672058,0.003644913,-0.019779926,0.68784577,0.0,0.0,0.0,-1.0
228211770,228211663,-0.014306091,-0.009498921,-0.020417761,0.69103825,0.0,0.0,0.0,-1.0
228259272,228259167,-0.033942517,0.007514456,-0.019938273,0.68974566,0.0,0.0,0.0,-1.0
228309275,228309172,-0.041563276,0.023972,-0.019877188,0.6928688,0.0,0.0,0.0,-1.0
228361780,228361676,-0.03871912,0.0018995628,-0.021619068,0.69328904,0.0,0.0,0.0,-1.0
228409285,228409180,-0.03371828,0.023785818,-0.02084777,0.69721144,0.0,0.0,0.0,-1.0
228459286,228459185,-0.024492724,0.02184227,-0.020858949,0.6948187,0.0,0.0,0.0,-1.0
228511797,228511690,-0.03431949,0.0070317844,-0.022364706,0.69770634,0.0,0.0,0.0,-1.0
228561799,228561694,-0.012207797,0.008801676,-0.022460861,0.69236857,0.0,0.0,0.0,-1.0
228609301,228609198,-0.017647091,0.025881805,-0.022643413,0.69430554,0.0,0.0,0.0,-1.0
228659306,228659202,-0.02841646,0.024153324,-0.021653295,0.69008684,0.0,0.0,0.0,-1.0
228711813,228711707,0.013115498,-0.0012535936,-0.02120126,0.6901825,0.0,0.0,0.0,-1.0
228759313,228759211,-0.015990507,0.020828191,-0.021482209,0.6885177,0.0,0.0,0.0,-1.0
228809337,228809215,-0.03762798,0.033627063,-0.022408063,0.6901518,0.0,0.0,0.0,-1.0
228859322,228859220,-0.009940467,0.022024175,-0.020373337,0.68719643,0.0,0.0,0.0,-1.0
228911831,228911724,-0.017780775,0.024545243,-0.020110568,0.69042444,0.0,0.0,0.0,-1.0
228959332,228959228,-0.015245986,0.044099037,-0.018920328,0.68804604,0.0,0.0,0.0,-1.0
229009335,229009233,-0.017195163,0.03811682,-0.01808819,0.69116014,0.0,0.0,0.0,-1.0
229061845,229061737,-0.01813843,0.034492645,-0.017493566,0.6885039,0.0,0.0,0.0,-1.0
229109343,229109241,-0.009227034,0.04143754,-0.015340362,0.68851095,0.0,0.0,0.0,-1.0
229159350,229159246,-0.019507196,0.046336614,-0.014615135,0.6864687,0.0,0.0,0.0,-1.0
229211857,229211750,-0.018234469,0.01711361,-0.01338917,0.6883628,0.0,0.0,0.0,-1.0
229261858,229261755,-0.009070267,0.013984939,-0.01229979,0.68507177,0.0,0.0,0.0,-1.0
229309362,229309259,-0.006923456,0.041567415,-0.011185469,0.6881227,0.0,0.0,0.0,-1.0
229359366,229359263,-0.004551583,0.045898207,-0.010439766,0.6856073,0.0,0.0,0.0,-1.0
229411873,229411768,-0.003329562,0.012338345,-0.00972842,0.6886575,0.0,0.0,0.0,-1.0
229459374,229459272,-0.00079850457,0.0394022,-0.007320116,0.68658936,0.0,0.0,0.0,-1.0
229509382,229509276,-0.0054063187,0.042445563,-0.008044412,0.69087905,0.0,0.0,0.0,-1.0
229559383,229559281,-0.0032094447,0.039743558,-0.008797069,0.68672353,0.0,0.0,0.0,-1.0
229606891,229606785,0.007866913,0.014395469,-0.0069457954,0.6877703,0.0,0.0,0.0,-1.0
229659394,229659290,-0.0020671517,0.040099308,-0.0072115907,0.68523216,0.0,0.0,0.0,-1.0
229709395,229709294,0.016397502,0.028782595,-0.0046835896,0.6880563,0.0,0.0,0.0,-1.0
229761903,229761798,-0.0110126585,0.033876218,-0.007085219,0.68609107,0.0,0.0,0.0,-1.0
229809406,229809303,0.004546466,0.025132759,-0.005208192,0.68886733,0.0,0.0,0.0,-1.0
229859470,229859307,0.010658623,0.022880627,-0.004073691,0.68750215,0.0,0.0,0.0,-1.0
229909413,229909311,0.012111714,0.020639786,-0.002932897,0.68951505,0.0,0.0,0.0,-1.0
229961921,229961816,-0.0024001566,0.02952924,-0.0030301742,0.68666744,0.0,0.0,0.0,-1.0
230009422,230009320,0.0072503816,0.021494344,-0.00084956054,0.69035476,0.0,0.0,0.0,-1.0
230059425,230059324,0.011137326,0.013081169,-0.0015245705,0.6886155,0.0,0.0,0.0,-1.0
230111933,230111829,-0.008255559,0.04622472,-0.0029265329,0.6916205,0.0,0.0,0.0,-1.0
230159436,230159333,0.0011039836,0.026354875,-0.0020564026,0.68688905,0.0,0.0,0.0,-1.0
230209441,230209338,0.0038024331,0.029821998,-0.001128563,0.6887453,0.0,0.0,0.0,-1.0
230259444,230259342,0.0065696677,0.033089105,-0.0020267759,0.6846385,0.0,0.0,0.0,-1.0
230311954,230311846,-0.013782823,0.024607915,-0.0014203016,0.6886068,0.0,0.0,0.0,-1.0
230359454,230359351,0.008003647,0.017097482,-5.832415e-05,0.68607694,0.0,0.0,0.0,-1.0
230409455,230409355,0.00897256,0.012240177,0.0011119054,0.68911654,0.0,0.0,0.0,-1.0
230461967,230461860,0.0007780204,0.026027832,-0.0017105815,0.6885888,0.0,0.0,0.0,-1.0
230509465,230509364,0.0074066916,0.03256486,0.00061832054,0.6910055,0.0,0.0,0.0,-1.0
230559476,230559368,0.009295554,0.038738277,-0.00039465138,0.6890369,0.0,0.0,0.0,-1.0
230609476,230609373,0.011530327,0.037572447,0.00037735747,0.6908969,0.0,0.0,0.0,-1.0
230661987,230661882,0.00869469,0.026773984,-0.00022955379,0.6888522,0.0,0.0,0.0,-1.0
230709483,230709381,7.330969e-05,0.03983647,-8.800877e-05,0.6899345,0.0,0.0,0.0,-1.0
230759487,230759386,-0.0034393591,0.03904826,-0.00034187073,0.68596745,0.0,0.0,0.0,-1.0
230811997,230811890,0.0046845963,0.028208803,-0.000561429,0.6865267,0.0,0.0,0.0,-1.0
230859495,230859395,-0.004603123,0.032597005,-0.0005358918,0.6814354,0.0,0.0,0.0,-1.0
230909502,230909399,-0.008363715,0.02979105,-0.0017194588,0.6840032,0.0,0.0,0.0,-1.0
230959507,230959403,-0.0033032694,0.027341349,-0.0011327919,0.6821606,0.0,0.0,0.0,-1.0
231012013,231011908,0.013660487,0.0009810711,0.0010746276,0.68474734,0.0,0.0,0.0,-1.0
231059513,231059412,-0.008880364,0.013247637,0.00029392968,0.6845885,0.0,0.0,0.0,-1.0
231109519,231109417,0.0002923775,0.0066726077,0.00091962516,0.68791115,0.0,0.0,0.0,-1.0
231162031,231161921,0.0065420815,0.003638425,0.0010248616,0.68804574,0.0,0.0,0.0,-1.0
231209528,231209425,0.005737599,0.007868728,0.0014879316,0.6915282,0.0,0.0,0.0,-1.0
231259532,231259430,0.0121419085,0.018581375,0.00047045684,0.68962145,0.0,0.0,0.0,-1.0
231309534,231309434,0.0053374856,0.020204833,-0.0003033293,0.6921771,0.0,0.0,0.0,-1.0
231362043,231361939,0.004754559,0.019012775,-0.0010801242,0.68808573,0.0,0.0,0.0,-1.0
231409546,231409443,-0.0036457889,0.034076147,-0.0022405938,0.68928134,0.0,0.0,0.0,-1.0
231459552,231459447,-0.005026649,0.03531363,-0.0022615928,0.68438286,0.0,0.0,0.0,-1.0
231512058,231511952,-0.0040382845,0.019504966,-0.0020437322,0.6844125,0.0,0.0,0.0,-1.0
231559561,231559459,-0.00561681,0.034765687,-0.0020013892,0.67939866,0.0,0.0,0.0,-1.0
231609562,231609461,-0.0058097253,0.027290842,-0.0011778894,0.680632,0.0,0.0,0.0,-1.0
231659565,231659465,-0.007643915,0.02361842,-0.0010290968,0.6778347,0.0,0.0,0.0,-1.0
231712078,231711970,0.002973483,0.006172259,-0.0013320185,0.6812471,0.0,0.0,0.0,-1.0
231759576,231759474,0.024686748,0.008882209,0.00032558662,0.680683,0.0,0.0,0.0,-1.0
231809581,231809478,0.02032097,0.0046535917,0.002071898,0.68736315,0.0,0.0,0.0,-1.0
231862090,231861983,0.005032203,0.027077572,-0.00039270418,0.6871786,0.0,0.0,0.0,-1.0
231909591,231909487,-0.0013297787,0.010943421,-0.0005393849,0.69201267,0.0,0.0,0.0,-1.0
231959593,231959491,-0.0058444953,0.019703986,0.0003364058,0.6893959,0.0,0.0,0.0,-1.0
232009596,232009496,-0.0062160804,0.025380598,-0.00090923725,0.6908092,0.0,0.0,0.0,-1.0
232062107,232062000,-0.010963939,0.018426172,0.0012796575,0.6871484,0.0,0.0,0.0,-1.0
232109606,232109505,-0.00640924,0.020577764,0.00032302362,0.68750644,0.0,0.0,0.0,-1.0
232159621,232159509,-0.007587579,0.019892566,0.00168469,0.68289626,0.0,0.0,0.0,-1.0
232212119,232212014,0.0027466197,0.011563836,0.0033165775,0.68368995,0.0,0.0,0.0,-1.0
232259626,232259518,-0.0023014045,0.026003826,0.004488025,0.6801142,0.0,0.0,0.0,-1.0
232309628,232309522,0.005486992,0.022191018,0.0061831125,0.6833904,0.0,0.0,0.0,-1.0
232359632,232359527,0.008021462,0.015163206,0.008672994,0.68072927,0.0,0.0,0.0,-1.0
232412137,232412031,0.015579957,0.0009568146,0.01037371,0.6839807,0.0,0.0,0.0,-1.0
232459640,232459536,0.02193402,0.005227516,0.010808879,0.6815945,0.0,0.0,0.0,-1.0
232509644,232509540,0.017766377,0.0015193148,0.011762819,0.68555325,0.0,0.0,0.0,-1.0
232562151,232562045,0.019198606,0.0067183897,0.013277081,0.68284667,0.0,0.0,0.0,-1.0
232609655,232609549,0.009537503,-0.0018701244,0.012754588,0.68647367,0.0,0.0,0.0,-1.0
232659658,232659554,0.007849678,0.007528609,0.014256797,0.6839164,0.0,0.0,0.0,-1.0
232709661,232709558,0.0020237197,0.00033301322,0.014493827,0.6861617,0.0,0.0,0.0,-1.0
232762172,232762063,0.008274425,0.0010061375,0.015092254,0.6842139,0.0,0.0,0.0,-1.0
232809668,232809567,-0.005017017,0.01031297,0.015688792,0.685865,0.0,0.0,0.0,-1.0
232859672,232859571,-0.008523041,0.010215973,0.015048958,0.6834745,0.0,0.0,0.0,-1.0
232912181,232912076,0.015468608,-0.004915927,0.016117161,0.6859498,0.0,0.0,0.0,-1.0
232959687,232959580,-0.0014645921,0.007852087,0.014264499,0.6809436,0.0,0.0,0.0,-1.0
233009689,233009585,0.002436109,0.010687592,0.014290291,0.6846854,0.0,0.0,0.0,-1.0
233059698,233059589,0.0025293962,0.008478847,0.015021509,0.6819237,0.0,0.0,0.0,-1.0
233112201,233112094,0.0064163995,-0.0051969117,0.015264084,0.6858599,0.0,0.0,0.0,-1.0
233159742,233159598,-0.0004681435,0.012509045,0.015015319,0.6837936,0.0,0.0,0.0,-1.0
233209709,233209603,-0.005749399,0.013864698,0.014965515,0.68732923,0.0,0.0,0.0,-1.0
233262211,233262107,-0.0006836969,5.4919277e-05,0.014287622,0.6841646,0.0,0.0,0.0,-1.0
233309719,233309613,-0.0067075114,0.019155208,0.014950911,0.6879203,0.0,0.0,0.0,-1.0
233359722,233359618,-0.009456031,0.01745788,0.013583005,0.6855442,0.0,0.0,0.0,-1.0
233409728,233409620,-0.0021517035,0.02104308,0.014931705,0.6872958,0.0,0.0,0.0,-1.0
233462229,233462125,-0.0027753424,0.011263056,0.01419129,0.68430257,0.0,0.0,0.0,-1.0
233509734,233509629,-0.006031932,0.009228671,0.014330399,0.6885442,0.0,0.0,0.0,-1.0
233559738,233559633,-0.0004636275,0.011618012,0.013203238,0.6868487,0.0,0.0,0.0,-1.0
233612246,233612138,-0.0072844075,0.013515611,0.013632993,0.6892184,0.0,0.0,0.0,-1.0
233659747,233659643,0.008826769,-0.006614371,0.014571817,0.68848264,0.0,0.0,0.0,-1.0
233709748,233709647,0.0126454,-0.009702448,0.015340372,0.6897435,0.0,0.0,0.0,-1.0
233759757,233759651,0.013164935,-0.006026035,0.015216723,0.6897813,0.0,0.0,0.0,-1.0
233809759,233809656,0.012637537,-0.0028456075,0.014687557,0.69395685,0.0,0.0,0.0,-1.0
233859765,233859660,0.0051850528,-0.0066949776,0.014916304,0.69169724,0.0,0.0,0.0,-1.0
233909767,233909665,0.0030519362,0.007902489,0.014954202,0.6947119,0.0,0.0,0.0,-1.0
233962279,233962170,0.012499216,0.004646421,0.01622682,0.69113237,0.0,0.0,0.0,-1.0
234009777,234009674,7.368712e-07,0.0051468415,0.015228381,0.693781,0.0,0.0,0.0,-1.0
234059781,234059678,-0.0036719374,0.013659867,0.015270726,0.68955153,0.0,0.0,0.0,-1.0
234112289,234112183,0.008413076,0.0058277035,0.016353609,0.6915072,0.0,0.0,0.0,-1.0
234159791,234159688,-0.0075914236,0.013853789,0.015480509,0.68879473,0.0,0.0,0.0,-1.0
234209795,234209692,-0.005376307,0.009054488,0.015693452,0.6909257,0.0,0.0,0.0,-1.0
234259799,234259696,-0.0023262347,0.019867871,0.01595025,0.6879278,0.0,0.0,0.0,-1.0
234312307,234312201,-0.0018938924,0.005143056,0.01558212,0.6908423,0.0,0.0,0.0,-1.0
234359808,234359705,-0.006610475,0.018243268,0.015313451,0.68868977,0.0,0.0,0.0,-1.0
234409811,234409709,-0.007102426,0.016374087,0.013715171,0.691199,0.0,0.0,0.0,-1.0
234462321,234462214,0.006894021,-0.0035562452,0.015211119,0.68970853,0.0,0.0,0.0,-1.0
234509821,234509718,-0.00010202316,0.004842536,0.013941817,0.69400716,0.0,0.0,0.0,-1.0
234559828,234559723,0.0030848342,0.0052073263,0.014155334,0.6913223,0.0,0.0,0.0,-1.0
234609829,234609727,0.0083767,0.011707022,0.013074236,0.694521,0.0,0.0,0.0,-1.0
234662339,234662232,-0.0025828658,0.014881438,0.013649367,0.69277227,0.0,0.0,0.0,-1.0
234702340,234702236,0.004986502,0.010001485,0.014151608,0.6925789,0.0,0.0,0.0,-1.0
234759843,234759741,-0.0021924411,0.018676328,0.012505984,0.69247216,0.0,0.0,0.0,-1.0
234812350,234812245,-0.01336758,0.015660502,0.012819598,0.69328356,0.0,0.0,0.0,-1.0
234859892,234859750,-0.009645377,0.01589034,0.012588241,0.691127,0.0,0.0,0.0,-1.0
234909855,234909754,-0.010983704,0.011972245,0.012490286,0.70058995,0.0,0.0,0.0,-1.0
234959862,234959759,-0.0063530053,0.017891942,0.011770445,0.71064866,0.0,0.0,0.0,-1.0
235012369,235012263,-0.016054913,0.010138901,0.010944204,0.73555315,0.0,0.0,0.0,-1.0
235059871,235059768,-0.009388443,0.021222029,0.010059429,0.7428487,0.0,0.0,0.0,-1.0
235109875,235109772,-0.0054581356,0.008852797,0.011095296,0.76697004,0.0,0.0,0.0,-1.0
235162386,235162277,0.002263145,0.020402227,0.010133936,0.77022004,0.0,0.0,0.0,-1.0
235209936,235209781,0.0031973883,0.026390592,0.009598654,0.78830975,0.0,0.0,0.0,-1.0
235259887,235259786,0.016400957,0.002255989,0.010802652,0.78458947,0.0,0.0,0.0,-1.0
235309892,235309790,-0.0008881417,0.017535292,0.010493728,0.8007933,0.0,0.0,0.0,-1.0
235362399,235362295,-0.00067174324,-0.0011619943,0.01042859,0.7967699,0.0,0.0,0.0,-1.0
235409903,235409799,0.0066465163,0.0076127425,0.010817146,0.81656903,0.0,0.0,0.0,-1.0
235459907,235459804,0.015074509,-0.0038782242,0.010047654,0.811426,0.0,0.0,0.0,-1.0
235512413,235512308,0.007516462,0.009134734,0.010884363,0.83640057,0.0,0.0,0.0,-1.0
235559929,235559813,0.007913696,-0.011154238,0.011028194,0.8349612,0.0,0.0,0.0,-1.0
235609919,235609817,0.0071922042,0.011546059,0.013497543,0.85308164,0.0,0.0,0.0,-1.0
235659924,235659822,0.016514141,0.0013739376,0.013230946,0.8258654,0.0,0.0,0.0,-1.0
235712431,235712326,0.0076240534,0.0055826176,0.012993738,0.81871367,0.0,0.0,0.0,-1.0
235759964,235759831,0.034604184,0.0076940195,0.016650153,0.7960341,0.0,0.0,0.0,-1.0
235809939,235809835,0.033051703,0.013087208,0.015203185,0.7909514,0.0,0.0,0.0,-1.0
235862445,235862340,0.021060487,0.015363521,0.015766326,0.76930994,0.0,0.0,0.0,-1.0
235909948,235909844,0.00893498,0.015529785,0.018442102,0.77555203,0.0,0.0,0.0,-1.0
235959981,235959849,0.004796671,0.024252769,0.01843224,0.7618045,0.0,0.0,0.0,-1.0
236009956,236009853,0.025252901,0.0025308856,0.017192902,0.7699331,0.0,0.0,0.0,-1.0
236062465,236062358,0.01228298,0.0031041864,0.01802604,0.7588414,0.0,0.0,0.0,-1.0
236109963,236109862,0.009359034,-0.0033978997,0.016039852,0.7470768,0.0,0.0,0.0,-1.0
236160011,236159867,0.006479297,-0.0007856624,0.015795829,0.73595995,0.0,0.0,0.0,-1.0
236212477,236212371,-0.0019021512,0.0035582269,0.015323491,0.72569185,0.0,0.0,0.0,-1.0
236259979,236259876,-0.0024667806,0.014460552,0.014036554,0.72005695,0.0,0.0,0.0,-1.0
236309981,236309880,0.0005729299,-0.0041371076,0.01236214,0.71474695,0.0,0.0,0.0,-1.0
236360038,236359885,0.021438772,-0.006157513,0.013919318,0.72604775,0.0,0.0,0.0,-1.0
236412495,236412389,0.011762842,0.0007222896,0.013354545,0.73690325,0.0,0.0,0.0,-1.0
236459994,236459894,0.013116563,-0.004870908,0.013139507,0.74494135,0.0,0.0,0.0,-1.0
236510001,236509899,0.020612326,0.002309003,0.012419763,0.75234383,0.0,0.0,0.0,-1.0
236562541,236562403,0.018604616,0.0017545272,0.010812617,0.7539601,0.0,0.0,0.0,-1.0
236610010,236609908,0.013654597,0.006729994,0.010132577,0.75535625,0.0,0.0,0.0,-1.0
236660015,236659912,0.009403529,-0.0075261947,0.00964115,0.7597874,0.0,0.0,0.0,-1.0
236710019,236709917,-0.0051930174,0.024590423,0.008372189,0.7589381,0.0,0.0,0.0,-1.0
236762570,236762421,-0.006076465,-0.0009421469,0.007186021,0.75511044,0.0,0.0,0.0,-1.0
236810026,236809925,-0.006272451,-0.007569469,0.0072412766,0.7548215,0.0,0.0,0.0,-1.0
236860030,236859930,-0.025441112,0.014063695,0.0033741992,0.7524116,0.0,0.0,0.0,-1.0
236912546,236912435,-0.023253554,-0.012319724,0.0026908803,0.75234,0.0,0.0,0.0,-1.0
236960126,236959939,-0.013512591,-0.01772021,0.0034738372,0.758056,0.0,0.0,0.0,-1.0
237010048,237009944,0.0023251774,-0.004085565,0.0027253155,0.7615257,0.0,0.0,0.0,-1.0
237060052,237059948,0.0031381834,0.0007311323,0.0018775142,0.7613171,0.0,0.0,0.0,-1.0
237112564,237112453,0.03496351,-0.015615955,0.0037347474,0.76243144,0.0,0.0,0.0,-1.0
237160156,237159957,0.0100762835,-0.0021448627,0.0026220302,0.76672894,0.0,0.0,0.0,-1.0
237210063,237209962,0.018074656,0.01996437,0.0006617049,0.76170033,0.0,0.0,0.0,-1.0
237262577,237262467,0.015716571,-0.0053872005,0.0021939217,0.7617548,0.0,0.0,0.0,-1.0
237310076,237309971,0.0056891474,0.0032631503,0.0025792373,0.7633074,0.0,0.0,0.0,-1.0
237360184,237359975,0.0038203355,0.02351158,0.0047531566,0.76013374,0.0,0.0,0.0,-1.0
237410083,237409980,0.0027257416,-0.0046536443,0.0032003392,0.7633453,0.0,0.0,0.0,-1.0
237462599,237462485,-0.004564083,-0.0027933584,0.0057781506,0.762868,0.0,0.0,0.0,-1.0
237510091,237509989,0.0106036095,-0.008748396,0.007184759,0.7636342,0.0,0.0,0.0,-1.0
237560208,237559993,-0.034023814,0.0054862583,0.006045015,0.7645661,0.0,0.0,0.0,-1.0
237612614,237612501,-0.0056328434,-0.007811297,0.0107104285,0.76669437,0.0,0.0,0.0,-1.0
237660104,237660003,0.0057356786,0.0025949578,0.010292308,0.76764977,0.0,0.0,0.0,-1.0
237710111,237710007,0.016565649,-0.0029758376,0.008571514,0.770622,0.0,0.0,0.0,-1.0
237755116,237755011,0.007711121,0.00047313736,0.008382077,0.7730082,0.0,0.0,0.0,-1.0
237812625,237812517,0.010883679,0.007347175,0.011047687,0.7753138,0.0,0.0,0.0,-1.0
237860126,237860021,0.017927531,0.010290426,0.012088561,0.7801379,0.0,0.0,0.0,-1.0
237910128,237910026,0.025734205,0.019049134,0.013797765,0.7795987,0.0,0.0,0.0,-1.0
237962749,237962531,0.015032117,0.009896318,0.013657035,0.7836237,0.0,0.0,0.0,-1.0
238010135,238010034,-0.0037280384,0.00817005,0.014496496,0.78616434,0.0,0.0,0.0,-1.0
238060146,238060039,-0.0052581327,-0.0019021505,0.013235465,0.78909093,0.0,0.0,0.0,-1.0
238110144,238110044,-0.004853822,-0.0030891288,0.012766926,0.7924263,0.0,0.0,0.0,-1.0
238160298,238160048,-0.0027607444,-0.0022075986,0.014167844,0.7983192,0.0,0.0,0.0,-1.0
238210160,238210053,0.029430283,-0.008299663,0.01391713,0.8010512,0.0,0.0,0.0,-1.0
238260220,238260057,0.025888944,-0.00817511,0.016166966,0.8081267,0.0,0.0,0.0,-1.0
238312668,238312563,0.009915318,-0.006677196,0.015784413,0.8042889,0.0,0.0,0.0,-1.0
238360331,238360067,0.022089893,-0.0005689343,0.01599735,0.80412644,0.0,0.0,0.0,-1.0
238410178,238410071,0.0116639845,0.006050707,0.014995166,0.79951143,0.0,0.0,0.0,-1.0
238460177,238460076,0.008732446,-0.002225421,0.015515434,0.8003984,0.0,0.0,0.0,-1.0
238512693,238512581,0.017463664,-0.009725122,0.014338788,0.797201,0.0,0.0,0.0,-1.0
238560360,238560087,0.038294014,-0.0044724937,0.013746784,0.80184865,0.0,0.0,0.0,-1.0
238610193,238610089,0.0501953,-0.008646948,0.013102459,0.8001149,0.0,0.0,0.0,-1.0
238662702,238662594,0.02929904,0.0117657045,0.010223504,0.80436134,0.0,0.0,0.0,-1.0
238710199,238710099,0.02721517,-0.008147997,0.01188001,0.80483776,0.0,0.0,0.0,-1.0
238760210,238760103,0.025111532,-0.004823884,0.010198252,0.8068029,0.0,0.0,0.0,-1.0
238810213,238810108,-0.0061608744,0.007191487,0.009795727,0.80691916,0.0,0.0,0.0,-1.0
238862724,238862613,0.019743476,-0.0113040265,0.012130708,0.8080084,0.0,0.0,0.0,-1.0
238910220,238910117,-0.00751415,0.001778972,0.01019938,0.8060636,0.0,0.0,0.0,-1.0
238960225,238960121,-0.010323771,-0.007705407,0.0110609755,0.80551094,0.0,0.0,0.0,-1.0
239012731,239012626,0.0053570485,0.0020335203,0.0096620275,0.8070854,0.0,0.0,0.0,-1.0
239060231,239060131,0.0036530069,-0.014312615,0.011122584,0.8063955,0.0,0.0,0.0,-1.0
239110239,239110135,-0.008530155,0.01510262,0.009297702,0.8086271,0.0,0.0,0.0,-1.0
239157812,239157640,0.014762486,-0.00542422,0.008513554,0.80876535,0.0,0.0,0.0,-1.0
239210246,239210144,0.013179956,0.013989218,0.0080077825,0.8076084,0.0,0.0,0.0,-1.0
239260251,239260149,0.0007487512,-0.0042150663,0.0070986473,0.80934453,0.0,0.0,0.0,-1.0
239310254,239310153,-0.009011686,0.005271944,0.008420878,0.80703115,0.0,0.0,0.0,-1.0
239362766,239362658,0.03712895,-0.010258543,0.009390074,0.8076346,0.0,0.0,0.0,-1.0
239410268,239410163,0.0153722,0.0033262756,0.008786061,0.807351,0.0,0.0,0.0,-1.0
239460270,239460167,0.020599348,-0.008540371,0.007029439,0.80734664,0.0,0.0,0.0,-1.0
239507778,239507671,0.0020538177,-0.00069992564,0.00731224,0.806801,0.0,0.0,0.0,-1.0
239560279,239560176,0.030183388,0.00049164885,0.008533968,0.8039751,0.0,0.0,0.0,-1.0
239610282,239610181,0.024618983,-0.017656788,0.009321007,0.8055167,0.0,0.0,0.0,-1.0
239660287,239660185,0.024891298,0.002986735,0.0074322335,0.79940355,0.0,0.0,0.0,-1.0
239712796,239712690,0.009164538,0.008944304,0.007559851,0.8014612,0.0,0.0,0.0,-1.0
239760299,239760195,0.020238152,-0.000911142,0.0071476614,0.79589415,0.0,0.0,0.0,-1.0
239807807,239807700,0.026383722,-0.00943715,0.007964742,0.7963933,0.0,0.0,0.0,-1.0
239857810,239857704,0.038523093,-0.010457676,0.00972084,0.7951067,0.0,0.0,0.0,-1.0
239910310,239910208,0.0036604647,-0.00075019826,0.0071675116,0.79444194,0.0,0.0,0.0,-1.0
239960316,239960213,0.024756104,-0.0104733715,0.008740702,0.79552394,0.0,0.0,0.0,-1.0
240010320,240010218,0.038820606,-0.0060398267,0.006629778,0.7928934,0.0,0.0,0.0,-1.0
240062829,240062722,0.0018965449,0.008171867,0.006781145,0.79639167,0.0,0.0,0.0,-1.0
240110330,240110227,0.0023518447,0.009467158,0.007706807,0.7925664,0.0,0.0,0.0,-1.0
240160338,240160231,-0.009453682,-0.0036904023,0.006535895,0.7953693,0.0,0.0,0.0,-1.0
240207839,240207736,0.030553266,-0.013728682,0.0088108275,0.79456395,0.0,0.0,0.0,-1.0
240260345,240260241,0.019431937,-0.0047975187,0.008235432,0.7940525,0.0,0.0,0.0,-1.0
240310350,240310245,0.033312656,-0.0076116617,0.007415259,0.79677886,0.0,0.0,0.0,-1.0
240360353,240360250,0.0065723527,0.0025154368,0.0062125465,0.79566455,0.0,0.0,0.0,-1.0
240412859,240412755,0.03211298,-0.0072363955,0.0094363,0.79748166,0.0,0.0,0.0,-1.0
240460362,240460259,-0.0037255923,0.003885215,0.0063991477,0.79798937,0.0,0.0,0.0,-1.0
240510364,240510264,0.0067716483,0.004017369,0.0050577964,0.79658926,0.0,0.0,0.0,-1.0
240557873,240557768,0.003372602,-0.010416923,0.007199564,0.7994792,0.0,0.0,0.0,-1.0
240610376,240610273,0.01528065,0.0014412309,0.005935643,0.7958176,0.0,0.0,0.0,-1.0
240660380,240660277,0.0054618544,-0.0074714664,0.0064440197,0.79991925,0.0,0.0,0.0,-1.0
240710384,240710282,0.0016289399,0.012127604,0.0062222946,0.7965491,0.0,0.0,0.0,-1.0
240762893,240762787,0.031223683,-0.0012721198,0.008842341,0.80118215,0.0,0.0,0.0,-1.0
240810394,240810291,0.004805787,0.008124068,0.0072714677,0.7993193,0.0,0.0,0.0,-1.0
240860396,240860296,0.010502463,0.0065021184,0.0073637348,0.8009119,0.0,0.0,0.0,-1.0
240907905,240907800,0.004696382,0.0008014253,0.007076391,0.8010959,0.0,0.0,0.0,-1.0
240960406,240960305,0.032455124,0.0002729587,0.006060363,0.800075,0.0,0.0,0.0,-1.0
241010413,241010310,0.0393152,-0.01042109,0.008997452,0.80192286,0.0,0.0,0.0,-1.0
241060418,241060314,0.028146984,0.0036259165,0.0064727115,0.79918534,0.0,0.0,0.0,-1.0
241112929,241112824,0.027830444,0.008497472,0.00893308,0.8021761,0.0,0.0,0.0,-1.0
241160426,241160323,-0.015055113,0.015996959,0.0071691074,0.79743886,0.0,0.0,0.0,-1.0
241210429,241210328,-0.012399134,0.0048681754,0.0076941834,0.79948664,0.0,0.0,0.0,-1.0
241257937,241257833,0.02363682,0.0010805863,0.009609017,0.7965653,0.0,0.0,0.0,-1.0
241310439,241310337,0.009956769,0.0050437623,0.009442508,0.79630715,0.0,0.0,0.0,-1.0
241360445,241360342,0.01912962,0.0019446108,0.011634653,0.7953715,0.0,0.0,0.0,-1.0
241410448,241410347,0.030588733,-0.006075179,0.010453252,0.7954676,0.0,0.0,0.0,-1.0
241462958,241462851,-0.015000589,0.008960613,0.010750958,0.7962049,0.0,0.0,0.0,-1.0
241510458,241510356,0.02678776,-0.008234158,0.011672365,0.79671144,0.0,0.0,0.0,-1.0
241560464,241560360,0.008428676,0.000768778,0.012559467,0.7965324,0.0,0.0,0.0,-1.0
241607969,241607865,0.014559155,-0.0012798196,0.012787663,0.7971524,0.0,0.0,0.0,-1.0
241660470,241660370,-0.0069432925,0.002879088,0.01078254,0.79720634,0.0,0.0,0.0,-1.0
241710481,241710374,-0.01014942,0.017945115,0.009911848,0.79567015,0.0,0.0,0.0,-1.0
241760481,241760379,0.016185997,-0.0029714864,0.011405442,0.79464394,0.0,0.0,0.0,-1.0
241812989,241812884,0.012148276,0.002903895,0.008893364,0.7938268,0.0,0.0,0.0,-1.0
241860493,241860388,0.007855098,-0.00354125,0.009492337,0.7931653,0.0,0.0,0.0,-1.0
241910500,241910393,-0.0022527552,0.016266914,0.009785345,0.79493284,0.0,0.0,0.0,-1.0
241958002,241957897,0.0017570716,0.008784094,0.008447271,0.79330105,0.0,0.0,0.0,-1.0
242010503,242010402,0.0243603,-0.0068227863,0.0098679485,0.79509187,0.0,0.0,0.0,-1.0
242060511,242060407,0.0077096317,-0.005638872,0.008295485,0.7944611,0.0,0.0,0.0,-1.0
242110513,242110411,-0.0076305824,-0.0025424638,0.008846892,0.79870856,0.0,0.0,0.0,-1.0
242163023,242162916,0.018594496,-0.0077335215,0.009055995,0.7980332,0.0,0.0,0.0,-1.0
242210524,242210421,0.012329594,-0.0052306573,0.008328703,0.8001302,0.0,0.0,0.0,-1.0
242260530,242260425,0.028813008,-0.0016031163,0.010051195,0.80079156,0.0,0.0,0.0,-1.0
242308032,242307930,-0.016058,0.009554346,0.0071541592,0.8008577,0.0,0.0,0.0,-1.0
242360535,242360434,0.0023313588,0.0058575748,0.009370998,0.7992293,0.0,0.0,0.0,-1.0
242410541,242410439,-0.01540887,0.0023348976,0.009128226,0.79922605,0.0,0.0,0.0,-1.0
242460545,242460444,-0.011927431,0.004377465,0.010777932,0.79857165,0.0,0.0,0.0,-1.0
242513055,242512949,0.029482013,0.0030386415,0.011812739,0.7987404,0.0,0.0,0.0,-1.0
242560559,242560453,0.0041839425,0.0044209864,0.011576985,0.7973811,0.0,0.0,0.0,-1.0
242610564,242610458,-0.0029467924,0.010508217,0.013416539,0.79693496,0.0,0.0,0.0,-1.0
242658066,242657962,0.016294848,0.007288598,0.0131107755,0.7951896,0.0,0.0,0.0,-1.0
242710572,242710467,-0.022813253,0.011950877,0.015156126,0.7965208,0.0,0.0,0.0,-1.0
242760573,242760471,-0.011244759,-0.0031534529,0.015435127,0.79514205,0.0,0.0,0.0,-1.0
242810596,242810477,-0.002992557,0.004531016,0.017086871,0.79602945,0.0,0.0,0.0,-1.0
242860585,242860481,0.009507633,-0.0119748935,0.017954733,0.79600686,0.0,0.0,0.0,-1.0
242910587,242910486,0.017082576,-0.0045183236,0.01867914,0.796151,0.0,0.0,0.0,-1.0
242960591,242960490,0.015242933,-0.004983003,0.02081416,0.7955532,0.0,0.0,0.0,-1.0
243008099,243007995,-0.012667491,0.00046760953,0.019145671,0.795467,0.0,0.0,0.0,-1.0
243060605,243060500,0.020228546,-0.005259822,0.020509297,0.7945954,0.0,0.0,0.0,-1.0
243110606,243110504,0.013393502,-0.0028936754,0.022236247,0.79560757,0.0,0.0,0.0,-1.0
243160670,243160509,0.011508687,-0.0015285778,0.021229282,0.79401124,0.0,0.0,0.0,-1.0
243213124,243213013,-0.012693608,0.013129326,0.02111703,0.7953174,0.0,0.0,0.0,-1.0
243260623,243260518,0.021115273,-0.0048970454,0.021898009,0.7956688,0.0,0.0,0.0,-1.0
243310629,243310523,0.009400674,-0.00065588526,0.022839706,0.7962656,0.0,0.0,0.0,-1.0
243358130,243358027,0.008450243,0.0012453727,0.023566844,0.7949084,0.0,0.0,0.0,-1.0
243410642,243410532,0.0033398704,-0.0063722883,0.022906005,0.7974636,0.0,0.0,0.0,-1.0
243460645,243460537,-0.020645324,0.016701883,0.019881735,0.79381204,0.0,0.0,0.0,-1.0
243510648,243510541,-0.0004533663,-0.018196836,0.022867259,0.7968661,0.0,0.0,0.0,-1.0
243563151,243563046,0.018260283,-0.0034825024,0.022159265,0.7954879,0.0,0.0,0.0,-1.0
243610655,243610550,-0.0051681055,-0.00092295447,0.022084512,0.7977108,0.0,0.0,0.0,-1.0
243660660,243660555,-0.0058455993,0.0073516862,0.021009231,0.7973016,0.0,0.0,0.0,-1.0
243708174,243708060,0.02610626,0.0023008802,0.020530295,0.7984104,0.0,0.0,0.0,-1.0
243760668,243760564,0.0021952337,0.0037886773,0.020179173,0.7990313,0.0,0.0,0.0,-1.0
243810678,243810569,0.028553316,-0.0074030105,0.019520096,0.79948556,0.0,0.0,0.0,-1.0
243860676,243860574,0.0261167,-0.0023692169,0.021258708,0.8011167,0.0,0.0,0.0,-1.0
243913189,243913079,0.0075397324,-0.00040381556,0.020549271,0.8005988,0.0,0.0,0.0,-1.0
243960690,243960583,0.040298,-0.015896238,0.020737717,0.80265075,0.0,0.0,0.0,-1.0
244010693,244010588,0.019316483,0.0033747987,0.017890321,0.80119807,0.0,0.0,0.0,-1.0
244058246,244058094,0.01962009,-0.015771404,0.018237215,0.80495477,0.0,0.0,0.0,-1.0
244110700,244110597,0.013471386,0.0037459703,0.016811721,0.8016861,0.0,0.0,0.0,-1.0
244160708,244160602,0.008389745,-0.008116566,0.018221784,0.8052475,0.0,0.0,0.0,-1.0
244210719,244210606,0.0035562462,0.0121946195,0.016160723,0.80150473,0.0,0.0,0.0,-1.0
244263220,244263111,0.023210973,-0.0037864659,0.018974429,0.8036691,0.0,0.0,0.0,-1.0
244310722,244310617,0.0045087496,0.010495287,0.015995746,0.8004594,0.0,0.0,0.0,-1.0
244360724,244360620,0.014075702,-0.019457571,0.01817554,0.802014,0.0,0.0,0.0,-1.0
244408232,244408125,0.020958953,0.005985717,0.017173173,0.79864365,0.0,0.0,0.0,-1.0
244460734,244460630,-0.00084573415,-0.004709001,0.016834028,0.80073005,0.0,0.0,0.0,-1.0
244510735,244510635,0.019701082,0.0075305677,0.016031973,0.79792446,0.0,0.0,0.0,-1.0
244558243,244558139,0.019074228,0.0025554507,0.017741447,0.79911363,0.0,0.0,0.0,-1.0
244610748,244610644,0.021995202,0.0034856852,0.017519956,0.79936606,0.0,0.0,0.0,-1.0
244660752,244660648,0.05144575,-0.015576287,0.016944844,0.8004343,0.0,0.0,0.0,-1.0
244710753,244710653,0.0395561,-0.0031227074,0.016916787,0.8023269,0.0,0.0,0.0,-1.0
244758263,244758157,0.005678744,0.009035075,0.014961624,0.8006271,0.0,0.0,0.0,-1.0
244810764,244810662,0.028951844,-0.0072380174,0.016219083,0.8026763,0.0,0.0,0.0,-1.0
244860768,244860667,0.01721426,-0.0034376886,0.017190663,0.8010707,0.0,0.0,0.0,-1.0
244908276,244908171,0.0068840147,-0.0014871539,0.015271696,0.8011855,0.0,0.0,0.0,-1.0
244960778,244960676,-0.0113797,0.010092902,0.015906587,0.79838264,0.0,0.0,0.0,-1.0
245010787,245010681,-0.005742082,0.004767836,0.016655218,0.799893,0.0,0.0,0.0,-1.0
245060788,245060686,0.01737927,0.00637798,0.017122466,0.79717314,0.0,0.0,0.0,-1.0
245108296,245108190,0.016333608,-0.0011500139,0.016094377,0.79922783,0.0,0.0,0.0,-1.0
245160796,245160695,0.011109742,0.004843673,0.01803032,0.7976435,0.0,0.0,0.0,-1.0
245210802,245210700,0.033950947,-0.00074155413,0.015492063,0.7992135,0.0,0.0,0.0,-1.0
245258309,245258204,-0.0048942743,-0.000609063,0.015152109,0.8017395,0.0,0.0,0.0,-1.0
245310857,245310709,0.020230284,0.0027130255,0.013507764,0.80108553,0.0,0.0,0.0,-1.0
245360816,245360714,0.020254139,-0.0013744866,0.014582563,0.8027107,0.0,0.0,0.0,-1.0
245410821,245410718,0.0045222356,-1.3070449e-05,0.0143920835,0.80330586,0.0,0.0,0.0,-1.0
245458327,245458223,0.02346538,0.002718012,0.011244945,0.8042995,0.0,0.0,0.0,-1.0
245510828,245510728,-0.0015317672,0.013724669,0.011074883,0.80320656,0.0,0.0,0.0,-1.0
245560836,245560733,0.027661972,-0.019376108,0.013703158,0.8046063,0.0,0.0,0.0,-1.0
245608341,245608237,-0.020801263,-0.0009791713,0.011667708,0.80477685,0.0,0.0,0.0,-1.0
245660846,245660742,0.041488342,-0.0139017105,0.013437136,0.8052961,0.0,0.0,0.0,-1.0
245710849,245710746,0.022104844,-0.0065068756,0.014419587,0.807609,0.0,0.0,0.0,-1.0
245760852,245760751,0.017939942,-0.004419857,0.012807348,0.8046639,0.0,0.0,0.0,-1.0
245808359,245808255,5.1307503e-05,-0.007201391,0.012711574,0.8074139,0.0,0.0,0.0,-1.0
245860864,245860761,0.03617654,-0.0009770312,0.014163791,0.8037435,0.0,0.0,0.0,-1.0
245910869,245910765,0.037344523,-0.0024652444,0.015050535,0.805477,0.0,0.0,0.0,-1.0
245958373,245958270,0.02444842,0.010845512,0.015432826,0.8034577,0.0,0.0,0.0,-1.0
246010877,246010774,-0.005018511,0.013490726,0.013454816,0.8034928,0.0,0.0,0.0,-1.0
246060880,246060779,0.0056884973,0.008009251,0.014022411,0.8033123,0.0,0.0,0.0,-1.0
246110886,246110784,0.01602747,-0.00016885958,0.01345684,0.8024971,0.0,0.0,0.0,-1.0
246158392,246158288,0.035742108,-0.0103376005,0.017215626,0.8038549,0.0,0.0,0.0,-1.0
246210938,246210793,0.011338099,-0.0015756036,0.0154154245,0.80330527,0.0,0.0,0.0,-1.0
246260900,246260798,0.036492877,-0.009778041,0.016262194,0.805275,0.0,0.0,0.0,-1.0
246308405,246308302,-0.007496077,0.011688918,0.015696,0.8037275,0.0,0.0,0.0,-1.0
246360910,246360807,0.0002001693,-0.008436356,0.01710591,0.80733055,0.0,0.0,0.0,-1.0
246410915,246410812,0.007547404,0.003429477,0.015859338,0.80330485,0.0,0.0,0.0,-1.0
246460920,246460816,-0.0018876401,-0.009224937,0.016645396,0.8077991,0.0,0.0,0.0,-1.0
246508425,246508321,0.037085917,-0.0024166536,0.017620122,0.80453837,0.0,0.0,0.0,-1.0
246560930,246560826,-0.008740223,0.0007190664,0.015036535,0.7965341,0.0,0.0,0.0,-1.0
246610934,246610831,-0.008472133,0.008437535,0.016309237,0.7783874,0.0,0.0,0.0,-1.0
246660939,246660835,0.025824374,-0.008960957,0.016978286,0.771303,0.0,0.0,0.0,-1.0
246708445,246708340,-0.0027813762,0.006656148,0.01654617,0.762644,0.0,0.0,0.0,-1.0
246760947,246760845,0.014506813,-0.00047940548,0.019395405,0.7625216,0.0,0.0,0.0,-1.0
246810950,246810849,-0.0035584064,0.010297318,0.017440487,0.76951873,0.0,0.0,0.0,-1.0
246858459,246858354,-0.0061986363,0.0060704085,0.018857878,0.7827119,0.0,0.0,0.0,-1.0
246910961,246910859,0.009013973,0.013100663,0.02073427,0.79039943,0.0,0.0,0.0,-1.0
246960964,246960863,0.015899068,-0.0033466343,0.020199796,0.8000238,0.0,0.0,0.0,-1.0
247008579,247008368,0.014162762,-0.002079276,0.020857116,0.803288,0.0,0.0,0.0,-1.0
247060977,247060873,0.02478927,-0.0058238558,0.021179773,0.80453795,0.0,0.0,0.0,-1.0
247110978,247110877,0.01622125,0.00070987624,0.021716284,0.80481625,0.0,0.0,0.0,-1.0
247160985,247160882,0.011920606,-0.0042272587,0.020686598,0.8062813,0.0,0.0,0.0,-1.0
247208557,247208386,0.015907923,-0.001728877,0.02160713,0.8071238,0.0,0.0,0.0,-1.0
247260994,247260891,0.00061010045,-0.00037695133,0.020338843,0.7968383,0.0,0.0,0.0,-1.0
247310999,247310896,0.015303077,-0.0023595362,0.022309829,0.78104347,0.0,0.0,0.0,-1.0
247358506,247358401,0.022961052,0.0061401064,0.023564305,0.7615013,0.0,0.0,0.0,-1.0
247411062,247410905,0.0063189445,0.0036464669,0.020844132,0.7529947,0.0,0.0,0.0,-1.0
247461017,247460910,0.021206744,-0.0053227944,0.023428371,0.74201816,0.0,0.0,0.0,-1.0
247511018,247510915,0.021890258,-0.00828565,0.022608975,0.73888725,0.0,0.0,0.0,-1.0
247558522,247558419,0.023696346,-0.013010963,0.022674832,0.7368766,0.0,0.0,0.0,-1.0
247611063,247610924,0.027479896,0.0013679386,0.02027295,0.7390263,0.0,0.0,0.0,-1.0
247661033,247660929,0.025161617,-0.0018089603,0.020175181,0.7381325,0.0,0.0,0.0,-1.0
247708539,247708434,0.01769007,-0.0067095095,0.018449392,0.74039096,0.0,0.0,0.0,-1.0
247761040,247760938,0.029312752,0.00063590345,0.020457974,0.7358061,0.0,0.0,0.0,-1.0
247811100,247810943,0.0020212317,0.014035624,0.018309979,0.73978543,0.0,0.0,0.0,-1.0
247861051,247860948,0.0057145776,0.013168298,0.0173295,0.7336869,0.0,0.0,0.0,-1.0
247908556,247908452,0.0027307102,0.0037714732,0.017803619,0.73569584,0.0,0.0,0.0,-1.0
247958560,247958457,0.030863412,-0.0026852917,0.018855894,0.73051184,0.0,0.0,0.0,-1.0
248011123,248010962,-0.0035106197,0.0068859328,0.019349506,0.73094547,0.0,0.0,0.0,-1.0
248058570,248058466,0.00015681192,0.008000297,0.01841784,0.7273399,0.0,0.0,0.0,-1.0
248111073,248110971,-0.008791552,0.011566046,0.018667804,0.7281275,0.0,0.0,0.0,-1.0
248161082,248160976,0.0009613068,0.0021403355,0.018045342,0.72397447,0.0,0.0,0.0,-1.0
248211154,248210981,0.008697596,0.008368542,0.018034332,0.72560936,0.0,0.0,0.0,-1.0
248258588,248258485,0.027689172,0.0038816675,0.017994998,0.7228333,0.0,0.0,0.0,-1.0
248311096,248310990,0.015410837,0.00015942434,0.019442853,0.72378457,0.0,0.0,0.0,-1.0
248361153,248360995,0.016440857,0.016522283,0.020992786,0.71935683,0.0,0.0,0.0,-1.0
248408719,248408499,0.016927723,0.0013247239,0.020618366,0.71730274,0.0,0.0,0.0,-1.0
248461104,248461004,-0.0016467612,0.022075437,0.018098148,0.7135932,0.0,0.0,0.0,-1.0
248511110,248511009,0.0063768458,0.004792377,0.018565381,0.7152136,0.0,0.0,0.0,-1.0
248561114,248561014,0.005722055,-0.005122152,0.019998124,0.7131235,0.0,0.0,0.0,-1.0
248608748,248608518,-0.0005709681,0.016369347,0.018398393,0.71317625,0.0,0.0,0.0,-1.0
248661129,248661023,0.001564263,0.0013348856,0.017967803,0.71170247,0.0,0.0,0.0,-1.0
248711132,248711028,0.0026649423,0.0021254173,0.018287629,0.7118143,0.0,0.0,0.0,-1.0
248758640,248758532,-0.011428954,0.0070414804,0.017593922,0.7117221,0.0,0.0,0.0,-1.0
248811240,248811037,0.030183712,-0.0061738216,0.019711701,0.71515024,0.0,0.0,0.0,-1.0
248861145,248861042,0.015816055,-0.0020879062,0.01905374,0.7142944,0.0,0.0,0.0,-1.0
248911161,248911051,0.006827741,0.0014028981,0.019254357,0.7149477,0.0,0.0,0.0,-1.0
248958658,248958551,0.014304175,0.0148268705,0.01972473,0.71379983,0.0,0.0,0.0,-1.0
249011275,249011056,0.0068112533,0.006880229,0.01938432,0.71576834,0.0,0.0,0.0,-1.0
249061166,249061061,0.011374774,0.009681205,0.017631097,0.71403486,0.0,0.0,0.0,-1.0
249108668,249108565,0.007911678,-0.006404861,0.01922002,0.7151859,0.0,0.0,0.0,-1.0
249161171,249161070,-0.004370608,0.006650097,0.017993476,0.7142799,0.0,0.0,0.0,-1.0
249211303,249211077,0.0016491009,0.00022015144,0.018369703,0.71608055,0.0,0.0,0.0,-1.0
249261184,249261080,-0.0001950077,0.008492165,0.018810332,0.713254,0.0,0.0,0.0,-1.0
249308691,249308584,0.020118037,0.0010133061,0.01882845,0.71496534,0.0,0.0,0.0,-1.0
249361194,249361089,-0.017524859,0.01354973,0.017628906,0.7123693,0.0,0.0,0.0,-1.0
249411336,249411093,-0.004638054,0.011307707,0.017111555,0.7135977,0.0,0.0,0.0,-1.0
249458701,249458598,0.009153436,-0.0032312311,0.017296769,0.7123925,0.0,0.0,0.0,-1.0
249511207,249511103,-0.009689758,0.021779153,0.016961168,0.71143717,0.0,0.0,0.0,-1.0
249561211,249561108,-0.0089186365,0.017711842,0.016468195,0.7079446,0.0,0.0,0.0,-1.0
249608721,249608612,-0.0043458734,0.0051940214,0.015058672,0.71082735,0.0,0.0,0.0,-1.0
249658722,249658618,0.0021195,0.0052746595,0.015670884,0.7077583,0.0,0.0,0.0,-1.0
249711221,249711122,-0.024144642,0.02367288,0.014199165,0.70803916,0.0,0.0,0.0,-1.0
249761231,249761126,-0.020368164,0.024742262,0.014198812,0.7046424,0.0,0.0,0.0,-1.0
249808735,249808631,0.0011885855,0.01643549,0.013878021,0.7051916,0.0,0.0,0.0,-1.0
249861242,249861136,0.0011417845,0.012069785,0.01278188,0.70435834,0.0,0.0,0.0,-1.0
249911244,249911141,-0.00023640147,0.012249303,0.012597099,0.7040925,0.0,0.0,0.0,-1.0
249958750,249958645,0.012222557,0.0033997518,0.013146453,0.70276254,0.0,0.0,0.0,-1.0
250003757,250003649,-0.008657639,0.029362263,0.01304578,0.7018833,0.0,0.0,0.0,-1.0
250061255,250061155,-0.013369257,0.016871277,0.011859609,0.7037503,0.0,0.0,0.0,-1.0
250111263,250111159,-0.0069392053,0.016200492,0.012584961,0.70491284,0.0,0.0,0.0,-1.0
250158766,250158664,0.0040583527,0.00015275824,0.013921842,0.7031298,0.0,0.0,0.0,-1.0
250211276,250211169,-0.003978291,0.014263088,0.012991538,0.70720977,0.0,0.0,0.0,-1.0
250261277,250261174,-0.009081202,0.02165671,0.01351647,0.705435,0.0,0.0,0.0,-1.0
250308785,250308678,0.016162591,-0.001523242,0.013781528,0.706867,0.0,0.0,0.0,-1.0
250358786,250358683,0.018706521,0.00030384076,0.014293339,0.70429045,0.0,0.0,0.0,-1.0
250411288,250411188,-0.013213875,0.025447091,0.011175604,0.7073239,0.0,0.0,0.0,-1.0
250461295,250461192,-0.013716316,0.015300004,0.012164663,0.706722,0.0,0.0,0.0,-1.0
250508799,250508697,-0.006927527,0.012725546,0.01157078,0.7056127,0.0,0.0,0.0,-1.0
250561306,250561202,-0.009607535,0.013930004,0.011025756,0.70379937,0.0,0.0,0.0,-1.0
250611307,250611207,-0.018258277,0.021181397,0.010812149,0.702257,0.0,0.0,0.0,-1.0
250661320,250661211,-0.018985752,0.024864601,0.010217705,0.7012696,0.0,0.0,0.0,-1.0
250708820,250708716,0.008019481,-0.00067289406,0.0110620605,0.70320326,0.0,0.0,0.0,-1.0
250761324,250761221,-0.0101882275,0.012154944,0.012751101,0.7056433,0.0,0.0,0.0,-1.0
250811328,250811226,-0.0059698434,0.013137904,0.011361876,0.7075703,0.0,0.0,0.0,-1.0
250858835,250858730,0.0019110105,0.008827748,0.012408131,0.7090597,0.0,0.0,0.0,-1.0
250911336,250911235,-0.013871462,0.049443796,0.009842243,0.70719963,0.0,0.0,0.0,-1.0
250961340,250961240,-0.019226253,0.07047563,0.009123879,0.70506227,0.0,0.0,0.0,-1.0
251008850,251008744,-0.012106368,0.08465959,0.010189779,0.7006758,0.0,0.0,0.0,-1.0
251058852,251058749,0.012847022,0.07596691,0.012255285,0.6941046,0.0,0.0,0.0,-1.0
251111356,251111254,0.023247266,0.049202863,0.0139985755,0.6880928,0.0,0.0,0.0,-1.0
251161362,251161259,0.024481503,0.0197018,0.018189045,0.6842671,0.0,0.0,0.0,-1.0
251208870,251208763,0.03511995,-0.020034498,0.021409553,0.681855,0.0,0.0,0.0,-1.0
251261370,251261268,0.016059121,-0.022336747,0.022792,0.6859102,0.0,0.0,0.0,-1.0
251311373,251311273,0.025968501,-0.04407303,0.025203718,0.7027019,0.0,0.0,0.0,-1.0
251358883,251358777,-0.023021309,-0.029725248,0.024907753,0.7167513,0.0,0.0,0.0,-1.0
251408885,251408782,-0.0023615002,-0.009517095,0.024260033,0.7341238,0.0,0.0,0.0,-1.0
251461394,251461287,-0.04086459,-0.0061740656,0.02659741,0.7395109,0.0,0.0,0.0,-1.0
251511396,251511292,-0.06072124,0.0010336065,0.02059691,0.7384007,0.0,0.0,0.0,-1.0
251558901,251558796,-0.06435762,7.7787845e-05,0.016746622,0.7358532,0.0,0.0,0.0,-1.0
251611406,251611301,-0.06367154,-0.0032408673,0.010832413,0.73446184,0.0,0.0,0.0,-1.0
251661407,251661306,-0.04359364,0.011070233,0.008963028,0.7295836,0.0,0.0,0.0,-1.0
251708915,251708810,-0.025252085,0.024335342,0.0030801622,0.72400963,0.0,0.0,0.0,-1.0
251758963,251758815,0.0041550756,0.010307072,0.0025701693,0.72111535,0.0,0.0,0.0,-1.0
251811424,251811320,0.026987664,0.011586081,0.004645876,0.7235561,0.0,0.0,0.0,-1.0
251861426,251861325,0.042557415,0.00341668,0.0045377286,0.7280692,0.0,0.0,0.0,-1.0
251908935,251908829,0.059342034,0.0027035212,0.007206503,0.72863615,0.0,0.0,0.0,-1.0
251961436,251961334,0.035670392,0.013985311,0.0054369853,0.7246399,0.0,0.0,0.0,-1.0
252011442,252011339,0.0037369262,0.02925167,0.0025460706,0.7209082,0.0,0.0,0.0,-1.0
252058949,252058844,-0.03242384,0.046405178,-3.881031e-06,0.716172,0.0,0.0,0.0,-1.0
252108954,252108848,-0.03930957,0.032818597,-0.002058914,0.71225804,0.0,0.0,0.0,-1.0
252161455,252161353,-0.056297712,0.054884814,-0.00643318,0.702778,0.0,0.0,0.0,-1.0
252211459,252211358,-0.039783493,0.036720563,-0.0049448074,0.6983136,0.0,0.0,0.0,-1.0
