timestamp,timestamp_sample,gps_hvel[0],gps_hvel[1],gps_vvel,gps_hpos[0],gps_hpos[1],gps_vpos,ev_hvel[0],ev_hvel[1],ev_vvel,ev_hpos[0],ev_hpos[1],ev_vpos,rng_vpos,baro_vpos,aux_hvel[0],aux_hvel[1],aux_vvel,flow[0],flow[1],heading,mag_field[0],mag_field[1],mag_field[2],drag[0],drag[1],airspeed,beta,hagl,hagl_rate
217838746,217738281,-0.031195939,-0.014253542,0.03314623,0.0020809174,-0.05056572,0.0,0.0,0.0,0.0,0.0,0.0,0.0,0.0,0.06252003,0.0,0.0,nan,0.0,0.0,-0.14615035,0.0,0.0,0.0,0.0,0.0,0.0,0.0,0.0,0.0
218338736,218238322,-0.031434253,-0.0044990666,-0.032956973,0.009253502,-0.052550018,0.0,0.0,0.0,0.0,0.0,0.0,0.0,0.0,0.20358562,0.0,0.0,nan,0.0,0.0,-0.13119566,0.0,0.0,0.0,0.0,0.0,0.0,0.0,0.0,0.0
218838720,218738363,-0.021303445,-0.009757237,-0.046308562,-0.00022983551,-0.05059266,0.0,0.0,0.0,0.0,0.0,0.0,0.0,0.0,0.14602566,0.0,0.0,nan,0.0,0.0,-0.120382786,0.0,0.0,0.0,0.0,0.0,0.0,0.0,0.0,0.0
219338824,219238404,-0.0118519915,0.01853941,-0.026242971,-0.014912605,-0.045455515,0.0,0.0,0.0,0.0,0.0,0.0,0.0,0.0,0.13624096,0.0,0.0,nan,0.0,0.0,-0.12023413,0.0,0.0,0.0,0.0,0.0,0.0,0.0,0.0,0.0
219838829,219738445,-0.007938524,0.06931676,-0.055902995,-0.0262146,-0.0380162,0.0,0.0,0.0,0.0,0.0,0.0,0.0,0.0,0.23604774,0.0,0.0,nan,0.0,0.0,0.006299138,0.0,0.0,0.0,0.0,0.0,0.0,0.0,0.0,0.0
220338912,220238487,0.010503591,0.021332083,0.008105889,-0.035974503,-0.0373829,0.0,0.0,0.0,0.0,0.0,0.0,0.0,0.0,0.44909763,0.0,0.0,nan,0.0,0.0,-0.0006715059,0.0,0.0,0.0,0.0,0.0,0.0,0.0,0.0,0.0
220838988,220738528,-0.0123650385,-0.018890116,0.021935396,-0.042020798,-0.03983748,0.0,0.0,0.0,0.0,0.0,0.0,0.0,0.0,0.4042139,0.0,0.0,nan,0.0,0.0,0.16689003,0.0,0.0,0.0,0.0,0.0,0.0,0.0,0.0,0.0
221339019,221238570,-0.032830954,-0.024923107,0.050954197,-0.037431717,-0.04598725,0.0,0.0,0.0,0.0,0.0,0.0,0.0,0.0,0.4891863,0.0,0.0,nan,0.0,0.0,0.19926906,0.0,0.0,0.0,0.0,0.0,0.0,0.0,0.0,0.0
221839002,221738612,-0.024489252,-0.022107728,0.01102614,-0.042931557,-0.04785663,0.0,0.0,0.0,0.0,0.0,0.0,0.0,0.0,0.5463896,0.0,0.0,nan,0.0,0.0,0.31459403,0.0,0.0,0.0,0.0,0.0,0.0,0.0,0.0,0.0
222339057,222238654,0.037729334,-0.0036541875,-0.0124456845,-0.036691666,-0.03822142,0.0,0.0,0.0,0.0,0.0,0.0,0.0,0.0,0.6461735,0.0,0.0,nan,0.0,0.0,0.40311217,0.0,0.0,0.0,0.0,0.0,0.0,0.0,0.0,0.0
222839096,222738696,0.0055270735,-0.04281542,-0.026144527,-0.054665565,-0.038047075,0.0,0.0,0.0,0.0,0.0,0.0,0.0,0.0,0.535758,0.0,0.0,nan,0.0,0.0,0.49475944,0.0,0.0,0.0,0.0,0.0,0.0,0.0,0.0,0.0
223339197,223238738,0.034558505,-0.0020997971,-0.011770263,-0.056886673,-0.032402813,0.0,0.0,0.0,0.0,0.0,0.0,0.0,0.0,1.1281595,0.0,0.0,nan,0.0,0.0,0.58948493,0.0,0.0,0.0,0.0,0.0,0.0,0.0,0.0,0.0
223839141,223738780,-0.11038995,-0.03625381,-0.11052428,-0.060328484,-0.047387898,0.0,0.0,0.0,0.0,0.0,0.0,0.0,0.0,0.3575201,0.0,0.0,nan,0.0,0.0,0.46834946,0.0,0.0,0.0,0.0,0.0,0.0,0.0,0.0,0.0
224339250,224238823,0.023459949,-0.03268768,-0.03029856,-0.056806564,-0.050210327,0.0,0.0,0.0,0.0,0.0,0.0,0.0,0.0,0.08086491,0.0,0.0,nan,0.0,0.0,0.48416698,0.0,0.0,0.0,0.0,0.0,0.0,0.0,0.0,0.0
224839300,224738867,0.111972675,0.05780425,0.07577655,-0.037654877,-0.052782953,0.0,0.0,0.0,0.0,0.0,0.0,0.0,0.0,0.35408688,0.0,0.0,nan,0.0,0.0,0.48858285,0.0,0.0,0.0,0.0,0.0,0.0,0.0,0.0,0.0
225339298,225238908,0.036194466,-0.0086177215,-0.031094491,-0.049120903,-0.053865045,0.0,0.0,0.0,0.0,0.0,0.0,0.0,0.0,-0.0,0.0,0.0,nan,0.0,0.0,0.4803214,0.0,0.0,0.0,0.0,0.0,0.0,0.0,0.0,0.0
225839400,225738950,-0.022413492,0.035840236,-0.017540693,-0.053400993,-0.05146891,0.0,0.0,0.0,0.0,0.0,0.0,0.0,0.0,-0.0,0.0,0.0,nan,0.0,0.0,0.47640812,0.0,0.0,0.0,0.0,0.0,0.0,0.0,0.0,0.0
226339377,226238993,0.048502788,-0.096093625,-0.005227685,-0.037420273,-0.06341457,0.0,0.0,0.0,0.0,0.0,0.0,0.0,0.0,0.25586224,0.0,0.0,nan,0.0,0.0,0.4618374,0.0,0.0,0.0,0.0,0.0,0.0,0.0,0.0,0.0
226839463,226739036,0.06557453,-0.07192192,-0.018215716,-0.0446043,-0.047125638,0.0,0.0,0.0,0.0,0.0,0.0,0.0,0.0,-0.0,0.0,0.0,nan,0.0,0.0,0.45110548,0.0,0.0,0.0,0.0,0.0,0.0,0.0,0.0,0.0
227339470,227239081,0.099088416,-0.0010902695,0.020414174,-0.033118248,-0.045404673,0.0,0.0,0.0,0.0,0.0,0.0,0.0,0.0,0.31762886,0.0,0.0,nan,0.0,0.0,0.4366991,0.0,0.0,0.0,0.0,0.0,0.0,0.0,0.0,0.0
227839528,227739122,-0.028933328,-0.08306469,-0.039822042,-0.050085068,-0.040514886,0.0,0.0,0.0,0.0,0.0,0.0,0.0,0.0,0.15272427,0.0,0.0,nan,0.0,0.0,0.4269262,0.0,0.0,0.0,0.0,0.0,0.0,0.0,0.0,0.0
228339622,228239166,-0.024040848,-0.20914865,-0.010742843,-0.05835533,-0.076658964,0.0,0.0,0.0,0.0,0.0,0.0,0.0,0.0,0.2399807,0.0,0.0,nan,0.0,0.0,0.4294473,0.0,0.0,0.0,0.0,0.0,0.0,0.0,0.0,0.0
228839577,228739209,0.024473414,0.06671173,0.053702712,-0.055583954,-0.048455,0.0,0.0,0.0,0.0,0.0,0.0,0.0,0.0,0.20338917,0.0,0.0,nan,0.0,0.0,0.45138752,0.0,0.0,0.0,0.0,0.0,0.0,0.0,0.0,0.0
229339814,229239253,-0.045364253,-0.055769794,0.10859418,-0.07635403,-0.06228757,0.0,0.0,0.0,0.0,0.0,0.0,0.0,0.0,0.16281223,0.0,0.0,nan,0.0,0.0,0.4453516,0.0,0.0,0.0,0.0,0.0,0.0,0.0,0.0,0.0
229839691,229739297,-0.015626825,0.106000915,0.017427385,-0.07700348,-0.030334115,0.0,0.0,0.0,0.0,0.0,0.0,0.0,0.0,0.18461037,0.0,0.0,nan,0.0,0.0,0.43876672,0.0,0.0,0.0,0.0,0.0,0.0,0.0,0.0,0.0
230339777,230239340,-0.09443034,0.14793597,-0.012302697,-0.09707928,-0.02082032,0.0,0.0,0.0,0.0,0.0,0.0,0.0,0.0,0.21237755,0.0,0.0,nan,0.0,0.0,0.4083941,0.0,0.0,0.0,0.0,0.0,0.0,0.0,0.0,0.0
230839841,230739384,-0.10971527,-0.07878164,-0.06771994,-0.09575176,-0.03828478,0.0,0.0,0.0,0.0,0.0,0.0,0.0,0.0,-0.0,0.0,0.0,nan,0.0,0.0,0.40142417,0.0,0.0,0.0,0.0,0.0,0.0,0.0,0.0,0.0
231339834,231239428,0.13395882,0.04381269,0.07766938,-0.079912186,-0.030621648,0.0,0.0,0.0,0.0,0.0,0.0,0.0,0.0,-0.0,0.0,0.0,nan,0.0,0.0,0.39437973,0.0,0.0,0.0,0.0,0.0,0.0,0.0,0.0,0.0
231839836,231739472,-0.09980052,0.06951177,-0.03564,-0.09097862,-0.026086748,0.0,0.0,0.0,0.0,0.0,0.0,0.0,0.0,-0.0,0.0,0.0,nan,0.0,0.0,0.36226892,0.0,0.0,0.0,0.0,0.0,0.0,0.0,0.0,0.0
232339993,232239516,0.0031474233,0.0905972,0.03186357,-0.093073845,-0.0048291683,0.0,0.0,0.0,0.0,0.0,0.0,0.0,0.0,-0.0,0.0,0.0,nan,0.0,0.0,0.36032355,0.0,0.0,0.0,0.0,0.0,0.0,0.0,0.0,0.0
232839926,232739561,0.10015168,0.09877441,0.0131191015,-0.081700325,0.0010502934,0.0,0.0,0.0,0.0,0.0,0.0,0.0,0.0,-0.0,0.0,0.0,nan,0.0,0.0,0.34094733,0.0,0.0,0.0,0.0,0.0,0.0,0.0,0.0,0.0
233340148,233239605,-0.0039697364,0.12383914,0.032887697,-0.0683403,0.0145877,0.0,0.0,0.0,0.0,0.0,0.0,0.0,0.0,0.117627144,0.0,0.0,nan,0.0,0.0,0.32126927,0.0,0.0,0.0,0.0,0.0,0.0,0.0,0.0,0.0
233840060,233739650,0.15385596,0.08950161,-0.066073,-0.06300354,0.01412189,0.0,0.0,0.0,0.0,0.0,0.0,0.0,0.0,-0.6927223,0.0,0.0,nan,0.0,0.0,0.2941162,0.0,0.0,0.0,0.0,0.0,0.0,0.0,0.0,0.0
234340225,234239694,0.07186878,0.00055231154,-0.08433306,-0.052069664,0.0012272596,0.0,0.0,0.0,0.0,0.0,0.0,0.0,0.0,-0.40318775,0.0,0.0,nan,0.0,0.0,0.2791298,0.0,0.0,0.0,0.0,0.0,0.0,0.0,0.0,0.0
234840129,234739739,0.0067435466,0.017930813,-0.081040084,-0.060268402,0.008234024,0.0,0.0,0.0,0.0,0.0,0.0,0.0,0.0,-0.44774532,0.0,0.0,nan,0.0,0.0,0.27264214,0.0,0.0,0.0,0.0,0.0,0.0,0.0,0.0,0.0
235340208,235239784,0.089009166,0.0040308908,-0.19906098,-0.059105873,-0.0028632283,0.0,0.0,0.0,0.0,0.0,0.0,0.0,0.0,-0.5317621,0.0,0.0,nan,0.0,0.0,0.3453982,0.0,0.0,0.0,0.0,0.0,0.0,0.0,0.0,0.0
235840289,235739829,-0.077254996,-0.1199589,-0.35886037,-0.05577469,-0.026972711,0.0,0.0,0.0,0.0,0.0,0.0,0.0,0.0,-0.9360399,0.0,0.0,nan,0.0,0.0,0.37316468,0.0,0.0,0.0,0.0,0.0,0.0,0.0,0.0,0.0
236340352,236239874,-0.006169088,-0.015187647,0.025823116,-0.03874874,-0.030535936,0.0,0.0,0.0,0.0,0.0,0.0,0.0,0.0,0.07696056,0.0,0.0,nan,0.0,0.0,0.24986833,0.0,0.0,0.0,0.0,0.0,0.0,0.0,0.0,0.0
236842898,236739919,-0.09496312,-0.08770692,0.03260541,-0.057481766,-0.03894472,0.0,0.0,0.0,0.0,0.0,0.0,0.0,0.0,-1.1179419,0.0,0.0,nan,0.0,0.0,0.2832306,0.0,0.0,0.0,0.0,0.0,0.0,0.0,0.0,0.0
237340405,237239965,-0.050843295,0.033475667,0.09983921,-0.056991577,-0.028954148,0.0,0.0,0.0,0.0,0.0,0.0,0.0,0.0,-0.0017547607,0.0,0.0,nan,0.0,0.0,0.3012116,0.0,0.0,0.0,0.0,0.0,0.0,0.0,0.0,0.0
237840379,237740010,-0.03247287,0.09138775,0.10107064,-0.046782494,-0.015830219,0.0,0.0,0.0,0.0,0.0,0.0,0.0,0.0,0.43018913,0.0,0.0,nan,0.0,0.0,0.30733144,0.0,0.0,0.0,0.0,0.0,0.0,0.0,0.0,0.0
238340604,238240056,-0.013846047,0.018427726,0.0844481,-0.050362587,-0.0139936805,0.0,0.0,0.0,0.0,0.0,0.0,0.0,0.0,0.25396824,0.0,0.0,nan,0.0,0.0,0.338027,0.0,0.0,0.0,0.0,0.0,0.0,0.0,0.0,0.0
238840521,238740101,-0.027765773,-0.012644984,0.18370485,-0.05088997,-0.0109683275,0.0,0.0,0.0,0.0,0.0,0.0,0.0,0.0,-0.41032887,0.0,0.0,nan,0.0,0.0,0.3254776,0.0,0.0,0.0,0.0,0.0,0.0,0.0,0.0,0.0
239340582,239240147,-0.03269712,0.10535367,0.2199173,-0.058623314,0.013827622,0.0,0.0,0.0,0.0,0.0,0.0,0.0,0.0,-0.99086285,0.0,0.0,nan,0.0,0.0,0.31502533,0.0,0.0,0.0,0.0,0.0,0.0,0.0,0.0,0.0
239840592,239740193,0.028210454,0.029091343,0.114831924,-0.046165466,0.017190695,0.0,0.0,0.0,0.0,0.0,0.0,0.0,0.0,0.999835,0.0,0.0,nan,0.0,0.0,0.30948806,0.0,0.0,0.0,0.0,0.0,0.0,0.0,0.0,0.0
240340646,240240239,0.034394063,0.05389784,0.04994297,-0.049678802,0.02906257,0.0,0.0,0.0,0.0,0.0,0.0,0.0,0.0,0.6937399,0.0,0.0,nan,0.0,0.0,0.31121504,0.0,0.0,0.0,0.0,0.0,0.0,0.0,0.0,0.0
240840706,240740285,-0.017878955,0.005635917,0.00013780594,-0.050466537,0.020882308,0.0,0.0,0.0,0.0,0.0,0.0,0.0,0.0,0.80427265,0.0,0.0,nan,0.0,0.0,0.3132164,0.0,0.0,0.0,0.0,0.0,0.0,0.0,0.0,0.0
241340724,241240331,0.012098423,-0.0021933913,0.13466382,-0.044686317,0.012415111,0.0,0.0,0.0,0.0,0.0,0.0,0.0,0.0,-0.79502964,0.0,0.0,nan,0.0,0.0,0.31739974,0.0,0.0,0.0,0.0,0.0,0.0,0.0,0.0,0.0
241840727,241740377,-0.10575798,-0.08625737,0.07809472,-0.065322876,-0.014111698,0.0,0.0,0.0,0.0,0.0,0.0,0.0,0.0,0.46992207,0.0,0.0,nan,0.0,0.0,0.299626,0.0,0.0,0.0,0.0,0.0,0.0,0.0,0.0,0.0
242340864,242240423,-0.029864512,-0.02719852,0.053423166,-0.07435036,-0.017647445,0.0,0.0,0.0,0.0,0.0,0.0,0.0,0.0,-0.28872967,0.0,0.0,nan,0.0,0.0,0.3141355,0.0,0.0,0.0,0.0,0.0,0.0,0.0,0.0,0.0
242840866,242740470,-0.12659274,-0.03510455,0.037085295,-0.09681511,-0.020121157,0.0,0.0,0.0,0.0,0.0,0.0,0.0,0.0,-1.6659327,0.0,0.0,nan,0.0,0.0,0.29458392,0.0,0.0,0.0,0.0,0.0,0.0,0.0,0.0,0.0
243340920,243240516,-0.039961427,0.09848488,0.09247446,-0.09904671,-0.007951438,0.0,0.0,0.0,0.0,0.0,0.0,0.0,0.0,-2.0047083,0.0,0.0,nan,0.0,0.0,0.27351224,0.0,0.0,0.0,0.0,0.0,0.0,0.0,0.0,0.0
243840974,243740563,0.010784581,0.11647717,-0.0032961369,-0.0928936,0.011155367,0.0,0.0,0.0,0.0,0.0,0.0,0.0,0.0,-0.09690189,0.0,0.0,nan,0.0,0.0,0.2555071,0.0,0.0,0.0,0.0,0.0,0.0,0.0,0.0,0.0
244341039,244240610,0.025672927,0.07919541,0.07528257,-0.07938862,0.013250768,0.0,0.0,0.0,0.0,0.0,0.0,0.0,0.0,-0.4016466,0.0,0.0,nan,0.0,0.0,0.22933978,0.0,0.0,0.0,0.0,0.0,0.0,0.0,0.0,0.0
244831100,244730655,0.01455237,0.067448504,0.09400082,-0.06684303,0.017418623,0.0,0.0,0.0,0.0,0.0,0.0,0.0,0.0,-1.4743357,0.0,0.0,nan,0.0,0.0,0.0,0.0,0.0,0.0,0.0,0.0,0.0,0.0,0.0,0.0
245341104,245240702,0.14493483,0.01189848,0.1521821,-0.044347763,0.018267512,0.0,0.0,0.0,0.0,0.0,0.0,0.0,0.0,0.009867668,0.0,0.0,nan,0.0,0.0,0.0,0.0,0.0,0.0,0.0,0.0,0.0,0.0,0.0,0.0
245841244,245740749,0.14960133,-0.045620166,0.117249966,-0.033807755,0.008283794,0.0,0.0,0.0,0.0,0.0,0.0,0.0,0.0,-0.7547121,0.0,0.0,nan,0.0,0.0,0.0,0.0,0.0,0.0,0.0,0.0,0.0,0.0,0.0,0.0
246341237,246240796,0.10442597,-0.06605719,0.048796654,-0.02075386,-0.00025510788,0.0,0.0,0.0,0.0,0.0,0.0,0.0,0.0,-2.829465,0.0,0.0,nan,0.0,0.0,0.0,0.0,0.0,0.0,0.0,0.0,0.0,0.0,0.0,0.0
246841219,246740846,0.04166673,-0.1156372,0.010727406,-0.021698952,-0.010230303,0.0,0.0,0.0,0.0,0.0,0.0,0.0,0.0,-0.32303333,0.0,0.0,nan,0.0,0.0,0.0,0.0,0.0,0.0,0.0,0.0,0.0,0.0,0.0,0.0
247341250,247240890,-0.08480695,-0.20649388,-0.0070648193,-0.044204712,-0.04231155,0.0,0.0,0.0,0.0,0.0,0.0,0.0,0.0,-1.2570925,0.0,0.0,nan,0.0,0.0,0.0,0.0,0.0,0.0,0.0,0.0,0.0,0.0,0.0,0.0
247841329,247740937,-0.07669149,-0.11939557,0.1909349,-0.045402527,-0.04642439,0.0,0.0,0.0,0.0,0.0,0.0,0.0,0.0,-0.47087955,0.0,0.0,nan,0.0,0.0,0.0,0.0,0.0,0.0,0.0,0.0,0.0,0.0,0.0,0.0
248331393,248230983,-0.1753834,-0.0063088685,0.12643003,-0.06104374,-0.049457908,0.0,0.0,0.0,0.0,0.0,0.0,0.0,0.0,-0.71509266,0.0,0.0,nan,0.0,0.0,0.0,0.0,0.0,0.0,0.0,0.0,0.0,0.0,0.0,0.0
248841470,248741030,-0.18262732,0.020591617,0.093192935,-0.07502651,-0.044174314,0.0,0.0,0.0,0.0,0.0,0.0,0.0,0.0,-0.5848589,0.0,0.0,nan,0.0,0.0,0.0,0.0,0.0,0.0,0.0,0.0,0.0,0.0,0.0,0.0
249341438,249241077,-0.15918505,0.10135345,0.08401382,-0.08297539,-0.029200435,0.0,0.0,0.0,0.0,0.0,0.0,0.0,0.0,-0.27787113,0.0,0.0,nan,0.0,0.0,0.0,0.0,0.0,0.0,0.0,0.0,0.0,0.0,0.0,0.0
249841533,249741125,-0.03219618,0.14516069,0.25281024,-0.06342125,-0.018405557,0.0,0.0,0.0,0.0,0.0,0.0,0.0,0.0,-0.46690845,0.0,0.0,nan,0.0,0.0,0.0,0.0,0.0,0.0,0.0,0.0,0.0,0.0,0.0,0.0
250341668,250241172,0.038644806,0.29642865,0.20696819,-0.060687065,0.032260478,0.0,0.0,0.0,0.0,0.0,0.0,0.0,0.0,-1.6376505,0.0,0.0,nan,0.0,0.0,0.0,0.0,0.0,0.0,0.0,0.0,0.0,0.0,0.0,0.0
250841631,250741219,-0.0060530603,0.24349384,0.013238847,-0.065218925,0.047084033,0.0,0.0,0.0,0.0,0.0,0.0,0.0,0.0,-0.7467928,0.0,0.0,nan,0.0,0.0,0.0,0.0,0.0,0.0,0.0,0.0,0.0,0.0,0.0,0.0
251341677,251241266,0.14093162,0.081677705,-0.005336106,-0.031967163,0.037252277,0.0,0.0,0.0,0.0,0.0,0.0,0.0,0.0,-0.30399036,0.0,0.0,nan,0.0,0.0,0.0,0.0,0.0,0.0,0.0,0.0,0.0,0.0,0.0,0.0
251831759,251731313,-0.19281721,0.19768798,-0.086557776,-0.049999237,0.051379934,0.0,0.0,0.0,0.0,0.0,0.0,0.0,0.0,-0.8490381,0.0,0.0,nan,0.0,0.0,0.0,0.0,0.0,0.0,0.0,0.0,0.0,0.0,0.0,0.0
252331803,252231360,-0.23324919,0.47684586,-0.105699986,-0.08557224,0.093501806,0.0,0.0,0.0,0.0,0.0,0.0,0.0,0.0,-0.38247776,0.0,0.0,nan,0.0,0.0,0.0,0.0,0.0,0.0,0.0,0.0,0.0,0.0,0.0,0.0
252841851,252741408,0.22556537,0.29720256,-0.044364735,-0.0682621,0.0791617,0.0,0.0,0.0,0.0,0.0,0.0,0.0,0.0,-0.049962044,0.0,0.0,nan,0.0,0.0,0.0,0.0,0.0,0.0,0.0,0.0,0.0,0.0,0.0,0.0
253341852,253241455,0.41329908,0.106529616,-0.016819581,0.0013008118,0.046178162,0.0,0.0,0.0,0.0,0.0,0.0,0.0,0.0,-0.09225178,0.0,0.0,nan,0.0,0.0,0.0,0.0,0.0,0.0,0.0,0.0,0.0,0.0,0.0,0.0
253841879,253741503,0.9603512,-0.5249177,0.079735816,0.092591286,-0.045919657,0.0,0.0,0.0,0.0,0.0,0.0,0.0,0.0,-0.51414204,0.0,0.0,nan,0.0,0.0,0.0,0.0,0.0,0.0,0.0,0.0,0.0,0.0,0.0,0.0
254341926,254241550,1.0386149,-1.3861262,-0.18256178,0.18038082,-0.25113702,0.0,0.0,0.0,0.0,0.0,0.0,0.0,0.0,0.02375698,0.0,0.0,nan,0.0,0.0,0.0,0.0,0.0,0.0,0.0,0.0,0.0,0.0,0.0,0.0
254842010,254741598,0.35166264,-1.6922382,-0.15303317,0.17565441,-0.36633307,0.0,0.0,0.0,0.0,0.0,0.0,0.0,0.0,0.37642956,0.0,0.0,nan,0.0,0.0,0.0,0.0,0.0,0.0,0.0,0.0,0.0,0.0,0.0,0.0
255331963,255231645,-0.41209912,-2.011526,-0.18099853,0.1803217,-1.3979921,0.0,0.0,0.0,0.0,0.0,0.0,0.0,0.0,-0.91528034,0.0,0.0,nan,0.0,0.0,0.0,0.0,0.0,0.0,0.0,0.0,0.0,0.0,0.0,0.0
255832102,255731693,-0.8222921,-1.7645066,-0.054026462,-0.10620785,-1.906046,0.0,0.0,0.0,0.0,0.0,0.0,0.0,0.0,1.6490011,0.0,0.0,nan,0.0,0.0,0.0,0.0,0.0,0.0,0.0,0.0,0.0,0.0,0.0,0.0
256334588,256231740,-1.0428258,-0.32066545,-0.07859216,-0.076221466,-1.4382104,0.0,0.0,0.0,0.0,0.0,0.0,0.0,0.0,0.028170586,0.0,0.0,nan,0.0,0.0,0.0,0.0,0.0,0.0,0.0,0.0,0.0,0.0,0.0,0.0
256842150,256741789,-1.0425205,0.52524185,-0.15503645,0.006608963,-1.1089472,0.0,0.0,0.0,0.0,0.0,0.0,0.0,0.0,-0.9638605,0.0,0.0,nan,0.0,0.0,0.0,0.0,0.0,0.0,0.0,0.0,0.0,0.0,0.0,0.0
257342194,257241837,-0.6621427,1.0066384,-0.056579016,0.034934998,-0.81124943,0.0,0.0,0.0,0.0,0.0,0.0,0.0,0.0,1.1125975,0.0,0.0,nan,0.0,0.0,0.0,0.0,0.0,0.0,0.0,0.0,0.0,0.0,0.0,0.0
257842299,257741885,-0.33026057,0.96256006,-0.1617171,0.030637741,-0.6643522,0.0,0.0,0.0,0.0,0.0,0.0,0.0,0.0,-0.61508656,0.0,0.0,nan,0.0,0.0,0.0,0.0,0.0,0.0,0.0,0.0,0.0,0.0,0.0,0.0
258342320,258241933,0.4581837,0.47331974,-0.16567555,0.06304741,-0.54734355,0.0,0.0,0.0,0.0,0.0,0.0,0.0,0.0,0.20313168,0.0,0.0,nan,0.0,0.0,0.0,0.0,0.0,0.0,0.0,0.0,0.0,0.0,0.0,0.0
258832318,258731980,0.6683315,0.013710991,0.021093547,0.07747841,-0.5040585,0.0,0.0,0.0,0.0,0.0,0.0,0.0,0.0,0.1052084,0.0,0.0,nan,0.0,0.0,0.0,0.0,0.0,0.0,0.0,0.0,0.0,0.0,0.0,0.0
259332413,259232028,0.56820273,-0.28109896,-0.09088892,0.10440445,-0.45797095,0.0,0.0,0.0,0.0,0.0,0.0,0.0,0.0,2.090846,0.0,0.0,nan,0.0,0.0,0.0,0.0,0.0,0.0,0.0,0.0,0.0,0.0,0.0,0.0
259832483,259732078,0.47096193,-0.007926583,-0.025268985,0.14291191,-0.38023674,0.0,0.0,0.0,0.0,0.0,0.0,0.0,0.0,0.06425762,0.0,0.0,nan,0.0,0.0,0.0,0.0,0.0,0.0,0.0,0.0,0.0,0.0,0.0,0.0
260342446,260242126,0.29437387,0.016857445,-0.13652213,0.11984825,-0.32135046,0.0,0.0,0.0,0.0,0.0,0.0,0.0,0.0,-0.14029408,0.0,0.0,nan,0.0,0.0,0.0,0.0,0.0,0.0,0.0,0.0,0.0,0.0,0.0,0.0
260842623,260742174,0.14464939,0.078713775,-0.18920551,0.08090782,-0.2749014,0.0,0.0,0.0,0.0,0.0,0.0,0.0,0.0,0.6570082,0.0,0.0,nan,0.0,0.0,0.0,0.0,0.0,0.0,0.0,0.0,0.0,0.0,0.0,0.0
261342538,261242222,-0.12523235,0.5984818,-0.0021918938,0.030841827,-0.14313686,0.0,0.0,0.0,0.0,0.0,0.0,0.0,0.0,0.24247265,0.0,0.0,nan,0.0,0.0,0.0,0.0,0.0,0.0,0.0,0.0,0.0,0.0,0.0,0.0
261842610,261742271,-0.046882942,0.6407665,0.062674254,0.03352928,-0.06851053,0.0,0.0,0.0,0.0,0.0,0.0,0.0,0.0,0.70136166,0.0,0.0,nan,0.0,0.0,0.0,0.0,0.0,0.0,0.0,0.0,0.0,0.0,0.0,0.0
262332712,262232319,-0.018610924,0.5400705,0.14439856,0.044137955,0.009421587,0.0,0.0,0.0,0.0,0.0,0.0,0.0,0.0,0.3227148,0.0,0.0,nan,0.0,0.0,0.0,0.0,0.0,0.0,0.0,0.0,0.0,0.0,0.0,0.0
262832716,262732367,0.00958845,0.3780552,-0.042413868,0.036346436,0.039403558,0.0,0.0,0.0,0.0,0.0,0.0,0.0,0.0,-0.28194523,0.0,0.0,nan,0.0,0.0,0.0,0.0,0.0,0.0,0.0,0.0,0.0,0.0,0.0,0.0
263332774,263232416,0.005999595,0.19538178,-0.02077185,0.024280548,0.05397427,0.0,0.0,0.0,0.0,0.0,0.0,0.0,0.0,0.18240643,0.0,0.0,nan,0.0,0.0,0.0,0.0,0.0,0.0,0.0,0.0,0.0,0.0,0.0,0.0
263832797,263732465,0.084435,0.18279561,0.09395538,0.03853035,0.06780493,0.0,0.0,0.0,0.0,0.0,0.0,0.0,0.0,0.09014416,0.0,0.0,nan,0.0,0.0,0.0,0.0,0.0,0.0,0.0,0.0,0.0,0.0,0.0,0.0
264342849,264242516,0.80274945,0.029681802,0.014756829,0.13253784,0.05523789,0.0,0.0,0.0,0.0,0.0,0.0,0.0,0.0,0.8410063,0.0,0.0,nan,0.0,0.0,0.0,0.0,0.0,0.0,0.0,0.0,0.0,0.0,0.0,0.0
264842984,264742564,1.3875057,-0.5311506,-0.031811185,0.23774719,-0.018465757,0.0,0.0,0.0,0.0,0.0,0.0,0.0,0.0,-0.8740854,0.0,0.0,nan,0.0,0.0,0.0,0.0,0.0,0.0,0.0,0.0,0.0,0.0,0.0,0.0
265342935,265242613,1.8399975,-1.1819739,-0.032640904,0.68161774,-0.2745719,0.0,0.0,0.0,0.0,0.0,0.0,0.0,0.0,2.594077,0.0,0.0,nan,0.0,0.0,0.4958212,0.0,0.0,0.0,0.0,0.0,0.0,0.0,0.0,0.0
265833022,265732661,2.273598,-1.6159573,0.2874977,1.3983402,-0.8167777,0.0,0.0,0.0,0.0,0.0,0.0,0.0,0.0,1.0030317,0.0,0.0,nan,0.0,0.0,0.3483229,0.0,0.0,0.0,0.0,0.0,0.0,0.0,0.0,0.0
266333035,266232710,2.70991,-2.4984984,-0.021865934,2.460741,-1.755785,0.0,0.0,0.0,0.0,0.0,0.0,0.0,0.0,0.35015774,0.0,0.0,nan,0.0,0.0,0.33445755,0.0,0.0,0.0,0.0,0.0,0.0,0.0,0.0,0.0
266833099,266732760,2.8291025,-2.7684693,0.026542425,3.041027,-2.3751726,0.0,0.0,0.0,0.0,0.0,0.0,0.0,0.0,3.2767973,0.0,0.0,nan,0.0,0.0,0.31460947,0.0,0.0,0.0,0.0,0.0,0.0,0.0,0.0,0.0
267333137,267232809,2.694363,-2.9683256,-0.12812659,3.4100685,-3.092533,0.0,0.0,0.0,0.0,0.0,0.0,0.0,0.0,3.063964,0.0,0.0,nan,0.0,0.0,0.2524223,0.0,0.0,0.0,0.0,0.0,0.0,0.0,0.0,0.0
267833201,267732858,2.354085,-2.717783,-0.30504107,3.5490608,-3.1006336,0.0,0.0,0.0,0.0,0.0,0.0,0.0,0.0,1.6262121,0.0,0.0,nan,0.0,0.0,0.26803425,0.0,0.0,0.0,0.0,0.0,0.0,0.0,0.0,0.0
268343316,268242909,1.8446722,-2.228159,-0.2928567,3.2164307,-2.9131775,0.0,0.0,0.0,0.0,0.0,0.0,0.0,0.0,2.657878,0.0,0.0,nan,0.0,0.0,0.29874888,0.0,0.0,0.0,0.0,0.0,0.0,0.0,0.0,0.0
268843277,268742958,1.4566841,-1.8605223,-0.13550973,2.9135742,-2.6494026,0.0,0.0,0.0,0.0,0.0,0.0,0.0,0.0,3.1360884,0.0,0.0,nan,0.0,0.0,0.30752078,0.0,0.0,0.0,0.0,0.0,0.0,-0.0007444616,0.0,0.0
269333342,269233007,0.13776779,-0.7073927,-0.22757733,1.522831,-0.97301865,0.0,0.0,0.0,0.0,0.0,0.0,0.0,0.0,3.9533072,0.0,0.0,nan,0.0,0.0,-5.9604645e-08,-0.6779752,0.2670377,-0.75895995,0.0,0.0,-0.029205322,0.012268344,0.0,0.0
269833342,269733057,-0.11293697,-0.010789871,0.09283164,1.0976486,-0.7445259,0.0,0.0,0.0,0.0,0.0,0.0,0.0,0.0,2.6688108,0.0,0.0,nan,0.0,0.0,-5.9604645e-08,-0.44542736,0.22334357,-0.46881127,0.0,0.0,-0.5437765,0.015951188,0.0,0.0
270333389,270233106,-0.68894386,1.0946217,0.10347772,0.93462753,-0.31669617,0.0,0.0,0.0,0.0,0.0,0.0,0.0,0.0,1.1478796,0.0,0.0,nan,0.0,0.0,-5.9604645e-08,-0.2641597,0.11744487,-0.26074058,0.0,0.0,0.24322319,-0.057572573,0.0,0.0
270833443,270733156,0.08319759,0.696064,0.40916428,0.9063835,-0.3289566,0.0,0.0,0.0,0.0,0.0,0.0,0.0,0.0,1.5009832,0.0,0.0,nan,0.0,0.0,-5.9604645e-08,-0.05415851,-0.021963775,-0.070133924,0.0,0.0,1.0975046,-0.15175137,0.0,0.0
271333520,271233206,0.44685853,1.0850849,0.013355851,0.7315521,-0.10379791,0.0,0.0,0.0,0.0,0.0,0.0,0.0,0.0,1.5539961,0.0,0.0,nan,0.0,0.0,-5.9604645e-08,-0.14861101,0.012666792,-0.12556094,0.0,0.0,1.3312359,-0.15420127,0.0,0.0
271833564,271733255,0.09676552,0.90727615,-0.0133879185,0.5688667,-0.011703491,0.0,0.0,0.0,0.0,0.0,0.0,0.0,0.0,0.87892056,0.0,0.0,nan,0.0,0.0,-5.9604645e-08,-0.19076735,0.02046889,-0.111328006,0.0,0.0,0.15601349,0.10121293,0.0,0.0
272343593,272243306,-0.20885646,-0.25161552,-0.2813667,0.42290497,-0.09591675,0.0,0.0,0.0,0.0,0.0,0.0,0.0,0.0,-0.30048847,0.0,0.0,nan,0.0,0.0,-5.9604645e-08,-0.23534934,0.042339146,-0.14155918,0.0,0.0,1.068429,0.15785004,0.0,0.0
272833644,272733355,-0.458287,-0.22325516,-0.2101047,0.31108475,-0.067352295,0.0,0.0,0.0,0.0,0.0,0.0,0.0,0.0,2.2080908,0.0,0.0,nan,0.0,0.0,-5.9604645e-08,-0.2259937,0.051582932,-0.1423502,0.0,0.0,0.618598,0.053088207,0.0,0.0
273333713,273233405,-0.6086252,-0.041805267,-0.25899792,0.19406128,0.0039978027,0.0,0.0,0.0,0.0,0.0,0.0,0.0,0.0,1.4982977,0.0,0.0,nan,0.0,0.0,-5.9604645e-08,-0.2691642,0.06866959,-0.17880356,0.0,0.0,0.30902863,-0.020777855,0.0,0.0
273833754,273733454,-0.65812325,0.049892426,-0.4050693,0.06925583,-0.2645111,0.0,0.0,0.0,0.0,0.0,0.0,0.0,0.0,1.756484,0.0,0.0,nan,0.0,0.0,-5.9604645e-08,-0.292187,0.078710735,-0.20647985,0.0,0.0,0.15550709,-0.05070611,0.0,0.0
274333874,274233504,-0.7010145,0.11699104,-0.3227514,0.06237793,0.22764587,0.0,0.0,0.0,0.0,0.0,0.0,0.0,0.0,2.6396818,0.0,0.0,nan,0.0,0.0,-5.9604645e-08,-0.2876554,0.07668024,-0.19823962,0.0,0.0,0.072877884,-0.0760468,0.0,0.0
274833861,274733554,-0.552227,-0.03356552,-0.26449168,0.02254486,0.2147522,0.0,0.0,0.0,0.0,0.0,0.0,0.0,0.0,0.24578762,0.0,0.0,nan,0.0,0.0,-5.9604645e-08,-0.29740936,0.08355373,-0.21492052,0.0,0.0,-0.24898624,-0.11863992,0.0,0.0
275333997,275233604,-0.53649426,-0.025533676,-0.2761794,-0.0021896362,0.2755127,0.0,0.0,0.0,0.0,0.0,0.0,0.0,0.0,3.6784582,0.0,0.0,nan,0.0,0.0,-5.9604645e-08,-0.27484965,0.05687791,-0.19584405,0.0,0.0,0.3732109,-0.14667018,0.0,0.0
275833953,275733653,-0.04034233,-0.06804085,-0.07841423,-0.012565613,0.2574463,0.0,0.0,0.0,0.0,0.0,0.0,0.0,0.0,-0.111626625,0.0,0.0,nan,0.0,0.0,-5.9604645e-08,-0.4430438,0.018795192,-0.27973348,0.0,0.0,1.2492561,-0.19753458,0.0,0.0
276334177,276233703,0.793478,-0.13665581,-0.6551407,-0.14104462,-0.1043396,0.0,0.0,0.0,0.0,0.0,0.0,0.0,0.0,0.2911024,0.0,0.0,nan,0.0,0.0,-5.9604645e-08,-0.569397,-0.0029386282,-0.41811064,0.0,0.0,1.6219501,-0.16105811,0.0,0.0
276834030,276733752,0.5979099,-0.45563602,-0.7153638,-0.114982605,-0.05606079,0.0,0.0,0.0,0.0,0.0,0.0,0.0,0.0,0.4161291,0.0,0.0,nan,0.0,0.0,-5.9604645e-08,-0.5803131,-0.05970949,-0.44274437,0.0,0.0,4.0961657,-0.08631372,0.0,0.0
277334157,277233802,0.41392136,-0.25403953,-0.12450087,-0.02658844,-0.10191345,0.0,0.0,0.0,0.0,0.0,0.0,0.0,0.0,-1.1121378,0.0,0.0,nan,0.0,0.0,-5.9604645e-08,-0.5596149,-0.115335464,-0.5099882,0.0,0.0,4.9172735,-0.05498256,0.0,0.0
277834143,277733852,0.5314369,-0.44066906,0.22485173,0.055290222,-0.19584656,0.0,0.0,0.0,0.0,0.0,0.0,0.0,0.0,-3.2417078,0.0,0.0,nan,0.0,0.0,-5.9604645e-08,-0.5300666,-0.14736468,-0.5259069,0.0,0.0,6.3047075,-0.037506066,0.0,0.0
278334234,278233901,0.22547531,-0.73084164,0.6415793,0.022659302,-0.21202087,0.0,0.0,0.0,0.0,0.0,0.0,0.0,0.0,0.9554434,0.0,0.0,nan,0.0,0.0,-5.9604645e-08,-0.46921742,-0.16350296,-0.5310539,0.0,0.0,8.582285,-0.0360514,0.0,0.0
278834241,278733950,-0.09076691,-0.56482315,0.83636343,0.03842163,-0.22676086,0.0,0.0,0.0,0.0,0.0,0.0,0.0,0.0,2.606597,0.0,0.0,nan,0.0,0.0,-5.9604645e-08,-0.3773743,-0.18701062,-0.5125685,0.0,0.0,11.289798,-0.031940743,0.0,0.0
279334380,279233999,0.21328773,-0.6151657,0.8585923,0.11843109,-0.31610107,0.0,0.0,0.0,0.0,0.0,0.0,0.0,0.0,0.8270483,0.0,0.0,nan,0.0,0.0,-5.9604645e-08,-0.32028475,-0.1788398,-0.47420996,0.0,0.0,11.454724,0.012110244,0.0,0.0
279834340,279734049,0.40761948,-0.48233795,1.0574056,0.13054657,-0.36740112,0.0,0.0,0.0,0.0,0.0,0.0,0.0,0.0,-0.506299,0.0,0.0,nan,0.0,0.0,-5.9604645e-08,-0.102945894,-0.1886206,-0.24317074,0.0,0.0,12.770036,0.027715337,0.0,0.0
280334571,280234098,0.5041261,-0.76358604,0.5653055,0.16899872,-0.48580933,0.0,0.0,0.0,0.0,0.0,0.0,0.0,0.0,0.042902946,0.0,0.0,nan,0.0,0.0,-5.9604645e-08,-0.07285228,-0.009032384,-0.11059779,0.0,0.0,11.940994,-0.10885161,0.0,0.0
280834438,280734147,0.6699586,-0.6671486,0.13385391,0.19631958,-0.49263,0.0,0.0,0.0,0.0,0.0,0.0,0.0,0.0,-0.81740284,0.0,0.0,nan,0.0,0.0,-5.9604645e-08,-0.13777456,0.06246206,-0.13782674,0.0,0.0,10.639908,-0.048890155,0.0,0.0
281334493,281234195,0.9336293,0.595932,-0.37335873,0.29323578,-0.43286133,0.0,0.0,0.0,0.0,0.0,0.0,0.0,0.0,0.6619215,0.0,0.0,nan,0.0,0.0,-5.9604645e-08,-0.15946841,0.035434067,-0.10331571,0.0,0.0,9.48461,-0.19754349,0.0,0.0
281834631,281734244,0.18833816,1.3152103,-0.38620567,0.3195572,-0.21904755,0.0,0.0,0.0,0.0,0.0,0.0,0.0,0.0,2.5722494,0.0,0.0,nan,0.0,0.0,-5.9604645e-08,-0.18294543,0.009447247,-0.10771716,0.0,0.0,8.197464,-0.24500874,0.0,0.0
282334594,282234293,-0.25219655,1.3399601,-0.23923337,0.28941345,0.02167511,0.0,0.0,0.0,0.0,0.0,0.0,0.0,0.0,1.790103,0.0,0.0,nan,0.0,0.0,-5.9604645e-08,-0.21467716,0.013290167,-0.15209424,0.0,0.0,6.916956,-0.2580852,0.0,0.0
282834665,282734342,-0.35994005,1.3561783,-0.4305961,0.28144836,-0.030670166,0.0,0.0,0.0,0.0,0.0,0.0,0.0,0.0,0.5127058,0.0,0.0,nan,0.0,0.0,-5.9604645e-08,-0.20328337,-0.018813178,-0.12720418,0.0,0.0,7.301135,-0.31294852,0.0,0.0
283334681,283234390,-0.8550911,1.0692978,-0.20311737,0.23212433,0.12701416,0.0,0.0,0.0,0.0,0.0,0.0,0.0,0.0,4.037753,0.0,0.0,nan,0.0,0.0,-5.9604645e-08,-0.15134996,-0.05436638,-0.10599804,0.0,0.0,6.779663,-0.31928122,0.0,0.0
283834736,283734439,-0.7702923,0.7770519,-0.05556482,0.2502365,0.16582489,0.0,0.0,0.0,0.0,0.0,0.0,0.0,0.0,-0.8314142,0.0,0.0,nan,0.0,0.0,-5.9604645e-08,-0.1032998,-0.044119477,-0.0932067,0.0,0.0,6.779663,-0.33447748,0.0,0.0
284335002,284234487,-0.75324154,0.4566126,-0.029530972,0.2348404,0.1769867,0.0,0.0,0.0,0.0,0.0,0.0,0.0,0.0,0.8114271,0.0,0.0,nan,0.0,0.0,-5.9604645e-08,-0.05073148,-0.06154018,-0.03036505,0.0,0.0,6.779663,-0.36361256,0.0,0.0
284834828,284734535,-0.6949272,0.25428963,-0.3927338,0.2044754,0.2417984,0.0,0.0,0.0,0.0,0.0,0.0,0.0,0.0,0.9912329,0.0,0.0,nan,0.0,0.0,-5.9604645e-08,-0.037891865,-0.0630156,-0.045229256,0.0,0.0,6.779663,-0.34698337,0.0,0.0
285334918,285234585,-0.5789528,0.039157867,0.10658729,0.23556519,0.30339432,0.0,0.0,0.0,0.0,0.0,0.0,0.0,0.0,1.4326735,0.0,0.0,nan,0.0,0.0,-5.9604645e-08,-0.031832695,-0.059640296,-0.03527969,0.0,0.0,6.779663,-0.3814443,0.0,0.0
285835066,285734631,-0.5289326,-0.14263916,-0.14283347,0.19059753,0.27719116,0.0,0.0,0.0,0.0,0.0,0.0,0.0,0.0,0.32497692,0.0,0.0,nan,0.0,0.0,-5.9604645e-08,-0.023797333,-0.04610379,-0.018363833,0.0,0.0,6.779663,-0.37552238,0.0,0.0
286334977,286234679,-0.2985325,-0.32553577,-0.15606219,0.19514465,0.20056534,0.0,0.0,0.0,0.0,0.0,0.0,0.0,0.0,-0.5758257,0.0,0.0,nan,0.0,0.0,-5.9604645e-08,-0.032447577,-0.041895136,-0.05436659,0.0,0.0,6.779663,-0.38763863,0.0,0.0
286835056,286734727,-0.26844215,-0.42817593,-0.0971472,0.0519104,0.32885742,0.0,0.0,0.0,0.0,0.0,0.0,0.0,0.0,2.000846,0.0,0.0,nan,0.0,0.0,-5.9604645e-08,-0.020725489,-0.036254015,-0.044368267,0.0,0.0,6.779663,-0.32641768,0.0,0.0
287335089,287234774,-0.15257454,-0.4583168,-0.15444276,0.20358276,0.20303154,0.0,0.0,0.0,0.0,0.0,0.0,0.0,0.0,0.16348553,0.0,0.0,nan,0.0,0.0,-5.9604645e-08,-0.018859863,-0.030192837,-0.042173028,0.0,0.0,6.779663,-0.35186148,0.0,0.0
287835146,287734822,-0.04344082,-0.4745102,0.010438532,0.21276855,0.24895859,0.0,0.0,0.0,0.0,0.0,0.0,0.0,0.0,-0.38974476,0.0,0.0,nan,0.0,0.0,-5.9604645e-08,-0.020669222,-0.029177144,-0.0619514,0.0,0.0,6.779663,-0.35095713,0.0,0.0
288335155,288234869,-0.0196352,-0.40826607,-0.048188686,0.114471436,0.3685398,0.0,0.0,0.0,0.0,0.0,0.0,0.0,0.0,-0.7255945,0.0,0.0,nan,0.0,0.0,-5.9604645e-08,-0.024781406,-0.028435439,-0.06442511,0.0,0.0,6.779663,-0.32466796,0.0,0.0
288835206,288734916,0.079060555,-0.3603897,0.047886774,0.23313904,0.24456501,0.0,0.0,0.0,0.0,0.0,0.0,0.0,0.0,0.71820354,0.0,0.0,nan,0.0,0.0,-0.0043337345,-0.024781406,-0.028435439,-0.06442511,0.0,0.0,6.779663,-0.33377627,0.0,0.0
289335279,289234963,0.10061455,-0.38906384,0.36699983,0.16499329,0.40450823,0.0,0.0,0.0,0.0,0.0,0.0,0.0,0.0,1.2807302,0.0,0.0,nan,0.0,0.0,-0.0137934685,-0.024781406,-0.028435439,-0.06442511,0.0,0.0,6.779663,-0.33424404,0.0,0.0
289835349,289735010,0.15769291,-0.33139992,0.25863826,0.3222351,0.22366667,0.0,0.0,0.0,0.0,0.0,0.0,0.0,0.0,-2.1177416,0.0,0.0,nan,0.0,0.0,-0.010446072,-0.024781406,-0.028435439,-0.06442511,0.0,0.0,6.779663,-0.32173684,0.0,0.0
290335365,290235057,0.14193916,-0.33306885,0.16985635,0.36270142,0.23373318,0.0,0.0,0.0,0.0,0.0,0.0,0.0,0.0,1.1085958,0.0,0.0,nan,0.0,0.0,-0.007897735,-0.024781406,-0.028435439,-0.06442511,0.0,0.0,6.779663,-0.33349937,0.0,0.0
290835391,290735103,0.10923481,-0.19480133,0.009178042,0.22068787,0.36915588,0.0,0.0,0.0,0.0,0.0,0.0,0.0,0.0,2.7025518,0.0,0.0,nan,0.0,0.0,-0.0209499,-0.024781406,-0.028435439,-0.06442511,0.0,0.0,6.779663,-0.36671886,0.0,0.0
291335426,291235150,-0.04310894,-0.11207485,0.1690169,0.23106384,0.28076553,0.0,0.0,0.0,0.0,0.0,0.0,0.0,0.0,-0.5236559,0.0,0.0,nan,0.0,0.0,-0.030290067,-0.024781406,-0.028435439,-0.06442511,0.0,0.0,6.779663,-0.38847813,0.0,0.0
291835484,291735196,-0.07205677,-0.11248779,0.011107951,0.31028748,0.16176605,0.0,0.0,0.0,0.0,0.0,0.0,0.0,0.0,-0.8100176,0.0,0.0,nan,0.0,0.0,0.016175985,-0.024781406,-0.028435439,-0.06442511,0.0,0.0,6.779663,-0.4400756,0.0,0.0
292335527,292235242,0.02728939,-0.18039036,0.020457685,0.30204773,0.094314575,0.0,0.0,0.0,0.0,0.0,0.0,0.0,0.0,1.2293425,0.0,0.0,nan,0.0,0.0,0.032423735,-0.024781406,-0.028435439,-0.06442511,0.0,0.0,6.779663,-0.46354982,0.0,0.0
292835569,292735289,0.11519718,-0.022156715,0.054507926,0.41160583,-0.011726379,0.0,0.0,0.0,0.0,0.0,0.0,0.0,0.0,1.253356,0.0,0.0,nan,0.0,0.0,0.0548352,-0.024781406,-0.028435439,-0.06442511,0.0,0.0,6.779663,-0.42368174,0.0,0.0
293335618,293235335,-0.033946037,-0.040524483,-0.021660328,0.20158386,0.13322067,0.0,0.0,0.0,0.0,0.0,0.0,0.0,0.0,0.7162771,0.0,0.0,nan,0.0,0.0,0.0519436,-0.024781406,-0.028435439,-0.06442511,0.0,0.0,6.779663,-0.40724453,0.0,0.0
293835694,293735381,-0.024209023,-0.16957569,0.1986868,0.18565369,0.08274841,0.0,0.0,0.0,0.0,0.0,0.0,0.0,0.0,0.08610058,0.0,0.0,nan,0.0,0.0,0.059952736,-0.024781406,-0.028435439,-0.06442511,0.0,0.0,6.779663,-0.40851864,0.0,0.0
294335729,294235426,-0.0040798187,-0.038383484,-0.11386326,0.115234375,0.08711243,0.0,0.0,0.0,0.0,0.0,0.0,0.0,0.0,0.77462673,0.0,0.0,nan,0.0,0.0,0.06935322,-0.024781406,-0.028435439,-0.06442511,0.0,0.0,6.779663,-0.41538614,0.0,0.0
294835781,294735472,-0.0058898926,-0.09784603,0.08683151,0.1027832,0.073516846,0.0,0.0,0.0,0.0,0.0,0.0,0.0,0.0,-3.2477312,0.0,0.0,nan,0.0,0.0,0.09297174,-0.024781406,-0.028435439,-0.06442511,0.0,0.0,6.779663,-0.37694985,0.0,0.0
295335802,295235517,0.20575047,-0.10540104,0.10663527,0.12472534,-0.007156372,0.0,0.0,0.0,0.0,0.0,0.0,0.0,0.0,0.43432903,0.0,0.0,nan,0.0,0.0,0.09878862,-0.024781406,-0.028435439,-0.06442511,0.0,0.0,6.779663,-0.3932243,0.0,0.0
295835894,295735562,0.15723896,-0.12943077,-0.020576768,-0.03677368,0.10587311,0.0,0.0,0.0,0.0,0.0,0.0,0.0,0.0,-1.1559381,0.0,0.0,nan,0.0,0.0,0.09204888,-0.024781406,-0.028435439,-0.06442511,0.0,0.0,6.779663,-0.42629847,0.0,0.0
296335961,296235608,0.23626041,-0.03366661,-0.18060505,0.11453247,-0.06655884,0.0,0.0,0.0,0.0,0.0,0.0,0.0,0.0,-1.2472162,0.0,0.0,nan,0.0,0.0,0.094225645,-0.024781406,-0.028435439,-0.06442511,0.0,0.0,6.779663,-0.43057925,0.0,0.0
296836005,296735653,0.26372433,-0.030802727,0.058964275,0.08999634,-0.046089172,0.0,0.0,0.0,0.0,0.0,0.0,0.0,0.0,0.506793,0.0,0.0,nan,0.0,0.0,0.07653302,-0.024781406,-0.028435439,-0.06442511,0.0,0.0,6.779663,-0.41486832,0.0,0.0
297336003,297235698,0.11776924,-0.025777817,0.1351743,0.078308105,-0.092163086,0.0,0.0,0.0,0.0,0.0,0.0,0.0,0.0,-1.011529,0.0,0.0,nan,0.0,0.0,0.088950455,-0.024781406,-0.028435439,-0.06442511,0.0,0.0,6.779663,-0.4165039,0.0,0.0
297836181,297735742,0.14191437,0.009129524,0.21250409,0.075042725,-0.12284088,0.0,0.0,0.0,0.0,0.0,0.0,0.0,0.0,3.017642,0.0,0.0,nan,0.0,0.0,0.06811184,-0.024781406,-0.028435439,-0.06442511,0.0,0.0,6.779663,-0.41744423,0.0,0.0
298336078,298235787,0.040350914,0.07031155,0.17466605,-0.103881836,-0.014579773,0.0,0.0,0.0,0.0,0.0,0.0,0.0,0.0,-0.15265751,0.0,0.0,nan,0.0,0.0,0.102722645,-0.024781406,-0.028435439,-0.06442511,0.0,0.0,6.779663,-0.42009068,0.0,0.0
298836262,298735832,0.06781006,0.039544106,-0.02141361,0.031036377,-0.15415192,0.0,0.0,0.0,0.0,0.0,0.0,0.0,0.0,-4.4043436,0.0,0.0,nan,0.0,0.0,0.10362768,-0.024781406,-0.028435439,-0.06442511,0.0,0.0,6.779663,-0.40475908,0.0,0.0
299336192,299235876,0.1073637,0.055124283,0.12864175,-0.01550293,-0.17528534,0.0,0.0,0.0,0.0,0.0,0.0,0.0,0.0,0.16479397,0.0,0.0,nan,0.0,0.0,0.080770135,-0.024781406,-0.028435439,-0.06442511,0.0,0.0,6.779663,-0.39259362,0.0,0.0
299836243,299735921,0.15378094,-0.05565548,0.16612636,-0.27770996,0.027511597,0.0,0.0,0.0,0.0,0.0,0.0,0.0,0.0,0.12097454,0.0,0.0,nan,0.0,0.0,0.0,-0.024781406,-0.028435439,-0.06442511,0.0,0.0,6.779663,-0.38815045,0.0,0.0
300336246,300235964,0.046895027,-0.0033874512,0.0024743378,-0.18359375,-0.11639404,0.0,0.0,0.0,0.0,0.0,0.0,0.0,0.0,0.056780815,0.0,0.0,nan,0.0,0.0,0.0,-0.024781406,-0.028435439,-0.06442511,0.0,0.0,6.779663,-0.4336118,0.0,0.0
300836340,300736009,0.12283802,0.088274956,0.16643637,0.089416504,-0.3443451,0.0,0.0,0.0,0.0,0.0,0.0,0.0,0.0,1.158946,0.0,0.0,nan,0.0,0.0,0.0,-0.024781406,-0.028435439,-0.06442511,0.0,0.0,6.779663,-0.4583519,0.0,0.0
301336419,301236053,-0.023703575,0.09910107,0.08629567,-0.24081421,-0.11715698,0.0,0.0,0.0,0.0,0.0,0.0,0.0,0.0,-1.5396395,0.0,0.0,nan,0.0,0.0,0.0,-0.024781406,-0.028435439,-0.06442511,0.0,0.0,6.779663,-0.4268269,0.0,0.0
301836401,301736096,-0.005856514,0.6507702,0.042328656,-0.0836792,-0.20649719,0.0,0.0,0.0,0.0,0.0,0.0,0.0,0.0,1.5196295,0.0,0.0,nan,0.0,0.0,0.0,-0.1326015,0.0639939,-0.046602786,0.0,0.0,6.779663,-0.2637585,0.0,0.0
302336444,302236140,-1.2679977,1.2660449,-0.04325795,-0.5293884,-0.05822754,0.0,0.0,0.0,0.0,0.0,0.0,0.0,0.0,-0.9361353,0.0,0.0,nan,0.0,0.0,0.0,-0.23665845,0.08922594,-0.13101125,0.0,0.0,6.779663,-0.33968064,0.0,0.0
302836488,302736183,-1.8830538,0.9691597,0.059244394,-0.7157593,0.1318512,0.0,0.0,0.0,0.0,0.0,0.0,0.0,0.0,-0.5144472,0.0,0.0,nan,0.0,0.0,0.0,-0.12416506,0.03383732,-0.018168926,0.0,0.0,6.779663,-0.3421385,0.0,0.0
303336512,303236227,-0.5579767,0.10252333,0.30030757,-0.17736816,0.013961792,0.0,0.0,0.0,0.0,0.0,0.0,0.0,0.0,-1.978158,0.0,0.0,nan,0.0,0.0,0.0,-0.045658886,-0.010105386,0.034867108,0.0,0.0,6.779663,-0.31332815,0.0,0.0
303836623,303736270,-0.54101276,-0.22955322,0.1562944,-0.17651367,-0.06695557,0.0,0.0,0.0,0.0,0.0,0.0,0.0,0.0,4.4070234,0.0,0.0,nan,0.0,0.0,0.0,0.060655773,-0.032150768,0.06921983,0.0,0.0,6.779663,-0.2455454,0.0,0.0
304336598,304236313,-0.3594885,-0.11097717,-0.40662873,-0.15927124,-0.08683777,0.0,0.0,0.0,0.0,0.0,0.0,0.0,0.0,-1.3606424,0.0,0.0,nan,0.0,0.0,0.0,0.03421566,-0.01453051,0.17602271,0.0,0.0,6.779663,-0.23129828,0.0,0.0
304836650,304736356,-0.16224957,-0.26116848,-0.12058753,-0.021942139,0.024291992,0.0,0.0,0.0,0.0,0.0,0.0,0.0,0.0,-0.06149006,0.0,0.0,nan,0.0,0.0,0.0,0.023548722,-0.059126645,-0.024610162,0.0,0.0,6.779663,-0.20187943,0.0,0.0
305336777,305236399,0.09027481,-0.36906338,0.10476491,-0.008758545,0.02279663,0.0,0.0,0.0,0.0,0.0,0.0,0.0,0.0,-4.224118,0.0,0.0,nan,0.0,0.0,0.0,0.19088411,-0.08866578,0.22561121,0.0,0.0,6.779663,-0.16208923,0.0,0.0
305836734,305736442,-0.1831665,-0.2904482,0.18473619,-0.14733887,-0.14465332,0.0,0.0,0.0,0.0,0.0,0.0,0.0,0.0,-2.2335596,0.0,0.0,nan,0.0,0.0,0.0,0.33957106,-0.052760392,0.38945353,0.0,0.0,6.779663,-0.073723055,0.0,0.0
306336771,306236484,-0.7734337,0.58640575,-0.34353018,-0.15628052,-0.018913269,0.0,0.0,0.0,0.0,0.0,0.0,0.0,0.0,0.5271597,0.0,0.0,nan,0.0,0.0,0.0,-0.085300505,0.029267184,-0.030755699,0.0,0.0,6.779663,0.011862786,0.0,0.0
306836819,306736527,-0.6880126,-0.09904671,-0.53099126,-0.14453125,-0.2717209,0.0,0.0,0.0,0.0,0.0,0.0,0.0,0.0,1.844367,0.0,0.0,nan,0.0,0.0,0.0,-0.08279747,0.021738548,-0.033107042,0.0,0.0,6.779663,0.054667376,0.0,0.0
307336885,307236569,-0.423419,-0.36719894,-0.27154684,-0.121398926,-0.26249695,0.0,0.0,0.0,0.0,0.0,0.0,0.0,0.0,0.16993618,0.0,0.0,nan,0.0,0.0,0.0,-2.2947788e-06,-0.0038579728,0.03644514,0.0,0.0,6.779663,0.15905124,0.0,0.0
307836968,307736612,-0.17113209,-0.44701004,0.18568516,-0.0881958,-0.2342987,0.0,0.0,0.0,0.0,0.0,0.0,0.0,0.0,-1.3390589,0.0,0.0,nan,0.0,0.0,0.0,0.20099658,-0.085915715,0.27809954,0.0,0.0,6.779663,0.22673269,0.0,0.0
308336957,308236654,-0.143013,-0.5647192,0.57501596,-0.17654419,-0.09311676,0.0,0.0,0.0,0.0,0.0,0.0,0.0,0.0,-0.4578066,0.0,0.0,nan,0.0,0.0,0.0,0.2774446,-0.12378928,0.39046565,0.0,0.0,6.779663,0.23930113,0.0,0.0
308837004,308736696,-0.043308258,-0.25084782,0.6395458,0.088012695,-0.17124176,0.0,0.0,0.0,0.0,0.0,0.0,0.0,0.0,-1.3811426,0.0,0.0,nan,0.0,0.0,0.0,0.3217621,-0.13479911,0.44171008,0.0,0.0,6.779663,0.20384195,0.0,0.0
309337072,309236738,0.058340073,-0.36239934,0.20170999,0.09899902,-0.1633606,0.0,0.0,0.0,0.0,0.0,0.0,0.0,0.0,-1.9828463,0.0,0.0,nan,0.0,0.0,0.0,0.3851393,-0.16847163,0.49620163,0.0,0.0,6.779663,0.14342044,0.0,0.0
309837110,309736779,0.046405792,-0.016602814,0.16885519,0.15631104,-0.15608978,0.0,0.0,0.0,0.0,0.0,0.0,0.0,0.0,-0.8562746,0.0,0.0,nan,0.0,0.0,0.0,0.37493414,-0.19020447,0.49202427,0.0,0.0,6.779663,0.17055659,0.0,0.0
310337105,310236821,-0.09031868,0.20975845,0.36150718,0.14953613,-0.15759277,0.0,0.0,0.0,0.0,0.0,0.0,0.0,0.0,-1.5803194,0.0,0.0,nan,0.0,0.0,0.0,0.38057125,-0.19934729,0.46094555,0.0,0.0,6.779663,0.2010059,0.0,0.0
310837153,310736862,-0.0034160614,0.2604404,0.3643601,0.21585083,-0.15686798,0.0,0.0,0.0,0.0,0.0,0.0,0.0,0.0,-1.7493944,0.0,0.0,nan,0.0,0.0,0.0,0.376756,-0.21398498,0.4475165,0.0,0.0,6.779663,0.29637116,0.0,0.0
311337225,311236904,0.23103905,-0.12274146,0.28867793,0.23254395,-0.16389465,0.0,0.0,0.0,0.0,0.0,0.0,0.0,0.0,-1.4454889,0.0,0.0,nan,0.0,0.0,0.0,0.3881463,-0.21846095,0.45539293,0.0,0.0,6.779663,0.34810928,0.0,0.0
311837225,311736945,0.18447685,-0.061944723,0.12925625,0.22317505,-0.13632202,0.0,0.0,0.0,0.0,0.0,0.0,0.0,0.0,-1.1078882,0.0,0.0,nan,0.0,0.0,0.0,0.39367992,-0.22062114,0.45059696,0.0,0.0,6.779663,0.32357207,0.0,0.0
312337297,312236986,0.14805317,-0.19914436,0.06844568,0.26135254,-0.14396667,0.0,0.0,0.0,0.0,0.0,0.0,0.0,0.0,-0.77774906,0.0,0.0,nan,0.0,0.0,0.0,0.40313083,-0.22398819,0.45246506,0.0,0.0,6.779663,0.36480686,0.0,0.0
312837308,312737027,-0.019948006,-0.2497797,-0.061089277,0.2199707,-0.16559601,0.0,0.0,0.0,0.0,0.0,0.0,0.0,0.0,-0.5445967,0.0,0.0,nan,0.0,0.0,0.0,0.40841848,-0.22469726,0.46342006,0.0,0.0,6.779663,0.39608097,0.0,0.0
313337358,313237069,0.19809341,-0.28819942,0.38309026,0.22042847,-0.19229126,0.0,0.0,0.0,0.0,0.0,0.0,0.0,0.0,-0.71677303,0.0,0.0,nan,0.0,0.0,0.0,0.41557604,-0.22387189,0.4557147,0.0,0.0,6.779663,0.4410631,0.0,0.0
313837401,313737109,-0.087958336,-0.14913082,0.13551354,0.20483398,-0.21333313,0.0,0.0,0.0,0.0,0.0,0.0,0.0,0.0,-0.13172626,0.0,0.0,nan,0.0,0.0,0.0,0.39958656,-0.22278625,0.49017653,0.0,0.0,6.779663,0.44402182,0.0,0.0
314337497,314237150,-0.12148285,-0.23956585,0.24682283,0.15390015,-0.2261734,0.0,0.0,0.0,0.0,0.0,0.0,0.0,0.0,-0.2803831,0.0,0.0,nan,0.0,0.0,0.0,0.42048407,-0.21942356,0.46820217,0.0,0.0,6.779663,0.44414267,0.0,0.0
314837518,314737191,-0.15174389,-0.18869305,0.0022058487,0.15115356,-0.23592377,0.0,0.0,0.0,0.0,0.0,0.0,0.0,0.0,-0.077563286,0.0,0.0,nan,0.0,0.0,0.0,0.41485006,-0.21922344,0.46955246,0.0,0.0,6.779663,0.42722774,0.0,0.0
315337551,315237231,-0.18233585,-0.1577797,0.0018937588,0.24832153,-0.29068375,0.0,0.0,0.0,0.0,0.0,0.0,0.0,0.0,-0.16287708,0.0,0.0,nan,0.0,0.0,0.0,0.41514185,-0.21625313,0.47732806,0.0,0.0,6.779663,0.36928284,0.0,0.0
315837557,315737272,-0.12452412,-0.15865803,-0.06822276,0.06982422,-0.2191391,0.0,0.0,0.0,0.0,0.0,0.0,0.0,0.0,0.20764446,0.0,0.0,nan,0.0,0.0,0.0,0.4064292,-0.21737346,0.48675174,0.0,0.0,6.779663,0.3437386,0.0,0.0
316337618,316237312,-0.2593298,-0.01295948,0.12639165,-0.08218384,-0.17790604,0.0,0.0,0.0,0.0,0.0,0.0,0.0,0.0,0.34053516,0.0,0.0,nan,0.0,0.0,0.0,0.4111478,-0.22104925,0.47790006,0.0,0.0,6.779663,0.36765435,0.0,0.0
316837644,316737352,-0.2291174,0.1003809,0.062113523,0.040496826,-0.21861267,0.0,0.0,0.0,0.0,0.0,0.0,0.0,0.0,0.3109293,0.0,0.0,nan,0.0,0.0,-0.5392051,0.40679264,-0.22478583,0.4822646,0.0,0.0,6.779663,0.3510308,0.0,0.0
317337707,317237393,-0.07954407,-0.13984871,0.04377532,0.004547119,-0.18840027,0.0,0.0,0.0,0.0,0.0,0.0,0.0,0.0,0.43462276,0.0,0.0,nan,0.0,0.0,-0.5037575,0.40679264,-0.22478583,0.4822646,0.0,0.0,6.779663,0.27984107,0.0,0.0
317837745,317737433,-0.13070011,-0.00021743774,0.044931173,0.024276733,-0.18245697,0.0,0.0,0.0,0.0,0.0,0.0,0.0,0.0,0.6086817,0.0,0.0,nan,0.0,0.0,-0.5497556,0.40679264,-0.22478583,0.4822646,0.0,0.0,6.779663,0.2834699,0.0,0.0
318337766,318237473,-0.3403263,-0.135746,0.12924647,-0.010665894,-0.17284775,0.0,0.0,0.0,0.0,0.0,0.0,0.0,0.0,0.678318,0.0,0.0,nan,0.0,0.0,-0.70402527,0.40375754,-0.17890203,0.49518043,0.0,0.0,6.779663,0.41299388,0.0,0.0
318837814,318737513,-0.28338337,-0.24194431,-0.23173714,0.0025024414,-0.1605568,0.0,0.0,0.0,0.0,0.0,0.0,0.0,0.0,0.76769733,0.0,0.0,nan,0.0,0.0,-0.70402527,0.39281058,-0.16867986,0.4936607,0.0,0.0,6.779663,0.30913386,0.0,0.0
319337886,319237553,-0.1096859,-0.048222624,-0.101094484,6.1035156e-05,-0.19563675,0.0,0.0,0.0,0.0,0.0,0.0,0.0,0.0,0.99599075,0.0,0.0,nan,0.0,0.0,-0.70402527,0.37945798,-0.17317116,0.48679146,0.0,0.0,6.779663,0.029931098,0.0,0.0
319837915,319737593,0.29325867,0.5382482,0.07810712,0.06904602,-0.16372299,0.0,0.0,0.0,0.0,0.0,0.0,0.0,0.0,0.9138222,0.0,0.0,nan,0.0,0.0,-0.70402527,0.37256554,-0.17542547,0.47657713,0.0,0.0,6.779663,0.0033088324,0.0,0.0
320338017,320237632,-0.090135574,0.66880065,-0.041175127,0.059951782,-0.17344666,0.0,0.0,0.0,0.0,0.0,0.0,0.0,0.0,0.70075226,0.0,0.0,nan,0.0,0.0,-0.70402527,0.25882956,-0.16346484,0.31111997,0.0,0.0,6.779663,0.12031642,0.0,0.0
320837957,320737672,0.15739822,0.9780245,0.13663411,-0.0806427,-0.078235626,0.0,0.0,0.0,0.0,0.0,0.0,0.0,0.0,1.9965458,0.0,0.0,nan,0.0,0.0,-0.70402527,0.06693816,-0.05316341,0.02510196,0.0,0.0,6.779663,0.16349058,0.0,0.0
321338184,321237712,0.09192276,0.30866718,-0.05463338,0.11979675,-0.12606812,0.0,0.0,0.0,0.0,0.0,0.0,0.0,0.0,-0.60383606,0.0,0.0,nan,0.0,0.0,-0.70402527,0.11974138,-0.09562394,0.05083716,0.0,0.0,6.779663,0.3313956,0.0,0.0
321838097,321737752,-0.1503458,0.0024776459,-0.429783,0.07688904,-0.12753296,0.0,0.0,0.0,0.0,0.0,0.0,0.0,0.0,0.6090555,0.0,0.0,nan,0.0,0.0,-0.70402527,0.06478256,-0.090882316,0.038679004,0.0,0.0,6.779663,0.39184,0.0,0.0
322338259,322237791,-0.21155834,-0.19483376,-0.263651,0.022476196,-0.11766815,0.0,0.0,0.0,0.0,0.0,0.0,0.0,0.0,-0.12911701,0.0,0.0,nan,0.0,0.0,-0.70402527,0.003825815,-0.015150577,-0.00950861,0.0,0.0,6.779663,0.31728968,0.0,0.0
322838117,322737831,-0.25075054,-0.35741806,-0.31965673,0.032562256,-0.14502716,0.0,0.0,0.0,0.0,0.0,0.0,0.0,0.0,-1.9981737,0.0,0.0,nan,0.0,0.0,-0.70402527,-0.051285133,0.01282718,-0.09279668,0.0,0.0,6.779663,0.17429215,0.0,0.0
323338199,323237870,-0.021365166,-0.28472233,-0.31699926,0.056289673,-0.1430893,0.0,0.0,0.0,0.0,0.0,0.0,0.0,0.0,1.7420483,0.0,0.0,nan,0.0,0.0,-0.70402527,-0.041569974,0.03339035,-0.0037565827,0.0,0.0,6.779663,0.13702755,0.0,0.0
323838195,323737910,0.35567284,-0.02608347,0.111753404,-0.048080444,-0.06360817,0.0,0.0,0.0,0.0,0.0,0.0,0.0,0.0,4.5052633,0.0,0.0,nan,0.0,0.0,-0.70402527,-0.0067315996,0.013671808,-0.0028281212,0.0,0.0,6.779663,0.1313041,0.0,0.0
324338304,324237949,0.14830208,0.031312466,-0.20303413,0.08772278,-0.12428284,0.0,0.0,0.0,0.0,0.0,0.0,0.0,0.0,-2.263547,0.0,0.0,nan,0.0,0.0,-0.70402527,0.03211987,0.008893102,0.043034017,0.0,0.0,6.779663,0.20655048,0.0,0.0
324838278,324737989,0.18884277,0.07294941,-0.06392944,0.08934021,-0.107748985,0.0,0.0,0.0,0.0,0.0,0.0,0.0,0.0,1.4113455,0.0,0.0,nan,0.0,0.0,-0.70402527,0.046212822,-0.004276499,0.044324517,0.0,0.0,6.779663,0.17874934,0.0,0.0
325338337,325238028,0.049358368,-0.016509533,-0.25761026,0.12478638,-0.12131214,0.0,0.0,0.0,0.0,0.0,0.0,0.0,0.0,-3.678031,0.0,0.0,nan,0.0,0.0,-0.70402527,0.06971541,0.0030664057,0.08164829,0.0,0.0,6.779663,0.14404632,0.0,0.0
325838359,325738069,0.0957489,0.021986961,-0.0047284886,0.25982666,-0.18152714,0.0,0.0,0.0,0.0,0.0,0.0,0.0,0.0,0.9694023,0.0,0.0,nan,0.0,0.0,-0.70402527,0.05684428,-0.00036157668,0.05537069,0.0,0.0,6.779663,0.19233356,0.0,0.0
326338581,326238107,0.0787611,0.13154554,0.12501809,0.1377716,-0.12174964,0.0,0.0,0.0,0.0,0.0,0.0,0.0,0.0,-0.93027973,0.0,0.0,nan,0.0,0.0,-0.70402527,0.0459463,-0.004543364,0.034931183,0.0,0.0,6.779663,0.18981765,0.0,0.0
326838462,326738146,0.0006828308,0.22966766,0.025182903,0.11255646,-0.09946513,0.0,0.0,0.0,0.0,0.0,0.0,0.0,0.0,5.936528,0.0,0.0,nan,0.0,0.0,-0.70402527,0.021471292,0.0011931062,0.038969994,0.0,0.0,6.779663,0.18676476,0.0,0.0
327338468,327238185,0.048584938,0.12175512,-0.009735584,0.10545349,-0.09881878,0.0,0.0,0.0,0.0,0.0,0.0,0.0,0.0,0.28764248,0.0,0.0,nan,0.0,0.0,-0.70402527,-0.0016741753,-0.0018901676,-0.043085754,0.0,0.0,6.779663,0.21550801,0.0,0.0
327838509,327738224,0.04776287,0.16580105,-0.026194036,0.12618256,-0.07801533,0.0,0.0,0.0,0.0,0.0,0.0,0.0,0.0,3.765462,0.0,0.0,nan,0.0,0.0,0.051009417,-0.021293342,0.011318833,-0.05442226,0.0,0.0,6.779663,0.20270413,0.0,0.0
328338555,328238263,-0.07558155,0.06480789,-0.105131835,0.25289917,-0.124121666,0.0,0.0,0.0,0.0,0.0,0.0,0.0,0.0,1.3937817,0.0,0.0,nan,0.0,0.0,0.071210384,-0.021293342,0.011318833,-0.05442226,0.0,0.0,6.779663,0.19969612,0.0,0.0
328838589,328738302,0.049135208,0.059844017,-0.31534776,0.13677979,-0.056159973,0.0,0.0,0.0,0.0,0.0,0.0,0.0,0.0,0.8308954,0.0,0.0,nan,0.0,0.0,0.08264327,-0.021293342,0.011318833,-0.05442226,0.0,0.0,6.779663,0.17001411,0.0,0.0
329338682,329238341,0.008306503,0.016320705,-0.12720972,0.12786865,-0.042556763,0.0,0.0,0.0,0.0,0.0,0.0,0.0,0.0,2.1823168,0.0,0.0,nan,0.0,0.0,0.060278177,-0.021293342,0.011318833,-0.05442226,0.0,0.0,6.779663,0.16247557,0.0,0.0
329838701,329738380,0.07714653,0.040504456,0.042125493,0.15122223,-0.054008484,0.0,0.0,0.0,0.0,0.0,0.0,0.0,0.0,0.2873106,0.0,0.0,nan,0.0,0.0,-0.037734747,-0.021293342,0.011318833,-0.05442226,0.0,0.0,6.779663,0.18219756,0.0,0.0
330338704,330238419,0.033442497,-0.0064258575,-0.07355538,0.160923,-0.050878525,0.0,0.0,0.0,0.0,0.0,0.0,0.0,0.0,-3.522488,0.0,0.0,nan,0.0,0.0,-0.0024027824,-0.021293342,0.011318833,-0.05442226,0.0,0.0,6.779663,0.15971838,0.0,0.0
330838791,330738458,-0.0015850067,0.05569887,-0.116589665,0.2044487,-0.06350517,0.0,0.0,0.0,0.0,0.0,0.0,0.0,0.0,-3.280357,0.0,0.0,nan,0.0,0.0,-0.007276535,-0.021293342,0.011318833,-0.05442226,0.0,0.0,6.779663,0.13940112,0.0,0.0
331338792,331238497,-0.049082756,0.010298729,-0.02717191,0.14937592,-0.06085968,0.0,0.0,0.0,0.0,0.0,0.0,0.0,0.0,0.9775543,0.0,0.0,nan,0.0,0.0,-0.03927207,-0.021293342,0.011318833,-0.05442226,0.0,0.0,6.779663,0.14371713,0.0,0.0
331838852,331738536,0.085948944,-0.10532045,0.15055583,0.17749023,-0.08193207,0.0,0.0,0.0,0.0,0.0,0.0,0.0,0.0,-0.2744913,0.0,0.0,nan,0.0,0.0,-0.064893246,-0.021293342,0.011318833,-0.05442226,0.0,0.0,6.779663,0.13748555,0.0,0.0
332338854,332238574,0.044329643,-0.02515459,0.072379746,0.14471626,-0.06470108,0.0,0.0,0.0,0.0,0.0,0.0,0.0,0.0,-1.2978277,0.0,0.0,nan,0.0,0.0,-0.049946308,-0.021293342,0.011318833,-0.05442226,0.0,0.0,6.779663,0.12071989,0.0,0.0
332838949,332738613,0.023605347,0.090639114,-0.090138376,0.16621017,-0.07361221,0.0,0.0,0.0,0.0,0.0,0.0,0.0,0.0,2.860073,0.0,0.0,nan,0.0,0.0,-0.048022747,-0.021293342,0.011318833,-0.05442226,0.0,0.0,6.779663,0.09634513,0.0,0.0
333338929,333238652,-0.12250137,0.03354168,-0.007814467,0.16556835,-0.07526779,0.0,0.0,0.0,0.0,0.0,0.0,0.0,0.0,-3.196888,0.0,0.0,nan,0.0,0.0,-0.02707529,-0.021293342,0.011318833,-0.05442226,0.0,0.0,6.779663,0.11920183,0.0,0.0
333839005,333738691,0.0063476562,0.032845974,0.08409074,0.1355753,-0.0581131,0.0,0.0,0.0,0.0,0.0,0.0,0.0,0.0,-4.33776,0.0,0.0,nan,0.0,0.0,0.01111865,-0.021293342,0.011318833,-0.05442226,0.0,0.0,6.779663,0.1147354,0.0,0.0
334339014,334238729,-0.036236763,-0.07482386,-0.032174587,0.16335404,-0.07394791,0.0,0.0,0.0,0.0,0.0,0.0,0.0,0.0,1.2978659,0.0,0.0,nan,0.0,0.0,0.050242662,-0.021293342,0.011318833,-0.05442226,0.0,0.0,6.779663,0.10749361,0.0,0.0
334839058,334738768,-0.08986759,0.027327538,0.098144114,0.1448288,-0.06840134,0.0,0.0,0.0,0.0,0.0,0.0,0.0,0.0,2.1932135,0.0,0.0,nan,0.0,0.0,0.0,-0.021293342,0.011318833,-0.05442226,0.0,0.0,6.779663,0.1106511,0.0,0.0
335339225,335238806,-0.09170532,-0.13645506,0.16094202,0.16640472,-0.092414856,0.0,0.0,0.0,0.0,0.0,0.0,0.0,0.0,5.2556944,0.0,0.0,nan,0.0,0.0,0.0,-0.021293342,0.011318833,-0.05442226,0.0,0.0,6.779663,0.11334739,0.0,0.0
335839165,335738845,-0.16992569,0.06904364,-0.21769631,0.13482666,-0.05809784,0.0,0.0,0.0,0.0,0.0,0.0,0.0,0.0,-0.61729336,0.0,0.0,nan,0.0,0.0,0.0,-0.021293342,0.011318833,-0.05442226,0.0,0.0,6.779663,0.090420045,0.0,0.0
336339159,336238883,0.047100067,-0.027000904,0.0710094,0.1293068,-0.05718994,0.0,0.0,0.0,0.0,0.0,0.0,0.0,0.0,-0.028697968,0.0,0.0,nan,0.0,0.0,0.0,-0.021293342,0.011318833,-0.05442226,0.0,0.0,6.779663,0.08544007,0.0,0.0
336839226,336738921,0.0800972,-0.18469048,0.042660594,0.21212006,-0.09050751,0.0,0.0,0.0,0.0,0.0,0.0,0.0,0.0,-1.2929668,0.0,0.0,nan,0.0,0.0,0.0,-0.021293342,0.011318833,-0.05442226,0.0,0.0,6.779663,0.11164992,0.0,0.0
337339247,337238960,0.004009247,0.24485397,0.01981467,0.17167282,-0.05166626,0.0,0.0,0.0,0.0,0.0,0.0,0.0,0.0,0.4458561,0.0,0.0,nan,0.0,0.0,0.0,-0.32754844,0.15227741,-0.37462097,0.0,0.0,6.779663,0.076223336,0.0,0.0
337839331,337738998,0.044101715,0.38177776,-0.16961986,0.21724701,0.0008468628,0.0,0.0,0.0,0.0,0.0,0.0,0.0,0.0,0.30133724,0.0,0.0,nan,0.0,0.0,0.0,-0.37825325,0.17104411,-0.46411222,0.0,0.0,6.779663,0.09971494,0.0,0.0
338339322,338239037,0.026360512,0.34276295,-0.027292967,0.20067596,0.088516235,0.0,0.0,0.0,0.0,0.0,0.0,0.0,0.0,4.2947683,0.0,0.0,nan,0.0,0.0,0.0,-0.37530628,0.15535802,-0.45017022,0.0,0.0,6.779663,0.110357955,0.0,0.0
338839360,338739075,-0.2612934,0.06633282,0.16019511,0.4581604,-0.20703125,0.0,0.0,0.0,0.0,0.0,0.0,0.0,0.0,-1.0575609,0.0,0.0,nan,0.0,0.0,0.0,-0.37012598,0.14575884,-0.4745313,0.0,0.0,6.779663,0.08867463,0.0,0.0
339339401,339239113,0.06324959,0.22410011,-0.16236138,0.16391754,0.14852142,0.0,0.0,0.0,0.0,0.0,0.0,0.0,0.0,2.0148544,0.0,0.0,nan,0.0,0.0,0.0,-0.34320873,0.1295569,-0.48319596,0.0,0.0,6.779663,0.1371839,0.0,0.0
339839508,339739151,0.031208038,0.21958351,-0.10424352,0.16968536,0.12978363,0.0,0.0,0.0,0.0,0.0,0.0,0.0,0.0,-2.2056131,0.0,0.0,nan,0.0,0.0,0.0,-0.31619012,0.11499286,-0.45791817,0.0,0.0,6.779663,0.15665288,0.0,0.0
340339477,340239189,0.20897865,-0.0026016235,-0.19599676,0.17118073,0.10283661,0.0,0.0,0.0,0.0,0.0,0.0,0.0,0.0,-0.22733688,0.0,0.0,nan,0.0,0.0,0.0,-0.29054922,0.100672364,-0.48721626,0.0,0.0,6.779663,0.1405083,0.0,0.0
340839516,340739227,-0.080215454,0.03594017,0.4486177,0.06864929,0.33396912,0.0,0.0,0.0,0.0,0.0,0.0,0.0,0.0,0.05355358,0.0,0.0,nan,0.0,0.0,0.0,-0.27057445,0.092965364,-0.47765043,0.0,0.0,6.779663,0.14705133,0.0,0.0
341339548,341239265,0.010874867,0.1660347,0.05770588,0.04914856,0.12232971,0.0,0.0,0.0,0.0,0.0,0.0,0.0,0.0,0.020033836,0.0,0.0,nan,0.0,0.0,0.0,-0.26771182,0.10692966,-0.49043238,0.0,0.0,6.779663,0.09639449,0.0,0.0
341839637,341739303,0.106496796,0.10073471,-0.027201891,0.035949707,0.22547913,0.0,0.0,0.0,0.0,0.0,0.0,0.0,0.0,-2.6522646,0.0,0.0,nan,0.0,0.0,0.0,-0.23610309,0.115758955,-0.48913366,0.0,0.0,6.779663,0.11734541,0.0,0.0
342339706,342239344,0.05928445,0.19646072,0.048352957,0.02141571,0.21372986,0.0,0.0,0.0,0.0,0.0,0.0,0.0,0.0,2.2417345,0.0,0.0,nan,0.0,0.0,0.0,-0.21436435,0.107898474,-0.45451042,0.0,0.0,6.779663,0.109163836,0.0,0.0
342839700,342739379,0.022797585,0.1502285,0.105733156,-0.0068893433,0.23626709,0.0,0.0,0.0,0.0,0.0,0.0,0.0,0.0,0.10445881,0.0,0.0,nan,0.0,0.0,0.0,-0.19537511,0.079794765,-0.45961744,0.0,0.0,6.779663,0.044870548,0.0,0.0
343339704,343239417,-0.09388447,0.13266373,0.17967844,-0.10183716,0.2348175,0.0,0.0,0.0,0.0,0.0,0.0,0.0,0.0,2.7954187,0.0,0.0,nan,0.0,0.0,0.0,-0.18201059,0.08565122,-0.47382137,0.0,0.0,6.779663,-0.0124114705,0.0,0.0
343839816,343739455,0.20434093,0.06238365,0.09991598,-0.111450195,0.30203247,0.0,0.0,0.0,0.0,0.0,0.0,0.0,0.0,-1.8241968,0.0,0.0,nan,0.0,0.0,0.0,-0.17083567,0.10156596,-0.48236173,0.0,0.0,6.779663,-0.03014292,0.0,0.0
344339842,344239493,0.08515644,0.09788132,0.17538667,-0.12232971,0.38232422,0.0,0.0,0.0,0.0,0.0,0.0,0.0,0.0,-0.25706577,0.0,0.0,nan,0.0,0.0,0.0,-0.14987993,0.107724726,-0.45558012,0.0,0.0,6.779663,-0.044531517,0.0,0.0
344839952,344739531,0.14093018,0.007662773,0.15868044,-0.15428162,0.36849976,0.0,0.0,0.0,0.0,0.0,0.0,0.0,0.0,2.2302752,0.0,0.0,nan,0.0,0.0,0.0,-0.13083094,0.115632474,-0.46637464,0.0,0.0,6.779663,-0.05494936,0.0,0.0
345339859,345239568,-0.15081596,-0.019319534,0.16209316,-0.2035675,0.38627625,0.0,0.0,0.0,0.0,0.0,0.0,0.0,0.0,-1.5048456,0.0,0.0,nan,0.0,0.0,0.0,-0.1196987,0.1300273,-0.4393698,0.0,0.0,6.779663,-0.08236102,0.0,0.0
345840017,345739606,-0.12493706,-0.07339859,0.15814495,-0.2508011,0.35798645,0.0,0.0,0.0,0.0,0.0,0.0,0.0,0.0,-0.101065636,0.0,0.0,nan,0.0,0.0,0.0,-0.11471975,0.14144865,-0.44276452,0.0,0.0,6.779663,-0.099053524,0.0,0.0
346339970,346239643,0.215065,-0.04724598,0.16067028,-0.20900726,0.35253906,0.0,0.0,0.0,0.0,0.0,0.0,0.0,0.0,-1.9619455,0.0,0.0,nan,0.0,0.0,0.0,-0.09663522,0.15880391,-0.418118,0.0,0.0,6.779663,-0.1012051,0.0,0.0
346840014,346739683,0.035655975,-0.38696718,-0.10433483,-0.19475174,0.30613708,0.0,0.0,0.0,0.0,0.0,0.0,0.0,0.0,-0.5380869,0.0,0.0,nan,0.0,0.0,0.0,-0.09069306,0.17922258,-0.41456854,0.0,0.0,6.779663,-0.12156547,0.0,0.0
347340004,347239718,0.07421875,-0.021977305,0.28571868,-0.22805405,0.3050232,0.0,0.0,0.0,0.0,0.0,0.0,0.0,0.0,-1.064477,0.0,0.0,nan,0.0,0.0,0.0,-0.08854449,0.19037426,-0.38498878,0.0,0.0,6.779663,-0.14067629,0.0,0.0
347840105,347739756,0.3747959,0.029890865,0.19401908,-0.3965206,0.29136658,0.0,0.0,0.0,0.0,0.0,0.0,0.0,0.0,-0.50420856,0.0,0.0,nan,0.0,0.0,0.0,-0.07876778,0.20530418,-0.3901633,0.0,0.0,6.779663,-0.16002735,0.0,0.0
348340126,348239793,-0.01733017,-0.19172859,0.076707125,-0.23797083,0.21786499,0.0,0.0,0.0,0.0,0.0,0.0,0.0,0.0,2.0343962,0.0,0.0,nan,0.0,0.0,0.0,-0.08486551,0.22273263,-0.36819196,0.0,0.0,6.779663,-0.16636798,0.0,0.0
348840125,348739831,0.26861,-0.093776226,0.14007664,-0.21612409,0.21697998,0.0,0.0,0.0,0.0,0.0,0.0,0.0,0.0,-0.99112415,0.0,0.0,nan,0.0,0.0,0.0,-0.0872311,0.23999524,-0.38062173,0.0,0.0,6.779663,-0.1598902,0.0,0.0
349340171,349239868,0.286829,-0.0025382042,0.11640096,-0.38831615,0.22741699,0.0,0.0,0.0,0.0,0.0,0.0,0.0,0.0,-2.845292,0.0,0.0,nan,0.0,0.0,0.0,-0.08978689,0.25724965,-0.37133044,0.0,0.0,6.779663,-0.14723767,0.0,0.0
349840210,349739905,0.12472153,-0.16574287,0.040519714,-0.15504074,0.090530396,0.0,0.0,0.0,0.0,0.0,0.0,0.0,0.0,-3.6692133,0.0,0.0,nan,0.0,0.0,0.0,-0.1105386,0.280224,-0.33998477,0.0,0.0,6.779663,-0.15407969,0.0,0.0
350340222,350239942,0.35663986,-0.120274544,0.2144072,-0.24903107,0.18682861,0.0,0.0,0.0,0.0,0.0,0.0,0.0,0.0,-1.1393213,0.0,0.0,nan,0.0,0.0,0.0,-0.038718283,0.27057886,-0.2579463,0.0,0.0,6.779663,-0.14190823,0.0,0.0
350840277,350739980,0.21871567,-0.069625854,0.27562416,-0.05953598,0.076690674,0.0,0.0,0.0,0.0,0.0,0.0,0.0,0.0,2.246169,0.0,0.0,nan,0.0,0.0,0.0,-0.02673006,0.27200368,-0.2434715,0.0,0.0,6.779663,-0.1510232,0.0,0.0
351340379,351240017,0.318017,-0.12664986,0.32275903,-0.03396225,0.0806427,0.0,0.0,0.0,0.0,0.0,0.0,0.0,0.0,-4.4613695,0.0,0.0,nan,0.0,0.0,0.0,0.004792154,0.27931413,-0.15238607,0.0,0.0,6.779663,-0.14005467,0.0,0.0
351840345,351740054,0.14230251,-0.091031075,0.14956582,-0.18103409,0.3339386,0.0,0.0,0.0,0.0,0.0,0.0,0.0,0.0,-0.8629732,0.0,0.0,nan,0.0,0.0,0.0,0.00018179417,0.2763185,-0.1601317,0.0,0.0,6.779663,-0.14288923,0.0,0.0
352340493,352240091,0.1474657,-0.07375717,0.26633483,0.0083732605,0.16828918,0.0,0.0,0.0,0.0,0.0,0.0,0.0,0.0,-1.0492563,0.0,0.0,nan,0.0,0.0,0.0,0.0029667616,0.2875958,-0.14588583,0.0,0.0,6.779663,-0.14010753,0.0,0.0
352840419,352740128,-0.094418526,-0.039003372,-0.048896134,0.1162529,-0.022491455,0.0,0.0,0.0,0.0,0.0,0.0,0.0,0.0,-0.017266273,0.0,0.0,nan,0.0,0.0,0.0,-0.006865382,0.2808696,-0.14990222,0.0,0.0,6.779663,-0.11687083,0.0,0.0
353340449,353240165,-0.06566739,-0.06916809,-0.014001042,0.18070984,-0.016983032,0.0,0.0,0.0,0.0,0.0,0.0,0.0,0.0,-2.4012957,0.0,0.0,nan,0.0,0.0,0.0,-0.03474629,0.29338625,-0.12910944,0.0,0.0,6.779663,-0.0995318,0.0,0.0
353840755,353740201,-0.07466072,-0.115753174,0.06202683,0.18762207,0.35231018,0.0,0.0,0.0,0.0,0.0,0.0,0.0,0.0,-2.418313,0.0,0.0,nan,0.0,0.0,0.0,-0.044930696,0.29509234,-0.12002897,0.0,0.0,6.779663,-0.09341713,0.0,0.0
354340519,354240238,-0.0053851604,-0.0647831,-0.057246454,0.22422028,0.3022766,0.0,0.0,0.0,0.0,0.0,0.0,0.0,0.0,-1.4912271,0.0,0.0,nan,0.0,0.0,0.0,-0.052143335,0.29118428,-0.09792256,0.0,0.0,6.779663,-0.069607586,0.0,0.0
354840732,354740275,-0.03998804,0.08345413,-0.13719761,0.2783699,0.2886505,0.0,0.0,0.0,0.0,0.0,0.0,0.0,0.0,1.9719648,0.0,0.0,nan,0.0,0.0,0.0,-0.07115424,0.2888588,-0.11333376,0.0,0.0,6.779663,-0.04817469,0.0,0.0
355340591,355240312,-0.17625523,-0.07302666,0.18389755,0.21720123,0.061767578,0.0,0.0,0.0,0.0,0.0,0.0,0.0,0.0,-0.02555561,0.0,0.0,nan,0.0,0.0,0.0,-0.07155502,0.27708003,-0.08247346,0.0,0.0,6.779663,-0.040740196,0.0,0.0
355840668,355740348,-0.08481884,0.128973,-0.047818363,0.23345947,0.035476685,0.0,0.0,0.0,0.0,0.0,0.0,0.0,0.0,-1.5148706,0.0,0.0,nan,0.0,0.0,0.0,-0.10706769,0.2782183,-0.09148407,0.0,0.0,6.779663,-0.020364465,0.0,0.0
356340682,356240385,-0.03927231,0.015638351,0.13533404,0.24391937,-0.023780823,0.0,0.0,0.0,0.0,0.0,0.0,0.0,0.0,-0.17600727,0.0,0.0,nan,0.0,0.0,0.0,-0.11128567,0.27217788,-0.09717417,0.0,0.0,6.779663,-0.021045208,0.0,0.0
356840955,356740421,-0.0918808,-0.056660652,0.15764394,0.4307747,0.13775635,0.0,0.0,0.0,0.0,0.0,0.0,0.0,0.0,-1.6402254,0.0,0.0,nan,0.0,0.0,0.0,-0.12947893,0.26885223,-0.08552921,0.0,0.0,6.779663,-0.008534748,0.0,0.0
357340747,357240457,-0.11382198,-0.08294201,0.27285546,0.27378654,-0.029762268,0.0,0.0,0.0,0.0,0.0,0.0,0.0,0.0,1.2354116,0.0,0.0,nan,0.0,0.0,0.0,-0.14296053,0.23876195,-0.13203335,0.0,0.0,6.779663,-0.010051952,0.0,0.0
357840857,357740494,-0.14976883,0.014199257,0.06648609,0.3032589,-0.032463074,0.0,0.0,0.0,0.0,0.0,0.0,0.0,0.0,-1.4941492,0.0,0.0,nan,0.0,0.0,0.0,-0.16894922,0.22055048,-0.124272764,0.0,0.0,6.779663,0.02640269,0.0,0.0
358340823,358240530,-0.11728859,0.041680336,0.04304284,0.34148407,-0.017562866,0.0,0.0,0.0,0.0,0.0,0.0,0.0,0.0,-2.3442583,0.0,0.0,nan,0.0,0.0,0.0,-0.17084777,0.20669061,-0.13353503,0.0,0.0,6.779663,0.07440096,0.0,0.0
358840862,358740566,-0.11441994,-0.064775944,0.1250773,0.42730045,0.06606293,0.0,0.0,0.0,0.0,0.0,0.0,0.0,0.0,-4.07483,0.0,0.0,nan,0.0,0.0,0.0,-0.16751435,0.19036156,-0.12536538,0.0,0.0,6.779663,0.11459096,0.0,0.0
359340889,359240603,-0.044748306,0.27032495,-0.29823995,0.45312357,0.03870392,0.0,0.0,0.0,0.0,0.0,0.0,0.0,0.0,0.35085583,0.0,0.0,nan,0.0,0.0,0.0,-0.18062873,0.15454283,-0.19570094,0.0,0.0,6.779663,0.15016057,0.0,0.0
