timestamp,timestamp_sample,device_id,sensor_sample_rate_hz,resolution_hz,peak_frequencies_x[0],peak_frequencies_x[1],peak_frequencies_x[2],peak_frequencies_y[0],peak_frequencies_y[1],peak_frequencies_y[2],peak_frequencies_z[0],peak_frequencies_z[1],peak_frequencies_z[2],peak_snr_x[0],peak_snr_x[1],peak_snr_x[2],peak_snr_y[0],peak_snr_y[1],peak_snr_y[2],peak_snr_z[0],peak_snr_z[1],peak_snr_z[2]
215853890,215850627,4325386,2000.08,3.9064062,31.25125,nan,nan,74.22172,nan,nan,nan,nan,nan,6.1575537,nan,nan,6.0522227,nan,nan,0.0,0.0,0.0
218603929,218603352,4325386,2000.08,3.9064062,31.25125,nan,nan,74.22172,nan,nan,nan,nan,nan,5.70266,nan,nan,6.0522227,nan,nan,0.0,0.0,0.0
218673974,218670857,4325386,2000.08,3.9064062,31.25125,nan,nan,74.22172,nan,nan,nan,nan,nan,5.70266,nan,nan,5.7945113,nan,nan,0.0,0.0,0.0
219119116,219115894,4325386,2000.08,3.9064062,31.25125,nan,nan,74.22172,nan,nan,nan,nan,nan,5.912314,nan,nan,5.7945113,nan,nan,0.0,0.0,0.0
220079645,220075973,4325386,2000.08,3.9064062,31.25125,nan,nan,74.22172,nan,nan,nan,nan,nan,6.4621544,nan,nan,5.7945113,nan,nan,0.0,0.0,0.0
220784165,220783532,4325386,2000.08,3.9064062,31.25125,nan,nan,74.22172,nan,nan,nan,nan,nan,6.4621544,nan,nan,10.258523,nan,nan,0.0,0.0,0.0
220849589,220848537,4325386,2000.08,3.9064062,31.25125,nan,nan,74.22172,nan,nan,nan,nan,nan,6.4621544,nan,nan,10.384676,nan,nan,0.0,0.0,0.0
220914155,220911042,4325386,2000.08,3.9064062,31.25125,nan,nan,74.22172,nan,nan,nan,nan,nan,6.4621544,nan,nan,10.472474,nan,nan,0.0,0.0,0.0
221104126,221103559,4325386,2000.08,3.9064062,31.25125,nan,nan,97.49704,nan,nan,nan,nan,nan,6.4621544,nan,nan,10.129441,nan,nan,0.0,0.0,0.0
221164168,221163564,4325386,2000.08,3.9064062,31.25125,nan,nan,97.49704,nan,nan,nan,nan,nan,5.7956576,nan,nan,10.129441,nan,nan,0.0,0.0,0.0
221229259,221226069,4325386,2000.08,3.9064062,31.25125,31.25125,nan,97.49704,nan,nan,nan,nan,nan,5.7956576,5.1807775,nan,10.129441,nan,nan,0.0,0.0,0.0
221619357,221616101,4325386,2000.08,3.9064062,31.25125,31.25125,nan,97.66016,nan,nan,nan,nan,nan,5.7956576,5.1807775,nan,9.0687475,nan,nan,0.0,0.0,0.0
221684372,221681107,4325386,2000.08,3.9064062,31.25125,31.25125,nan,98.84066,nan,nan,nan,nan,nan,5.7956576,5.1807775,nan,10.942527,nan,nan,0.0,0.0,0.0
221744185,221743612,4325386,2000.08,3.9064062,31.25125,31.25125,nan,101.04757,89.84734,nan,nan,nan,nan,5.7956576,5.1807775,nan,12.250911,10.296006,nan,0.0,0.0,0.0
221809269,221808618,4325386,2000.08,3.9064062,31.25125,31.25125,nan,102.41677,89.84734,nan,nan,nan,nan,5.7956576,5.1807775,nan,13.03306,10.296006,nan,0.0,0.0,0.0
221874264,221871123,4325386,2000.08,3.9064062,31.25125,31.25125,nan,105.08648,90.5308,nan,nan,nan,nan,5.7956576,5.1807775,nan,12.588575,10.542549,nan,0.0,0.0,0.0
221939333,221936128,4325386,2000.08,3.9064062,31.25125,31.25125,nan,105.35056,90.5308,nan,nan,nan,nan,5.7956576,5.1807775,nan,10.908678,10.542549,nan,0.0,0.0,0.0
222004200,222001134,4325386,2000.08,3.9064062,31.25125,31.25125,nan,106.78514,121.0307,nan,nan,nan,nan,5.7956576,5.1807775,nan,11.988728,10.531436,nan,0.0,0.0,0.0
222064586,222063639,4325386,2000.08,3.9064062,31.25125,31.25125,nan,106.78514,120.6439,nan,nan,nan,nan,5.7956576,5.1807775,nan,11.988728,13.87883,nan,0.0,0.0,0.0
222129300,222128644,4325386,2000.08,3.9064062,31.25125,31.25125,nan,113.36464,121.0307,nan,nan,nan,nan,5.7956576,5.1807775,nan,11.180994,13.544468,nan,0.0,0.0,0.0
222194219,222191150,4325386,2000.08,3.9064062,31.25125,31.25125,nan,113.36464,122.04212,nan,nan,nan,nan,5.7956576,5.1807775,nan,11.071938,12.96517,nan,0.0,0.0,0.0
222259586,222256155,4325386,2000.08,3.9064062,31.25125,31.25125,nan,113.36464,123.94425,nan,nan,nan,nan,5.7956576,5.1807775,nan,11.071938,13.4106045,nan,0.0,0.0,0.0
222324307,222321161,4325386,2000.08,3.9064062,31.25125,31.25125,nan,nan,124.49256,nan,nan,nan,nan,5.7956576,5.1807775,nan,nan,12.213522,nan,0.0,0.0,0.0
222384318,222383666,4325386,2000.08,3.9064062,31.25125,31.25125,nan,nan,129.50189,nan,nan,nan,nan,5.7956576,5.1807775,nan,nan,12.607071,nan,0.0,0.0,0.0
222449736,222448671,4325386,2000.08,3.9064062,31.25125,31.25125,nan,nan,133.79698,nan,nan,nan,nan,5.7956576,5.1807775,nan,nan,12.339126,nan,0.0,0.0,0.0
222514367,222511176,4325386,2000.08,3.9064062,31.25125,31.25125,nan,117.82858,136.50102,nan,nan,nan,nan,5.7956576,5.1807775,nan,11.156988,10.781868,nan,0.0,0.0,0.0
222579438,222576182,4325386,2000.08,3.9064062,31.25125,31.25125,nan,117.82858,137.48349,nan,nan,nan,nan,5.7956576,5.1807775,nan,11.156988,12.136419,nan,0.0,0.0,0.0
222644295,222641187,4325386,2000.08,3.9064062,31.25125,31.25125,nan,nan,140.12938,nan,nan,nan,nan,5.7956576,5.1807775,nan,nan,12.789508,nan,0.0,0.0,0.0
222704304,222703693,4325386,2000.08,3.9064062,31.25125,31.25125,nan,126.795235,140.12938,nan,nan,nan,nan,5.7956576,5.1807775,nan,13.127615,7.5665927,nan,0.0,0.0,0.0
222769392,222768698,4325386,2000.08,3.9064062,31.25125,31.25125,nan,135.43636,140.12938,nan,nan,nan,nan,5.7956576,5.1807775,nan,12.832138,7.536297,nan,0.0,0.0,0.0
222834315,222831203,4325386,2000.08,3.9064062,31.25125,31.25125,nan,135.43636,140.22432,nan,nan,nan,nan,5.7956576,5.1807775,nan,12.832138,12.669453,nan,0.0,0.0,0.0
222899542,222896209,4325386,2000.08,3.9064062,31.25125,31.25125,nan,nan,140.72208,nan,nan,nan,nan,5.7956576,5.1807775,nan,nan,12.793943,nan,0.0,0.0,0.0
222964297,222961214,4325386,2000.08,3.9064062,31.25125,31.25125,nan,135.43636,140.77856,nan,nan,nan,nan,5.7956576,5.1807775,nan,10.204453,14.501022,nan,0.0,0.0,0.0
223024341,223023720,4325386,2000.08,3.9064062,31.25125,31.25125,nan,135.43636,140.77856,nan,nan,nan,nan,5.7956576,5.1807775,nan,10.204453,15.4202795,nan,0.0,0.0,0.0
223089467,223088725,4325386,2000.08,3.9064062,31.25125,31.25125,nan,nan,140.77856,nan,nan,nan,nan,5.7956576,5.1807775,nan,nan,13.621579,nan,0.0,0.0,0.0
223284510,223281241,4325386,2000.08,3.9064062,31.25125,31.25125,nan,nan,140.77856,nan,nan,nan,nan,5.7956576,5.1807775,nan,nan,7.102825,nan,0.0,0.0,0.0
223409611,223408752,4325386,2000.08,3.9064062,31.25125,31.25125,nan,142.93155,140.77856,nan,nan,nan,nan,5.7956576,5.1807775,nan,12.306036,6.581856,nan,0.0,0.0,0.0
223474491,223471257,4325386,2000.08,3.9064062,31.25125,31.25125,nan,143.5415,140.77856,nan,nan,nan,nan,5.7956576,5.1807775,nan,11.881218,6.581856,nan,0.0,0.0,0.0
223539546,223536263,4325386,2000.08,3.9064062,31.25125,31.25125,nan,143.84238,nan,nan,nan,nan,nan,5.7956576,5.1807775,nan,10.846591,nan,nan,0.0,0.0,0.0
223665132,223663774,4325386,2000.08,3.9064062,31.25125,31.25125,nan,143.5415,nan,nan,nan,nan,nan,5.7956576,5.1807775,nan,10.147787,nan,nan,0.0,0.0,0.0
224049482,224048806,4325386,2000.08,3.9064062,31.25125,31.25125,nan,142.93155,nan,nan,nan,nan,nan,5.7956576,5.1807775,nan,10.454206,nan,nan,0.0,0.0,0.0
224114450,224111312,4325386,2000.08,3.9064062,31.25125,31.25125,nan,84.79931,nan,nan,nan,nan,nan,5.7956576,5.1807775,nan,11.253145,nan,nan,0.0,0.0,0.0
224179523,224176317,4325386,2000.08,3.9064062,31.25125,31.25125,nan,84.79931,nan,nan,nan,nan,nan,5.7956576,5.1807775,nan,10.666322,nan,nan,0.0,0.0,0.0
224304539,224303828,4325386,2000.08,3.9064062,31.25125,31.25125,nan,82.10678,nan,nan,nan,nan,nan,5.7956576,5.1807775,nan,11.8261,nan,nan,0.0,0.0,0.0
224369522,224368833,4325386,2000.08,3.9064062,31.25125,31.25125,nan,82.10678,nan,nan,nan,nan,nan,5.7956576,5.1807775,nan,11.557546,nan,nan,0.0,0.0,0.0
224564456,224561350,4325386,2000.08,3.9064062,31.25125,31.25125,nan,82.10678,nan,nan,nan,nan,nan,5.7956576,5.1807775,nan,9.686542,nan,nan,0.0,0.0,0.0
224624468,224623855,4325386,2000.08,3.9064062,31.25125,31.25125,nan,82.10678,nan,nan,nan,nan,nan,5.7956576,5.1807775,nan,11.461478,nan,nan,0.0,0.0,0.0
224689565,224688861,4325386,2000.08,3.9064062,31.25125,31.25125,nan,82.27223,nan,nan,nan,nan,nan,5.7956576,5.1807775,nan,10.5415535,nan,nan,0.0,0.0,0.0
224754476,224751366,4325386,2000.08,3.9064062,31.25125,31.25125,nan,82.45495,nan,nan,nan,nan,nan,5.7956576,5.1807775,nan,10.178123,nan,nan,0.0,0.0,0.0
224814493,224811371,4325386,2000.08,3.9064062,31.25125,nan,nan,82.45495,nan,nan,nan,nan,nan,4.774926,nan,nan,10.178123,nan,nan,0.0,0.0,0.0
224819673,224816372,4325386,2000.08,3.9064062,31.25125,nan,nan,82.5634,nan,nan,nan,nan,nan,4.774926,nan,nan,10.907035,nan,nan,0.0,0.0,0.0
224884558,224881377,4325386,2000.08,3.9064062,31.25125,nan,nan,82.609024,nan,nan,nan,nan,nan,4.774926,nan,nan,9.988934,nan,nan,0.0,0.0,0.0
225074603,225071393,4325386,2000.08,3.9064062,31.25125,nan,nan,82.609024,nan,nan,nan,nan,nan,4.774926,nan,nan,9.46525,nan,nan,0.0,0.0,0.0
225139673,225136399,4325386,2000.08,3.9064062,31.25125,nan,nan,82.609024,nan,nan,nan,nan,nan,4.774926,nan,nan,10.117056,nan,nan,0.0,0.0,0.0
225204497,225201404,4325386,2000.08,3.9064062,31.25125,nan,nan,82.27223,nan,nan,nan,nan,nan,4.774926,nan,nan,9.97078,nan,nan,0.0,0.0,0.0
225265338,225263910,4325386,2000.08,3.9064062,31.25125,nan,nan,82.37171,nan,nan,nan,nan,nan,4.774926,nan,nan,10.316496,nan,nan,0.0,0.0,0.0
225329567,225328915,4325386,2000.08,3.9064062,31.25125,nan,nan,82.271935,nan,nan,nan,nan,nan,4.774926,nan,nan,10.044807,nan,nan,0.0,0.0,0.0
225394531,225391421,4325386,2000.08,3.9064062,31.25125,nan,nan,82.20695,nan,nan,nan,nan,nan,4.774926,nan,nan,7.8913474,nan,nan,0.0,0.0,0.0
225459919,225456426,4325386,2000.08,3.9064062,31.25125,nan,nan,82.19802,nan,nan,nan,nan,nan,4.774926,nan,nan,8.97624,nan,nan,0.0,0.0,0.0
225524553,225521432,4325386,2000.08,3.9064062,31.25125,nan,nan,82.18493,nan,nan,nan,nan,nan,4.774926,nan,nan,10.5915165,nan,nan,0.0,0.0,0.0
225584536,225583937,4325386,2000.08,3.9064062,31.25125,nan,nan,82.18493,nan,nan,nan,nan,nan,4.774926,nan,nan,10.848207,nan,nan,0.0,0.0,0.0
225844604,225841459,4325386,2000.08,3.9064062,31.25125,nan,nan,82.19802,nan,nan,nan,nan,nan,4.774926,nan,nan,8.280307,nan,nan,0.0,0.0,0.0
225904588,225903964,4325386,2000.08,3.9064062,31.25125,nan,nan,82.19802,nan,nan,nan,nan,nan,4.774926,nan,nan,6.064724,nan,nan,0.0,0.0,0.0
226164579,226161486,4325386,2000.08,3.9064062,31.25125,nan,nan,82.301994,nan,nan,nan,nan,nan,4.774926,nan,nan,9.266373,nan,nan,0.0,0.0,0.0
226224621,226223992,4325386,2000.08,3.9064062,31.25125,nan,nan,82.47995,nan,nan,nan,nan,nan,4.774926,nan,nan,8.981422,nan,nan,0.0,0.0,0.0
226354566,226351503,4325386,2000.08,3.9064062,31.25125,nan,nan,82.55796,nan,nan,nan,nan,nan,4.774926,nan,nan,8.602329,nan,nan,0.0,0.0,0.0
226419695,226416508,4325386,2000.08,3.9064062,31.25125,nan,nan,82.55796,nan,nan,nan,nan,nan,4.774926,nan,nan,7.5906963,nan,nan,0.0,0.0,0.0
226544633,226544019,4325386,2000.08,3.9064062,31.25125,nan,nan,82.569084,nan,nan,nan,nan,nan,4.774926,nan,nan,6.93347,nan,nan,0.0,0.0,0.0
226864737,226864047,4325386,2000.08,3.9064062,31.25125,nan,nan,82.55796,nan,nan,nan,nan,nan,4.774926,nan,nan,9.605173,nan,nan,0.0,0.0,0.0
226924974,226924052,4325386,2000.08,3.9064062,31.25125,nan,nan,82.55796,nan,nan,nan,nan,nan,4.237464,nan,nan,9.605173,nan,nan,0.0,0.0,0.0
226929757,226929053,4325386,2000.08,3.9064062,31.25125,nan,nan,82.506294,nan,nan,nan,nan,nan,4.237464,nan,nan,10.728879,nan,nan,0.0,0.0,0.0
226994637,226991558,4325386,2000.08,3.9064062,31.25125,nan,nan,82.506294,nan,nan,nan,nan,nan,4.237464,nan,nan,10.805651,nan,nan,0.0,0.0,0.0
227060015,227056563,4325386,2000.08,3.9064062,31.25125,nan,nan,81.871414,nan,nan,nan,nan,nan,4.237464,nan,nan,9.928759,nan,nan,0.0,0.0,0.0
227124637,227121569,4325386,2000.08,3.9064062,31.25125,nan,nan,81.85943,nan,nan,nan,nan,nan,4.237464,nan,nan,10.450047,nan,nan,0.0,0.0,0.0
227184744,227184075,4325386,2000.08,3.9064062,31.25125,nan,nan,81.83827,nan,nan,nan,nan,nan,4.237464,nan,nan,11.708755,nan,nan,0.0,0.0,0.0
227244743,227244080,4325386,2000.08,3.9064062,31.25125,nan,nan,81.83827,nan,nan,nan,nan,nan,4.0206094,nan,nan,11.708755,nan,nan,0.0,0.0,0.0
227249769,227249080,4325386,2000.08,3.9064062,31.25125,nan,nan,81.827774,nan,nan,nan,nan,nan,4.0206094,nan,nan,11.278416,nan,nan,0.0,0.0,0.0
227314865,227311586,4325386,2000.08,3.9064062,31.25125,nan,nan,81.827774,nan,nan,nan,nan,nan,4.0206094,nan,nan,10.568652,nan,nan,0.0,0.0,0.0
227379789,227376591,4325386,2000.08,3.9064062,31.25125,nan,nan,81.83827,nan,nan,nan,nan,nan,4.0206094,nan,nan,10.373285,nan,nan,0.0,0.0,0.0
227444708,227441597,4325386,2000.08,3.9064062,31.25125,nan,nan,81.85943,nan,nan,nan,nan,nan,4.0206094,nan,nan,10.675182,nan,nan,0.0,0.0,0.0
227504771,227504102,4325386,2000.08,3.9064062,31.25125,nan,nan,82.03453,nan,nan,nan,nan,nan,4.0206094,nan,nan,9.546425,nan,nan,0.0,0.0,0.0
227629809,227626613,4325386,2000.08,3.9064062,31.25125,nan,nan,82.03453,nan,nan,nan,nan,nan,4.0861835,nan,nan,9.546425,nan,nan,0.0,0.0,0.0
227634699,227631614,4325386,2000.08,3.9064062,31.25125,nan,nan,82.03453,nan,nan,nan,nan,nan,4.0861835,nan,nan,9.200216,nan,nan,0.0,0.0,0.0
227699913,227696619,4325386,2000.08,3.9064062,31.25125,nan,nan,82.03453,140.77856,nan,nan,nan,nan,4.0861835,nan,nan,9.200216,10.798083,nan,0.0,0.0,0.0
227764762,227761624,4325386,2000.08,3.9064062,31.25125,nan,nan,82.03453,140.77856,nan,nan,nan,nan,4.0861835,nan,nan,9.735614,10.798083,nan,0.0,0.0,0.0
227824796,227824130,4325386,2000.08,3.9064062,31.25125,nan,nan,82.03453,nan,nan,nan,nan,nan,4.0861835,nan,nan,8.9891815,nan,nan,0.0,0.0,0.0
227889872,227889135,4325386,2000.08,3.9064062,31.25125,nan,nan,81.838585,nan,nan,nan,nan,nan,4.0861835,nan,nan,9.180607,nan,nan,0.0,0.0,0.0
227954750,227951641,4325386,2000.08,3.9064062,31.25125,nan,nan,81.838585,nan,nan,nan,nan,nan,4.0861835,nan,nan,10.793037,nan,nan,0.0,0.0,0.0
228019914,228016646,4325386,2000.08,3.9064062,31.25125,nan,nan,81.79704,nan,nan,nan,nan,nan,4.0861835,nan,nan,9.661169,nan,nan,0.0,0.0,0.0
228084890,228081652,4325386,2000.08,3.9064062,31.25125,nan,nan,81.76237,nan,nan,nan,nan,nan,4.0861835,nan,nan,7.3721437,nan,nan,0.0,0.0,0.0
228140043,228139157,4325386,2000.08,3.9064062,31.25125,nan,nan,81.76237,nan,nan,nan,nan,nan,3.3745992,nan,nan,7.3721437,nan,nan,0.0,0.0,0.0
228274783,228271669,4325386,2000.08,3.9064062,31.25125,nan,nan,81.79704,nan,nan,nan,nan,nan,3.3745992,nan,nan,11.182892,nan,nan,0.0,0.0,0.0
228339943,228336674,4325386,2000.08,3.9064062,31.25125,nan,nan,81.76237,nan,nan,nan,nan,nan,3.3745992,nan,nan,8.256868,nan,nan,0.0,0.0,0.0
228404761,228401680,4325386,2000.08,3.9064062,31.25125,nan,nan,81.66811,nan,nan,nan,nan,nan,3.3745992,nan,nan,9.054534,nan,nan,0.0,0.0,0.0
228464773,228464185,4325386,2000.08,3.9064062,31.25125,nan,nan,81.569016,nan,nan,nan,nan,nan,3.3745992,nan,nan,8.679408,nan,nan,0.0,0.0,0.0
228589814,228586696,4325386,2000.08,3.9064062,31.25125,nan,nan,81.569016,nan,nan,nan,nan,nan,10.253407,nan,nan,8.679408,nan,nan,0.0,0.0,0.0
228594714,228591696,4325386,2000.08,3.9064062,31.25125,nan,nan,81.569016,144.4382,nan,nan,nan,nan,10.253407,nan,nan,6.2754784,10.88497,nan,0.0,0.0,0.0
228724893,228721707,4325386,2000.08,3.9064062,31.25125,nan,nan,81.569016,147.90056,nan,nan,nan,nan,10.253407,nan,nan,7.262704,10.218475,nan,0.0,0.0,0.0
228784878,228784213,4325386,2000.08,3.9064062,31.25125,nan,nan,81.832535,147.90056,nan,nan,nan,nan,10.253407,nan,nan,8.021163,10.218475,nan,0.0,0.0,0.0
228849892,228849219,4325386,2000.08,3.9064062,31.25125,nan,nan,81.6629,147.90056,nan,nan,nan,nan,10.253407,nan,nan,8.248893,10.029792,nan,0.0,0.0,0.0
228914952,228911724,4325386,2000.08,3.9064062,31.25125,nan,nan,81.6629,147.90056,nan,nan,nan,nan,10.253407,nan,nan,8.248893,10.108237,nan,0.0,0.0,0.0
228980059,228976730,4325386,2000.08,3.9064062,31.25125,nan,nan,81.6629,148.8351,nan,nan,nan,nan,10.253407,nan,nan,8.346224,10.6430645,nan,0.0,0.0,0.0
229039979,229036735,4325386,2000.08,3.9064062,31.25125,nan,nan,81.6629,148.8351,nan,nan,nan,nan,10.186962,nan,nan,8.346224,10.6430645,nan,0.0,0.0,0.0
229044830,229041736,4325386,2000.08,3.9064062,31.25125,nan,nan,81.6629,148.92804,nan,nan,nan,nan,10.186962,nan,nan,8.346155,10.504229,nan,0.0,0.0,0.0
229169945,229169247,4325386,2000.08,3.9064062,31.25125,nan,nan,81.832535,149.00784,nan,nan,nan,nan,10.186962,nan,nan,7.930713,10.532704,nan,0.0,0.0,0.0
229234868,229231752,4325386,2000.08,3.9064062,31.25125,nan,nan,81.832535,149.00784,nan,nan,nan,nan,10.186962,nan,nan,7.930713,8.636211,nan,0.0,0.0,0.0
229300052,229296758,4325386,2000.08,3.9064062,31.25125,nan,nan,81.832535,149.00784,nan,nan,nan,nan,10.186962,nan,nan,6.5097766,8.636211,nan,0.0,0.0,0.0
229364847,229361763,4325386,2000.08,3.9064062,31.25125,nan,nan,81.832535,149.08786,nan,nan,nan,nan,10.186962,nan,nan,6.5097766,9.194597,nan,0.0,0.0,0.0
229424899,229424269,4325386,2000.08,3.9064062,31.25125,nan,nan,nan,149.08786,nan,nan,nan,nan,10.186962,nan,nan,nan,10.761837,nan,0.0,0.0,0.0
229490071,229489275,4325386,2000.08,3.9064062,31.25125,nan,nan,nan,149.08786,nan,nan,nan,nan,10.186962,nan,nan,nan,9.320843,nan,0.0,0.0,0.0
229744899,229744297,4325386,2000.08,3.9064062,31.25125,nan,nan,nan,149.29175,nan,nan,nan,nan,10.186962,nan,nan,nan,5.8518434,nan,0.0,0.0,0.0
229874896,229871808,4325386,2000.08,3.9064062,31.25125,nan,nan,nan,149.08786,nan,nan,nan,nan,10.186962,nan,nan,nan,4.981474,nan,0.0,0.0,0.0
230640209,230636875,4325386,2000.08,3.9064062,31.25125,nan,nan,nan,149.08786,nan,nan,nan,nan,4.1326237,nan,nan,nan,4.981474,nan,0.0,0.0,0.0
230705073,230704381,4325386,2000.08,3.9064062,31.25125,nan,nan,nan,149.08786,nan,nan,nan,nan,4.1326237,nan,nan,nan,10.140045,nan,0.0,0.0,0.0
230895402,230891897,4325386,2000.08,3.9064062,31.25125,nan,nan,nan,149.08786,nan,nan,nan,nan,3.967172,nan,nan,nan,10.140045,nan,0.0,0.0,0.0
231090293,231089415,4325386,2000.08,3.9064062,31.25125,nan,nan,nan,149.08786,nan,nan,nan,nan,3.967172,nan,nan,nan,10.65815,nan,0.0,0.0,0.0
231155027,231151920,4325386,2000.08,3.9064062,31.25125,nan,nan,nan,148.49873,nan,nan,nan,nan,3.967172,nan,nan,nan,10.110134,nan,0.0,0.0,0.0
231280530,231276932,4325386,2000.08,3.9064062,31.25125,nan,nan,nan,148.49873,nan,nan,nan,nan,4.4948697,nan,nan,nan,10.110134,nan,0.0,0.0,0.0
231405020,231404443,4325386,2000.08,3.9064062,31.25125,nan,nan,nan,148.49873,nan,nan,nan,nan,4.1410627,nan,nan,nan,10.110134,nan,0.0,0.0,0.0
231605043,231601960,4325386,2000.08,3.9064062,31.25125,nan,nan,nan,81.83714,nan,nan,nan,nan,4.1410627,nan,nan,nan,10.493435,nan,0.0,0.0,0.0
231660320,231659465,4325386,2000.08,3.9064062,31.25125,nan,nan,nan,81.83714,nan,nan,nan,nan,4.5266604,nan,nan,nan,10.493435,nan,0.0,0.0,0.0
231665208,231664465,4325386,2000.08,3.9064062,31.25125,nan,nan,nan,81.7258,nan,nan,nan,nan,4.5266604,nan,nan,nan,10.538214,nan,0.0,0.0,0.0
231925138,231921988,4325386,2000.08,3.9064062,31.25125,nan,nan,nan,81.7258,nan,nan,nan,nan,4.5266604,nan,nan,nan,7.980616,nan,0.0,0.0,0.0
231985181,231984494,4325386,2000.08,3.9064062,31.25125,nan,nan,nan,81.70194,nan,nan,nan,nan,4.5266604,nan,nan,nan,8.5334215,nan,0.0,0.0,0.0
232045126,232044499,4325386,2000.08,3.9064062,31.25125,nan,nan,nan,81.70194,nan,nan,nan,nan,4.349496,nan,nan,nan,8.5334215,nan,0.0,0.0,0.0
232180221,232177011,4325386,2000.08,3.9064062,31.25125,nan,nan,nan,81.685646,nan,nan,nan,nan,4.349496,nan,nan,nan,8.151372,nan,0.0,0.0,0.0
232245208,232242016,4325386,2000.08,3.9064062,31.25125,nan,nan,nan,81.70194,nan,nan,nan,nan,4.349496,nan,nan,nan,7.0062666,nan,0.0,0.0,0.0
232305145,232304522,4325386,2000.08,3.9064062,31.25125,nan,nan,nan,81.73076,nan,nan,nan,nan,4.349496,nan,nan,nan,5.685748,nan,0.0,0.0,0.0
232435196,232432033,4325386,2000.08,3.9064062,31.25125,nan,nan,nan,81.70194,nan,nan,nan,nan,4.349496,nan,nan,nan,7.2323318,nan,0.0,0.0,0.0
232500342,232497039,4325386,2000.08,3.9064062,31.25125,nan,nan,nan,81.70194,nan,nan,nan,nan,4.349496,nan,nan,nan,9.250812,nan,0.0,0.0,0.0
232625188,232624550,4325386,2000.08,3.9064062,31.25125,nan,nan,nan,81.685646,nan,nan,nan,nan,4.349496,nan,nan,nan,10.01215,nan,0.0,0.0,0.0
232755215,232752062,4325386,2000.08,3.9064062,31.25125,nan,nan,nan,81.06003,nan,nan,nan,nan,4.349496,nan,nan,nan,10.165737,nan,0.0,0.0,0.0
232820256,232817068,4325386,2000.08,3.9064062,31.25125,nan,nan,nan,81.007225,nan,nan,nan,nan,4.349496,nan,nan,nan,10.316859,nan,0.0,0.0,0.0
232885194,232882074,4325386,2000.08,3.9064062,31.25125,nan,nan,nan,80.66169,nan,nan,nan,nan,4.349496,nan,nan,nan,10.091996,nan,0.0,0.0,0.0
233010244,233009585,4325386,2000.08,3.9064062,31.25125,nan,nan,nan,79.05162,nan,nan,nan,nan,4.349496,nan,nan,nan,10.386108,nan,0.0,0.0,0.0
233075266,233072090,4325386,2000.08,3.9064062,31.25125,nan,nan,nan,79.003494,nan,nan,nan,nan,4.349496,nan,nan,nan,11.01494,nan,0.0,0.0,0.0
233135254,233132096,4325386,2000.08,3.9064062,31.25125,nan,nan,nan,79.003494,nan,nan,nan,nan,4.7119164,nan,nan,nan,11.01494,nan,0.0,0.0,0.0
233140499,233137096,4325386,2000.08,3.9064062,31.25125,nan,nan,nan,78.99581,nan,nan,nan,nan,4.7119164,nan,nan,nan,10.682935,nan,0.0,0.0,0.0
233205185,233202102,4325386,2000.08,3.9064062,31.25125,nan,nan,nan,78.99581,nan,nan,nan,nan,4.7119164,nan,nan,nan,11.466478,nan,0.0,0.0,0.0
233265308,233264607,4325386,2000.08,3.9064062,31.25125,nan,nan,nan,78.99581,nan,nan,nan,nan,4.7119164,nan,nan,nan,10.621563,nan,0.0,0.0,0.0
233330418,233329613,4325386,2000.08,3.9064062,31.25125,nan,nan,nan,78.84361,nan,nan,nan,nan,4.7119164,nan,nan,nan,10.470639,nan,0.0,0.0,0.0
233395273,233392119,4325386,2000.08,3.9064062,31.25125,nan,nan,nan,79.003494,nan,nan,nan,nan,4.7119164,nan,nan,nan,10.326634,nan,0.0,0.0,0.0
233460342,233457124,4325386,2000.08,3.9064062,31.25125,nan,nan,nan,78.870476,nan,nan,nan,nan,4.7119164,nan,nan,nan,9.503147,nan,0.0,0.0,0.0
233525270,233522130,4325386,2000.08,3.9064062,31.25125,nan,nan,nan,78.870476,nan,nan,nan,nan,4.7119164,nan,nan,nan,8.173174,nan,0.0,0.0,0.0
233585218,233584636,4325386,2000.08,3.9064062,31.25125,nan,nan,nan,78.870476,nan,nan,nan,nan,4.7119164,nan,nan,nan,5.6190977,nan,0.0,0.0,0.0
233710614,233707147,4325386,2000.08,3.9064062,31.25125,nan,nan,nan,78.870476,nan,nan,nan,nan,4.766653,nan,nan,nan,5.6190977,nan,0.0,0.0,0.0
233715437,233712147,4325386,2000.08,3.9064062,31.25125,nan,nan,nan,78.84787,nan,nan,nan,nan,4.766653,nan,nan,nan,8.858999,nan,0.0,0.0,0.0
233780525,233777153,4325386,2000.08,3.9064062,31.25125,nan,nan,nan,78.84787,nan,nan,nan,nan,4.766653,nan,nan,nan,10.773577,nan,0.0,0.0,0.0
233845291,233842159,4325386,2000.08,3.9064062,31.25125,nan,nan,nan,78.870476,nan,nan,nan,nan,4.766653,nan,nan,nan,10.785908,nan,0.0,0.0,0.0
233905242,233904664,4325386,2000.08,3.9064062,31.25125,nan,nan,nan,78.870476,nan,nan,nan,nan,4.766653,nan,nan,nan,11.406267,nan,0.0,0.0,0.0
233970383,233969670,4325386,2000.08,3.9064062,31.25125,nan,nan,nan,78.84787,nan,nan,nan,nan,4.766653,nan,nan,nan,10.198331,nan,0.0,0.0,0.0
234035378,234032176,4325386,2000.08,3.9064062,31.25125,nan,nan,nan,78.99249,nan,nan,nan,nan,4.766653,nan,nan,nan,10.421341,nan,0.0,0.0,0.0
234095270,234092183,4325386,2000.08,3.9064062,31.25125,nan,nan,nan,78.99249,nan,nan,nan,nan,5.03913,nan,nan,nan,10.421341,nan,0.0,0.0,0.0
234225319,234224693,4325386,2000.08,3.9064062,31.25125,nan,nan,nan,79.13257,nan,nan,nan,nan,5.03913,nan,nan,nan,5.2065997,nan,0.0,0.0,0.0
234420500,234417210,4325386,2000.08,3.9064062,31.25125,nan,nan,nan,79.13257,nan,nan,nan,nan,5.03913,nan,nan,nan,9.578432,nan,0.0,0.0,0.0
234485543,234482216,4325386,2000.08,3.9064062,31.25125,nan,nan,nan,79.13257,nan,nan,nan,nan,5.03913,nan,nan,nan,10.297209,nan,0.0,0.0,0.0
234545440,234544721,4325386,2000.08,3.9064062,31.25125,nan,nan,nan,79.13257,nan,nan,nan,nan,5.03913,nan,nan,nan,10.148467,nan,0.0,0.0,0.0
234605329,234604727,4325386,2000.08,3.9064062,31.25125,nan,nan,nan,79.13257,nan,nan,nan,nan,4.777911,nan,nan,nan,10.148467,nan,0.0,0.0,0.0
234610398,234609727,4325386,2000.08,3.9064062,31.25125,nan,nan,nan,79.13257,nan,nan,nan,nan,4.777911,nan,nan,nan,9.145736,nan,0.0,0.0,0.0
235125386,235122274,4325386,2000.08,3.9064062,31.25125,nan,nan,nan,79.48846,nan,nan,nan,nan,4.777911,nan,nan,nan,9.680091,nan,0.0,0.0,0.0
235185342,235184779,4325386,2000.08,3.9064062,31.25125,nan,nan,nan,79.48846,nan,nan,nan,nan,4.777911,nan,nan,nan,10.308765,nan,0.0,0.0,0.0
235315514,235312290,4325386,2000.08,3.9064062,31.25125,nan,nan,nan,79.713425,nan,nan,nan,nan,4.777911,nan,nan,nan,10.304525,nan,0.0,0.0,0.0
235380763,235377297,4325386,2000.08,3.9064062,31.25125,nan,nan,nan,80.0256,nan,nan,nan,nan,4.777911,nan,nan,nan,11.884607,nan,0.0,0.0,0.0
235445380,235442302,4325386,2000.08,3.9064062,31.25125,nan,nan,nan,82.73473,nan,nan,nan,nan,4.777911,nan,nan,nan,12.667645,nan,0.0,0.0,0.0
235505438,235504808,4325386,2000.08,3.9064062,31.25125,nan,nan,nan,86.81051,nan,nan,nan,nan,4.777911,nan,nan,nan,12.2353115,nan,0.0,0.0,0.0
235570506,235569814,4325386,2000.08,3.9064062,31.25125,nan,nan,nan,87.01562,nan,nan,nan,nan,4.777911,nan,nan,nan,12.374082,nan,0.0,0.0,0.0
235635442,235632319,4325386,2000.08,3.9064062,31.25125,nan,nan,nan,89.38376,nan,nan,nan,nan,4.777911,nan,nan,nan,13.014549,nan,0.0,0.0,0.0
235700807,235697325,4325386,2000.08,3.9064062,31.25125,nan,nan,nan,89.89632,nan,nan,nan,nan,4.777911,nan,nan,nan,11.887512,nan,0.0,0.0,0.0
235760577,235757330,4325386,2000.08,3.9064062,31.25125,nan,nan,nan,89.89632,nan,nan,nan,nan,5.0326786,nan,nan,nan,11.887512,nan,0.0,0.0,0.0
235765612,235762331,4325386,2000.08,3.9064062,31.25125,nan,nan,nan,90.23055,nan,nan,nan,nan,5.0326786,nan,nan,nan,11.127113,nan,0.0,0.0,0.0
235825456,235824837,4325386,2000.08,3.9064062,31.25125,nan,nan,nan,90.711205,nan,nan,nan,nan,5.0326786,nan,nan,nan,9.872813,nan,0.0,0.0,0.0
235890490,235889843,4325386,2000.08,3.9064062,31.25125,nan,nan,nan,90.711205,nan,nan,nan,nan,5.0326786,nan,nan,nan,7.6603537,nan,0.0,0.0,0.0
236275542,236272377,4325386,2000.08,3.9064062,31.25125,nan,nan,nan,90.80053,nan,nan,nan,nan,5.0326786,nan,nan,nan,4.932795,nan,0.0,0.0,0.0
236340734,236337383,4325386,2000.08,3.9064062,31.25125,nan,nan,81.84107,90.95913,nan,nan,nan,nan,5.0326786,nan,nan,11.857041,5.124512,nan,0.0,0.0,0.0
236405459,236402389,4325386,2000.08,3.9064062,31.25125,nan,nan,81.84107,90.95913,nan,nan,nan,nan,5.0326786,nan,nan,10.226307,5.124512,nan,0.0,0.0,0.0
236725578,236722418,4325386,2000.08,3.9064062,31.25125,nan,nan,81.92625,nan,nan,nan,nan,nan,5.0326786,nan,nan,12.062173,nan,nan,0.0,0.0,0.0
236785492,236784923,4325386,2000.08,3.9064062,31.25125,nan,nan,85.69912,nan,nan,nan,nan,nan,5.0326786,nan,nan,12.099798,nan,nan,0.0,0.0,0.0
236850640,236849929,4325386,2000.08,3.9064062,31.25125,nan,nan,85.991905,nan,nan,nan,nan,nan,5.0326786,nan,nan,12.856005,nan,nan,0.0,0.0,0.0
236915645,236912435,4325386,2000.08,3.9064062,31.25125,nan,nan,86.19661,nan,nan,nan,nan,nan,5.0326786,nan,nan,12.272378,nan,nan,0.0,0.0,0.0
236980823,236977441,4325386,2000.08,3.9064062,31.25125,nan,nan,86.19661,nan,nan,nan,nan,nan,5.0326786,nan,nan,12.222051,nan,nan,0.0,0.0,0.0
237045510,237042447,4325386,2000.08,3.9064062,31.25125,nan,nan,86.0856,nan,nan,nan,nan,nan,5.0326786,nan,nan,12.0431385,nan,nan,0.0,0.0,0.0
237105594,237104952,4325386,2000.08,3.9064062,31.25125,nan,nan,86.0856,nan,nan,nan,nan,nan,5.0326786,nan,nan,11.910114,nan,nan,0.0,0.0,0.0
237170692,237169958,4325386,2000.08,3.9064062,31.25125,nan,nan,86.0856,nan,nan,nan,nan,nan,5.0326786,nan,nan,12.079583,nan,nan,0.0,0.0,0.0
237235531,237232464,4325386,2000.08,3.9064062,31.25125,nan,nan,86.08219,nan,nan,nan,nan,nan,5.0326786,nan,nan,12.203239,nan,nan,0.0,0.0,0.0
237300762,237297470,4325386,2000.08,3.9064062,31.25125,nan,nan,86.08219,nan,nan,nan,nan,nan,5.0326786,nan,nan,12.850575,nan,nan,0.0,0.0,0.0
237365947,237362476,4325386,2000.08,3.9064062,31.25125,nan,nan,86.08219,nan,nan,nan,nan,nan,5.0326786,nan,nan,12.561221,nan,nan,0.0,0.0,0.0
237425547,237424981,4325386,2000.08,3.9064062,31.25125,nan,nan,86.08219,nan,nan,nan,nan,nan,5.0326786,nan,nan,12.182517,nan,nan,0.0,0.0,0.0
237490697,237489987,4325386,2000.08,3.9064062,31.25125,nan,nan,86.178535,nan,nan,nan,nan,nan,5.0326786,nan,nan,10.64789,nan,nan,0.0,0.0,0.0
237555617,237552493,4325386,2000.08,3.9064062,31.25125,nan,nan,86.502174,nan,nan,nan,nan,nan,5.0326786,nan,nan,7.8886833,nan,nan,0.0,0.0,0.0
237810671,237810016,4325386,2000.08,3.9064062,31.25125,nan,nan,86.53888,nan,nan,nan,nan,nan,5.0326786,nan,nan,7.836873,nan,nan,0.0,0.0,0.0
237875661,237872522,4325386,2000.08,3.9064062,31.25125,nan,nan,86.640755,nan,nan,nan,nan,nan,5.0326786,nan,nan,9.377158,nan,nan,0.0,0.0,0.0
237935700,237932532,4325386,2000.08,3.9064062,31.25125,nan,nan,86.640755,nan,nan,nan,nan,nan,4.258301,nan,nan,9.377158,nan,nan,0.0,0.0,0.0
238000744,237997533,4325386,2000.08,3.9064062,31.25125,31.25125,nan,86.640755,nan,nan,nan,nan,nan,4.258301,4.3184366,nan,9.377158,nan,nan,0.0,0.0,0.0
238005691,238002539,4325386,2000.08,3.9064062,31.25125,31.25125,nan,86.877525,nan,nan,nan,nan,nan,4.258301,4.3184366,nan,8.221758,nan,nan,0.0,0.0,0.0
238065830,238065040,4325386,2000.08,3.9064062,31.25125,31.25125,nan,87.08204,nan,nan,nan,nan,nan,4.258301,4.3184366,nan,7.4760838,nan,nan,0.0,0.0,0.0
238261055,238257557,4325386,2000.08,3.9064062,31.25125,31.25125,nan,87.220665,nan,nan,nan,nan,nan,4.258301,4.3184366,nan,10.484093,nan,nan,0.0,0.0,0.0
238325763,238322563,4325386,2000.08,3.9064062,31.25125,31.25125,nan,87.220665,nan,nan,nan,nan,nan,4.258301,4.3184366,nan,11.787794,nan,nan,0.0,0.0,0.0
238385636,238385069,4325386,2000.08,3.9064062,31.25125,31.25125,nan,87.51848,nan,nan,nan,nan,nan,4.258301,4.3184366,nan,12.085171,nan,nan,0.0,0.0,0.0
238450758,238450075,4325386,2000.08,3.9064062,31.25125,31.25125,nan,89.28465,nan,nan,nan,nan,nan,4.258301,4.3184366,nan,12.332997,nan,nan,0.0,0.0,0.0
238515699,238512581,4325386,2000.08,3.9064062,31.25125,31.25125,nan,89.35704,nan,nan,nan,nan,nan,4.258301,4.3184366,nan,11.427908,nan,nan,0.0,0.0,0.0
238580999,238577587,4325386,2000.08,3.9064062,31.25125,31.25125,nan,89.49417,nan,nan,nan,nan,nan,4.258301,4.3184366,nan,11.06212,nan,nan,0.0,0.0,0.0
238645759,238642592,4325386,2000.08,3.9064062,31.25125,31.25125,nan,89.94472,nan,nan,nan,nan,nan,4.258301,4.3184366,nan,12.248392,nan,nan,0.0,0.0,0.0
238705679,238705098,4325386,2000.08,3.9064062,31.25125,31.25125,nan,89.966675,nan,nan,nan,nan,nan,4.258301,4.3184366,nan,12.7698345,nan,nan,0.0,0.0,0.0
238770873,238770104,4325386,2000.08,3.9064062,31.25125,31.25125,nan,90.178246,nan,nan,nan,nan,nan,4.258301,4.3184366,nan,12.496574,nan,nan,0.0,0.0,0.0
238966424,238962622,4325386,2000.08,3.9064062,31.25125,31.25125,nan,90.178246,nan,nan,nan,nan,nan,4.258301,4.3184366,nan,10.301716,nan,nan,0.0,0.0,0.0
239090787,239090133,4325386,2000.08,3.9064062,31.25125,31.25125,nan,90.178246,nan,nan,nan,nan,nan,4.258301,4.3184366,nan,10.743649,nan,nan,0.0,0.0,0.0
239155788,239152639,4325386,2000.08,3.9064062,31.25125,31.25125,nan,90.27031,nan,nan,nan,nan,nan,4.258301,4.3184366,nan,13.028874,nan,nan,0.0,0.0,0.0
239220907,239217645,4325386,2000.08,3.9064062,31.25125,31.25125,nan,90.27031,nan,nan,nan,nan,nan,4.258301,4.3184366,nan,13.15589,nan,nan,0.0,0.0,0.0
239285730,239282651,4325386,2000.08,3.9064062,31.25125,31.25125,nan,90.24369,nan,nan,nan,nan,nan,4.258301,4.3184366,nan,12.522965,nan,nan,0.0,0.0,0.0
239345946,239345157,4325386,2000.08,3.9064062,31.25125,31.25125,nan,90.178246,nan,nan,nan,nan,nan,4.258301,4.3184366,nan,10.650042,nan,nan,0.0,0.0,0.0
239410904,239410163,4325386,2000.08,3.9064062,31.25125,31.25125,nan,89.84734,nan,nan,nan,nan,nan,4.258301,4.3184366,nan,10.104612,nan,nan,0.0,0.0,0.0
239475781,239472668,4325386,2000.08,3.9064062,31.25125,31.25125,nan,89.80312,nan,nan,nan,nan,nan,4.258301,4.3184366,nan,10.302363,nan,nan,0.0,0.0,0.0
239665959,239665186,4325386,2000.08,3.9064062,31.25125,31.25125,nan,89.80312,nan,nan,nan,nan,nan,4.258301,4.3184366,nan,10.369541,nan,nan,0.0,0.0,0.0
239731026,239730192,4325386,2000.08,3.9064062,31.25125,31.25125,nan,89.80312,nan,nan,nan,nan,nan,4.258301,4.3184366,nan,11.625055,nan,nan,0.0,0.0,0.0
239795922,239792698,4325386,2000.08,3.9064062,31.25125,31.25125,nan,89.80312,nan,nan,nan,nan,nan,4.258301,4.3184366,nan,11.670054,nan,nan,0.0,0.0,0.0
239860933,239857704,4325386,2000.08,3.9064062,31.25125,31.25125,nan,89.80312,nan,nan,nan,nan,nan,4.258301,4.3184366,nan,11.342172,nan,nan,0.0,0.0,0.0
239925814,239922710,4325386,2000.08,3.9064062,31.25125,31.25125,nan,90.145805,nan,nan,nan,nan,nan,4.258301,4.3184366,nan,9.1709175,nan,nan,0.0,0.0,0.0
240050903,240050222,4325386,2000.08,3.9064062,31.25125,31.25125,nan,90.145805,nan,nan,nan,nan,nan,4.258301,4.3184366,nan,10.651216,nan,nan,0.0,0.0,0.0
240115833,240112727,4325386,2000.08,3.9064062,31.25125,31.25125,nan,90.145805,nan,nan,nan,nan,nan,4.258301,4.3184366,nan,11.398616,nan,nan,0.0,0.0,0.0
240181225,240177733,4325386,2000.08,3.9064062,31.25125,31.25125,nan,90.145805,nan,nan,nan,nan,nan,4.258301,4.3184366,nan,10.74862,nan,nan,0.0,0.0,0.0
240245832,240242739,4325386,2000.08,3.9064062,31.25125,31.25125,nan,89.86428,nan,nan,nan,nan,nan,4.258301,4.3184366,nan,10.284231,nan,nan,0.0,0.0,0.0
240435849,240432756,4325386,2000.08,3.9064062,31.25125,31.25125,nan,89.84734,nan,nan,nan,nan,nan,4.258301,4.3184366,nan,10.342889,nan,nan,0.0,0.0,0.0
240500973,240497763,4325386,2000.08,3.9064062,31.25125,31.25125,nan,89.84734,nan,nan,nan,nan,nan,4.258301,4.3184366,nan,8.028894,nan,nan,0.0,0.0,0.0
240625881,240625274,4325386,2000.08,3.9064062,31.25125,31.25125,nan,89.74182,nan,nan,nan,nan,nan,4.258301,4.3184366,nan,10.784621,nan,nan,0.0,0.0,0.0
240691008,240690280,4325386,2000.08,3.9064062,31.25125,31.25125,nan,89.74182,nan,nan,nan,nan,nan,4.258301,4.3184366,nan,12.169439,nan,nan,0.0,0.0,0.0
240755994,240752786,4325386,2000.08,3.9064062,31.25125,31.25125,nan,89.74182,nan,nan,nan,nan,nan,4.258301,4.3184366,nan,12.568289,nan,nan,0.0,0.0,0.0
240821065,240817792,4325386,2000.08,3.9064062,31.25125,31.25125,nan,89.756645,nan,nan,nan,nan,nan,4.258301,4.3184366,nan,12.589444,nan,nan,0.0,0.0,0.0
240885875,240882798,4325386,2000.08,3.9064062,31.25125,31.25125,nan,89.826256,nan,nan,nan,nan,nan,4.258301,4.3184366,nan,10.872101,nan,nan,0.0,0.0,0.0
241011001,241010310,4325386,2000.08,3.9064062,31.25125,31.25125,nan,89.84734,nan,nan,nan,nan,nan,4.258301,4.3184366,nan,7.174087,nan,nan,0.0,0.0,0.0
241071013,241067815,4325386,2000.08,3.9064062,31.25125,nan,nan,89.84734,nan,nan,nan,nan,nan,2.8054917,nan,nan,7.174087,nan,nan,0.0,0.0,0.0
241075891,241072816,4325386,2000.08,3.9064062,31.25125,nan,nan,89.84734,nan,nan,nan,nan,nan,2.8054917,nan,nan,8.649722,nan,nan,0.0,0.0,0.0
241141150,241137821,4325386,2000.08,3.9064062,31.25125,nan,nan,89.913956,nan,nan,nan,nan,nan,2.8054917,nan,nan,10.890621,nan,nan,0.0,0.0,0.0
241205944,241202828,4325386,2000.08,3.9064062,31.25125,nan,nan,89.84734,nan,nan,nan,nan,nan,2.8054917,nan,nan,12.174016,nan,nan,0.0,0.0,0.0
241266098,241265333,4325386,2000.08,3.9064062,31.25125,nan,nan,89.84734,nan,nan,nan,nan,nan,2.8054917,nan,nan,11.378809,nan,nan,0.0,0.0,0.0
241461160,241457851,4325386,2000.08,3.9064062,31.25125,nan,nan,89.84734,nan,nan,nan,nan,nan,2.8054917,nan,nan,8.423459,nan,nan,0.0,0.0,0.0
241651019,241650370,4325386,2000.08,3.9064062,31.25125,nan,nan,89.77509,nan,nan,nan,nan,nan,2.8054917,nan,nan,7.0863237,nan,nan,0.0,0.0,0.0
241781417,241777881,4325386,2000.08,3.9064062,31.25125,nan,nan,89.77509,nan,nan,nan,nan,nan,2.8054917,nan,nan,10.134892,nan,nan,0.0,0.0,0.0
241845960,241842887,4325386,2000.08,3.9064062,31.25125,nan,nan,89.77509,nan,nan,nan,nan,nan,2.8054917,nan,nan,12.209524,nan,nan,0.0,0.0,0.0
241901138,241900392,4325386,2000.08,3.9064062,31.25125,nan,nan,89.77509,nan,nan,nan,nan,nan,10.067213,nan,nan,12.209524,nan,nan,0.0,0.0,0.0
241905995,241905392,4325386,2000.08,3.9064062,31.25125,nan,nan,89.77509,nan,nan,nan,nan,nan,10.067213,nan,nan,12.109975,nan,nan,0.0,0.0,0.0
241971184,241970398,4325386,2000.08,3.9064062,31.25125,nan,nan,89.802025,nan,nan,nan,nan,nan,10.067213,nan,nan,12.034771,nan,nan,0.0,0.0,0.0
242036050,242032904,4325386,2000.08,3.9064062,31.25125,nan,nan,89.802025,nan,nan,nan,nan,nan,10.067213,nan,nan,13.0713825,nan,nan,0.0,0.0,0.0
242101106,242097910,4325386,2000.08,3.9064062,31.25125,nan,nan,89.802025,nan,nan,nan,nan,nan,10.067213,nan,nan,13.032437,nan,nan,0.0,0.0,0.0
242166379,242162916,4325386,2000.08,3.9064062,31.25125,nan,nan,89.802025,nan,nan,nan,nan,nan,10.067213,nan,nan,10.588108,nan,nan,0.0,0.0,0.0
242291098,242290428,4325386,2000.08,3.9064062,31.25125,nan,nan,89.717415,nan,nan,nan,nan,nan,10.067213,nan,nan,10.448593,nan,nan,0.0,0.0,0.0
242356061,242352935,4325386,2000.08,3.9064062,31.25125,nan,nan,89.717415,nan,nan,nan,nan,nan,10.067213,nan,nan,9.512838,nan,nan,0.0,0.0,0.0
242421242,242417940,4325386,2000.08,3.9064062,31.25125,nan,nan,89.717415,nan,nan,nan,nan,nan,10.067213,nan,nan,8.907663,nan,nan,0.0,0.0,0.0
242486019,242482946,4325386,2000.08,3.9064062,31.25125,nan,nan,89.717415,nan,nan,nan,nan,nan,10.067213,nan,nan,7.3072534,nan,nan,0.0,0.0,0.0
242611210,242610458,4325386,2000.08,3.9064062,31.25125,nan,nan,89.84734,nan,nan,nan,nan,nan,10.067213,nan,nan,9.88648,nan,nan,0.0,0.0,0.0
242671414,242667963,4325386,2000.08,3.9064062,31.25125,nan,nan,89.84734,nan,nan,nan,nan,nan,2.9039526,nan,nan,9.88648,nan,nan,0.0,0.0,0.0
242676168,242672964,4325386,2000.08,3.9064062,31.25125,nan,nan,89.898575,nan,nan,nan,nan,nan,2.9039526,nan,nan,10.476693,nan,nan,0.0,0.0,0.0
242741246,242737969,4325386,2000.08,3.9064062,31.25125,nan,nan,90.12934,nan,nan,nan,nan,nan,2.9039526,nan,nan,9.762111,nan,nan,0.0,0.0,0.0
242806085,242802976,4325386,2000.08,3.9064062,31.25125,nan,nan,90.13522,nan,nan,nan,nan,nan,2.9039526,nan,nan,10.322562,nan,nan,0.0,0.0,0.0
242866204,242865482,4325386,2000.08,3.9064062,31.25125,nan,nan,90.148605,nan,nan,nan,nan,nan,2.9039526,nan,nan,10.970121,nan,nan,0.0,0.0,0.0
242931191,242930487,4325386,2000.08,3.9064062,31.25125,nan,nan,90.148605,nan,nan,nan,nan,nan,2.9039526,nan,nan,10.910774,nan,nan,0.0,0.0,0.0
243126089,243123005,4325386,2000.08,3.9064062,31.25125,nan,nan,90.13969,nan,nan,nan,nan,nan,2.9039526,nan,nan,9.081053,nan,nan,0.0,0.0,0.0
243186205,243185511,4325386,2000.08,3.9064062,31.25125,nan,nan,90.148605,nan,nan,nan,nan,nan,2.9039526,nan,nan,8.661996,nan,nan,0.0,0.0,0.0
243316209,243313023,4325386,2000.08,3.9064062,31.25125,nan,nan,90.15016,nan,nan,nan,nan,nan,2.9039526,nan,nan,9.609398,nan,nan,0.0,0.0,0.0
243381614,243378029,4325386,2000.08,3.9064062,31.25125,nan,nan,90.15016,nan,nan,nan,nan,nan,2.9039526,nan,nan,10.55369,nan,nan,0.0,0.0,0.0
243571250,243570547,4325386,2000.08,3.9064062,31.25125,nan,nan,90.13969,nan,nan,nan,nan,nan,2.9039526,nan,nan,11.70726,nan,nan,0.0,0.0,0.0
243636170,243633053,4325386,2000.08,3.9064062,31.25125,nan,nan,89.981636,nan,nan,nan,nan,nan,2.9039526,nan,nan,12.600932,nan,nan,0.0,0.0,0.0
243696197,243693058,4325386,2000.08,3.9064062,31.25125,nan,nan,89.981636,nan,nan,nan,nan,nan,3.1973867,nan,nan,12.600932,nan,nan,0.0,0.0,0.0
243700906,243698059,4325386,2000.08,3.9064062,31.25125,nan,nan,89.92192,nan,nan,nan,nan,nan,3.1973867,nan,nan,10.299656,nan,nan,0.0,0.0,0.0
243826233,243825571,4325386,2000.08,3.9064062,31.25125,nan,nan,89.84734,nan,nan,nan,nan,nan,3.1973867,nan,nan,10.764414,nan,nan,0.0,0.0,0.0
243891218,243890577,4325386,2000.08,3.9064062,31.25125,nan,nan,89.84734,nan,nan,nan,nan,nan,3.1973867,nan,nan,10.840287,nan,nan,0.0,0.0,0.0
244086208,244083095,4325386,2000.08,3.9064062,31.25125,nan,nan,89.79977,nan,nan,nan,nan,nan,3.1973867,nan,nan,10.226489,nan,nan,0.0,0.0,0.0
244146331,244145601,4325386,2000.08,3.9064062,31.25125,nan,nan,89.84734,nan,nan,nan,nan,nan,3.1973867,nan,nan,10.972675,nan,nan,0.0,0.0,0.0
244211388,244210606,4325386,2000.08,3.9064062,31.25125,nan,nan,89.83484,nan,nan,nan,nan,nan,3.1973867,nan,nan,12.223591,nan,nan,0.0,0.0,0.0
244276243,244273112,4325386,2000.08,3.9064062,31.25125,nan,nan,89.79977,nan,nan,nan,nan,nan,3.1973867,nan,nan,12.027807,nan,nan,0.0,0.0,0.0
244341425,244338118,4325386,2000.08,3.9064062,31.25125,nan,nan,89.467995,nan,nan,nan,nan,nan,3.1973867,nan,nan,11.472097,nan,nan,0.0,0.0,0.0
244401353,244398124,4325386,2000.08,3.9064062,31.25125,nan,nan,89.467995,nan,nan,nan,nan,nan,3.8636768,nan,nan,11.472097,nan,nan,0.0,0.0,0.0
244406215,244403124,4325386,2000.08,3.9064062,31.25125,nan,nan,89.83484,nan,nan,nan,nan,nan,3.8636768,nan,nan,12.1642065,nan,nan,0.0,0.0,0.0
244466200,244465630,4325386,2000.08,3.9064062,31.25125,nan,nan,89.83484,nan,nan,nan,nan,nan,3.8636768,nan,nan,12.95909,nan,nan,0.0,0.0,0.0
244531342,244530636,4325386,2000.08,3.9064062,31.25125,nan,nan,90.03643,nan,nan,nan,nan,nan,3.8636768,nan,nan,12.805544,nan,nan,0.0,0.0,0.0
244596500,244593142,4325386,2000.08,3.9064062,31.25125,nan,nan,89.83484,nan,nan,nan,nan,nan,3.8636768,nan,nan,11.495166,nan,nan,0.0,0.0,0.0
244661405,244658148,4325386,2000.08,3.9064062,31.25125,nan,nan,89.591515,nan,nan,nan,nan,nan,3.8636768,nan,nan,10.767843,nan,nan,0.0,0.0,0.0
244721345,244718154,4325386,2000.08,3.9064062,31.25125,nan,nan,89.591515,nan,nan,nan,nan,nan,3.1324883,nan,nan,10.767843,nan,nan,0.0,0.0,0.0
244726278,244723154,4325386,2000.08,3.9064062,31.25125,nan,nan,89.655396,nan,nan,nan,nan,nan,3.1324883,nan,nan,11.876062,nan,nan,0.0,0.0,0.0
244786281,244785660,4325386,2000.08,3.9064062,31.25125,nan,nan,89.7874,nan,nan,nan,nan,nan,3.1324883,nan,nan,12.2130785,nan,nan,0.0,0.0,0.0
244851381,244850666,4325386,2000.08,3.9064062,31.25125,nan,nan,89.7874,nan,nan,nan,nan,nan,3.1324883,nan,nan,10.3304,nan,nan,0.0,0.0,0.0
244981914,244978178,4325386,2000.08,3.9064062,31.25125,nan,nan,89.655396,nan,nan,nan,nan,nan,3.1324883,nan,nan,8.2785,nan,nan,0.0,0.0,0.0
245166373,245165696,4325386,2000.08,3.9064062,31.25125,nan,nan,89.655396,nan,nan,nan,nan,nan,4.168096,nan,nan,8.2785,nan,nan,0.0,0.0,0.0
245171394,245170696,4325386,2000.08,3.9064062,31.25125,nan,nan,89.655396,nan,nan,nan,nan,nan,4.168096,nan,nan,9.788202,nan,nan,0.0,0.0,0.0
245366647,245363214,4325386,2000.08,3.9064062,31.25125,nan,nan,89.7874,nan,nan,nan,nan,nan,4.168096,nan,nan,9.518842,nan,nan,0.0,0.0,0.0
245426282,245425720,4325386,2000.08,3.9064062,31.25125,nan,nan,89.7874,nan,nan,nan,nan,nan,4.168096,nan,nan,8.85717,nan,nan,0.0,0.0,0.0
245556313,245553232,4325386,2000.08,3.9064062,31.25125,nan,nan,89.80509,nan,nan,nan,nan,nan,4.168096,nan,nan,11.096063,nan,nan,0.0,0.0,0.0
245621460,245618238,4325386,2000.08,3.9064062,31.25125,nan,nan,90.02453,nan,nan,nan,nan,nan,4.168096,nan,nan,12.229845,nan,nan,0.0,0.0,0.0
245686338,245683244,4325386,2000.08,3.9064062,31.25125,nan,nan,90.06533,nan,nan,nan,nan,nan,4.168096,nan,nan,12.063139,nan,nan,0.0,0.0,0.0
245746422,245745750,4325386,2000.08,3.9064062,31.25125,nan,nan,90.06533,nan,nan,nan,nan,nan,4.168096,nan,nan,10.60773,nan,nan,0.0,0.0,0.0
245811790,245810756,4325386,2000.08,3.9064062,31.25125,nan,nan,90.02453,nan,nan,nan,nan,nan,4.168096,nan,nan,10.795422,nan,nan,0.0,0.0,0.0
245876327,245873262,4325386,2000.08,3.9064062,31.25125,nan,nan,89.84734,nan,nan,nan,nan,nan,4.168096,nan,nan,10.671244,nan,nan,0.0,0.0,0.0
245941521,245938268,4325386,2000.08,3.9064062,31.25125,nan,nan,90.07619,nan,nan,nan,nan,nan,4.168096,nan,nan,10.675245,nan,nan,0.0,0.0,0.0
246006415,246003274,4325386,2000.08,3.9064062,31.25125,nan,nan,90.07619,nan,nan,nan,nan,nan,4.168096,nan,nan,11.237453,nan,nan,0.0,0.0,0.0
246066588,246065780,4325386,2000.08,3.9064062,31.25125,nan,nan,89.84734,nan,nan,nan,nan,nan,4.168096,nan,nan,9.728861,nan,nan,0.0,0.0,0.0
246196816,246193292,4325386,2000.08,3.9064062,31.25125,nan,nan,89.84734,nan,nan,nan,nan,nan,4.168096,nan,nan,9.476827,nan,nan,0.0,0.0,0.0
246261624,246258297,4325386,2000.08,3.9064062,31.25125,nan,nan,89.84734,nan,nan,nan,nan,nan,4.168096,nan,nan,10.728632,nan,nan,0.0,0.0,0.0
246386474,246385810,4325386,2000.08,3.9064062,31.25125,nan,nan,89.84734,nan,nan,nan,nan,nan,4.168096,nan,nan,9.743908,nan,nan,0.0,0.0,0.0
246451463,246450816,4325386,2000.08,3.9064062,31.25125,nan,nan,90.004776,nan,nan,nan,nan,nan,4.168096,nan,nan,12.147629,nan,nan,0.0,0.0,0.0
246516437,246513322,4325386,2000.08,3.9064062,31.25125,nan,nan,89.98271,nan,nan,nan,nan,nan,4.168096,nan,nan,12.715109,nan,nan,0.0,0.0,0.0
246581838,246578327,4325386,2000.08,3.9064062,31.25125,nan,nan,89.84734,nan,nan,nan,nan,nan,4.168096,nan,nan,11.112652,nan,nan,0.0,0.0,0.0
246706439,246705840,4325386,2000.08,3.9064062,31.25125,nan,nan,89.73042,nan,nan,nan,nan,nan,4.168096,nan,nan,10.404815,nan,nan,0.0,0.0,0.0
246771528,246770845,4325386,2000.08,3.9064062,31.25125,nan,nan,89.73042,nan,nan,nan,nan,nan,4.168096,nan,nan,9.8578,nan,nan,0.0,0.0,0.0
246836435,246833351,4325386,2000.08,3.9064062,31.25125,nan,nan,89.77073,nan,nan,nan,nan,nan,4.168096,nan,nan,9.603332,nan,nan,0.0,0.0,0.0
246901625,246898357,4325386,2000.08,3.9064062,31.25125,nan,nan,89.94318,nan,nan,nan,nan,nan,4.168096,nan,nan,7.026963,nan,nan,0.0,0.0,0.0
246961664,246958363,4325386,2000.08,3.9064062,31.25125,nan,nan,89.94318,nan,nan,nan,nan,nan,3.0747125,nan,nan,7.026963,nan,nan,0.0,0.0,0.0
246966808,246963364,4325386,2000.08,3.9064062,31.25125,nan,nan,89.77179,nan,nan,nan,nan,nan,3.0747125,nan,nan,8.488965,nan,nan,0.0,0.0,0.0
247026582,247025870,4325386,2000.08,3.9064062,31.25125,nan,nan,89.77073,nan,nan,nan,nan,nan,3.0747125,nan,nan,9.314653,nan,nan,0.0,0.0,0.0
247541750,247538417,4325386,2000.08,3.9064062,31.25125,nan,nan,89.77179,nan,nan,nan,nan,nan,3.0747125,nan,nan,8.57738,nan,nan,0.0,0.0,0.0
247606626,247603424,4325386,2000.08,3.9064062,31.25125,nan,nan,89.77179,nan,nan,nan,nan,nan,3.0747125,nan,nan,9.865254,nan,nan,0.0,0.0,0.0
247731571,247730936,4325386,2000.08,3.9064062,31.25125,nan,nan,89.77179,nan,nan,nan,nan,nan,3.0747125,nan,nan,9.036181,nan,nan,0.0,0.0,0.0
248176699,248173477,4325386,2000.08,3.9064062,31.25125,nan,nan,89.77179,nan,nan,nan,nan,nan,4.965345,nan,nan,9.036181,nan,nan,0.0,0.0,0.0
248301682,248300989,4325386,2000.08,3.9064062,31.25125,nan,nan,89.77179,nan,nan,nan,nan,nan,4.9298415,nan,nan,9.036181,nan,nan,0.0,0.0,0.0
248436606,248433502,4325386,2000.08,3.9064062,31.25125,nan,nan,89.77179,nan,nan,nan,nan,nan,4.9298415,nan,nan,10.986228,nan,nan,0.0,0.0,0.0
248501736,248498508,4325386,2000.08,3.9064062,31.25125,nan,nan,89.30813,nan,nan,nan,nan,nan,4.9298415,nan,nan,10.461506,nan,nan,0.0,0.0,0.0
248566592,248563514,4325386,2000.08,3.9064062,31.25125,nan,nan,89.17726,nan,nan,nan,nan,nan,4.9298415,nan,nan,11.094772,nan,nan,0.0,0.0,0.0
248626826,248626020,4325386,2000.08,3.9064062,31.25125,nan,nan,84.185234,nan,nan,nan,nan,nan,4.9298415,nan,nan,11.866337,nan,nan,0.0,0.0,0.0
248691686,248691026,4325386,2000.08,3.9064062,31.25125,nan,nan,82.68737,nan,nan,nan,nan,nan,4.9298415,nan,nan,10.191822,nan,nan,0.0,0.0,0.0
248886688,248883544,4325386,2000.08,3.9064062,31.25125,nan,nan,82.53268,nan,nan,nan,nan,nan,4.9298415,nan,nan,10.037284,nan,nan,0.0,0.0,0.0
248941787,248941049,4325386,2000.08,3.9064062,31.25125,nan,nan,82.53268,nan,nan,nan,nan,nan,3.510367,nan,nan,10.037284,nan,nan,0.0,0.0,0.0
248946619,248946050,4325386,2000.08,3.9064062,31.25125,nan,nan,82.11183,nan,nan,nan,nan,nan,3.510367,nan,nan,9.295564,nan,nan,0.0,0.0,0.0
249012045,249011056,4325386,2000.08,3.9064062,31.25125,nan,nan,81.92784,nan,nan,nan,nan,nan,3.510367,nan,nan,6.419505,nan,nan,0.0,0.0,0.0
249141857,249138568,4325386,2000.08,3.9064062,31.25125,nan,nan,81.92784,nan,nan,nan,nan,nan,3.510367,nan,nan,7.2034035,nan,nan,0.0,0.0,0.0
249331879,249331086,4325386,2000.08,3.9064062,31.25125,nan,nan,81.7121,nan,nan,nan,nan,nan,3.510367,nan,nan,10.984768,nan,nan,0.0,0.0,0.0
249397067,249393592,4325386,2000.08,3.9064062,31.25125,nan,nan,81.7121,nan,nan,nan,nan,nan,3.510367,nan,nan,10.823325,nan,nan,0.0,0.0,0.0
249456672,249453598,4325386,2000.08,3.9064062,31.25125,nan,nan,81.7121,nan,nan,nan,nan,nan,4.146203,nan,nan,10.823325,nan,nan,0.0,0.0,0.0
249461818,249458598,4325386,2000.08,3.9064062,31.25125,nan,nan,81.7121,nan,nan,nan,nan,nan,4.146203,nan,nan,8.191326,nan,nan,0.0,0.0,0.0
249586728,249586110,4325386,2000.08,3.9064062,31.25125,nan,nan,81.7121,nan,nan,nan,nan,nan,4.146203,nan,nan,6.910584,nan,nan,0.0,0.0,0.0
249782234,249778628,4325386,2000.08,3.9064062,31.25125,nan,nan,81.707275,nan,nan,nan,nan,nan,4.146203,nan,nan,10.920116,nan,nan,0.0,0.0,0.0
249846707,249843634,4325386,2000.08,3.9064062,31.25125,nan,nan,81.707275,nan,nan,nan,nan,nan,4.146203,nan,nan,10.15079,nan,nan,0.0,0.0,0.0
249906701,249906140,4325386,2000.08,3.9064062,31.25125,nan,nan,81.45607,nan,nan,nan,nan,nan,4.146203,nan,nan,7.24942,nan,nan,0.0,0.0,0.0
250036802,250033652,4325386,2000.08,3.9064062,31.25125,nan,nan,81.45607,nan,nan,nan,nan,nan,4.146203,nan,nan,8.597788,nan,nan,0.0,0.0,0.0
250101853,250098658,4325386,2000.08,3.9064062,31.25125,nan,nan,81.45607,nan,nan,nan,nan,nan,4.146203,nan,nan,9.932047,nan,nan,0.0,0.0,0.0
250166748,250163669,4325386,2000.08,3.9064062,31.25125,nan,nan,81.47869,nan,nan,nan,nan,nan,4.146203,nan,nan,10.143479,nan,nan,0.0,0.0,0.0
250291817,250291177,4325386,2000.08,3.9064062,31.25125,nan,nan,81.39987,nan,nan,nan,nan,nan,4.146203,nan,nan,10.429769,nan,nan,0.0,0.0,0.0
250356753,250353682,4325386,2000.08,3.9064062,31.25125,nan,nan,81.39987,nan,nan,nan,nan,nan,4.146203,nan,nan,11.277866,nan,nan,0.0,0.0,0.0
250422051,250418688,4325386,2000.08,3.9064062,31.25125,nan,nan,81.39987,nan,nan,nan,nan,nan,4.146203,nan,nan,10.76436,nan,nan,0.0,0.0,0.0
250486828,250483695,4325386,2000.08,3.9064062,31.25125,nan,nan,81.44362,nan,nan,nan,nan,nan,4.146203,nan,nan,9.410813,nan,nan,0.0,0.0,0.0
250676838,250673712,4325386,2000.08,3.9064062,31.25125,nan,nan,81.44362,nan,nan,nan,nan,nan,4.146203,nan,nan,6.7989206,nan,nan,0.0,0.0,0.0
250741978,250738719,4325386,2000.08,3.9064062,31.25125,nan,nan,81.44362,nan,nan,nan,nan,nan,4.146203,nan,nan,5.0808673,nan,nan,0.0,0.0,0.0
250866966,250866232,4325386,2000.08,3.9064062,31.25125,nan,nan,81.39987,nan,nan,nan,nan,nan,4.146203,nan,nan,10.497494,nan,nan,0.0,0.0,0.0
250931926,250931237,4325386,2000.08,3.9064062,31.25125,nan,nan,81.364716,nan,nan,nan,nan,nan,4.146203,nan,nan,11.818716,nan,nan,0.0,0.0,0.0
250997234,250993743,4325386,2000.08,3.9064062,31.25125,nan,nan,81.364716,nan,nan,nan,nan,nan,4.146203,nan,nan,11.578947,nan,nan,0.0,0.0,0.0
251062104,251058749,4325386,2000.08,3.9064062,31.25125,nan,nan,81.37693,nan,nan,nan,nan,nan,4.146203,nan,nan,9.471631,nan,nan,0.0,0.0,0.0
251251968,251251267,4325386,2000.08,3.9064062,31.25125,nan,nan,81.37693,nan,nan,nan,nan,nan,4.146203,nan,nan,10.490299,nan,nan,0.0,0.0,0.0
251316845,251313773,4325386,2000.08,3.9064062,31.25125,nan,nan,81.37693,nan,nan,nan,nan,nan,4.146203,nan,nan,10.981075,nan,nan,0.0,0.0,0.0
251382345,251378779,4325386,2000.08,3.9064062,31.25125,nan,nan,81.37693,nan,nan,nan,nan,nan,4.146203,nan,nan,11.578618,nan,nan,0.0,0.0,0.0
251506880,251506291,4325386,2000.08,3.9064062,31.25125,nan,nan,82.03453,nan,nan,nan,nan,nan,4.146203,nan,nan,7.3935895,nan,nan,0.0,0.0,0.0
251571956,251571297,4325386,2000.08,3.9064062,31.25125,nan,nan,82.77392,nan,nan,nan,nan,nan,4.146203,nan,nan,8.817472,nan,nan,0.0,0.0,0.0
252082093,252078845,4325386,2000.08,3.9064062,31.25125,nan,nan,82.77392,nan,nan,nan,nan,nan,3.8990273,nan,nan,8.817472,nan,nan,0.0,0.0,0.0
252086958,252083846,4325386,2000.08,3.9064062,31.25125,nan,nan,82.77392,nan,nan,nan,nan,nan,3.8990273,nan,nan,8.517267,nan,nan,0.0,0.0,0.0
252342070,252338870,4325386,2000.08,3.9064062,31.25125,nan,nan,83.33102,nan,nan,nan,nan,nan,3.8990273,nan,nan,6.1348753,nan,nan,0.0,0.0,0.0
252466939,252466382,4325386,2000.08,3.9064062,31.25125,nan,nan,82.77392,nan,nan,nan,nan,nan,3.8990273,nan,nan,10.016755,nan,nan,0.0,0.0,0.0
252662113,252658900,4325386,2000.08,3.9064062,31.25125,nan,nan,82.77392,nan,nan,nan,nan,nan,3.8990273,nan,nan,10.165474,nan,nan,0.0,0.0,0.0
252722142,252718906,4325386,2000.08,3.9064062,31.25125,nan,nan,82.77392,nan,nan,nan,nan,nan,3.2530797,nan,nan,10.165474,nan,nan,0.0,0.0,0.0
252727000,252723906,4325386,2000.08,3.9064062,31.25125,nan,nan,82.77392,nan,nan,nan,nan,nan,3.2530797,nan,nan,10.844074,nan,nan,0.0,0.0,0.0
252787083,252786412,4325386,2000.08,3.9064062,31.25125,nan,nan,83.33102,nan,nan,nan,nan,nan,3.2530797,nan,nan,10.001427,nan,nan,0.0,0.0,0.0
252912169,252908924,4325386,2000.08,3.9064062,31.25125,nan,nan,83.33102,nan,nan,nan,nan,nan,3.1764266,nan,nan,10.001427,nan,nan,0.0,0.0,0.0
252982553,252978931,4325386,2000.08,3.9064062,31.25125,nan,nan,83.33102,nan,nan,nan,nan,nan,3.1764266,nan,nan,9.21035,nan,nan,0.0,0.0,0.0
253047016,253043937,4325386,2000.08,3.9064062,31.25125,nan,nan,83.33102,91.02882,nan,nan,nan,nan,3.1764266,nan,nan,8.427257,10.1988325,nan,0.0,0.0,0.0
253107004,253106443,4325386,2000.08,3.9064062,31.25125,nan,nan,83.33102,91.078255,nan,nan,nan,nan,3.1764266,nan,nan,8.427257,10.152103,nan,0.0,0.0,0.0
253302184,253298961,4325386,2000.08,3.9064062,31.25125,nan,nan,nan,91.02882,nan,nan,nan,nan,3.1764266,nan,nan,nan,7.411589,nan,0.0,0.0,0.0
253812583,253811510,4325386,2000.08,3.9064062,31.25125,nan,nan,nan,91.02882,nan,nan,nan,nan,3.1764266,nan,nan,nan,10.614271,nan,0.0,0.0,0.0
253877126,253874015,4325386,2000.08,3.9064062,31.25125,nan,nan,nan,91.02882,nan,nan,nan,nan,3.1764266,nan,nan,nan,10.029625,nan,0.0,0.0,0.0
254262315,254259052,4325386,2000.08,3.9064062,31.25125,nan,nan,nan,90.3643,nan,nan,nan,nan,3.1764266,nan,nan,nan,6.596587,nan,0.0,0.0,0.0
254772224,254771601,4325386,2000.08,3.9064062,31.25125,nan,nan,147.03505,90.3643,nan,nan,nan,nan,3.1764266,nan,nan,10.255395,7.5259867,nan,0.0,0.0,0.0
254837468,254834108,4325386,2000.08,3.9064062,31.25125,nan,nan,147.45381,90.3643,nan,nan,nan,nan,3.1764266,nan,nan,12.767812,7.5259867,nan,0.0,0.0,0.0
254902187,254899113,4325386,2000.08,3.9064062,31.25125,nan,nan,147.45381,nan,nan,nan,nan,nan,3.1764266,nan,nan,13.432714,nan,nan,0.0,0.0,0.0
254967267,254964119,4325386,2000.08,3.9064062,31.25125,nan,nan,147.45381,nan,nan,nan,nan,nan,3.1764266,nan,nan,13.261027,nan,nan,0.0,0.0,0.0
255027928,255026625,4325386,2000.08,3.9064062,31.25125,nan,nan,148.44344,nan,nan,nan,nan,nan,3.1764266,nan,nan,10.854529,nan,nan,0.0,0.0,0.0
255092194,255091632,4325386,2000.08,3.9064062,31.25125,nan,nan,148.44344,nan,nan,nan,nan,nan,3.1764266,nan,nan,6.8354187,nan,nan,0.0,0.0,0.0
255157328,255154137,4325386,2000.08,3.9064062,31.25125,nan,nan,148.44344,nan,nan,nan,nan,nan,3.1764266,nan,nan,10.545092,nan,nan,0.0,0.0,0.0
255222292,255219144,4325386,2000.08,3.9064062,31.25125,nan,nan,147.53331,nan,nan,nan,nan,nan,3.1764266,nan,nan,10.864686,nan,nan,0.0,0.0,0.0
255287322,255284150,4325386,2000.08,3.9064062,31.25125,nan,nan,145.40955,nan,nan,nan,nan,nan,3.1764266,nan,nan,10.9058485,nan,nan,0.0,0.0,0.0
255347320,255346656,4325386,2000.08,3.9064062,31.25125,nan,nan,147.53331,nan,nan,nan,nan,nan,3.1764266,nan,nan,11.047515,nan,nan,0.0,0.0,0.0
255477552,255474168,4325386,2000.08,3.9064062,31.25125,nan,nan,147.53331,nan,nan,nan,nan,nan,3.1764266,nan,nan,10.195803,nan,nan,0.0,0.0,0.0
255542246,255539174,4325386,2000.08,3.9064062,31.25125,nan,nan,147.53331,nan,nan,nan,nan,nan,3.1764266,nan,nan,11.41699,nan,nan,0.0,0.0,0.0
255797727,255794199,4325386,2000.08,3.9064062,31.25125,nan,nan,144.75793,nan,nan,nan,nan,nan,3.1764266,nan,nan,10.342988,nan,nan,0.0,0.0,0.0
255862464,255859207,4325386,2000.08,3.9064062,31.25125,nan,nan,144.75793,nan,nan,nan,nan,nan,3.1764266,nan,nan,11.542969,nan,nan,0.0,0.0,0.0
255927563,255924211,4325386,2000.08,3.9064062,31.25125,nan,nan,144.75793,nan,nan,nan,nan,nan,3.1764266,nan,nan,12.013278,nan,nan,0.0,0.0,0.0
255987407,255986717,4325386,2000.08,3.9064062,31.25125,nan,nan,140.1984,nan,nan,nan,nan,nan,3.1764266,nan,nan,11.392087,nan,nan,0.0,0.0,0.0
256052318,256051723,4325386,2000.08,3.9064062,31.25125,nan,nan,140.1984,nan,nan,nan,nan,nan,3.1764266,nan,nan,12.143356,nan,nan,0.0,0.0,0.0
256112330,256109229,4325386,2000.08,3.9064062,31.25125,nan,nan,140.1984,nan,nan,nan,nan,nan,3.073139,nan,nan,12.143356,nan,nan,0.0,0.0,0.0
256117489,256114229,4325386,2000.08,3.9064062,31.25125,nan,nan,140.1984,nan,nan,nan,nan,nan,3.073139,nan,nan,13.364345,nan,nan,0.0,0.0,0.0
256177440,256174235,4325386,2000.08,3.9064062,31.25125,nan,nan,140.1984,nan,nan,nan,nan,nan,10.033833,nan,nan,13.364345,nan,nan,0.0,0.0,0.0
256247493,256244241,4325386,2000.08,3.9064062,31.25125,nan,nan,140.1984,nan,nan,nan,nan,nan,10.033833,nan,nan,12.7586975,nan,nan,0.0,0.0,0.0
256307383,256306747,4325386,2000.08,3.9064062,31.25125,nan,nan,140.1984,90.3643,nan,nan,nan,nan,10.033833,nan,nan,10.2321415,12.125973,nan,0.0,0.0,0.0
256372438,256371757,4325386,2000.08,3.9064062,31.25125,nan,nan,140.1984,90.3643,nan,nan,nan,nan,10.033833,nan,nan,11.220356,6.4923625,nan,0.0,0.0,0.0
256437500,256434260,4325386,2000.08,3.9064062,31.25125,nan,nan,140.1984,90.64572,nan,nan,nan,nan,10.033833,nan,nan,12.045414,8.064097,nan,0.0,0.0,0.0
256502378,256499266,4325386,2000.08,3.9064062,31.25125,nan,nan,136.38763,90.831696,nan,nan,nan,nan,10.033833,nan,nan,14.062948,8.1679535,nan,0.0,0.0,0.0
256567448,256564272,4325386,2000.08,3.9064062,31.25125,nan,nan,128.65916,90.831696,nan,nan,nan,nan,10.033833,nan,nan,14.767751,8.1679535,nan,0.0,0.0,0.0
256627791,256626778,4325386,2000.08,3.9064062,31.25125,nan,nan,122.02072,nan,nan,nan,nan,nan,10.033833,nan,nan,14.407806,nan,nan,0.0,0.0,0.0
256692348,256691784,4325386,2000.08,3.9064062,31.25125,nan,nan,122.02072,nan,nan,nan,nan,nan,10.033833,nan,nan,14.230923,nan,nan,0.0,0.0,0.0
256757565,256754290,4325386,2000.08,3.9064062,31.25125,nan,nan,121.61504,90.92178,nan,nan,nan,nan,10.033833,nan,nan,8.575159,11.910416,nan,0.0,0.0,0.0
256822411,256819296,4325386,2000.08,3.9064062,31.25125,nan,nan,121.61504,90.92178,nan,nan,nan,nan,10.033833,nan,nan,11.989695,11.910416,nan,0.0,0.0,0.0
256887442,256884303,4325386,2000.08,3.9064062,31.25125,nan,nan,121.61504,91.10202,nan,nan,nan,nan,10.033833,nan,nan,11.555062,12.153211,nan,0.0,0.0,0.0
256947512,256946809,4325386,2000.08,3.9064062,31.25125,nan,nan,124.74845,91.10202,nan,nan,nan,nan,10.033833,nan,nan,14.006185,12.153211,nan,0.0,0.0,0.0
257012764,257011815,4325386,2000.08,3.9064062,31.25125,nan,nan,136.00404,91.66817,nan,nan,nan,nan,10.033833,nan,nan,13.16017,5.937717,nan,0.0,0.0,0.0
257077555,257074321,4325386,2000.08,3.9064062,31.25125,nan,nan,137.95602,91.25443,nan,nan,nan,nan,10.033833,nan,nan,14.306432,7.0811753,nan,0.0,0.0,0.0
257142344,257139327,4325386,2000.08,3.9064062,31.25125,nan,nan,138.7405,91.66817,nan,nan,nan,nan,10.033833,nan,nan,9.8467455,14.4872265,nan,0.0,0.0,0.0
257207559,257204333,4325386,2000.08,3.9064062,31.25125,nan,nan,138.7405,129.4051,nan,nan,nan,nan,10.033833,nan,nan,12.481537,13.14473,nan,0.0,0.0,0.0
257267778,257266839,4325386,2000.08,3.9064062,31.25125,nan,nan,138.7405,129.4051,nan,nan,nan,nan,10.033833,nan,nan,11.486511,13.14473,nan,0.0,0.0,0.0
257332421,257331845,4325386,2000.08,3.9064062,31.25125,nan,nan,138.7405,133.27359,nan,nan,nan,nan,10.033833,nan,nan,11.486511,12.226833,nan,0.0,0.0,0.0
257397966,257394352,4325386,2000.08,3.9064062,31.25125,nan,nan,nan,135.46936,nan,nan,nan,nan,10.033833,nan,nan,nan,11.214972,nan,0.0,0.0,0.0
257462426,257459358,4325386,2000.08,3.9064062,31.25125,nan,nan,nan,135.46936,nan,nan,nan,nan,10.033833,nan,nan,nan,11.541924,nan,0.0,0.0,0.0
257527504,257524364,4325386,2000.08,3.9064062,31.25125,nan,nan,nan,139.90341,nan,nan,nan,nan,10.033833,nan,nan,nan,12.161164,nan,0.0,0.0,0.0
257587562,257586870,4325386,2000.08,3.9064062,31.25125,nan,nan,nan,143.23547,nan,nan,nan,nan,10.033833,nan,nan,nan,14.995209,nan,0.0,0.0,0.0
257652545,257651876,4325386,2000.08,3.9064062,31.25125,nan,nan,144.05432,143.23547,nan,nan,nan,nan,10.033833,nan,nan,17.03426,8.201503,nan,0.0,0.0,0.0
257712470,257709382,4325386,2000.08,3.9064062,31.25125,nan,nan,144.05432,143.23547,nan,nan,nan,nan,10.840242,nan,nan,17.03426,8.201503,nan,0.0,0.0,0.0
257717721,257714382,4325386,2000.08,3.9064062,31.25125,nan,nan,144.05432,143.23547,nan,nan,nan,nan,10.840242,nan,nan,16.552958,8.201503,nan,0.0,0.0,0.0
257777638,257774388,4325386,2000.08,3.9064062,31.764288,nan,nan,144.05432,143.23547,nan,nan,nan,nan,11.127467,nan,nan,16.552958,8.201503,nan,0.0,0.0,0.0
257782490,257779389,4325386,2000.08,3.9064062,31.764288,nan,nan,144.05432,143.23547,nan,nan,nan,nan,11.127467,nan,nan,16.552958,15.588013,nan,0.0,0.0,0.0
257847797,257844395,4325386,2000.08,3.9064062,144.48933,nan,nan,138.74153,143.2434,nan,nan,nan,nan,10.393549,nan,nan,10.557898,14.397413,nan,0.0,0.0,0.0
257907596,257906901,4325386,2000.08,3.9064062,144.48933,nan,nan,138.7405,143.2939,nan,nan,nan,nan,10.393549,nan,nan,12.180962,13.838197,nan,0.0,0.0,0.0
