timestamp,x,y,z,yaw,yawspeed,vx,vy,vz,acceleration[0],acceleration[1],acceleration[2],jerk[0],jerk[1],jerk[2],thrust[0],thrust[1],thrust[2]
217458782,nan,nan,nan,1.0523379,0.0,nan,nan,nan,0.0,0.0,100.0,0.0,0.0,0.0,-0.0,-0.0,-0.001
217468955,nan,nan,nan,1.0523365,0.0,nan,nan,nan,0.0,0.0,100.0,0.0,0.0,0.0,-0.0,-0.0,-0.001
217558812,nan,nan,nan,1.0524944,0.0,nan,nan,nan,0.0,0.0,100.0,0.0,0.0,0.0,-0.0,-0.0,-0.001
217658983,nan,nan,nan,1.0530941,0.0,nan,nan,nan,0.0,0.0,100.0,0.0,0.0,0.0,-0.0,-0.0,-0.001
217758818,nan,nan,nan,1.0537792,0.0,nan,nan,nan,0.0,0.0,100.0,0.0,0.0,0.0,-0.0,-0.0,-0.001
217858849,nan,nan,nan,1.0545813,0.0,nan,nan,nan,0.0,0.0,100.0,0.0,0.0,0.0,-0.0,-0.0,-0.001
217958754,nan,nan,nan,1.0553762,0.0,nan,nan,nan,0.0,0.0,100.0,0.0,0.0,0.0,-0.0,-0.0,-0.001
218058854,nan,nan,nan,1.0560784,0.0,nan,nan,nan,0.0,0.0,100.0,0.0,0.0,0.0,-0.0,-0.0,-0.001
218158794,nan,nan,nan,1.0568066,0.0,nan,nan,nan,0.0,0.0,100.0,0.0,0.0,0.0,-0.0,-0.0,-0.001
218258863,nan,nan,nan,1.0575303,0.0,nan,nan,nan,0.0,0.0,100.0,0.0,0.0,0.0,-0.0,-0.0,-0.001
218358929,13.3311405,0.65471387,4.4344707,1.0581777,0.0,-5.9367158e-06,-0.00077338505,2.3971405,0.05126302,-0.056432527,9.386489,0.0,0.0,0.0,0.00011209438,-0.00012339829,-0.021422265
218458882,13.331294,0.65455985,4.437121,1.0589094,0.0,-0.0028275163,-0.0012724233,2.2154038,-0.035701673,0.020407906,9.106614,0.0,0.0,0.0,-0.0001301558,7.440007e-05,-0.03569191
218558856,13.33145,0.65440357,4.4397697,1.0596993,0.0,-0.006099898,-0.0017936364,2.0336673,-0.039885573,0.018281793,8.789981,0.0,0.0,0.0,-0.0002108789,9.6657626e-05,-0.05183571
218658883,13.331603,0.65425044,4.4420414,1.0604696,0.0,-0.008918416,-0.0018942269,1.8519307,-0.043841913,0.01793297,8.437675,0.0,0.0,0.0,-0.00031227572,0.00012773239,-0.06979828
218758831,13.331752,0.6541006,4.446443,1.0611699,0.0,-0.012461717,-0.0030735563,1.670194,-0.05005862,0.01109332,8.049452,0.0,0.0,0.0,-0.0004590133,0.00010172036,-0.08959218
218858898,13.331897,0.6539538,4.450532,1.0618061,0.0,-0.015495104,-0.0036682175,1.4884553,-0.056753825,0.008306436,7.62226,0.0,0.0,0.0,-0.00064458285,9.434053e-05,-0.1113729
218958878,13.332038,0.6538103,4.4536757,1.0624398,0.0,-0.015717227,-0.0042267805,1.3067186,-0.04978695,0.0072999448,7.1613603,0.0,0.0,0.0,-0.00068495056,0.000100429956,-0.13487226
219059050,13.332176,0.65366983,4.456038,1.063009,0.0,-0.01612424,-0.004554669,1.1249816,-0.05063107,0.006145046,6.6656494,0.0,0.0,0.0,-0.000827017,0.00010037429,-0.16014647
219158866,13.33231,0.65353304,4.4583054,1.0636712,0.0,-0.017242443,-0.0061300686,0.9432454,-0.049297504,-0.0001269211,6.131119,0.0,0.0,0.0,-0.000942096,-2.4255153e-06,-0.18739995
219258993,13.332439,0.6533991,4.45987,1.064702,0.0,-0.018161517,-0.0071043563,0.7615074,-0.045910433,-0.0006030172,5.561532,0.0,0.0,0.0,-0.001013606,-1.33133535e-05,-0.21644078
219358937,13.332567,0.6532687,4.4622307,1.064927,0.0,-0.01978359,-0.0074701793,0.5797712,-0.040455546,-0.008659478,4.956169,0.0,0.0,0.0,-0.0010157691,-0.00021742457,-0.2473057
219458940,13.332691,0.6531415,4.464598,1.0658363,0.0,-0.020937368,-0.0075905714,0.398035,-0.040535267,-0.00850307,4.309315,0.0,0.0,0.0,-0.0011599897,-0.0002433307,-0.28028607
219558947,13.332811,0.6530174,4.46801,1.0661807,0.0,-0.023240035,-0.008084589,0.31339046,-0.04736475,-0.015326118,4.01715,0.0,0.0,0.0,-0.0014284236,-0.00046220422,-0.29518235
219659198,13.332927,0.6528963,4.4706783,1.0665921,0.0,-0.024919467,-0.008104547,0.27937368,-0.038880955,-0.014672408,3.9251056,0.0,0.0,0.0,-0.0011864079,-0.00044771176,-0.29987532
219758909,13.333039,0.6527791,4.4751253,1.066343,0.0,-0.026768217,-0.0053949687,0.24540667,-0.039944876,-0.012023591,3.823087,0.0,0.0,0.0,-0.0012435277,-0.00037430754,-0.3050768
219859016,13.333149,0.6526648,4.477107,1.0663633,0.0,-0.027918616,-0.0031913081,0.21139236,-0.03863629,0.0006233407,3.718698,0.0,0.0,0.0,-0.0012217808,1.9711668e-05,-0.31039917
219958958,13.333254,0.6525539,4.4744887,1.0672873,0.0,-0.029271973,-0.0021851184,0.17738631,-0.042640045,-0.001543263,3.6163213,0.0,0.0,0.0,-0.0013688804,-4.954362e-05,-0.31561893
220058988,13.333355,0.6524463,4.4730988,1.0683554,0.0,-0.029729396,-0.001335305,0.14338592,-0.037644986,-0.007962656,3.4924593,0.0,0.0,0.0,-0.0012351371,-0.00026125583,-0.32193413
220159038,13.333452,0.6523419,4.4731197,1.0681181,0.0,-0.0323377,0.0016205612,0.10937763,-0.03377998,0.0019002575,3.3791163,0.0,0.0,0.0,-0.001124041,6.323176e-05,-0.327713
220259178,13.333548,0.6522407,4.4730897,1.0678287,0.0,-0.033852592,0.004145084,0.07533378,-0.03268261,0.018448152,3.2564182,0.0,0.0,0.0,-0.0011136694,0.0006286261,-0.33396888
220359018,13.333638,0.65214306,4.4730816,1.068954,0.0,-0.03429379,0.00656641,0.041369665,-0.034683824,0.019035641,3.1183639,0.0,0.0,0.0,-0.0012081119,0.00066305214,-0.3410077
220459077,13.333724,0.6520486,4.4722185,1.0701671,0.0,-0.03398045,0.008489758,0.0073531438,-0.046303697,0.024360465,2.9855683,0.0,0.0,0.0,-0.0016394273,0.0008625059,-0.34777838
220558980,13.333806,0.6519576,4.4732375,1.0700809,0.0,-0.036422253,0.009659876,-0.026614856,-0.028320448,0.010785325,2.8107,0.0,0.0,0.0,-0.0010294107,0.0003920323,-0.3566942
220659177,13.333885,0.6518696,4.4747643,1.0700026,0.0,-0.03802342,0.010311591,-0.060691584,-0.027766071,0.019469304,2.659964,0.0,0.0,0.0,-0.0010352272,0.00072589144,-0.36437958
220759092,13.333961,0.65178514,4.475412,1.0696522,0.0,-0.04005125,0.009452577,-0.09465615,-0.057474267,0.03226504,2.5012066,0.0,0.0,0.0,-0.0021831833,0.0012256006,-0.37247396
220859243,13.334032,0.65170383,4.476311,1.0694578,0.0,-0.041599963,0.008826041,-0.12872478,-0.0675217,0.044783983,2.3369594,0.0,0.0,0.0,-0.0026231827,0.0017398343,-0.38084823
220959061,13.334099,0.65162617,4.475959,1.0693219,0.0,-0.044723246,0.008314643,-0.1626507,-0.07165874,0.012829214,2.1555345,0.0,0.0,0.0,-0.0028497593,0.00051019836,-0.39009833
221059417,13.334163,0.6515514,4.474768,1.0686688,0.0,-0.047108367,0.0077530006,-0.19683275,-0.06321331,0.011662042,1.9706663,0.0,0.0,0.0,-0.002577453,0.0004755069,-0.39952397
221159079,13.334223,0.65148056,4.4723597,1.067602,0.0,-0.05107788,0.005358052,-0.23064785,-0.07679088,0.013531802,1.7877097,0.0,0.0,0.0,-0.0032005839,0.000563995,-0.40885216
221259086,13.33428,0.65141284,4.4696164,1.0674946,0.0,-0.053689457,0.0036287352,-0.26463866,-0.077864915,0.015317697,1.6086541,0.0,0.0,0.0,-0.003314882,0.0006521083,-0.41798148
221359122,13.334332,0.65134835,4.464353,1.0678225,0.0,-0.057938267,3.428082e-05,-0.2986662,-0.13482487,0.0072602546,1.0724021,0.0,0.0,0.0,-0.006122525,0.00032969503,-0.44532272
221459142,13.334381,0.6512873,4.459116,1.0670264,0.0,-0.06092866,-0.0023410202,-0.33265865,-0.10346962,0.026833776,0.89613235,0.0,0.0,0.0,-0.0047944603,0.0012433939,-0.45430997
221559076,13.334426,0.6512297,4.45262,1.0659852,0.0,-0.0626317,-0.0035848687,-0.36664966,-0.09896177,0.03376309,0.701977,0.0,0.0,0.0,-0.0046829977,0.0015977126,-0.46420914
221659346,13.334467,0.6511752,4.4470625,1.0650797,0.0,-0.06375777,-0.004069267,-0.40082368,-0.13286638,0.013792508,0.4877135,0.0,0.0,0.0,-0.006438991,0.00066841464,-0.47513354
221759098,13.334505,0.6511245,4.4431844,1.0654505,0.0,-0.06594733,-0.0067070294,-0.43463513,-0.11248405,0.0084909005,0.2417964,0.0,0.0,0.0,-0.005594122,0.0004222744,-0.48767182
221859122,13.334538,0.6510769,4.4389133,1.0675596,0.0,-0.067233756,-0.008654062,-0.4686614,-0.16848183,0.017544195,0.014697701,0.0,0.0,0.0,-0.008576775,0.0008931088,-0.49925062
221959113,13.334568,0.6510328,4.432427,1.0717318,0.0,-0.06848308,-0.007050455,-0.5026624,-0.099873245,-0.029079296,-0.23470744,0.0,0.0,0.0,-0.005211961,-0.0015175251,-0.51196676
222059160,13.334594,0.6509921,4.427972,1.0783249,0.0,-0.06757257,-0.006419816,-0.53664607,-0.07761089,-0.057197817,-0.54070675,0.0,0.0,0.0,-0.0041733906,-0.0030757135,-0.5275684
222159245,13.334616,0.65095484,4.423592,1.0858244,0.0,-0.06747841,-0.0056442106,-0.57076734,-0.16338012,0.02006942,-0.7690102,0.0,0.0,0.0,-0.0089852335,0.0011037355,-0.5392086
222259320,13.334635,0.6509209,4.4206033,1.0919542,9.557977e-05,-0.06875595,-0.00346811,-0.6048154,-0.18921234,0.016258446,-1.0686036,0.0,0.0,0.0,-0.010700073,0.00091942505,-0.5544836
222359168,13.334649,0.65089047,4.4181156,1.099372,0.0,-0.06830933,-0.0029673348,-0.63869077,-0.14684401,-0.036968555,-1.3443997,0.0,0.0,0.0,-0.008511794,-0.0021428773,-0.5685453
222459098,13.33466,0.6508635,4.414668,1.1064756,0.0,-0.06754657,-0.002266101,-0.67256635,-0.11076198,0.025286302,-1.5980688,0.0,0.0,0.0,-0.006565303,0.0014988198,-0.58147883
222559163,13.334666,0.65084,4.412908,1.1124794,0.0,-0.069113195,-0.0010373568,-0.7066537,-0.13727602,0.03313178,-1.8867879,0.0,0.0,0.0,-0.008347582,0.0020147017,-0.5961994
222659191,13.33467,0.6508199,4.4112954,1.1179618,0.013888156,-0.071612075,0.00270215,-0.7407069,-0.27814287,0.15259214,-2.0669515,0.0,0.0,0.0,-0.017169096,0.009419149,-0.6053852
222759233,13.33467,0.65080327,4.411433,1.1234919,0.009528976,-0.076525174,0.0052328296,-0.7742149,-0.20784268,0.1108402,-2.5083668,0.0,0.0,0.0,-0.013306741,0.0070963376,-0.6278911
222859444,13.334665,0.65079015,4.4122143,1.1279979,0.008438332,-0.07879249,0.0083868215,-0.80792826,-0.1800947,0.12512225,-2.8472908,0.0,0.0,0.0,-0.0118495235,0.008232552,-0.6451714
222959197,13.334657,0.65078044,4.4135714,1.129342,0.015027666,-0.0801971,0.013766522,-0.8410446,-0.20337264,0.30642223,-3.2518394,0.0,0.0,0.0,-0.013806651,0.020802528,-0.66579765
223049187,13.334648,0.650775,4.41226,1.1275833,0.016641093,-0.08119929,0.021372188,-0.8673003,-0.21823154,0.34299368,-3.3560576,0.0,0.0,0.0,-0.014934863,0.02347307,-0.6711113
223159215,13.33463,0.65077096,4.3997498,1.1229625,0.0375674,-0.084199645,0.029718176,-0.907742,-0.4150796,0.4253174,-3.671434,0.0,0.0,0.0,-0.02908648,0.029803887,-0.687191
223259310,13.334611,0.6507712,4.3844976,1.1183817,0.0636051,-0.09201143,0.042960763,-0.94116133,-0.583461,0.5704958,-3.868969,0.0,0.0,0.0,-0.041484453,0.040562622,-0.6972625
223359276,13.334588,0.6507748,4.363118,1.1141541,0.06865378,-0.10464653,0.06067284,-0.9741628,-0.73592395,0.713696,-3.860427,0.0,0.0,0.0,-0.052292295,0.050712846,-0.696827
223459287,13.334562,0.65078163,4.332307,1.1114497,0.07861937,-0.120710626,0.081960484,-1.0070786,-0.7163874,0.7372977,-3.9225736,0.0,0.0,0.0,-0.051135566,0.05262814,-0.6999956
223559301,13.334534,0.65079165,4.3050466,1.1082245,0.06952885,-0.135679,0.10071626,-1.0192941,-0.57854426,0.690379,-3.5086503,0.0,0.0,0.0,-0.040051144,0.047793176,-0.67889136
223659270,13.334505,0.65080243,4.272733,1.1036775,0.042535834,-0.14394851,0.117795564,-1.0191689,-0.37041974,0.6501163,-3.5811272,0.0,0.0,0.0,-0.02578297,0.045251183,-0.68258667
223759301,13.334476,0.65081316,4.2409215,1.097789,0.027281014,-0.15041962,0.1284082,-1.0191803,-0.18205631,0.5440912,-3.6342397,0.0,0.0,0.0,-0.0127222715,0.038021624,-0.6852946
223859300,13.334448,0.6508239,4.2065954,1.0915599,0.030034835,-0.14744943,0.13680439,-1.0191531,-0.18562005,0.59653044,-3.687158,0.0,0.0,0.0,-0.013022403,0.041850325,-0.68799275
223959274,13.334419,0.6508346,4.169749,1.084496,0.026159083,-0.1451379,0.1462949,-1.0189996,-0.18811819,0.6481434,-3.8065853,0.0,0.0,0.0,-0.013314168,0.04587271,-0.69408184
224059350,13.334391,0.65084535,4.132474,1.0778601,0.040449366,-0.13914354,0.15694842,-1.0191755,-0.2108469,0.75843394,-3.8983126,0.0,0.0,0.0,-0.015023511,0.054040823,-0.6987586
224159304,13.334362,0.6508561,4.0971694,1.0725652,0.042909473,-0.13809858,0.16955489,-1.0190902,-0.2529959,0.7607836,-3.9999592,0.0,0.0,0.0,-0.018160464,0.054610312,-0.70394117
224259504,13.334333,0.6508668,4.058011,1.067253,0.041121773,-0.13414451,0.18100871,-1.019166,-0.17703104,0.7261466,-4.0382915,0.0,0.0,0.0,-0.012743058,0.052269526,-0.70589554
224359332,13.334305,0.6508775,4.0181475,1.0620358,0.03201489,-0.12698053,0.18675402,-1.0190387,-0.13108411,0.6466881,-3.9488854,0.0,0.0,0.0,-0.00937468,0.046248883,-0.7013371
224459332,13.334276,0.6508882,3.9750345,1.0578119,0.022815501,-0.11577583,0.18822767,-1.0190516,-0.07162446,0.6059988,-3.927859,0.0,0.0,0.0,-0.005114416,0.04327195,-0.70026505
224559438,13.334248,0.6508989,3.931579,1.0547107,0.02443082,-0.10867709,0.18583128,-1.0191681,-0.11910969,0.62500876,-4.0425205,0.0,0.0,0.0,-0.008576265,0.04500256,-0.7061112
224659429,13.334219,0.6509096,3.8840182,1.0527759,0.023014823,-0.10054827,0.1816866,-1.0192177,-0.1552517,0.57865775,-4.1343584,0.0,0.0,0.0,-0.011252691,0.041941293,-0.7107936
224759369,13.33419,0.65092033,3.8278174,1.05183,0.020183252,-0.08584743,0.17822868,-1.0191479,-0.09456126,0.58776444,-4.0900126,0.0,0.0,0.0,-0.006832108,0.042466335,-0.7085326
224859381,13.334162,0.65093106,3.7687123,1.0508473,0.024285039,-0.071945705,0.17352518,-1.0191956,-0.072669625,0.53811854,-4.001328,0.0,0.0,0.0,-0.0052168937,0.038631096,-0.70401096
224959365,13.334133,0.6509417,3.7092798,1.0494746,0.025755072,-0.06330961,0.17046358,-1.0192392,-0.14066401,0.5940036,-3.9356804,0.0,0.0,0.0,-0.010050173,0.042440414,-0.70066386
225059535,13.334105,0.65095246,3.6490986,1.0474553,0.0271021,-0.05576432,0.16644818,-1.0193889,-0.15493408,0.581088,-4.056958,0.0,0.0,0.0,-0.011167515,0.04188432,-0.7068473
225159395,13.334076,0.6509632,3.5892453,1.0457641,0.019984541,-0.04892661,0.15955614,-1.0192549,-0.10854029,0.5897238,-4.0872164,0.0,0.0,0.0,-0.007840598,0.042599734,-0.70839006
225259380,13.334047,0.6509739,3.5266397,1.0438132,0.014286486,-0.040231634,0.15234007,-1.0193365,-0.007574532,0.57033247,-4.125947,0.0,0.0,0.0,-0.00054868474,0.041313805,-0.71036476
225359432,13.334019,0.65098464,3.4639802,1.0407695,0.00563341,-0.027461512,0.14262743,-1.019429,0.089216754,0.5699395,-4.130991,0.0,0.0,0.0,0.006465044,0.041300356,-0.7106219
225459683,13.33399,0.65099543,3.4012356,1.0366837,0.0,-0.0127462335,0.13129693,-1.0196707,0.132742,0.4726394,-4.1220055,0.0,0.0,0.0,0.009612743,0.034227002,-0.7101638
225559418,13.3339615,0.65100616,3.3398652,1.0316975,0.0,-0.003300183,0.11294986,-1.01951,0.16287714,0.40267816,-4.0965166,0.0,0.0,0.0,0.0117735565,0.029107546,-0.7088642
225659443,13.333933,0.65101695,3.2729113,1.026493,0.0,0.008088281,0.094610505,-1.0196242,0.13405983,0.374394,-4.092999,0.0,0.0,0.0,0.00968784,0.0270556,-0.70868486
225759507,13.333904,0.65102786,3.204679,1.0214803,0.0,0.0174147,0.07796988,-1.0197141,0.11965182,0.36888137,-4.1271276,0.0,0.0,0.0,0.00866808,0.026723316,-0.71042496
225859441,13.333875,0.6510388,3.1339207,1.0170231,0.0,0.027144276,0.062231287,-1.0199461,0.12185951,0.3723654,-4.168991,0.0,0.0,0.0,0.008854162,0.02705561,-0.7125594
225959446,13.333844,0.65104985,3.0637236,1.0134093,0.0,0.044328365,0.044430885,-1.019923,0.20189281,0.36872402,-4.185933,0.0,0.0,0.0,0.014687821,0.026824892,-0.7134232
226059527,13.333814,0.6510609,2.991557,1.0100466,0.0,0.06133851,0.027988624,-1.020071,0.2781369,0.30276254,-4.1562977,0.0,0.0,0.0,0.020191247,0.021978937,-0.7119122
226159460,13.333783,0.6510719,2.9134552,1.0065248,0.0,0.080525704,0.015057655,-1.019959,0.28299,0.28349748,-4.1024375,0.0,0.0,0.0,0.020464098,0.020500796,-0.7091661
226259463,13.333753,0.65108293,2.8331006,1.0033625,0.0,0.097951666,0.002518701,-1.020004,0.29983914,0.28545034,-4.0208883,0.0,0.0,0.0,0.021556119,0.020521676,-0.70500827
226359536,13.333722,0.65109396,2.7508965,1.000828,0.0,0.11488561,-0.015680537,-1.0200689,0.2639841,0.28427443,-3.9776697,0.0,0.0,0.0,0.018919325,0.0203735,-0.7028047
226459522,13.333691,0.651105,2.6645498,0.9988243,0.0,0.12875913,-0.031346787,-1.0199699,0.2909697,0.26444152,-3.9763432,0.0,0.0,0.0,0.02085195,0.018950842,-0.7027371
226559431,13.33366,0.651116,2.5773,0.99752665,0.0,0.13904494,-0.047132567,-1.019944,0.2792849,0.295215,-3.9780428,0.0,0.0,0.0,0.020016437,0.021158155,-0.70282376
226659536,13.333629,0.65112704,2.4914932,0.99622136,0.0,0.14684923,-0.059832606,-1.0200441,0.24985847,0.28694984,-3.9969044,0.0,0.0,0.0,0.017931735,0.020593692,-0.7037854
226759548,13.333599,0.65113807,2.4047675,0.9943253,0.0,0.15491806,-0.07509654,-1.0199449,0.25837475,0.25692272,-4.0013714,0.0,0.0,0.0,0.018549515,0.018445268,-0.70401317
226859655,13.333567,0.6511491,2.3193073,0.99152815,0.0,0.15969999,-0.08787382,-1.0200961,0.20351934,0.27728978,-3.9584053,0.0,0.0,0.0,0.014564188,0.019843325,-0.7018225
226959517,13.333537,0.6511601,2.234123,0.98816293,0.0,0.16136709,-0.10303447,-1.019978,0.23184238,0.24864694,-3.9555387,0.0,0.0,0.0,0.016588379,0.01779075,-0.70167637
227059681,13.333506,0.65117115,2.1477926,0.98449504,0.0,0.16118142,-0.115547806,-1.0200889,0.22900647,0.26672393,-3.984668,0.0,0.0,0.0,0.01641991,0.019124277,-0.70316154
227159558,13.333475,0.6511822,2.0571163,0.98126477,0.0,0.16137177,-0.13408338,-1.019995,0.18559767,0.2428348,-4.008201,0.0,0.0,0.0,0.013330239,0.0174412,-0.7043614
227259544,13.333444,0.6511932,1.964373,0.9787737,0.0,0.16015868,-0.14753895,-1.0200009,0.21361294,0.19036375,-4.024207,0.0,0.0,0.0,0.015360953,0.013689099,-0.7051775
227359644,13.333412,0.6512042,1.8699137,0.9773103,0.0,0.16225609,-0.15791737,-1.0200789,0.22499779,0.21033962,-3.9900355,0.0,0.0,0.0,0.016138425,0.015087037,-0.7034352
227459562,13.333382,0.65121526,1.7700169,0.97699696,0.0,0.16221263,-0.16474842,-1.019947,0.2147858,0.2113878,-0.06787279,0.0,0.0,0.0,0.015314769,0.015072482,-0.6992879
227559592,13.333351,0.6512263,1.6725984,0.9781088,0.0,0.16267468,-0.167714,-1.019948,0.21778221,0.2303175,-0.06856045,0.0,0.0,0.0,0.01552932,0.016423168,-0.6993291
227659732,13.33332,0.6512373,1.5788261,0.98068845,0.0,0.16126947,-0.16922571,-1.015079,0.20578696,0.19957675,-0.054259807,0.0,0.0,0.0,0.014656053,0.014213765,-0.698455
227759598,13.33329,0.65124834,1.4773899,0.9845404,0.0,0.15690081,-0.17380486,-1.019963,0.22150064,0.17369178,-0.0902082,0.0,0.0,0.0,0.01582095,0.012406145,-0.70049286
227859603,13.33326,0.65125936,1.3808753,0.98946804,0.0,0.15230109,-0.17636459,-1.019979,0.22777769,0.16442631,-0.017139465,0.0,0.0,0.0,0.016165381,0.011669333,-0.69600666
227959634,13.333228,0.6512704,1.2863448,0.9950738,0.0,0.13712215,-0.18520926,-1.020024,0.16197443,0.14039086,0.04736969,0.0,0.0,0.0,0.011419503,0.009897822,-0.6914059
228059897,13.333199,0.6512815,1.1912228,1.0006669,0.0,0.12239074,-0.19175348,-1.020247,0.13034481,0.11350449,0.065633655,0.0,0.0,0.0,0.00916973,0.007985018,-0.689911
228159665,13.333169,0.6512925,1.1007028,1.0065914,0.0,0.10231131,-0.19928749,-1.0200349,0.057687,0.11208462,0.035654634,0.0,0.0,0.0,0.004071214,0.007910281,-0.6918276
228259822,13.333138,0.6513035,1.0080456,1.0128686,0.0,0.08423501,-0.20503171,-1.020184,0.025275955,0.109962046,0.009454817,0.0,0.0,0.0,0.0017905196,0.0077895853,-0.694482
228359645,13.333108,0.65131456,0.91227514,1.0192269,0.0,0.06627018,-0.21858273,-1.019927,0.021759069,0.08117105,-0.0010074079,0.0,0.0,0.0,0.001545279,0.0057645813,-0.695868
228459698,13.333077,0.6513256,0.81804746,1.0255773,0.0,0.05156596,-0.2276319,-1.020014,0.041247837,0.031155026,-0.05557707,0.0,0.0,0.0,0.0029401667,0.0022207461,-0.6991221
228559696,13.333045,0.6513366,0.7199442,1.0317788,0.0,0.036273774,-0.23235494,-1.020018,0.028058983,0.038711682,-0.043968186,0.0,0.0,0.0,0.0019950967,0.0027525423,-0.6979676
228659885,13.3330145,0.6513477,0.61721385,1.0373996,0.0,0.023087965,-0.23396154,-1.020194,0.001417622,0.04358688,0.030405074,0.0,0.0,0.0,0.000100577985,0.003092419,-0.6934439
228759693,13.332985,0.6513587,0.5072639,1.0425644,0.0,0.0118454555,-0.23096862,-1.01999,-0.06186057,0.07174585,0.04242772,0.0,0.0,0.0,-0.004364136,0.005061523,-0.6917211
228859912,13.332955,0.65136975,0.39589846,1.0472654,0.0,0.0011627874,-0.22631378,-1.020222,-0.12113498,0.1215922,0.026657566,0.0,0.0,0.0,-0.008543362,0.008575609,-0.69163424
228959699,13.332924,0.6513808,0.28782383,1.0511507,0.0,-0.013185436,-0.22341648,-1.020003,-0.15849432,0.11851047,-0.0038476884,0.0,0.0,0.0,-0.011198378,0.0083733285,-0.69300824
229059753,13.332892,0.6513918,0.17778781,1.0539011,0.0010164268,-0.026024286,-0.21914583,-1.020017,-0.17612024,0.10033705,0.004967004,0.0,0.0,0.0,-0.0124312695,0.00708219,-0.69225335
229159769,13.332861,0.65140283,0.069147564,1.0553265,0.0040637124,-0.04271269,-0.21680076,-1.020059,-0.22086611,0.07299719,0.030858487,0.0,0.0,0.0,-0.01555621,0.0051413937,-0.6907734
229259868,13.33283,0.65141386,-0.04009188,1.0555667,0.012647014,-0.05820158,-0.21341597,-1.020101,-0.20560674,0.10535507,0.039286315,0.0,0.0,0.0,-0.014467265,0.00741318,-0.690083
229359730,13.332801,0.6514249,-0.14870927,1.0554376,0.01712587,-0.075197145,-0.2123185,-1.0198209,-0.26402262,0.1134077,0.03118585,0.0,0.0,0.0,-0.018583443,0.007982292,-0.6902294
229459744,13.332772,0.6514353,-0.25438112,1.054984,0.017150464,-0.08962604,-0.20787685,-1.0190574,-0.302756,0.16153893,0.035468847,0.0,0.0,0.0,-0.02132236,0.011376788,-0.6906254
229559749,13.332744,0.6514458,-0.3602294,1.0545034,0.022582313,-0.10030776,-0.19822413,-1.0190533,-0.32729104,0.15752782,0.021035016,0.0,0.0,0.0,-0.023095848,0.011116219,-0.69203365
229660182,13.332715,0.6514563,-0.46782964,1.0538219,0.019700816,-0.1096749,-0.18679908,-1.0194747,-0.3250663,0.21196696,0.043549463,0.0,0.0,0.0,-0.022872174,0.014914327,-0.6900308
229759809,13.332686,0.6514667,-0.5753293,1.0527571,0.02427815,-0.119950764,-0.16999967,-1.0191157,-0.39068112,0.29715472,0.07848631,0.0,0.0,0.0,-0.027424803,0.02085949,-0.68839014
229859838,13.332658,0.65147734,-0.6836022,1.0515689,0.032558568,-0.12895097,-0.15273622,-1.0192087,-0.38674152,0.31535792,0.051493347,0.0,0.0,0.0,-0.027191188,0.022172319,-0.6895065
229959890,13.332629,0.651488,-0.7803207,1.0504847,0.03607875,-0.14546362,-0.13694003,-1.0192418,-0.42518768,0.36172667,0.062218025,0.0,0.0,0.0,-0.029855264,0.025399243,-0.688585
230059963,13.332601,0.65149873,-0.88422817,1.0492203,0.03746906,-0.15973756,-0.1212674,-1.0192128,-0.4125704,0.36208087,0.031203553,0.0,0.0,0.0,-0.029053098,0.025497638,-0.6905846
230159830,13.332572,0.65150934,-0.9820397,1.0481745,0.03484156,-0.17674942,-0.11061781,-1.0190455,-0.44473177,0.3738521,0.032235734,0.0,0.0,0.0,-0.031274766,0.02629031,-0.68962103
230259864,13.332543,0.65152,-1.0809991,1.047135,0.038845234,-0.18913254,-0.099957064,-1.0191393,-0.4133079,0.35588378,0.049581647,0.0,0.0,0.0,-0.029012894,0.024981905,-0.688393
230359816,13.332515,0.65153056,-1.1800565,1.0456622,0.037695907,-0.204346,-0.08234375,-1.0190238,-0.43500486,0.40136847,0.047393635,0.0,0.0,0.0,-0.03054939,0.028187182,-0.6887039
230459836,13.332486,0.65154123,-1.2795466,1.0442607,0.04024151,-0.21417604,-0.06642163,-1.0190693,-0.4021011,0.41218314,0.023238122,0.0,0.0,0.0,-0.028315835,0.029025808,-0.69056934
230559858,13.332458,0.6515517,-1.3782746,1.0428923,0.037692256,-0.22096378,-0.049745224,-1.0190333,-0.4244917,0.4565342,-0.016512662,0.0,0.0,0.0,-0.030015877,0.032281604,-0.6934225
230660027,13.332429,0.65156233,-1.478541,1.0415038,0.040590145,-0.22456425,-0.035003666,-1.0191262,-0.39661705,0.45417455,0.028947063,0.0,0.0,0.0,-0.02793254,0.03198614,-0.69066525
230759881,13.3324,0.6515728,-1.57902,1.0401573,0.039075255,-0.2311753,-0.026106719,-1.0190264,-0.37690264,0.4404694,0.07174228,0.0,0.0,0.0,-0.026421478,0.03087761,-0.68746793
230860036,13.332372,0.6515833,-1.6811318,1.0391322,0.037108496,-0.23440523,-0.019242462,-1.0190947,-0.41583964,0.4276785,0.11236789,0.0,0.0,0.0,-0.028997129,0.029822666,-0.68383336
230959875,13.332343,0.6515938,-1.7833661,1.0381347,0.037125207,-0.24015474,-0.017877843,-1.0189133,-0.3648643,0.40552285,0.12506442,0.0,0.0,0.0,-0.025419325,0.02825192,-0.68319964
231059876,13.3323145,0.65160424,-1.8860588,1.0369886,0.034562692,-0.24097474,-0.016803823,-1.01895,-0.35087317,0.4168988,0.107508644,0.0,0.0,0.0,-0.02450221,0.029112918,-0.6848347
231159887,13.332286,0.65161467,-1.991155,1.0357001,0.033041097,-0.23642495,-0.014300713,-1.0189564,-0.30011827,0.41577035,0.059585534,0.0,0.0,0.0,-0.021065915,0.029183773,-0.6883348
231259942,13.332257,0.65162516,-2.0936406,1.0339909,0.029526787,-0.22816874,-0.0113272285,-1.0190108,-0.24582413,0.41485623,0.0020380914,0.0,0.0,0.0,-0.017346228,0.029273735,-0.6920012
231359930,13.332229,0.65163577,-2.1987123,1.0322175,0.025650749,-0.21158831,-0.006005924,-1.0190988,-0.19399267,0.42617166,0.007374607,0.0,0.0,0.0,-0.013684422,0.03006254,-0.6917927
231459960,13.3322,0.65164644,-2.302954,1.0305879,0.019491872,-0.19367152,-0.00086870725,-1.019227,-0.15840517,0.41607803,0.049684122,0.0,0.0,0.0,-0.01111667,0.02919982,-0.6882332
231559985,13.332171,0.6516571,-2.4094965,1.0290107,0.0142433625,-0.17208822,0.005867813,-1.0192957,-0.13332617,0.43212432,0.1257771,0.0,0.0,0.0,-0.009280683,0.030079681,-0.68263084
231660086,13.332143,0.65166783,-2.5183156,1.027129,0.0132796,-0.15117806,0.01172003,-1.0194173,-0.08394895,0.43079847,0.16481471,0.0,0.0,0.0,-0.0058173975,0.029852977,-0.6795629
231759959,13.332114,0.65167856,-2.6217735,1.0251058,0.014404157,-0.13758741,0.018939273,-1.0193157,-0.094002895,0.43938896,0.092161514,0.0,0.0,0.0,-0.006556502,0.030646447,-0.684018
231859953,13.332086,0.6516893,-2.7235942,1.0229596,0.014426479,-0.12386627,0.025185924,-1.019479,-0.108972475,0.46290654,0.0038793609,0.0,0.0,0.0,-0.007663621,0.032554463,-0.68966806
231959955,13.332057,0.6517001,-2.824498,1.0210059,0.019166527,-0.11294915,0.037122138,-1.0194366,-0.08521935,0.48770288,-0.026124954,0.0,0.0,0.0,-0.006011772,0.03440484,-0.691821
232060140,13.332028,0.6517109,-2.9252062,1.0190088,0.016645325,-0.101396024,0.047991484,-1.0196853,-0.09254936,0.50639707,0.0079208985,0.0,0.0,0.0,-0.006505634,0.03559651,-0.6893403
232160070,13.332,0.6517218,-3.0269115,1.0165001,0.015318384,-0.086237065,0.0631857,-1.0195765,-0.035224702,0.5150784,0.070666045,0.0,0.0,0.0,-0.0024588895,0.03595548,-0.68457186
232260017,13.331971,0.6517327,-3.1306102,1.0124404,0.011316745,-0.07105819,0.07438489,-1.0195985,0.007951111,0.5121906,0.09280087,0.0,0.0,0.0,0.00055356487,0.035659257,-0.6827603
232360076,13.331943,0.65174353,-3.234932,1.0069506,0.011296006,-0.05795223,0.086725175,-1.0195472,0.016763804,0.54411274,0.10577665,0.0,0.0,0.0,0.0011654813,0.037828717,-0.6817956
232460008,13.331914,0.6517544,-3.340812,1.0005016,0.013424035,-0.045134366,0.095363304,-1.0194776,-0.006304661,0.5506422,0.077301726,0.0,0.0,0.0,-0.0004393986,0.038376592,-0.6834898
232560015,13.331885,0.6517652,-3.4467514,0.9935657,0.013518184,-0.035152264,0.10600481,-1.0193977,-0.020589147,0.59419894,0.07996076,0.0,0.0,0.0,-0.0014349137,0.041411344,-0.683458
232660018,13.331857,0.65177596,-3.5519457,0.98636043,0.014231415,-0.026049905,0.11394896,-1.0195057,-0.010337846,0.59964633,0.07457129,0.0,0.0,0.0,-0.0007207822,0.041808944,-0.68375826
232760102,13.331828,0.65178674,-3.65613,0.9787903,0.011726452,-0.013760243,0.12401545,-1.01945,0.058203224,0.58891165,0.061927043,0.0,0.0,0.0,0.0040616947,0.04109702,-0.6843536
232860060,13.3317995,0.6517975,-3.7593486,0.9708774,0.010664841,-0.001998765,0.13003929,-1.0194781,0.09940692,0.56863636,0.06513033,0.0,0.0,0.0,0.006931965,0.039652847,-0.6838504
232960066,13.331771,0.6518082,-3.866021,0.96306324,0.0065862816,0.0132045485,0.13733254,-1.0193224,0.14674798,0.56234807,0.08091719,0.0,0.0,0.0,0.010215198,0.039145317,-0.68264735
233060171,13.331742,0.65181893,-3.9713476,0.9554396,0.0038322117,0.02724548,0.1405114,-1.0195053,0.1358659,0.55368507,0.04575155,0.0,0.0,0.0,0.009494636,0.03869285,-0.6853158
233160107,13.331714,0.65182966,-4.0821543,0.9480626,0.0038404781,0.043921012,0.14974846,-1.0192337,0.15129448,0.5817806,0.044983953,0.0,0.0,0.0,0.010578102,0.04067653,-0.6856491
233260222,13.331683,0.65184057,-4.189024,0.94103736,0.004172055,0.057923887,0.15534502,-1.0200377,0.17486832,0.5770174,0.022348031,0.0,0.0,0.0,0.012252994,0.040431514,-0.6871468
233360136,13.33165,0.6518518,-4.2945347,0.93435884,0.005662147,0.0684089,0.16279013,-1.0198956,0.17216294,0.5550346,0.013993874,0.0,0.0,0.0,0.012073034,0.038922146,-0.68771327
233460117,13.331616,0.6518629,-4.3971734,0.9279121,0.0062211026,0.07698233,0.16563268,-1.0199218,0.1436583,0.5351574,0.016718987,0.0,0.0,0.0,0.010070308,0.037514016,-0.68745345
233560124,13.331583,0.6518741,-4.4928913,0.9218682,0.0026307665,0.08749368,0.1637154,-1.0198517,0.17924821,0.5045792,0.021750402,0.0,0.0,0.0,0.012559173,0.035353754,-0.6871203
233660159,13.33155,0.65188515,-4.585071,0.9160027,0.0,0.095990166,0.15803169,-1.0200329,0.16655019,0.4797245,0.022284374,0.0,0.0,0.0,0.01166838,0.033609133,-0.687052
233760135,13.331517,0.65189624,-4.670653,0.9101529,0.0,0.10925491,0.154296,-1.0198021,0.2030433,0.48095515,-0.0018934608,0.0,0.0,0.0,0.014261979,0.033782806,-0.68881065
233860127,13.331484,0.65190727,-4.754239,0.9045746,0.0,0.119510874,0.14748195,-1.0199738,0.21150112,0.47075367,-0.01748472,0.0,0.0,0.0,0.014884868,0.033130348,-0.6901787
233960174,13.33145,0.6519183,-4.836148,0.8990037,0.0,0.12675174,0.14420462,-1.0199699,0.19192936,0.45541397,-0.034642294,0.0,0.0,0.0,0.013529808,0.03210381,-0.6913167
234060158,13.331418,0.6519293,-4.919978,0.89351094,0.0,0.13110158,0.13788094,-1.019918,0.15302752,0.44109723,-0.024640866,0.0,0.0,0.0,0.010775916,0.031061256,-0.69054335
234160156,13.331386,0.65194035,-5.0024366,0.88819754,0.0,0.13145237,0.12976989,-1.0198941,0.12157631,0.4295946,-0.018235598,0.0,0.0,0.0,0.008554257,0.030226799,-0.6900294
234260358,13.331352,0.65195143,-5.085272,0.88314486,0.0,0.13017415,0.11954332,-1.020194,0.12909274,0.3845224,-0.022288416,0.0,0.0,0.0,0.009086166,0.027064528,-0.690223
234360170,13.331322,0.6519625,-5.161182,0.87832844,0.0,0.12969324,0.1075869,-1.0198522,0.13391753,0.3489039,-0.03306781,0.0,0.0,0.0,0.009437023,0.02458688,-0.69107777
234460198,13.331288,0.65197355,-5.244279,0.8738667,0.0,0.12764588,0.09452179,-1.020009,0.104828864,0.33856148,-0.052055955,0.0,0.0,0.0,0.007400848,0.023902217,-0.69234496
234560214,13.331256,0.6519846,-5.325574,0.8697621,0.0,0.122646816,0.083059326,-1.0199919,0.07372248,0.3601837,-0.059440568,0.0,0.0,0.0,0.005209269,0.025450766,-0.6929359
234660377,13.331223,0.6519956,-5.4050317,0.86603034,0.0,0.11628332,0.07202096,-1.0200591,0.033067122,0.34127688,-0.08238262,0.0,0.0,0.0,0.0023419291,0.024170421,-0.6945835
234760240,13.331193,0.6520067,-5.482616,0.8628539,0.00022910535,0.10821656,0.061948664,-1.0199766,0.005194694,0.32504258,-0.0870804,0.0,0.0,0.0,0.00036808787,0.023032008,-0.69490194
234860401,13.3311615,0.6520178,-5.5669336,0.86021733,0.0013881177,0.099733904,0.05132259,-1.0201821,0.007846187,0.29685563,-0.05693949,0.0,0.0,0.0,0.00055427395,0.020970613,-0.69275546
234960240,13.331129,0.6520296,-5.667113,0.8579643,4.3176115e-05,0.0931754,0.03995274,-1.0500221,0.021011764,0.27565938,-0.47167468,0.0,0.0,0.0,0.001546546,0.020289583,-0.7217915
235060395,13.331093,0.652043,-5.7708235,0.8559895,0.0014186557,0.08648473,0.02796808,-1.1186979,0.033942405,0.27303776,-0.92898536,0.0,0.0,0.0,0.0026106015,0.021000067,-0.75427294
235160276,13.331052,0.6520579,-5.881418,0.8542169,0.0,0.07880304,0.010974773,-1.2295185,0.011883627,0.25300026,-1.3065931,0.0,0.0,0.0,0.00094577996,0.020135485,-0.7805369
235260420,13.331007,0.6520744,-6.003579,0.852579,0.0018097088,0.07163038,-0.003863529,-1.3748003,-0.03253547,0.27326974,-1.512734,0.0,0.0,0.0,-0.002636756,0.022146465,-0.79476714
235360262,13.330957,0.6520925,-6.1405234,0.8510636,0.003713498,0.067136884,-0.016116356,-1.5561908,-0.028920136,0.2778097,-1.731071,0.0,0.0,0.0,-0.0023861947,0.022922024,-0.80913323
235460466,13.330903,0.65211225,-6.2972116,0.8495776,0.006337328,0.06214402,-0.025886655,-1.769345,-0.028826533,0.30030152,-1.9977287,0.0,0.0,0.0,-0.0024302735,0.025317468,-0.82671684
235560328,13.330844,0.6521334,-6.4765472,0.8479013,0.0066254605,0.058069985,-0.03401309,-2.0218682,-0.02284758,0.33473116,-2.3634322,0.0,0.0,0.0,-0.0019832365,0.029055638,-0.8512985
235660292,13.330781,0.6521562,-6.6827183,0.845764,0.011333043,0.053535663,-0.038906306,-2.2856333,-0.043064035,0.37907156,-2.1028538,0.0,0.0,0.0,-0.003654501,0.032168776,-0.8322583
235760330,13.330713,0.65218055,-6.91439,0.84282637,0.014134517,0.043565363,-0.047714695,-2.5252552,-0.050618324,0.36458087,-1.6337953,0.0,0.0,0.0,-0.004125934,0.029717235,-0.7993163
235860450,13.330641,0.6522066,-7.167663,0.8393874,0.016659787,0.033587776,-0.053262297,-2.722405,-0.090693615,0.3609345,-1.3251517,0.0,0.0,0.0,-0.0071920473,0.02862228,-0.77766424
235960386,13.3305645,0.65223414,-7.437761,0.83580375,0.02063665,0.021788338,-0.057254177,-2.8907244,-0.14014056,0.365839,-1.2163622,0.0,0.0,0.0,-0.011004822,0.028728252,-0.77009594
236060490,13.330483,0.65226334,-7.7218184,0.8329343,0.023197925,0.00948326,-0.05921689,-3.0,-0.18931517,0.4018803,-1.0792803,0.0,0.0,0.0,-0.014683962,0.031171277,-0.7606285
236160444,13.330399,0.6522941,-8.014746,0.8313028,0.027004702,-0.005836877,-0.062195297,-3.0,-0.21685563,0.417314,-0.63506866,0.0,0.0,0.0,-0.016136933,0.03105369,-0.7297507
236260555,13.330309,0.6523264,-8.3134985,0.8308407,0.026333822,-0.019403208,-0.06275656,-3.0,-0.1979082,0.40025872,-0.45953345,0.0,0.0,0.0,-0.014482205,0.029289488,-0.7176312
236360487,13.330217,0.65235937,-8.609779,0.8312133,0.025281897,-0.031645756,-0.06284642,-3.0,-0.23194914,0.41402707,-0.5816101,0.0,0.0,0.0,-0.01718376,0.030672856,-0.72651047
236460405,13.330127,0.6523923,-8.904961,0.83202237,0.027530802,-0.04164805,-0.061322153,-3.0,-0.21190608,0.41899928,-0.85201675,0.0,0.0,0.0,-0.016114049,0.031862114,-0.74571806
236560433,13.330036,0.6524252,-9.200027,0.8333996,0.029110016,-0.053266622,-0.0637241,-3.0,-0.22143343,0.40824306,-0.97782373,0.0,0.0,0.0,-0.017040147,0.03141586,-0.7546742
236660596,13.329946,0.65245813,-9.495009,0.83543813,0.028335331,-0.06324263,-0.06464216,-3.0,-0.24844405,0.3904666,-1.0115882,0.0,0.0,0.0,-0.019190112,0.030160101,-0.7574727
236760522,13.329855,0.6524909,-9.788627,0.8385732,0.028678587,-0.07643126,-0.069056205,-3.0,-0.24304107,0.37455365,-0.951319,0.0,0.0,0.0,-0.01867471,0.028779833,-0.753508
236860554,13.329764,0.6525236,-10.081881,0.8424955,0.02201896,-0.086115524,-0.07196687,-3.0,-0.17567702,0.29937744,-0.9657639,0.0,0.0,0.0,-0.013519048,0.023038289,-0.7546248
236960503,13.329674,0.6525562,-10.374446,0.84706986,0.02201789,-0.09306183,-0.0722087,-3.0,-0.193825,0.34600493,-0.979265,0.0,0.0,0.0,-0.014941266,0.026672266,-0.75592697
237060697,13.329583,0.65258896,-10.667522,0.8518754,0.018777369,-0.096203886,-0.07139451,-3.0,-0.15716647,0.40250418,-1.0565337,0.0,0.0,0.0,-0.012204277,0.03125522,-0.76151603
237160557,13.329493,0.65262157,-10.9595175,0.8563385,0.016658707,-0.098828636,-0.07003445,-3.0,-0.16247474,0.39014667,-1.1004928,0.0,0.0,0.0,-0.012671559,0.030427909,-0.7648318
237260476,13.329402,0.65265423,-11.251648,0.86086786,0.026988877,-0.099947624,-0.06661196,-3.0,-0.2027517,0.45682007,-1.0181122,0.0,0.0,0.0,-0.015696226,0.035365183,-0.7591952
237360644,13.329311,0.65268695,-11.5446615,0.8652246,0.027376538,-0.10282967,-0.060983732,-3.0,-0.21930937,0.45277104,-1.0414379,0.0,0.0,0.0,-0.017015431,0.035128884,-0.7608698
237460608,13.329221,0.6527196,-11.837125,0.86894286,0.025575278,-0.104277536,-0.054568358,-3.0,-0.18793741,0.43845803,-1.0509219,0.0,0.0,0.0,-0.014597567,0.034056127,-0.761719
237560584,13.32913,0.65275234,-12.12975,0.87123775,0.023414372,-0.104560316,-0.04815203,-3.0,-0.15479974,0.41658056,-1.0752501,0.0,0.0,0.0,-0.012053993,0.03243842,-0.7636038
237660479,13.32904,0.652785,-12.4223995,0.87185556,0.007714413,-0.10105333,-0.043333355,-3.0,-0.06765289,0.37454897,-1.1337984,0.0,0.0,0.0,-0.0052980036,0.029331515,-0.76793486
237760624,13.328949,0.6528178,-12.716158,0.8713252,0.013590086,-0.09685508,-0.0360501,-3.0,-0.05519282,0.36439782,-1.2303896,0.0,0.0,0.0,-0.0043614614,0.028795542,-0.7749312
237860678,13.328858,0.65285057,-13.0101385,0.8697302,0.011502327,-0.091019735,-0.03081647,-3.0,-0.09750643,0.37889212,-1.2863901,0.0,0.0,0.0,-0.0077471873,0.030104153,-0.7791559
237960747,13.328768,0.6528834,-13.304434,0.86770475,0.023518493,-0.0903585,-0.023412943,-3.0,-0.14361465,0.4158333,-1.326692,0.0,0.0,0.0,-0.01145641,0.033171806,-0.78228563
238060534,13.328677,0.6529162,-13.598098,0.86570024,0.019572938,-0.08809006,-0.01849455,-3.0,-0.086113796,0.3686472,-1.4290252,0.0,0.0,0.0,-0.006934996,0.029688237,-0.7897908
238160749,13.328587,0.6529491,-13.893155,0.86407524,0.016726783,-0.08738446,-0.013150735,-3.0,-0.12323326,0.41186082,-1.5508823,0.0,0.0,0.0,-0.010037633,0.03354701,-0.79876524
238260818,13.328496,0.65298194,-14.187941,0.8622451,0.02235909,-0.08508523,-0.008253629,-3.0,-0.11136441,0.45313597,-1.65906,0.0,0.0,0.0,-0.009163815,0.037287083,-0.80695754
238360722,13.328405,0.6530148,-14.482399,0.85988194,0.020525998,-0.08290379,-0.00326253,-3.0,-0.123477705,0.46726435,-1.5984092,0.0,0.0,0.0,-0.010112307,0.038266994,-0.8031348
238460553,13.328315,0.65304756,-14.776865,0.8576723,0.017939443,-0.078875944,0.00050441455,-3.0,-0.09043966,0.4291332,-1.5484576,0.0,0.0,0.0,-0.007377756,0.03500721,-0.7999822
238560751,13.328224,0.6530805,-15.072546,0.856362,0.0156791,-0.078044444,0.0022619842,-3.0,-0.122088894,0.4528708,-1.5686612,0.0,0.0,0.0,-0.009980054,0.03701954,-0.8016315
238660575,13.328134,0.6531133,-15.367241,0.8562086,0.022370854,-0.07568182,0.0029905203,-3.0,-0.15425444,0.4697114,-1.6016563,0.0,0.0,0.0,-0.012649407,0.03851799,-0.8041919
238760671,13.328043,0.6531462,-15.66282,0.8566729,0.025956629,-0.07519189,0.0025682198,-3.0,-0.15194023,0.45567057,-1.6335951,0.0,0.0,0.0,-0.012500637,0.03748956,-0.80684435
238860663,13.327952,0.65317905,-15.958107,0.8575089,0.023393719,-0.07351331,0.0023216854,-3.0,-0.13428515,0.47678363,-1.618551,0.0,0.0,0.0,-0.01103889,0.039193925,-0.80616575
238960690,13.327862,0.65321195,-16.253754,0.85805684,0.021728022,-0.07038243,0.0034026005,-3.0,-0.091651574,0.48060426,-1.5882373,0.0,0.0,0.0,-0.0075175175,0.0394205,-0.8043577
239060608,13.327771,0.6532448,-16.549305,0.8583979,0.018973997,-0.06531909,0.0038797776,-3.0,-0.06513686,0.45060092,-1.619556,0.0,0.0,0.0,-0.0053595435,0.03707602,-0.8068921
239160703,13.327681,0.6532778,-16.845583,0.85895944,0.01342288,-0.063342474,0.004313076,-3.0,-0.051547896,0.42089403,-1.6354746,0.0,0.0,0.0,-0.004249251,0.034695588,-0.80837035
239260628,13.32759,0.6533107,-17.141558,0.85977554,0.014671942,-0.058892507,0.003249507,-3.0,-0.037381243,0.4146115,-1.6233462,0.0,0.0,0.0,-0.0030792803,0.034153625,-0.8078218
239360680,13.327499,0.65334374,-17.438137,0.8610652,0.019428296,-0.0562174,0.0071278876,-3.0,-0.05533747,0.4408644,-1.5928141,0.0,0.0,0.0,-0.0045484453,0.036236707,-0.806057
239460676,13.327409,0.65337664,-17.73473,0.86264515,0.016569762,-0.052529395,0.009653241,-3.0,-0.07320796,0.45582458,-1.5905645,0.0,0.0,0.0,-0.0060181846,0.03747183,-0.8061988
239560745,13.327318,0.65340966,-18.03167,0.8640986,0.018889321,-0.04896101,0.017876249,-3.0,-0.05988146,0.50825614,-1.5406003,0.0,0.0,0.0,-0.0049030487,0.041615624,-0.80296004
239660806,13.327228,0.6534427,-18.328686,0.8653272,0.022876585,-0.044680506,0.02353474,-3.0,-0.07217573,0.5009899,-1.4680746,0.0,0.0,0.0,-0.00587476,0.04077819,-0.7982129
239760756,13.327137,0.6534757,-18.62549,0.8665993,0.020991212,-0.039466847,0.028117025,-3.0,-0.052661758,0.4605978,-1.4189891,0.0,0.0,0.0,-0.0042695026,0.037342533,-0.795058
239850752,13.3270645,0.6535021,-18.86301,0.8676765,0.020520376,-0.03444611,0.029945154,-3.0,-0.009269703,0.41955888,-1.4069049,0.0,0.0,0.0,-0.0007508631,0.033985045,-0.7943797
239960724,13.326955,0.65354186,-19.219856,0.86877584,0.011207383,-0.026206542,0.031810883,-3.0,-0.027186327,0.4347143,-1.4160483,0.0,0.0,0.0,-0.0022047306,0.035254046,-0.7952853
240060842,13.326861,0.653575,-19.517826,0.8695942,0.013011768,-0.018889,0.03142551,-3.0,-0.04278908,0.44971573,-1.4070303,0.0,0.0,0.0,-0.0034686902,0.036456138,-0.79496306
240160831,13.32677,0.6536082,-19.815655,0.87025124,0.013352826,-0.012156749,0.030660065,-3.0,0.00031270273,0.40463528,-1.3840106,0.0,0.0,0.0,2.5307101e-05,0.032747224,-0.7936368
240260715,13.326677,0.65364146,-20.113426,0.8706426,0.01219042,-0.005975348,0.028032295,-3.0,0.00076923147,0.42343843,-1.3771875,0.0,0.0,0.0,6.223596e-05,0.03425899,-0.79344726
240360760,13.326582,0.65367484,-20.411818,0.8710594,0.015223166,0.00045722502,0.02746185,-3.0,-0.019957636,0.42439404,-1.399181,0.0,0.0,0.0,-0.0016184689,0.03441633,-0.79527265
240460727,13.326487,0.65370816,-20.710058,0.8717159,0.008132478,0.0059839236,0.025049983,-3.0,-0.013720007,0.37664533,-1.424965,0.0,0.0,0.0,-0.0011155732,0.030625015,-0.7973723
240550767,13.32641,0.6537349,-20.94989,0.87236404,0.012410449,0.0126675265,0.021096973,-3.0,-0.017055776,0.3761634,-1.4441338,0.0,0.0,0.0,-0.0013894809,0.030644862,-0.7988904
240660783,13.326296,0.6537752,-21.309902,0.8730985,0.0118578635,0.020118508,0.014852812,-3.0,0.027704336,0.35413986,-1.4479693,0.0,0.0,0.0,0.0022586682,0.028872177,-0.79949987
240760850,13.3262005,0.6538088,-21.610107,0.8733014,0.0073058084,0.023875747,0.008531932,-3.0,-0.04066505,0.3704366,-1.4644386,0.0,0.0,0.0,-0.003321376,0.030255936,-0.80099356
240860756,13.326105,0.6538423,-21.909826,0.8731073,0.008955471,0.026577512,0.0015477018,-3.0,-0.0006869151,0.33546162,-1.4610851,0.0,0.0,0.0,-5.6109453e-05,0.02740159,-0.80101556
240960833,13.32601,0.6538758,-22.210049,0.87289375,0.0064818207,0.030009495,-0.0036025224,-3.0,-0.034242067,0.36917618,-1.4327801,0.0,0.0,0.0,-0.0027910555,0.030091384,-0.79928976
241060984,13.325914,0.6539093,-22.510513,0.8726341,0.008888429,0.032002784,-0.009802279,-3.0,-0.055907108,0.34428796,-1.4242541,0.0,0.0,0.0,-0.0045546293,0.028048383,-0.7989603
241160833,13.32582,0.6539427,-22.810057,0.8719878,0.008432433,0.03158692,-0.018178321,-3.0,-0.017774967,0.2911636,-1.4038386,0.0,0.0,0.0,-0.0014459558,0.02368554,-0.797824
241250768,13.325744,0.6539695,-23.050083,0.8710304,0.0061060153,0.030530619,-0.025948951,-3.0,-0.062258944,0.2855549,-1.377206,0.0,0.0,0.0,-0.005054956,0.023184901,-0.7962118
241360955,13.325629,0.65400976,-23.410414,0.8693661,0.005018361,0.028205985,-0.03554753,-3.0,-0.078090996,0.26664454,-1.3655196,0.0,0.0,0.0,-0.006335432,0.021632565,-0.79563886
241460918,13.325534,0.6540432,-23.71031,0.86742324,0.010518195,0.025311451,-0.043902066,-3.0,-0.13495049,0.30987552,-1.3577615,0.0,0.0,0.0,-0.010944909,0.025131881,-0.79536647
241560894,13.3254385,0.65407676,-24.010242,0.8653733,0.012789436,0.014462329,-0.05493495,-3.0,-0.08733079,0.26475582,-1.3799244,0.0,0.0,0.0,-0.007099578,0.021523388,-0.79725397
241660979,13.325343,0.65411025,-24.3105,0.8635531,0.00867218,0.0047094636,-0.06561443,-3.0,-0.1601986,0.2190116,-1.3604368,0.0,0.0,0.0,-0.013007319,0.017782638,-0.7961745
241760899,13.325248,0.6541437,-24.610258,0.8620329,0.008417759,-0.008734404,-0.0796378,-3.0,-0.17766732,0.20220861,-1.3170437,0.0,0.0,0.0,-0.014374755,0.01636035,-0.7933977
241861019,13.325152,0.65417725,-24.910614,0.86073524,0.009604771,-0.019443093,-0.09225169,-3.0,-0.17529386,0.1940843,-1.2893909,0.0,0.0,0.0,-0.014153525,0.015670698,-0.7917939
241950845,13.325077,0.65420395,-25.150253,0.8598294,0.010769501,-0.028927935,-0.103187956,-3.0,-0.17512333,0.17090765,-1.3036423,0.0,0.0,0.0,-0.014162761,0.013821826,-0.79305416
242060928,13.324963,0.6542441,-25.51034,0.8593782,0.013702966,-0.037898894,-0.113686815,-3.0,-0.18482894,0.21463679,-1.3211745,0.0,0.0,0.0,-0.01496932,0.017383462,-0.79429126
242160985,13.32487,0.6542771,-25.805635,0.85916483,0.010759696,-0.046345375,-0.121657826,-3.0,-0.17991394,0.19986776,-1.3864444,0.0,0.0,0.0,-0.0146586755,0.016284434,-0.79896456
242260918,13.3247795,0.6543096,-26.09694,0.8591712,0.013190903,-0.052312408,-0.12683035,-3.0,-0.22141288,0.26309556,-1.4075425,0.0,0.0,0.0,-0.01807164,0.021473767,-0.80047053
242360942,13.324689,0.65434206,-26.388065,0.8590629,0.010779478,-0.059045002,-0.13150114,-3.0,-0.21534424,0.25235444,-1.3810571,0.0,0.0,0.0,-0.017535504,0.020549249,-0.79858005
242460912,13.324598,0.6543745,-26.678713,0.8582978,0.013934119,-0.06271171,-0.13423412,-3.0,-0.20645203,0.246217,-1.3646859,0.0,0.0,0.0,-0.016786858,0.020020192,-0.79741144
242561012,13.324508,0.6544069,-26.969376,0.85671914,0.016788715,-0.07124719,-0.13784578,-3.0,-0.27279967,0.25783274,-1.340352,0.0,0.0,0.0,-0.022134384,0.02092,-0.7956745
242650955,13.324435,0.6544327,-27.20119,0.85485685,0.017646207,-0.07669501,-0.13936174,-3.0,-0.24673015,0.24532558,-1.326553,0.0,0.0,0.0,-0.019994237,0.019880414,-0.79468954
242760979,13.3243265,0.6544715,-27.548943,0.8518234,0.014879866,-0.08859536,-0.14182994,-3.0,-0.21154436,0.2291304,-1.3115214,0.0,0.0,0.0,-0.017120019,0.018543234,-0.79361653
242861121,13.324236,0.6545038,-27.838625,0.84835625,0.0132537205,-0.096232034,-0.14260462,-3.0,-0.20671733,0.24448675,-1.3288366,0.0,0.0,0.0,-0.016754854,0.019816142,-0.7948525
242961003,13.324145,0.654536,-28.12719,0.8440313,0.01428139,-0.10611014,-0.14287041,-3.0,-0.20124024,0.27243948,-1.3273404,0.0,0.0,0.0,-0.016309824,0.022080276,-0.79474574
243061026,13.324055,0.6545682,-28.415941,0.83918834,0.016069671,-0.11052692,-0.14184052,-3.0,-0.14971364,0.2556815,-1.3273162,0.0,0.0,0.0,-0.012132888,0.020720592,-0.794744
243161085,13.323964,0.6546003,-28.70464,0.8340175,0.010332385,-0.11783741,-0.13995248,-3.0,-0.16278452,0.24319929,-1.316927,0.0,0.0,0.0,-0.013179519,0.01969014,-0.7940024
243260983,13.3238735,0.6546325,-28.992817,0.82871044,0.010941934,-0.119925775,-0.13726367,-3.0,-0.16299377,0.27418527,-1.3154734,0.0,0.0,0.0,-0.013195342,0.022196973,-0.79389864
243350999,13.323801,0.6546582,-29.22381,0.8239357,0.014159301,-0.121914476,-0.12976909,-3.0,-0.14112936,0.30002552,-1.3232596,0.0,0.0,0.0,-0.011433238,0.024305811,-0.79445446
243461007,13.323692,0.6546968,-29.57065,0.8187341,0.014961949,-0.11940862,-0.12100877,-3.0,-0.06361242,0.29277983,-1.331863,0.0,0.0,0.0,-0.005156983,0.023735313,-0.7949905
243561064,13.323602,0.6547292,-29.860584,0.8141833,0.011887426,-0.113491714,-0.10853487,-3.0,-0.08233216,0.32937446,-1.3462577,0.0,0.0,0.0,-0.006683145,0.026736302,-0.7960441
243661195,13.323511,0.6547617,-30.151611,0.8100023,0.009019267,-0.104391225,-0.09691038,-3.0,-0.027326185,0.32577175,-1.3649555,0.0,0.0,0.0,-0.0022219797,0.026489547,-0.7974307
243761105,13.323421,0.6547941,-30.443079,0.80613554,0.008217841,-0.09373067,-0.08134993,-3.0,0.022922717,0.35469827,-1.393217,0.0,0.0,0.0,0.0018686805,0.02891532,-0.799448
243861227,13.32333,0.6548267,-30.736225,0.8027207,0.010768121,-0.08137148,-0.06723531,-3.0,-0.0033951397,0.43654537,-1.4131931,0.0,0.0,0.0,-0.0002772667,0.035650816,-0.8008739
243961176,13.323239,0.6548595,-31.030363,0.8000022,0.015926884,-0.06929052,-0.048457127,-3.0,-0.028379213,0.46445814,-1.4132276,0.0,0.0,0.0,-0.002317695,0.037931714,-0.8008764
244051063,13.323167,0.6548859,-31.266277,0.79838884,0.01249598,-0.057956092,-0.0341726,-3.0,0.023033254,0.47924724,-1.4568913,0.0,0.0,0.0,0.0018883552,0.039290544,-0.8039931
244161160,13.323058,0.6549256,-31.622314,0.7971934,0.013700806,-0.046766028,-0.014661316,-3.0,0.023631219,0.49141845,-1.4460598,0.0,0.0,0.0,0.0019354632,0.040248554,-0.8032199
244261085,13.322968,0.65495867,-31.919538,0.7963933,0.01419743,-0.036074247,-0.0011105136,-3.0,0.038202554,0.4624176,-1.4217242,0.0,0.0,0.0,0.0031221977,0.037792213,-0.80148286
244361136,13.322877,0.6549918,-32.21772,0.795943,0.010679098,-0.02512163,0.012648956,-3.0,0.061363474,0.46381152,-1.3866497,0.0,0.0,0.0,0.0049995854,0.03778902,-0.7989792
244461144,13.322786,0.655025,-32.516224,0.79579014,0.009965414,-0.0139144845,0.022086747,-3.0,0.098877326,0.46147943,-1.3828206,0.0,0.0,0.0,0.0080528585,0.03758423,-0.7987059
244561215,13.322696,0.65505815,-32.81448,0.7960649,0.011043627,-0.0025741972,0.035104446,-3.0,0.097092465,0.5053804,-1.3658763,0.0,0.0,0.0,0.007895729,0.041098416,-0.79749644
244661180,13.322605,0.6550913,-33.111805,0.7966895,0.011228235,0.00833302,0.043830503,-3.0,0.061412573,0.5169648,-1.3727982,0.0,0.0,0.0,0.004997325,0.04206698,-0.7979905
244751132,13.322533,0.6551177,-33.349083,0.7972565,0.0075460207,0.01707511,0.052009642,-3.0,0.094702385,0.5163741,-1.3936993,0.0,0.0,0.0,0.007720402,0.04209625,-0.7994824
244861319,13.322419,0.6551578,-33.709682,0.7978487,0.009564396,0.027292274,0.057878207,-3.0,0.14116389,0.4791811,-1.3999878,0.0,0.0,0.0,0.011515205,0.039088394,-0.7999313
244961271,13.322324,0.6551913,-34.00939,0.7981809,0.0071824063,0.036068596,0.062485024,-3.0,0.090717494,0.4659546,-1.3584417,0.0,0.0,0.0,0.007372228,0.037866168,-0.7969541
245061231,13.322228,0.6552247,-34.309402,0.79833734,0.004635524,0.04485127,0.0634327,-3.0,0.11728112,0.42393178,-1.3431425,0.0,0.0,0.0,0.009517939,0.034404147,-0.79587096
245161187,13.322133,0.65525806,-34.60928,0.79832745,0.0031888057,0.055331755,0.062038455,-3.0,0.14010116,0.3903962,-1.369282,0.0,0.0,0.0,0.011396729,0.031757336,-0.7977395
245251175,13.322057,0.6552847,-34.849476,0.79853994,0.005624857,0.063090645,0.058317292,-3.0,0.11390601,0.3857886,-1.4158826,0.0,0.0,0.0,0.009304487,0.031513397,-0.80106586
245361319,13.321942,0.6553248,-35.20958,0.7996677,0.0046814308,0.076997615,0.05272353,-3.0,0.10853058,0.39223477,-1.4228765,0.0,0.0,0.0,0.008870819,0.03205957,-0.8015651
245451159,13.321866,0.65535164,-35.449505,0.8009276,0.0,0.08556733,0.04663573,-3.0,0.08115803,0.3790539,-1.4523903,0.0,0.0,0.0,0.0066512795,0.031065239,-0.8036718
245561312,13.321752,0.65539175,-35.809513,0.8027638,0.0,0.10266793,0.040522724,-3.0,0.12263015,0.3921671,-1.4319129,0.0,0.0,0.0,0.010031005,0.03207882,-0.8022101
245661328,13.321656,0.6554252,-36.109703,0.8042772,0.0,0.115666166,0.032838713,-3.0,0.18545823,0.35362923,-1.4619272,0.0,0.0,0.0,0.015211574,0.02900522,-0.8043525
245761248,13.321561,0.6554586,-36.409462,0.80554223,0.0,0.1308877,0.021807652,-3.0,0.21131276,0.2985449,-1.4623244,0.0,0.0,0.0,0.01733277,0.024487926,-0.80435514
245861378,13.3214655,0.6554921,-36.70984,0.806382,0.0,0.14266467,0.0097411815,-3.0,0.21784939,0.28012425,-1.4385715,0.0,0.0,0.0,0.017830828,0.022927985,-0.8026854
245951284,13.321389,0.65551883,-36.94943,0.80672204,0.0,0.15234606,-0.004248598,-3.0,0.2123,0.24318086,-1.4432974,0.0,0.0,0.0,0.017383972,0.019912621,-0.80302274
246061419,13.321275,0.65555906,-37.309956,0.806928,0.0,0.1598649,-0.02098145,-3.0,0.22458333,0.16537179,-1.4464666,0.0,0.0,0.0,0.018395515,0.013545525,-0.80324894
246151216,13.321198,0.65558577,-37.549435,0.80702144,0.0,0.16647136,-0.03554521,-3.0,0.17605217,0.17672917,-1.4513142,0.0,0.0,0.0,0.014424722,0.014480192,-0.803595
246261396,13.321084,0.65562594,-37.909885,0.80681443,0.0,0.17014332,-0.0519233,-3.0,0.14286005,0.18477896,-1.4770715,0.0,0.0,0.0,0.011732822,0.015175541,-0.8054336
246361287,13.320989,0.65565926,-38.20952,0.80622274,0.0,0.17374192,-0.06780629,-3.0,0.17875996,0.12526923,-1.5034764,0.0,0.0,0.0,0.014715124,0.010311886,-0.80731833
246461318,13.320893,0.65569276,-38.50961,0.80543447,0.0,0.17374279,-0.08144503,-3.0,0.15846549,0.13629922,-1.4919881,0.0,0.0,0.0,0.013031296,0.01120847,-0.8064983
246561334,13.320798,0.65572613,-38.809566,0.8046534,0.0,0.17668132,-0.097153455,-3.0,0.17058533,0.11300582,-1.2422647,0.0,0.0,0.0,0.013718947,0.009088242,-0.788673
246661508,13.320703,0.6557595,-39.107445,0.8039788,0.0,0.17769465,-0.112159856,-3.0,0.16389515,0.08404716,-0.9578858,0.0,0.0,0.0,0.012842818,0.006585933,-0.768374
246761358,13.32061,0.6557922,-39.39807,0.80301905,0.0,0.17697982,-0.12980044,-3.0,0.14121379,0.08850015,-0.83149076,0.0,0.0,0.0,0.010934354,0.0068526734,-0.7593519
246851292,13.320538,0.6558179,-39.623814,0.8015021,0.0,0.17369907,-0.14293498,-3.0,0.17045912,0.021355266,-1.1570703,0.0,0.0,0.0,0.013603883,0.0017043061,-0.7825918
246961342,13.320431,0.6558554,-39.949883,0.7991677,0.0,0.16878186,-0.1644647,-3.0,0.08318986,0.041780464,-1.4049574,0.0,0.0,0.0,0.0067849313,0.0034075978,-0.80028605
247061474,13.320345,0.6558857,-40.210434,0.79679966,0.0,0.16130646,-0.18026268,-3.0,0.076143555,0.04680754,-1.4683638,0.0,0.0,0.0,0.006245402,0.0038392204,-0.804812
247161388,13.320262,0.65591484,-40.459988,0.79451287,0.0,0.15067987,-0.20025767,-3.0,0.049562618,0.026679352,-1.4825583,0.0,0.0,0.0,0.0040700603,0.0021908968,-0.8058252
247261529,13.320181,0.6559429,-40.699997,0.7920945,0.0,0.13816445,-0.21559879,-2.9656086,0.047260404,-0.027386803,-1.3589592,0.0,0.0,0.0,0.0038391491,-0.002224738,-0.7970027
247351351,13.32012,0.6559645,-40.884148,0.7899066,0.0,0.12228007,-0.23417717,-2.823204,-0.011390626,-0.024354955,-0.861563,0.0,0.0,0.0,-0.0008910883,-0.0019052874,-0.76149845
247461548,13.320031,0.65599567,-41.149734,0.7869785,0.0,0.10340911,-0.2509413,-2.6742263,-0.034631673,-0.026698884,-0.63387454,0.0,0.0,0.0,-0.002633449,-0.0020302266,-0.74524605
247551451,13.319974,0.65601546,-41.318783,0.7849962,0.0,0.085038856,-0.26808542,-2.5316875,-0.05182215,-0.044178545,-0.516373,0.0,0.0,0.0,-0.0038963545,-0.0033216549,-0.7368588
247661404,13.319894,0.65604377,-41.561596,0.78315336,0.0,0.06289363,-0.2818341,-2.3884377,-0.12505235,-0.025120873,-0.5830468,0.0,0.0,0.0,-0.009460552,-0.0019004626,-0.7416179
247761400,13.319831,0.6560662,-41.754345,0.78242993,0.0,0.040869676,-0.2925117,-2.256922,-0.16210917,-0.0071087144,-0.55589724,0.0,0.0,0.0,-0.012229448,-0.0005362784,-0.73968
247861643,13.31977,0.6560875,-41.939053,0.7819434,0.0,0.02044669,-0.29688218,-2.1356769,-0.16753195,0.026571762,-0.51490676,0.0,0.0,0.0,-0.012585649,0.0019961738,-0.7367439
247961396,13.319713,0.6561076,-42.11472,0.7815967,0.0,-0.0037281595,-0.30153906,-2.016972,-0.16891506,-0.010322722,-0.47012335,0.0,0.0,0.0,-0.012633901,-0.00077208184,-0.73355746
248051407,13.31967,0.6561229,-42.25001,0.7813691,0.0,-0.021860093,-0.3009483,-1.9078096,-0.18744218,0.0105376085,-0.38115227,0.0,0.0,0.0,-0.013898524,0.00078134617,-0.7272067
248161543,13.319608,0.65614456,-42.443886,0.7812096,0.001468828,-0.052158292,-0.30460188,-1.8000929,-0.19671166,0.0028855086,-0.37305224,0.0,0.0,0.0,-0.014575491,0.00021380381,-0.7266285
248251483,13.31957,0.65615803,-42.567116,0.7808993,0.0,-0.07132218,-0.30294392,-1.7027316,-0.26068246,0.0316376,-0.31625378,0.0,0.0,0.0,-0.019208286,0.0023312045,-0.72257423
248361517,13.319516,0.6561769,-42.74378,0.78054845,0.0031710323,-0.09908634,-0.29689527,-1.5968103,-0.24284098,0.0602199,-0.2951303,0.0,0.0,0.0,-0.01785428,0.0044275187,-0.72098035
248461519,13.319477,0.6561907,-42.876396,0.7807054,0.01037951,-0.11832544,-0.28746042,-1.501578,-0.24354206,0.12000762,-0.22339714,0.0,0.0,0.0,-0.017778726,0.008760634,-0.7159013
248561479,13.319439,0.656204,-43.001453,0.781439,0.00931171,-0.13997285,-0.27759457,-1.4045262,-0.28614947,0.16183211,-0.17568105,0.0,0.0,0.0,-0.02079049,0.011758082,-0.71254015
248661698,13.319401,0.6562171,-43.12147,0.7825242,0.014539583,-0.15595584,-0.2644997,-1.3163506,-0.25331894,0.16821766,-0.15238112,0.0,0.0,0.0,-0.01836197,0.012193357,-0.710877
248751456,13.31937,0.6562273,-43.21341,0.7837152,0.014745245,-0.17347468,-0.25065085,-1.2355391,-0.28255185,0.16078407,-0.15891302,0.0,0.0,0.0,-0.020494934,0.0116624925,-0.71133137
248861660,13.31933,0.65624213,-43.345867,0.7852743,0.0117326975,-0.1879313,-0.23181717,-1.1606936,-0.27681985,0.23295645,-0.1978966,0.0,0.0,0.0,-0.02015807,0.016963927,-0.7141259
248951505,13.3193035,0.65625155,-43.430214,0.7867846,0.020851007,-0.20450489,-0.21391554,-1.0928957,-0.28062257,0.27231202,-0.18538952,0.0,0.0,0.0,-0.02040932,0.019804902,-0.7132331
249061887,13.319263,0.6562652,-43.55187,0.7888376,0.019288307,-0.2167641,-0.19053309,-1.0278234,-0.24110678,0.26836234,-0.21546623,0.0,0.0,0.0,-0.017589072,0.019577403,-0.71538
249161566,13.319235,0.65627587,-43.647926,0.7909884,0.026593303,-0.23003936,-0.16319169,-0.97167623,-0.27825847,0.32758996,-0.20866054,0.0,0.0,0.0,-0.020285178,0.02388147,-0.7148942
249261544,13.319206,0.6562861,-43.74021,0.7934595,0.024159031,-0.23523128,-0.13778344,-0.9219981,-0.23739654,0.3482227,-0.21641058,0.0,0.0,0.0,-0.01732023,0.025406007,-0.7154474
249361564,13.319178,0.65629584,-43.828594,0.79616326,0.029865215,-0.24321364,-0.10993212,-0.8722555,-0.18434134,0.3888402,-0.18609107,0.0,0.0,0.0,-0.013406839,0.0282797,-0.7132474
249451527,13.319155,0.65630347,-43.898712,0.7987355,0.024923334,-0.24346153,-0.08717809,-0.8254304,-0.20330428,0.44422007,-0.16125172,0.0,0.0,0.0,-0.014750447,0.03222974,-0.7115102
249561588,13.319126,0.6563138,-43.994217,0.80202943,0.024426898,-0.23999842,-0.06420346,-0.77202815,-0.15769486,0.41933486,-0.14013198,0.0,0.0,0.0,-0.011414774,0.03035364,-0.7098528
249651555,13.319107,0.65632033,-44.05655,0.80490065,0.0220328,-0.23210274,-0.047609985,-0.728258,-0.11350536,0.44310495,-0.1001122,0.0,0.0,0.0,-0.008183088,0.031945337,-0.70698965
249761604,13.319078,0.6563297,-44.14609,0.8087555,0.027053399,-0.22102001,-0.022592023,-0.6782353,-0.046138592,0.43692887,-0.09829536,0.0,0.0,0.0,-0.0033259448,0.031496435,-0.70693266
249861801,13.319055,0.6563374,-44.217396,0.8124174,0.020294758,-0.20698754,-0.0026682303,-0.63302845,-0.048339643,0.4824895,-0.05544287,0.0,0.0,0.0,-0.003469974,0.034634635,-0.7039575
249961719,13.319036,0.65634483,-44.28546,0.8163167,0.020833591,-0.19336207,0.02180922,-0.58573014,0.008972919,0.48840797,-0.026906699,0.0,0.0,0.0,0.0006422672,0.034959465,-0.70192057
250061798,13.319016,0.656352,-44.35071,0.820028,0.020371104,-0.17652836,0.04314701,-0.54554594,0.00049244706,0.52412677,-0.056317747,0.0,0.0,0.0,3.5350484e-05,0.037624624,-0.70398426
250151637,13.319001,0.65635747,-44.400723,0.8233338,0.01949077,-0.16261111,0.06712658,-0.5094872,0.040581476,0.5705373,-0.030082017,0.0,0.0,0.0,0.0029047062,0.040837433,-0.7019369
250261685,13.318978,0.6563652,-44.472538,0.827376,0.019564698,-0.14351232,0.09347218,-0.48016614,0.051366292,0.5726999,-0.10303286,0.0,0.0,0.0,0.0037039558,0.041296642,-0.70714474
250351622,13.318963,0.6563702,-44.518223,0.830806,0.02028699,-0.12628455,0.12103166,-0.4508319,0.057335682,0.6608547,-0.038388968,0.0,0.0,0.0,0.004108385,0.047353502,-0.7026847
250461684,13.318943,0.65637726,-44.583393,0.8349422,0.018989919,-0.104497716,0.14637932,-0.4269963,0.122998774,0.6294986,-0.07908893,0.0,0.0,0.0,0.008850473,0.04529606,-0.7056454
250561672,13.318929,0.65638274,-44.6349,0.8386683,0.017632598,-0.08148153,0.17166148,-0.39641172,0.15443994,0.6420747,-0.029282227,0.0,0.0,0.0,0.011056769,0.04596785,-0.70209014
250661849,13.318914,0.6563879,-44.684006,0.8421114,0.01752214,-0.059471905,0.19060437,-0.3721109,0.17700116,0.63271403,-0.029202491,0.0,0.0,0.0,0.012671386,0.045295548,-0.70203805
250761725,13.3189,0.6563928,-44.730545,0.8456551,0.014527524,-0.04004961,0.21397881,-0.35488784,0.19977908,0.6425247,-0.07468054,0.0,0.0,0.0,0.014367327,0.046207856,-0.70525473
250851751,13.318889,0.6563966,-44.766197,0.84866744,0.011541795,-0.023140451,0.22763027,-0.34105283,0.1901646,0.6371534,-0.10684784,0.0,0.0,0.0,0.013718029,0.045962747,-0.7074355
250961734,13.318226,0.65575844,-44.818863,0.85223377,0.011175463,-0.019724248,0.22305122,-0.3287938,-0.21065304,0.19524312,-0.06599569,0.0,0.0,0.0,-0.015135663,0.014028442,-0.70457447
251051678,13.315045,0.6525921,-44.85292,0.85491884,0.014870791,-0.05025428,0.18116024,-0.31823832,-0.6294186,-0.23306602,0.10433602,0.0,0.0,0.0,-0.044445653,-0.01645768,-0.6924846
251161743,13.301049,0.6394171,-44.90154,0.8584035,0.040758274,-0.15143293,0.09312458,-0.30534342,-1.175329,-0.3251298,0.28266597,0.0,0.0,0.0,-0.08142527,-0.022524571,-0.6793946
251261742,13.276529,0.6199606,-44.939568,0.8631079,0.08327563,-0.28929257,0.008927882,-0.28360343,-1.6441977,-0.3100917,0.25198364,0.0,0.0,0.0,-0.11429609,-0.021555966,-0.68170756
251351701,13.245603,0.59883046,-44.968132,0.8701314,0.10960009,-0.42567036,-0.056536987,-0.26635322,-1.9248594,-0.2592886,-0.04335028,0.0,0.0,0.0,-0.1380042,-0.018589884,-0.70309436
251461842,13.175729,0.5578695,-45.007862,0.8811651,0.12745504,-0.68864864,-0.16454817,-0.2551019,-2.0311186,-0.27531028,-0.36484623,0.0,0.0,0.0,-0.15037568,-0.020382842,-0.72604275
251551828,13.113052,0.5244067,-45.032257,0.88996977,0.09194804,-0.83979905,-0.22865935,-0.24418536,-1.5696464,-0.2849583,-0.36946177,0.0,0.0,0.0,-0.116252124,-0.021104759,-0.72630566
251661946,12.999341,0.4648734,-45.06578,0.8979884,0.036372647,-1.0298153,-0.33949435,-0.23028415,-0.9230772,-0.4372908,-0.3481213,0.0,0.0,0.0,-0.06822746,-0.0323215,-0.7248402
