timestamp,timestamp_sample,gyro_device_id,gyro_bias[0],gyro_bias[1],gyro_bias[2],gyro_bias_limit,gyro_bias_variance[0],gyro_bias_variance[1],gyro_bias_variance[2],accel_device_id,accel_bias[0],accel_bias[1],accel_bias[2],accel_bias_limit,accel_bias_variance[0],accel_bias_variance[1],accel_bias_variance[2],mag_device_id,mag_bias[0],mag_bias[1],mag_bias[2],mag_bias_limit,mag_bias_variance[0],mag_bias_variance[1],mag_bias_variance[2],gyro_bias_valid,gyro_bias_stable,accel_bias_valid,accel_bias_stable,mag_bias_valid,mag_bias_stable
217083698,216983219,4325386,0.0019255937,0.002266461,-0.00028933006,0.34906584,2.1830613e-07,2.2103785e-07,4.2812334e-07,4259850,0.108777024,0.02191587,-0.017983701,0.4,0.0005000623,0.00059341965,0.0005000623,396809,0.0,0.0,0.0,0.5,0.0025000002,0.0025000002,0.0025000002,1,1,1,0,1,0
218093779,217993302,4325386,0.0019466395,0.0022731991,-0.00033766916,0.34906584,2.1581508e-07,2.1866911e-07,4.2904577e-07,4259850,0.10877038,0.022024283,-0.017362107,0.4,0.0005002482,0.0005935134,0.00050024566,396809,0.0,0.0,0.0,0.5,0.0025000002,0.0025000002,0.0025000002,1,1,1,0,1,0
219103853,219003385,4325386,0.0019444849,0.0022749822,-0.00040869677,0.34906584,2.1341313e-07,2.162826e-07,4.2923878e-07,4259850,0.10879087,0.022166207,-0.01732121,0.4,0.00050047034,0.0005937383,0.00050046947,396809,0.0,0.0,0.0,0.5,0.0025000002,0.0025000002,0.0025000002,1,0,1,0,1,0
220113887,220013468,4325386,0.001962941,0.0022570677,-0.00046209194,0.34906584,2.1070477e-07,2.1348886e-07,4.2911563e-07,4259850,0.108707175,0.022156073,-0.016743818,0.4,0.0004995275,0.00059249095,0.00049952394,396809,0.0,0.0,0.0,0.5,0.0025000002,0.0025000002,0.0025000002,1,0,1,0,1,0
221064216,220963547,4325386,0.0019778088,0.002271986,-0.00046089382,0.34906584,2.0833065e-07,2.1096129e-07,4.297345e-07,4259850,0.10885031,0.02216096,-0.01567057,0.4,0.00050018245,0.0005930224,0.00050018245,396809,0.0,0.0,0.0,0.5,0.0025000002,0.0025000002,0.0025000002,1,0,1,0,1,0
221464211,221363580,4325386,0.0019772924,0.0022756653,-0.0004483662,0.34906584,2.072882e-07,2.0984201e-07,4.2956114e-07,4259850,0.10878307,0.022131147,-0.014538904,0.4,0.0004995641,0.00059216324,0.0004995641,396809,0.0,0.0,0.0,0.5,0.0025000002,0.0025000002,0.0025000002,1,0,1,0,1,0
222104304,222003634,4325386,0.0019870542,0.0022710746,-0.00041391375,0.34906584,2.0651447e-07,2.0893995e-07,4.2943955e-07,4259850,0.10876963,0.021982599,-0.0133508565,0.4,0.0004996141,0.00059200596,0.0004996141,396809,0.0,0.0,0.0,0.5,0.0025000002,0.0025000002,0.0025000002,1,0,1,0,1,0
223064338,222963715,4325386,0.0019783692,0.0022907015,-0.00031959102,0.34906584,2.0444688e-07,2.0666147e-07,4.2939828e-07,4259850,0.10873481,0.021901827,-0.012280587,0.4,0.00049946085,0.0005913448,0.00049946085,396809,0.0,0.0,0.0,0.5,0.0025000002,0.0025000002,0.0025000002,1,0,1,0,1,0
224074242,223973800,4325386,0.0020029284,0.002317181,-0.0001758267,0.34906584,2.0307881e-07,2.050913e-07,4.301224e-07,4259850,0.10901962,0.021652829,-0.0124252,0.4,0.000499768,0.00059088087,0.000499768,396809,0.0,0.0,0.0,0.5,0.0025000002,0.0025000002,0.0025000002,1,0,1,0,1,0
225084387,224983886,4325386,0.0020189092,0.0023350755,-9.285495e-06,0.34906584,2.0182152e-07,2.0350805e-07,4.3007546e-07,4259850,0.109126106,0.021331368,-0.012066651,0.4,0.0005000519,0.0005903886,0.00050005194,396809,0.0,0.0,0.0,0.5,0.0025000002,0.0025000002,0.0025000002,1,0,1,0,1,0
226094427,225993972,4325386,0.0020128132,0.002360088,0.00014055448,0.34906584,2.007821e-07,2.022062e-07,4.305551e-07,4259850,0.1091508,0.021231169,-0.012541422,0.4,0.0005000691,0.0005897854,0.0005000691,396809,0.0,0.0,0.0,0.5,0.0025000002,0.0025000002,0.0025000002,1,0,1,0,1,0
227064613,226964056,4325386,0.00197209,0.0024090665,0.00016370066,0.34906584,2.0272259e-07,2.0411173e-07,4.3853424e-07,4259850,0.10843868,0.020675816,-0.011531924,0.4,0.0004998041,0.000586964,0.0004998041,396809,0.0,0.0,0.0,0.5,0.0025000002,0.0025000002,0.0025000002,1,0,1,0,1,0
227464778,227364090,4325386,0.001962351,0.0024046297,0.00016339029,0.34906584,2.0535909e-07,2.0680078e-07,4.4311477e-07,4259850,0.108883485,0.020036407,-0.010825946,0.4,0.00050047523,0.00058297795,0.00050047523,396809,0.0,0.0,0.0,0.5,0.0025000002,0.0025000002,0.0025000002,1,0,1,0,1,0
227864712,227764125,4325386,0.0019651141,0.0024242513,0.00016450387,0.34906584,2.0780907e-07,2.093015e-07,4.4642775e-07,4259850,0.107300274,0.020505462,-0.011192195,0.4,0.0004997172,0.00057472446,0.0004997172,396809,0.0,0.0,0.0,0.5,0.0025000002,0.0025000002,0.0025000002,1,0,1,0,1,0
228064847,227964142,4325386,0.0019698823,0.0024325487,0.00016489944,0.34906584,2.0944215e-07,2.109584e-07,4.4872806e-07,4259850,0.10671832,0.020984944,-0.012021014,0.4,0.00050006487,0.00057063357,0.00050006487,396809,0.0,0.0,0.0,0.5,0.0025000002,0.0025000002,0.0025000002,1,0,1,0,1,0
228264735,228164159,4325386,0.001964469,0.0024458747,0.00016601686,0.34906584,2.1112295e-07,2.1266229e-07,4.510134e-07,4259850,0.1056176,0.020408876,-0.012022255,0.4,0.0005003917,0.00056614284,0.0005003917,396809,0.0,0.0,0.0,0.5,0.0025000002,0.0025000002,0.0025000002,1,0,1,0,1,0
228664817,228564194,4325386,0.0019668897,0.0024417813,0.00016538179,0.34906584,2.140956e-07,2.156659e-07,4.544838e-07,4259850,0.10601482,0.020707691,-0.010954888,0.4,0.0004998398,0.0005550937,0.0004998398,396809,0.0,0.0,0.0,0.5,0.0025000002,0.0025000002,0.0025000002,1,0,1,0,1,0
229064850,228964229,4325386,0.001969661,0.0024511383,0.00016551724,0.34906584,2.1760096e-07,2.1919682e-07,4.588204e-07,4259850,0.10517883,0.021049978,-0.010159301,0.4,0.0005002463,0.0005454179,0.0005002463,396809,0.0,0.0,0.0,0.5,0.0025000002,0.0025000002,0.0025000002,1,0,1,0,1,0
229444731,229344262,4325386,0.0019677058,0.0024528857,0.00016538543,0.34906584,2.2072733e-07,2.2232722e-07,4.618195e-07,4259850,0.10469161,0.021006584,-0.009278933,0.4,0.00049942796,0.00053974777,0.00049942004,396809,0.0,0.0,0.0,0.5,0.0025000002,0.0025000002,0.0025000002,1,0,1,0,1,0
229664953,229564281,4325386,0.0019711012,0.0024460177,0.0001648606,0.34906584,2.2261814e-07,2.2423666e-07,4.6458567e-07,4259850,0.10591081,0.020981034,-0.008956992,0.4,0.0005000662,0.0005317166,0.0005000662,396809,0.0,0.0,0.0,0.5,0.0025000002,0.0025000002,0.0025000002,1,0,1,0,1,0
229864901,229764299,4325386,0.0019762425,0.0024509493,0.0001644258,0.34906584,2.244725e-07,2.2609663e-07,4.6687072e-07,4259850,0.10555748,0.021620788,-0.010017944,0.4,0.0005004067,0.00052817346,0.0005004067,396809,0.0,0.0,0.0,0.5,0.0025000002,0.0025000002,0.0025000002,1,0,1,0,1,0
230264921,230164334,4325386,0.001982628,0.0024521064,0.00016354106,0.34906584,2.2751259e-07,2.2913943e-07,4.7010164e-07,4259850,0.105267756,0.022460938,-0.010666547,0.4,0.0004996509,0.0005206027,0.0004996509,396809,0.0,0.0,0.0,0.5,0.0025000002,0.0025000002,0.0025000002,1,0,1,0,1,0
230864985,230764386,4325386,0.0019857828,0.0024659063,0.000163734,0.34906584,2.3235806e-07,2.3397578e-07,4.7577657e-07,4259850,0.1041808,0.022963881,-0.010988119,0.4,0.0004994407,0.0005125918,0.0004994407,396809,0.0,0.0,0.0,0.5,0.0025000002,0.0025000002,0.0025000002,1,0,1,0,1,0
231265013,231164421,4325386,0.001976159,0.0024606008,0.00016435642,0.34906584,2.3571494e-07,2.3732296e-07,4.801074e-07,4259850,0.104580134,0.02216258,-0.00976082,0.4,0.00049988326,0.00050921866,0.00049988326,396809,0.0,0.0,0.0,0.5,0.0025000002,0.0025000002,0.0025000002,1,0,1,0,1,0
232275106,232174510,4325386,0.0019821348,0.0024359978,0.00016449396,0.34906584,2.425693e-07,2.4415715e-07,4.893273e-07,4259850,0.10554751,0.022190204,-0.009316524,0.4,0.0004993167,0.00050264655,0.0004993167,396809,0.0,0.0,0.0,0.5,0.0025000002,0.0025000002,0.0025000002,1,0,1,0,1,0
232865160,232764563,4325386,0.0019805063,0.002410927,0.000166113,0.34906584,2.4619533e-07,2.4779197e-07,4.9561066e-07,4259850,0.106322594,0.022003083,-0.007871397,0.4,0.0004999539,0.00050139916,0.0004999539,396809,0.0,0.0,0.0,0.5,0.0025000002,0.0025000002,0.0025000002,1,0,1,0,1,0
233265149,233164598,4325386,0.0019892077,0.002381743,0.00016737616,0.34906584,2.47788e-07,2.493916e-07,4.9885887e-07,4259850,0.10687269,0.022023821,-0.006829974,0.4,0.0004993771,0.0005000384,0.0004993771,396809,0.0,0.0,0.0,0.5,0.0025000002,0.0025000002,0.0025000002,1,0,1,0,1,0
233665260,233564634,4325386,0.0019765713,0.002367083,0.00016881745,0.34906584,2.4951373e-07,2.5112894e-07,5.030667e-07,4259850,0.10709569,0.021840565,-0.007917141,0.4,0.0004998238,0.00049997907,0.0004998238,396809,0.0,0.0,0.0,0.5,0.0025000002,0.0025000002,0.0025000002,1,0,1,0,1,0
234065251,233964670,4325386,0.0019913185,0.0023585611,0.00016950179,0.34906584,2.5096057e-07,2.5258578e-07,5.075239e-07,4259850,0.10730204,0.021972101,-0.009237392,0.4,0.0005004965,0.0005004965,0.0005004965,396809,0.0,0.0,0.0,0.5,0.0025000002,0.0025000002,0.0025000002,1,0,1,0,1,0
234285138,234184689,4325386,0.0019889537,0.002353117,0.00016990816,0.34906584,2.5125786e-07,2.5288296e-07,5.0898245e-07,4259850,0.107259944,0.021956759,-0.010423733,0.4,0.00049991003,0.00049991003,0.00049990823,396809,0.0,0.0,0.0,0.5,0.0025000002,0.0025000002,0.0025000002,1,0,1,0,1,0
234555200,234454713,4325386,0.002000378,0.0023485457,0.000170314,0.34906584,2.5225114e-07,2.5387683e-07,5.1163346e-07,4259850,0.10729995,0.022015575,-0.011451138,0.4,0.0005000176,0.0005000176,0.00050001126,396809,0.0,0.0,0.0,0.5,0.0025000002,0.0025000002,0.0025000002,1,0,1,0,1,0
234845188,234744739,4325386,0.0020078016,0.002344757,0.0001704588,0.34906584,2.5344815e-07,2.550737e-07,5.1447455e-07,4259850,0.10733076,0.02205198,-0.012450629,0.4,0.00050018297,0.000500183,0.00050016784,396809,0.0,0.0,0.0,0.5,0.0025000002,0.0025000002,0.0025000002,1,0,1,0,1,0
235055348,234954758,4325386,0.002001764,0.0023525073,0.00017004077,0.34906584,2.5124893e-07,2.5286903e-07,5.1562074e-07,4259850,0.10719757,0.022044206,-0.013921529,0.4,0.00049942,0.00049942,0.00049942,396809,0.0,0.0,0.0,0.5,0.0025000002,0.0025000002,0.0025000002,1,0,1,0,1,0
235265329,235164777,4325386,0.0019949197,0.0023457203,0.00017343051,0.34906584,2.514044e-07,2.530241e-07,5.180468e-07,4259850,0.10724629,0.02207179,-0.015581022,0.4,0.00049991766,0.00049991766,0.00049991766,396809,0.0,0.0,0.0,0.5,0.0025000002,0.0025000002,0.0025000002,1,0,1,0,1,0
235465448,235364795,4325386,0.0019902112,0.0023435089,0.00017869538,0.34906584,2.5115668e-07,2.527745e-07,5.201972e-07,4259850,0.10726247,0.02210661,-0.016664438,0.4,0.0005002545,0.0005002545,0.0005002545,396809,0.0,0.0,0.0,0.5,0.0025000002,0.0025000002,0.0025000002,1,0,1,0,1,0
235665375,235564813,4325386,0.0019926573,0.002360546,0.00018078617,0.34906584,2.5005576e-07,2.5166685e-07,5.2114655e-07,4259850,0.107185066,0.022042042,-0.019372059,0.4,0.00049938564,0.00049938564,0.00049938564,396809,0.0,0.0,0.0,0.5,0.0025000002,0.0025000002,0.0025000002,1,0,1,0,1,0
235865410,235764831,4325386,0.00199051,0.0023590708,0.00018697573,0.34906584,2.4923094e-07,2.508383e-07,5.2304136e-07,4259850,0.107160866,0.022066629,-0.020980457,0.4,0.0004994998,0.0004994998,0.0004994998,396809,0.0,0.0,0.0,0.5,0.0025000002,0.0025000002,0.0025000002,1,0,1,0,1,0
236875402,236774923,4325386,0.0019929677,0.0023849092,0.00019227617,0.34906584,2.450486e-07,2.466555e-07,5.3259106e-07,4259850,0.107320055,0.0220849,-0.020373346,0.4,0.00050010224,0.00050010224,0.00050010224,396809,0.0,0.0,0.0,0.5,0.0025000002,0.0025000002,0.0025000002,1,0,1,0,1,0
237245524,237144956,4325386,0.0019936946,0.0023905623,0.00019449423,0.34906584,2.4298953e-07,2.4459212e-07,5.3570153e-07,4259850,0.107328326,0.022090755,-0.019076375,0.4,0.00049991126,0.00049991126,0.00049991126,396809,0.0,0.0,0.0,0.5,0.0025000002,0.0025000002,0.0025000002,1,0,1,0,1,0
237665561,237564994,4325386,0.0019926406,0.0023800929,0.00019954826,0.34906584,2.412757e-07,2.4286996e-07,5.3903926e-07,4259850,0.10724764,0.022124711,-0.017591957,0.4,0.0004996733,0.0004996733,0.0004996733,396809,0.0,0.0,0.0,0.5,0.0025000002,0.0025000002,0.0025000002,1,0,1,0,1,0
237885505,237785014,4325386,0.0020106758,0.0023810584,0.00020227334,0.34906584,2.408544e-07,2.4244198e-07,5.415886e-07,4259850,0.10731182,0.022051467,-0.01657718,0.4,0.00050029263,0.0005002927,0.0005002909,396809,0.0,0.0,0.0,0.5,0.0025000002,0.0025000002,0.0025000002,1,0,1,0,1,0
238065652,237965031,4325386,0.0020113138,0.0023839558,0.00020469545,0.34906584,2.3965106e-07,2.4122974e-07,5.429694e-07,4259850,0.107311614,0.022052944,-0.015567657,0.4,0.0005001065,0.0005001065,0.0005001065,396809,0.0,0.0,0.0,0.5,0.0025000002,0.0025000002,0.0025000002,1,0,1,0,1,0
238665713,238565085,4325386,0.0020171541,0.0024057177,0.00021922559,0.34906584,2.3676546e-07,2.3831743e-07,5.4767554e-07,4259850,0.10740602,0.022052543,-0.013681292,0.4,0.0004998802,0.0004998802,0.0004998802,396809,0.0,0.0,0.0,0.5,0.0025000002,0.0025000002,0.0025000002,1,0,1,0,1,0
238915551,238815108,4325386,0.002015541,0.0024034337,0.00022469801,0.34906584,2.3623328e-07,2.37775e-07,5.4958764e-07,4259850,0.10737266,0.02206872,-0.01261482,0.4,0.00049969106,0.00049969106,0.0004996866,396809,0.0,0.0,0.0,0.5,0.0025000002,0.0025000002,0.0025000002,1,0,1,0,1,0
239065709,238965122,4325386,0.0020260443,0.0024076877,0.00022763155,0.34906584,2.3460194e-07,2.3613214e-07,5.504129e-07,4259850,0.10737743,0.022017216,-0.011303348,0.4,0.00049931044,0.00049931044,0.00049931044,396809,0.0,0.0,0.0,0.5,0.0025000002,0.0025000002,0.0025000002,1,0,1,0,1,0
239265779,239165140,4325386,0.0020374898,0.0023981137,0.00023346119,0.34906584,2.336875e-07,2.352059e-07,5.521103e-07,4259850,0.107349634,0.021963583,-0.009880173,0.4,0.00049939833,0.00049939833,0.00049939833,396809,0.0,0.0,0.0,0.5,0.0025000002,0.0025000002,0.0025000002,1,0,1,0,1,0
239465733,239365158,4325386,0.0020465096,0.0023838482,0.00023781562,0.34906584,2.3288644e-07,2.3439317e-07,5.542083e-07,4259850,0.10731485,0.021920543,-0.008643228,0.4,0.00049973547,0.00049973547,0.00049973547,396809,0.0,0.0,0.0,0.5,0.0025000002,0.0025000002,0.0025000002,1,0,1,0,1,0
239785640,239685188,4325386,0.0020452344,0.0023809816,0.00024623613,0.34906584,2.3348039e-07,2.3497705e-07,5.576893e-07,4259850,0.10736311,0.021958554,-0.0076299943,0.4,0.0005005071,0.0005005071,0.00050049636,396809,0.0,0.0,0.0,0.5,0.0025000002,0.0025000002,0.0025000002,1,0,1,0,1,0
239865826,239765195,4325386,0.0020410735,0.0023748805,0.0002502857,0.34906584,2.3126454e-07,2.3274787e-07,5.5807254e-07,4259850,0.10731055,0.0219831,-0.0061589614,0.4,0.0005003857,0.0005003857,0.0005003857,396809,0.0,0.0,0.0,0.5,0.0025000002,0.0025000002,0.0025000002,1,0,1,0,1,0
240865958,240765287,4325386,0.0020425809,0.0023550086,0.00027652262,0.34906584,2.2602124e-07,2.2743131e-07,5.6489915e-07,4259850,0.10709585,0.021923045,-0.0049190787,0.4,0.0004994083,0.0004994083,0.0004994083,396809,0.0,0.0,0.0,0.5,0.0025000002,0.0025000002,0.0025000002,1,0,1,0,1,0
241665921,241565361,4325386,0.0020844452,0.0023899456,0.000297387,0.34906584,2.2254274e-07,2.238903e-07,5.708316e-07,4259850,0.10743861,0.021850284,-0.0038333866,0.4,0.00049936486,0.00049936486,0.00049936486,396809,0.0,0.0,0.0,0.5,0.0025000002,0.0025000002,0.0025000002,1,0,1,0,1,0
242065984,241965398,4325386,0.002096567,0.002395848,0.00030631534,0.34906584,2.212454e-07,2.2255857e-07,5.7463e-07,4259850,0.107574835,0.021839151,-0.0025247077,0.4,0.0005000595,0.0005000595,0.0005000595,396809,0.0,0.0,0.0,0.5,0.0025000002,0.0025000002,0.0025000002,1,0,1,0,1,0
243075999,242975492,4325386,0.0021400442,0.0024335533,0.00032644093,0.34906584,2.1777468e-07,2.1898602e-07,5.820245e-07,4259850,0.10798435,0.021797942,-0.0021409832,0.4,0.0005003854,0.0005003854,0.0005003854,396809,0.0,0.0,0.0,0.5,0.0025000002,0.0025000002,0.0025000002,1,0,1,0,1,0
243466147,243365528,4325386,0.0021333413,0.0024095855,0.00033507968,0.34906584,2.1605797e-07,2.1721728e-07,5.8391925e-07,4259850,0.107754484,0.021717876,-0.00043131056,0.4,0.000499701,0.000499701,0.000499701,396809,0.0,0.0,0.0,0.5,0.0025000002,0.0025000002,0.0025000002,1,0,1,0,1,0
243906012,243805569,4325386,0.0021264276,0.0023815243,0.00034614842,0.34906584,2.1513036e-07,2.1623458e-07,5.86536e-07,4259850,0.1075501,0.021625277,-0.0014449283,0.4,0.00049947784,0.00049947784,0.00049947423,396809,0.0,0.0,0.0,0.5,0.0025000002,0.0025000002,0.0025000002,1,0,1,0,1,0
244666264,244565640,4325386,0.0021352146,0.002346339,0.00037074962,0.34906584,2.1278098e-07,2.1379262e-07,5.9235373e-07,4259850,0.10744831,0.02148425,-0.00025166784,0.4,0.0005002455,0.0005002455,0.0005002455,396809,0.0,0.0,0.0,0.5,0.0025000002,0.0025000002,0.0025000002,1,0,1,0,1,0
245266249,245165696,4325386,0.002123059,0.0023297702,0.0003898843,0.34906584,2.1108647e-07,2.1204646e-07,5.954452e-07,4259850,0.107269935,0.021465586,0.00088296056,0.4,0.00049974857,0.00049974857,0.00049974857,396809,0.0,0.0,0.0,0.5,0.0025000002,0.0025000002,0.0025000002,1,0,1,0,1,0
246276245,246175790,4325386,0.002090581,0.0023147725,0.000422002,0.34906584,2.0910768e-07,2.1000663e-07,6.0177297e-07,4259850,0.1071287,0.021547796,0.0012322933,0.4,0.00050005194,0.00050005194,0.00050005014,396809,0.0,0.0,0.0,0.5,0.0025000002,0.0025000002,0.0025000002,1,0,1,0,1,0
247286326,247185885,4325386,0.0020763152,0.0023558228,0.00044374765,0.34906584,2.0750971e-07,2.0836218e-07,6.072571e-07,4259850,0.10729493,0.021661658,0.0017120995,0.4,0.0005003413,0.0005003413,0.0005003413,396809,0.0,0.0,0.0,0.5,0.0025000002,0.0025000002,0.0025000002,1,0,1,0,1,0
247646479,247545918,4325386,0.0020789092,0.0023776796,0.0004406643,0.34906584,2.0662748e-07,2.0746842e-07,6.09061e-07,4259850,0.107393034,0.021673944,0.0030090169,0.4,0.00050043466,0.00050043466,0.00050043466,396809,0.0,0.0,0.0,0.5,0.0025000002,0.0025000002,0.0025000002,1,0,1,0,1,0
248266542,248165976,4325386,0.0021028372,0.0023995847,0.00042595004,0.34906584,2.0631666e-07,2.0714953e-07,6.1211483e-07,4259850,0.107472904,0.02165873,0.004390248,0.4,0.00050051144,0.0005005324,0.00050049875,396809,0.0,0.0,0.0,0.5,0.0025000002,0.0025000002,0.0025000002,1,0,1,0,1,0
248666602,248566014,4325386,0.0021104943,0.002403372,0.00041547575,0.34906584,2.0574026e-07,2.0655489e-07,6.130158e-07,4259850,0.10740115,0.021632414,0.0057051904,0.4,0.00049973454,0.0004997616,0.0004996985,396809,0.0,0.0,0.0,0.5,0.0025000002,0.0025000002,0.0025000002,1,0,1,0,1,0
249466719,249366089,4325386,0.0021285224,0.0024161527,0.00039476,0.34906584,2.0534677e-07,2.0606561e-07,6.162139e-07,4259850,0.10743758,0.021627702,0.007148428,0.4,0.00049989123,0.00049992267,0.00049979705,396809,0.0,0.0,0.0,0.5,0.0025000002,0.0025000002,0.0025000002,1,1,1,1,1,0
249656772,249556107,4325386,0.0021224772,0.0024143432,0.00039105522,0.34906584,2.0511337e-07,2.05796e-07,6.166525e-07,4259850,0.107429184,0.02161472,0.008320171,0.4,0.00049985346,0.0004998872,0.00049974635,396809,0.0,0.0,0.0,0.5,0.0025000002,0.0025000002,0.0025000002,1,1,1,1,1,0
249866750,249766127,4325386,0.0021246881,0.002411478,0.0003875702,0.34906584,2.0525374e-07,2.0589904e-07,6.1836715e-07,4259850,0.10747556,0.021611849,0.009513004,0.4,0.00050033274,0.00050036923,0.0005002113,396809,0.0,0.0,0.0,0.5,0.0025000002,0.0025000002,0.0025000002,1,1,1,1,1,0
250256842,250156164,4325386,0.00212955,0.0023803306,0.0003758018,0.34906584,2.0454628e-07,2.0511791e-07,6.18496e-07,4259850,0.10736001,0.02155329,0.011213578,0.4,0.000499637,0.000499681,0.000499494,396809,0.0,0.0,0.0,0.5,0.0025000002,0.0025000002,0.0025000002,1,1,1,1,1,0
251266830,251166259,4325386,0.0021458794,0.002329632,0.00036397093,0.34906584,2.0365432e-07,2.041349e-07,6.224349e-07,4259850,0.1073023,0.021456407,0.011149834,0.4,0.00049997756,0.00050005777,0.00049984065,396809,0.0,0.0,0.0,0.5,0.0025000002,0.0025000002,0.0025000002,1,1,1,1,1,0
251866881,251766316,4325386,0.0022057674,0.0023609719,0.00032604678,0.34906584,2.0286518e-07,2.0320425e-07,6.2317815e-07,4259850,0.10756754,0.021376763,0.010150171,0.4,0.0004994552,0.00049957883,0.0004993982,396809,0.0,0.0,0.0,0.5,0.0025000002,0.0025000002,0.0025000002,1,1,1,1,1,0
252256921,252156353,4325386,0.0022405738,0.0023381815,0.0003014817,0.34906584,2.0264723e-07,2.0283242e-07,6.2450584e-07,4259850,0.10765535,0.021180423,0.008737777,0.4,0.0004999534,0.00050005474,0.0004999534,396809,0.0,0.0,0.0,0.5,0.0025000002,0.0025000002,0.0025000002,1,1,1,1,1,0
252856981,252756410,4325386,0.0022415668,0.0022488,0.000305365,0.34906584,2.0175614e-07,2.0191727e-07,6.2568284e-07,4259850,0.10715895,0.020744579,0.007459119,0.4,0.00049975043,0.00049975043,0.00049975043,396809,0.0,0.0,0.0,0.5,0.0025000002,0.0025000002,0.0025000002,1,1,1,1,1,0
253477040,253376468,4325386,0.0022058105,0.002155948,0.0003299225,0.34906584,2.0100981e-07,2.0135563e-07,6.2529296e-07,4259850,0.10633886,0.020357907,0.0067247557,0.4,0.0004995777,0.0004995777,0.0004995777,396809,0.0,0.0,0.0,0.5,0.0025000002,0.0025000002,0.0025000002,1,1,1,1,1,0
253537037,253436474,4325386,0.0022084464,0.0021592367,0.00034296277,0.34906584,2.0192284e-07,2.0227581e-07,6.258979e-07,4259850,0.10652266,0.020343974,0.0068374164,0.4,0.00050040457,0.00050040457,0.0005004089,396809,0.01331371,-0.004811196,-0.004522601,0.5,0.0012991872,0.0016667627,0.001636754,1,1,1,1,1,0
253607141,253506481,4325386,0.0022083153,0.0021594015,0.00034847157,0.34906584,2.0252297e-07,2.0287565e-07,6.259327e-07,4259850,0.10653857,0.020320898,0.006541141,0.4,0.0005001657,0.0005001657,0.00050016656,396809,0.018536802,-0.0055104764,-0.007946122,0.5,0.0009140583,0.0015000209,0.0014535391,1,1,1,1,1,0
253687062,253586488,4325386,0.0021547792,0.0021308612,0.0003195859,0.34906584,2.0098344e-07,2.0141034e-07,6.249162e-07,4259850,0.1059845,0.020438863,0.006857924,0.4,0.0005000582,0.0005000582,0.0005000591,396809,0.02237285,-0.0061264057,-0.009601402,0.5,0.00072295073,0.0014283317,0.0013738686,1,1,1,1,1,0
253757056,253656495,4325386,0.0021545598,0.0021306507,0.00032213036,0.34906584,2.0158124e-07,2.020078e-07,6.251785e-07,4259850,0.10597648,0.020419285,0.0068866,0.4,0.0004998088,0.0004998098,0.0004998119,396809,0.02471523,-0.006444756,-0.011588331,0.5,0.0006092276,0.0013880653,0.0013290374,1,1,1,1,1,0
253837139,253736502,4325386,0.0021544895,0.002130695,0.00032440145,0.34906584,2.0233244e-07,2.0275894e-07,6.2573883e-07,4259850,0.10597864,0.020409772,0.0067428765,0.4,0.00049969566,0.0004996974,0.00049969205,396809,0.026815647,-0.0066173514,-0.012814644,0.5,0.00053447066,0.001361508,0.0012995744,1,1,1,1,1,0
253907077,253806509,4325386,0.0021062414,0.0021201065,0.00028730347,0.34906584,2.0071988e-07,2.0119089e-07,6.2385874e-07,4259850,0.10555929,0.020609485,0.006620148,0.4,0.000499444,0.00049944443,0.0004994463,396809,0.028776873,-0.006828758,-0.014165532,0.5,0.00048175376,0.0013419988,0.0012781153,1,1,1,1,1,0
254057248,253956523,4325386,0.0021079367,0.0021219447,0.00028750705,0.34906584,2.0256805e-07,2.030401e-07,6.263172e-07,4259850,0.10564912,0.02063322,0.0064660856,0.4,0.0005003215,0.00050032267,0.000500312,396809,0.029408742,-0.007641797,-0.013946672,0.5,0.000413269,0.0013115971,0.0012487634,1,1,1,1,1,0
254137265,254036531,4325386,0.0020522194,0.0021139465,0.00023398538,0.34906584,2.0107073e-07,2.0154629e-07,6.234502e-07,4259850,0.10519775,0.020889323,0.0057066274,0.4,0.0004999671,0.00049996737,0.0004999624,396809,0.031095672,-0.007063137,-0.016357532,0.5,0.00038789897,0.0012976226,0.001238785,1,1,1,1,1,0
254267224,254166543,4325386,0.0019835813,0.002125518,0.00014716439,0.34906584,2.0000138e-07,2.0044122e-07,6.199707e-07,4259850,0.10482072,0.021364542,0.004571942,0.4,0.00049931335,0.00049931335,0.00049931335,396809,0.031855065,-0.0076941587,-0.017227601,0.5,0.00036354072,0.0012826317,0.0012285555,1,1,1,1,1,0
254287201,254186545,4325386,0.0019838202,0.0021258343,0.00014539009,0.34906584,2.003143e-07,2.0075464e-07,6.203987e-07,4259850,0.104841016,0.021392059,0.0045727133,0.4,0.00049960014,0.00049960014,0.00049960194,396809,0.030130584,-0.0091030095,-0.018465592,0.5,0.00033791002,0.0012691343,0.0012081572,1,1,1,1,1,0
254357292,254256552,4325386,0.0019837036,0.002124284,0.00013736893,0.34906584,2.0090845e-07,2.0134837e-07,6.205911e-07,4259850,0.10476432,0.021390963,0.0045759683,0.4,0.0004993453,0.0004993467,0.0004993489,396809,0.028675567,-0.009782383,-0.021397263,0.5,0.000312365,0.001259104,0.0011741117,1,1,1,1,1,0
254437420,254336560,4325386,0.0019867406,0.0021251456,0.00012555502,0.34906584,2.0215248e-07,2.0259284e-07,6.2253804e-07,4259850,0.10480397,0.02140948,0.0046452875,0.4,0.0005004549,0.00050045806,0.0005004549,396809,0.027813554,-0.010508615,-0.024599383,0.5,0.0002891406,0.0012518251,0.0011320508,1,1,1,1,1,0
254487226,254386564,4325386,0.0019368994,0.0021658659,4.191531e-05,0.34906584,2.0039457e-07,2.0081876e-07,6.190981e-07,4259850,0.10479963,0.02179707,0.0053960877,0.4,0.0004999382,0.0004999382,0.0004999382,396809,0.028770676,-0.010501325,-0.024901876,0.5,0.00028870656,0.001251822,0.0011319942,1,1,1,1,1,0
254507268,254406566,4325386,0.0019388013,0.0021646328,2.8327982e-05,0.34906584,2.0070127e-07,2.011252e-07,6.1943797e-07,4259850,0.10473839,0.021786993,0.0055322777,0.4,0.00050021266,0.00050021266,0.00050021353,396809,0.02836356,-0.011142895,-0.027937746,0.5,0.0002700123,0.0012460185,0.0010971267,1,1,1,1,1,0
254587376,254486574,4325386,0.0019395292,0.0021632419,1.989304e-05,0.34906584,2.0145453e-07,2.0187849e-07,6.199538e-07,4259850,0.10467179,0.021775376,0.0056568366,0.4,0.0005001035,0.0005001065,0.0005001052,396809,0.027790511,-0.011369588,-0.03014443,0.5,0.00025590404,0.0012402486,0.0010745346,1,1,1,1,1,0
254657311,254556580,4325386,0.0019395666,0.0021619508,1.4524983e-05,0.34906584,2.0204911e-07,2.0247339e-07,6.2022957e-07,4259850,0.104612134,0.021770125,0.0056788763,0.4,0.0004998509,0.0004998557,0.00049984775,396809,0.026867,-0.011673168,-0.031962633,0.5,0.00024508408,0.0012333087,0.0010599019,1,1,1,1,1,0
254667231,254566581,4325386,0.0018996813,0.0022280847,-8.211819e-05,0.34906584,2.0019688e-07,2.0066534e-07,6.176419e-07,4259850,0.10491026,0.022171775,0.0048568984,0.4,0.0004999868,0.0004999868,0.0004999868,396809,0.027920144,-0.011629255,-0.032179993,0.5,0.00024472162,0.0012333046,0.0010598699,1,1,1,1,1,0
254727275,254626587,4325386,0.0018989755,0.002226747,-8.478999e-05,0.34906584,2.0063759e-07,2.0110645e-07,6.176739e-07,4259850,0.10485459,0.022172961,0.004911495,0.4,0.0004995983,0.0004995996,0.0004995961,396809,0.026919872,-0.012342472,-0.03329272,0.5,0.00023596089,0.001225386,0.0010489614,1,1,1,1,1,0
254807286,254706595,4325386,0.0018981762,0.0022261192,-8.623944e-05,0.34906584,2.0138798e-07,2.0185765e-07,6.182467e-07,4259850,0.104838885,0.022195438,0.004937021,0.4,0.0004994872,0.00049949,0.0004994829,396809,0.02550096,-0.013908948,-0.034188002,0.5,0.00022840052,0.0012174649,0.001038978,1,1,1,1,1,0
254877475,254776601,4325386,0.0018550497,0.002288659,-0.00018352614,0.34906584,2.0041334e-07,2.0102935e-07,6.168911e-07,4259850,0.10526202,0.022597114,0.0045213676,0.4,0.00050044607,0.00050044607,0.00050044607,396809,0.025201095,-0.015281243,-0.035520826,0.5,0.000221024,0.0012111105,0.0010282921,1,1,1,1,1,0
254957356,254856609,4325386,0.0018544515,0.0022880146,-0.00018505784,0.34906584,2.011675e-07,2.0178413e-07,6.174467e-07,4259850,0.10524369,0.02261719,0.004522808,0.4,0.00050034065,0.00050034374,0.0005003398,396809,0.023900393,-0.0162514,-0.037065446,0.5,0.00021419267,0.0012061511,0.00101422,1,1,1,1,1,0
255027351,254926618,4325386,0.0018537514,0.002286877,-0.00018734262,0.34906584,2.0176266e-07,2.0237978e-07,6.1770214e-07,4259850,0.10520251,0.022632707,0.0045848954,0.4,0.0005000891,0.0005000962,0.00050009077,396809,0.02273066,-0.017136794,-0.038969725,0.5,0.00020757962,0.0012001316,0.0009955445,1,1,1,1,1,0
255107311,255006623,4325386,0.0018443847,0.00233429,-0.00025327795,0.34906584,2.004807e-07,2.0133251e-07,6.155378e-07,4259850,0.10546931,0.022693686,0.004736251,0.4,0.00049996993,0.00049997005,0.00049996993,396809,0.022551376,-0.018333113,-0.041149367,0.5,0.00020098856,0.0011917996,0.0009733937,1,1,1,1,1,0
255177378,255076630,4325386,0.0018442295,0.0023326145,-0.00025849137,0.34906584,2.0107603e-07,2.0192805e-07,6.1579e-07,4259850,0.10540255,0.022709716,0.0047501,0.4,0.0004997218,0.00049972476,0.0004997218,396809,0.021730734,-0.019919842,-0.04357445,0.5,0.00019541435,0.0011818842,0.0009519794,1,1,1,1,1,0
255257351,255156638,4325386,0.0018440444,0.0023315463,-0.0002617412,0.34906584,2.0182573e-07,2.0267855e-07,6.1632295e-07,4259850,0.10536518,0.02272702,0.004852023,0.4,0.00049961073,0.00049961766,0.00049961347,396809,0.020952364,-0.021147527,-0.04549878,0.5,0.00019065343,0.0011713125,0.000933749,1,1,1,1,1,0
255287162,255186641,4325386,0.0018506373,0.0023982555,-0.00033397137,0.34906584,2.0014394e-07,2.0130642e-07,6.148056e-07,4259850,0.10578594,0.022626823,0.0038659011,0.4,0.00049979024,0.00049979024,0.0004997885,396809,0.021672193,-0.02102553,-0.04551526,0.5,0.00019043367,0.0011713036,0.00093373604,1,1,1,1,1,0
255327308,255226644,4325386,0.0018514545,0.0023990374,-0.00033597034,0.34906584,2.0075831e-07,2.0192303e-07,6.157656e-07,4259850,0.10582978,0.022659881,0.0038682004,0.4,0.0005003367,0.0005003391,0.0005003403,396809,0.020852324,-0.021947093,-0.047141075,0.5,0.0001863642,0.0011608414,0.00091886,1,1,1,1,1,0
255407372,255306652,4325386,0.0018507299,0.0023981065,-0.00033716008,0.34906584,2.0150806e-07,2.0267377e-07,6.1631755e-07,4259850,0.10580835,0.022678198,0.0042447117,0.4,0.00050022395,0.00050023006,0.0005002244,396809,0.019917147,-0.022880245,-0.04880059,0.5,0.00018281737,0.0011494518,0.00090565183,1,1,1,1,1,0
255477342,255376659,4325386,0.0018822215,0.0024438393,-0.00038775452,0.34906584,2.000125e-07,2.0153657e-07,6.1497843e-07,4259850,0.10601062,0.022399904,0.0037783515,0.4,0.0004999694,0.0004999694,0.0004999712,396809,0.019358467,-0.023388997,-0.05041034,0.5,0.00017940077,0.0011366535,0.0008923431,1,1,1,1,1,0
255557421,255456666,4325386,0.0018806447,0.0024436715,-0.00038492566,0.34906584,2.0076438e-07,2.0228924e-07,6.1553203e-07,4259850,0.10602409,0.022420352,0.0040681483,0.4,0.0004998635,0.000499867,0.0004998635,396809,0.018095054,-0.022881921,-0.052052677,0.5,0.0001761857,0.0011201511,0.0008762038,1,1,1,1,1,0
255627339,255526673,4325386,0.0018786107,0.0024434228,-0.0003809084,0.34906584,2.0135688e-07,2.0288218e-07,6.157967e-07,4259850,0.10603042,0.02244282,0.004131573,0.4,0.0004996128,0.00049961824,0.00049961376,396809,0.016671011,-0.021754082,-0.054128613,0.5,0.00017293206,0.0010992553,0.0008565909,1,1,1,1,1,0
255707403,255606683,4325386,0.0018951717,0.0024956153,-0.00042290127,0.34906584,1.9995753e-07,2.0185287e-07,6.1502203e-07,4259850,0.10633572,0.022125253,0.0043288153,0.4,0.0004994959,0.0004994959,0.0004994995,396809,0.015773281,-0.020484144,-0.05643894,0.5,0.00016945723,0.0010728615,0.0008330047,1,1,1,1,1,0
255777394,255676687,4325386,0.0018955788,0.0024981152,-0.00042039124,0.34906584,2.0103718e-07,2.0293683e-07,6.1677446e-07,4259850,0.10646114,0.022177288,0.004531561,0.4,0.0005004607,0.0005004615,0.0005004607,396809,0.014430499,-0.019367887,-0.05908701,0.5,0.0001661314,0.0010428046,0.00080780295,1,1,1,1,1,0
255857416,255756695,4325386,0.0018941433,0.0024977128,-0.0004183939,0.34906584,2.0178611e-07,2.0368621e-07,6.173051e-07,4259850,0.10646275,0.022202441,0.004833556,0.4,0.0005003494,0.00050035166,0.00050035206,396809,0.013403258,-0.01871762,-0.061516102,0.5,0.0001629329,0.0010101312,0.0007824977,1,1,1,1,1,0
255927387,255826702,4325386,0.0019368089,0.0025327303,-0.0004591152,0.34906584,2.0022819e-07,2.0243569e-07,6.164627e-07,4259850,0.10645626,0.021762827,0.0050529926,0.4,0.0005000997,0.0005000997,0.0005001032,396809,0.012652361,-0.017297354,-0.06382558,0.5,0.00015988552,0.0009776419,0.0007590154,1,1,1,1,1,0
255997474,255896708,4325386,0.0019350633,0.0025319234,-0.00045705392,0.34906584,2.0081728e-07,2.0302433e-07,6.167261e-07,4259850,0.106443346,0.021780098,0.005408237,0.4,0.00049984036,0.000499841,0.00049984123,396809,0.011659254,-0.016314974,-0.06594356,0.5,0.00015715128,0.0009452385,0.00073710294,1,1,1,1,1,0
256077426,255976716,4325386,0.0019828447,0.002583368,-0.0005001683,0.34906584,1.9940586e-07,2.0180742e-07,6.159878e-07,4259850,0.10647483,0.021101218,0.0060153278,0.4,0.00049972587,0.00049972587,0.0004997268,396809,0.011166572,-0.01513795,-0.06772697,0.5,0.00015442871,0.0009120781,0.000715965,1,1,1,1,1,0
256147370,256046723,4325386,0.0019811797,0.00258258,-0.0004981873,0.34906584,1.9999719e-07,2.023978e-07,6.162659e-07,4259850,0.10646421,0.021115983,0.006161276,0.4,0.00049947103,0.0004994716,0.0004994756,396809,0.010055337,-0.013439451,-0.06968556,0.5,0.00015192016,0.0008777517,0.00069467723,1,1,1,1,1,0
256227404,256126730,4325386,0.0019797403,0.0025819684,-0.0004966206,0.34906584,2.0074141e-07,2.0314167e-07,6.168081e-07,4259850,0.10646589,0.021130225,0.0064676707,0.4,0.00049935083,0.00049935235,0.0004993525,396809,0.00891554,-0.011648954,-0.071720645,0.5,0.00014939696,0.0008410696,0.0006720643,1,1,1,1,1,0
256297526,256196737,4325386,0.0020351077,0.002605647,-0.00054265046,0.34906584,1.9967939e-07,2.0212377e-07,6.167447e-07,4259850,0.10629015,0.020671006,0.0063946745,0.4,0.00050032313,0.00050032313,0.00050032587,396809,0.008304115,-0.009579202,-0.07356634,0.5,0.00014667015,0.00080391794,0.000648934,1,1,1,1,1,0
256377460,256276745,4325386,0.0020342025,0.0026048787,-0.0005424298,0.34906584,2.0042827e-07,2.0287145e-07,6.1729594e-07,4259850,0.10628101,0.020683214,0.006491325,0.4,0.0005002092,0.0005002098,0.0005002088,396809,0.0074576247,-0.008442546,-0.075169764,0.5,0.00014423802,0.0007671566,0.00062566553,1,1,1,1,1,0
256447531,256346751,4325386,0.0020322693,0.0026024103,-0.0005426342,0.34906584,2.0083766e-07,2.0327641e-07,6.170097e-07,4259850,0.106199674,0.020686144,0.006582763,0.4,0.0004994967,0.0004994981,0.00049949845,396809,0.0069292625,-0.008405533,-0.07669584,0.5,0.00014196966,0.0007330461,0.0006039369,1,1,1,1,1,0
256527419,256426759,4325386,0.0021038891,0.0026150302,-0.00061138306,0.34906584,1.9946145e-07,2.0173843e-07,6.1459986e-07,4259850,0.10557841,0.020136265,0.0069984095,0.4,0.0004993757,0.0004993757,0.0004993757,396809,0.007257823,-0.008255389,-0.07815296,0.5,0.00013951804,0.0007023205,0.00058475946,1,1,1,1,1,0
256597544,256496766,4325386,0.0021057695,0.0026169696,-0.0006130429,0.34906584,2.005437e-07,2.0282398e-07,6.163948e-07,4259850,0.105670474,0.02017005,0.006998191,0.4,0.00050034525,0.000500346,0.0005003459,396809,0.0070315143,-0.0088655045,-0.07904346,0.5,0.00013775773,0.0006755063,0.00056878885,1,1,1,1,1,0
256657481,256556771,4325386,0.0021700088,0.0026170094,-0.0006841673,0.34906584,1.9900364e-07,2.0097345e-07,6.1259243e-07,4259850,0.10495027,0.019836443,0.0064284774,0.4,0.0004999544,0.0004999544,0.0004999544,396809,0.00780001,-0.0082447855,-0.079202965,0.5,0.00013719035,0.0006751949,0.0005687761,1,1,1,1,1,0
256677492,256576773,4325386,0.0021704165,0.0026171065,-0.00068529946,0.34906584,1.9930643e-07,2.0127622e-07,6.130326e-07,4259850,0.10496801,0.019859714,0.0064310203,0.4,0.0005002255,0.0005002255,0.00050022727,396809,0.007631106,-0.009190744,-0.080124274,0.5,0.00013576803,0.00065300864,0.0005569047,1,1,1,1,1,0
256827523,256726788,4325386,0.0021686687,0.0026151424,-0.0006855766,0.34906584,2.0064306e-07,2.0261052e-07,6.1387817e-07,4259850,0.104928546,0.019876895,0.006309578,0.4,0.00049984816,0.0004998501,0.0004998475,396809,0.006930975,-0.0091448305,-0.08109571,0.5,0.00013375947,0.0006196833,0.00054347544,1,1,1,1,1,0
257067442,256966811,4325386,0.0022500253,0.0025864462,-0.00081066485,0.34906584,1.9899262e-07,2.0004721e-07,6.055922e-07,4259850,0.10366801,0.0198449,0.005434411,0.4,0.0004994997,0.0004994997,0.0004994997,396809,0.007426231,-0.009039361,-0.082060024,0.5,0.00013050297,0.0005839907,0.0005372057,1,1,1,1,1,0
257197540,257096823,4325386,0.0022507012,0.0025868234,-0.0008130592,0.34906584,2.005098e-07,2.0156772e-07,6.073865e-07,4259850,0.10372026,0.019850867,0.0059627257,0.4,0.00050007936,0.0005000812,0.00050007924,396809,0.007207156,-0.010252376,-0.08204198,0.5,0.00012957226,0.0005625428,0.00053529505,1,1,1,1,1,0
257347516,257246837,4325386,0.0022795633,0.002563919,-0.0008707391,0.34906584,1.999908e-07,2.005666e-07,6.035065e-07,4259850,0.10307763,0.019976709,0.0067465534,0.4,0.00049969985,0.00049970014,0.00049969763,396809,0.0078082466,-0.01097348,-0.0820858,0.5,0.00012808862,0.00054037344,0.0005339103,1,1,1,1,1,0
257567517,257466859,4325386,0.0023065887,0.002537999,-0.000931662,0.34906584,2.0047014e-07,2.0058161e-07,6.016162e-07,4259850,0.10245561,0.020265415,0.007077519,0.4,0.0005000361,0.00050003675,0.0005000353,396809,0.008626351,-0.01153835,-0.08163479,0.5,0.00012636448,0.00050443714,0.0005275096,1,1,1,1,1,0
257697415,257596871,4325386,0.002312364,0.0024955561,-0.0009797806,0.34906584,1.9967756e-07,1.9938646e-07,5.9908155e-07,4259850,0.10192526,0.021010043,0.0066643013,0.4,0.0004993763,0.0004993763,0.0004993763,396809,0.009342432,-0.011781918,-0.08111654,0.5,0.00012543814,0.00049088045,0.00052160065,1,1,1,1,1,0
257797582,257696880,4325386,0.0023089128,0.0024925945,-0.0009925718,0.34906584,2.0071775e-07,2.0043235e-07,5.998552e-07,4259850,0.101884075,0.021015031,0.0066405586,0.4,0.0004995341,0.00049953704,0.00049953576,396809,0.009870936,-0.013032881,-0.07988306,0.5,0.00012430566,0.00046470462,0.0005053056,1,1,1,1,1,0
257867660,257766887,4325386,0.002313074,0.0024497276,-0.0010351511,0.34906584,1.9993485e-07,1.9934687e-07,5.998521e-07,4259850,0.10155686,0.021956816,0.0063497243,0.4,0.000500491,0.000500491,0.000500491,396809,0.010605006,-0.012732827,-0.0797871,0.5,0.0001234238,0.00045191086,0.00049590605,1,1,1,1,1,0
258017737,257916902,4325386,0.0023101165,0.0024471085,-0.0010462546,0.34906584,2.0126458e-07,2.006846e-07,6.0039815e-07,4259850,0.10145606,0.02192785,0.006189507,0.4,0.0005001296,0.00050013326,0.0005001304,396809,0.011224444,-0.011896438,-0.080758795,0.5,0.00012205838,0.00042848216,0.00047510138,1,1,1,1,1,0
258047695,257946904,4325386,0.002315148,0.0024070477,-0.0010718711,0.34906584,1.9938241e-07,1.9861028e-07,5.9885684e-07,4259850,0.100941636,0.022748886,0.0058898246,0.4,0.00049931736,0.00049931736,0.00049931736,396809,0.011576741,-0.011537465,-0.08081267,0.5,0.00012189817,0.0004282926,0.0004750942,1,1,1,1,1,0
258097639,257996909,4325386,0.0023163422,0.002408497,-0.0010774306,0.34906584,2.0014834e-07,1.9938007e-07,5.9990737e-07,4259850,0.10098277,0.02274605,0.0058275284,0.4,0.0005000196,0.0005000196,0.00050002313,396809,0.011876144,-0.010618001,-0.082023025,0.5,0.00012110201,0.0004174808,0.0004632196,1,1,1,1,1,0
258167521,258066916,4325386,0.0023155627,0.0024079513,-0.0010812547,0.34906584,2.0073051e-07,1.9996779e-07,5.999868e-07,4259850,0.10092978,0.022711795,0.005924264,0.4,0.0004997657,0.0004997662,0.0004997657,396809,0.0121544115,-0.009511211,-0.08356416,0.5,0.00012024842,0.00040752502,0.00045057829,1,1,1,1,1,0
258247614,258146924,4325386,0.002313784,0.0024067257,-0.0010886086,0.34906584,2.0146554e-07,2.0070797e-07,6.003044e-07,4259850,0.10087374,0.022672746,0.0062684026,0.4,0.0004996475,0.0004996502,0.00049964926,396809,0.012590877,-0.008934982,-0.08451155,0.5,0.00011938272,0.00039865833,0.00043749233,1,1,1,1,1,0
258257712,258156925,4325386,0.002299551,0.002353179,-0.0011171979,0.34906584,1.996178e-07,1.9880838e-07,6.000602e-07,4259850,0.10079117,0.02408888,0.0052008913,0.4,0.0004997874,0.0004997874,0.0004997874,396809,0.012956748,-0.008574998,-0.08455137,0.5,0.00011929552,0.00039853473,0.00043749003,1,1,1,1,1,0
258387658,258286937,4325386,0.0022957223,0.0023506286,-0.0011377587,0.34906584,2.011113e-07,2.0031126e-07,6.013876e-07,4259850,0.10073658,0.02407486,0.005209208,0.4,0.0005003527,0.00050035334,0.0005003527,396809,0.013967954,-0.008345627,-0.0850002,0.5,0.00011776451,0.00038401724,0.0004155038,1,1,1,1,1,0
258487620,258386947,4325386,0.0022811443,0.0022927707,-0.0011720785,0.34906584,1.9997663e-07,1.992642e-07,6.0131487e-07,4259850,0.100553334,0.02549596,0.0050434186,0.4,0.00050050125,0.00050050125,0.00050050125,396809,0.014709967,-0.007754072,-0.08531037,0.5,0.00011705764,0.00037783745,0.00040840707,1,1,1,1,1,0
258657843,258556963,4325386,0.002269874,0.0022623048,-0.0011934274,0.34906584,1.9954052e-07,1.9895089e-07,6.0126365e-07,4259850,0.10053915,0.026240364,0.005095813,0.4,0.0005004088,0.0005004088,0.0005004088,396809,0.0152667845,-0.007115363,-0.08586349,0.5,0.00011595366,0.00036702995,0.00040012063,1,1,1,1,1,0
258767650,258666974,4325386,0.0022708066,0.0022632761,-0.0011955549,0.34906584,2.0063402e-07,2.0005739e-07,6.020664e-07,4259850,0.10053028,0.026215704,0.0050571733,0.4,0.0005004652,0.00050046353,0.000500462,396809,0.015457045,-0.0063314997,-0.086815044,0.5,0.00011499836,0.00035754696,0.00039428577,1,1,1,1,1,0
258857822,258756982,4325386,0.002247613,0.0022476376,-0.0012208647,0.34906584,1.9943981e-07,1.9899882e-07,6.012773e-07,4259850,0.10099131,0.026751384,0.0037173897,0.4,0.0005004808,0.0005004808,0.0005004808,396809,0.015820317,-0.006196731,-0.08694671,0.5,0.00011444501,0.0003532835,0.00039170284,1,1,1,1,1,0
259117570,259017007,4325386,0.0022205857,0.002246439,-0.0012498321,0.34906584,1.9986902e-07,1.9955759e-07,6.0163984e-07,4259850,0.10153813,0.026793452,0.0028739877,0.4,0.0005004222,0.00050042133,0.0005004204,396809,0.01627606,-0.0066052885,-0.08639938,0.5,0.00011355364,0.00034303433,0.00038852668,1,1,1,1,1,0
259457956,259357040,4325386,0.002225511,0.0022671684,-0.0012478582,0.34906584,1.9919857e-07,1.9898393e-07,6.0172283e-07,4259850,0.10146066,0.026353953,0.001076021,0.4,0.0005002496,0.0005002496,0.0005002496,396809,0.016157024,-0.0073708817,-0.08610613,0.5,0.000112494425,0.0003294583,0.00038593903,1,1,1,1,1,0
260057992,259957098,4325386,0.0022046356,0.0022689062,-0.0012575343,0.34906584,1.9917769e-07,1.9893636e-07,6.037715e-07,4259850,0.10176926,0.02630519,-0.0006832295,0.4,0.0004997551,0.0004997551,0.0004997551,396809,0.015892334,-0.007299975,-0.08578,0.5,0.000111209025,0.00031675815,0.00038319206,1,1,1,1,1,0
260258051,260157118,4325386,0.0022068548,0.0022633893,-0.0012612711,0.34906584,1.9938177e-07,1.9911256e-07,6.053531e-07,4259850,0.10170274,0.026484793,-0.0017480054,0.4,0.00050007604,0.00050007604,0.00050007604,396809,0.015878454,-0.0075713187,-0.08565412,0.5,0.00011084298,0.00031346112,0.0003828251,1,1,1,1,1,0
260477838,260377139,4325386,0.0022079693,0.0022721211,-0.0012587025,0.34906584,1.994037e-07,1.9908946e-07,6.062403e-07,4259850,0.10156828,0.026313474,-0.0027308012,0.4,0.0004994511,0.0004994511,0.0004994511,396809,0.015801111,-0.0077368957,-0.08563347,0.5,0.00011061288,0.0003113291,0.0003823918,1,1,1,1,1,0
260657953,260557156,4325386,0.0022080224,0.0022760634,-0.0012619771,0.34906584,1.9934387e-07,1.9897882e-07,6.074097e-07,4259850,0.10155678,0.026277607,-0.0038287262,0.4,0.0004994976,0.0004994976,0.0004994976,396809,0.015759416,-0.00809877,-0.08582036,0.5,0.0001101256,0.00030781963,0.00037985013,1,1,1,1,1,0
260867919,260767176,4325386,0.002234956,0.002289609,-0.001267694,0.34906584,1.9972799e-07,1.993018e-07,6.090988e-07,4259850,0.10107248,0.026097167,-0.004908605,0.4,0.0004999552,0.0004999552,0.0004999552,396809,0.015492833,-0.00831499,-0.0861536,0.5,0.00010890251,0.0003008879,0.00037180865,1,1,1,1,1,0
261157969,261057205,4325386,0.0022623448,0.002304227,-0.0012753449,0.34906584,2.0081703e-07,2.0033445e-07,6.103745e-07,4259850,0.1005423,0.025800977,-0.0047677406,0.4,0.0005000816,0.00050007756,0.0005000763,396809,0.014884495,-0.007889167,-0.08689505,0.5,0.00010654219,0.00029031112,0.00035591418,1,1,1,1,1,0
261907939,261807277,4325386,0.0022850486,0.0023249402,-0.0012765654,0.34906584,2.0078966e-07,2.001106e-07,6.0825624e-07,4259850,0.09996304,0.02547925,-0.0056247655,0.4,0.0004994739,0.00049947377,0.00049947377,396809,0.014651543,-0.008044183,-0.08732134,0.5,0.00010427302,0.00028400158,0.00034841328,1,1,1,1,1,0
262728021,262627357,4325386,0.002272603,0.0022894398,-0.0013010482,0.34906584,2.0149047e-07,2.0061825e-07,6.105672e-07,4259850,0.09990944,0.025603736,-0.005967,0.4,0.00049959397,0.00049959397,0.00049959397,396809,0.014498409,-0.0069503975,-0.08707946,0.5,0.00010191983,0.000280782,0.0003438568,1,1,1,1,1,0
263468167,263367429,4325386,0.0022644033,0.0022781088,-0.0013149559,0.34906584,2.0124038e-07,2.0034214e-07,6.1388084e-07,4259850,0.09974307,0.025531419,-0.0057266583,0.4,0.0004998187,0.0004998187,0.0004998196,396809,0.014430506,-0.005922461,-0.08718964,0.5,9.9458266e-05,0.00027743648,0.0003395899,1,1,1,1,1,0
263848214,263747466,4325386,0.0022673188,0.0022787515,-0.0012980727,0.34906584,2.0309658e-07,2.0225202e-07,6.1608614e-07,4259850,0.09985419,0.025612492,-0.005377728,0.4,0.00050020067,0.00050020067,0.00050020334,396809,0.015004554,-0.0067290612,-0.08761502,0.5,9.81732e-05,0.0002753584,0.00033779122,1,1,1,1,1,0
263928009,263827474,4325386,0.0022674045,0.0022704827,-0.0012844905,0.34906584,2.018789e-07,2.010517e-07,6.162879e-07,4259850,0.09995572,0.025589481,-0.0043146233,0.4,0.0005000835,0.00050008297,0.0005000827,396809,0.015476859,-0.0075011733,-0.08781823,0.5,9.790494e-05,0.00027494633,0.00033751075,1,1,1,1,1,0
263978075,263877479,4325386,0.0022661581,0.0022692594,-0.0012836796,0.34906584,2.0216096e-07,2.0133464e-07,6.161235e-07,4259850,0.09991812,0.02553052,-0.0031287721,0.4,0.00049954915,0.0004995481,0.0004995439,396809,0.01547605,-0.0075009903,-0.0878185,0.5,9.790494e-05,0.00027494633,0.00033751075,1,1,1,1,1,0
263998206,263897481,4325386,0.0022752145,0.0022781114,-0.0012585119,0.34906584,2.024421e-07,2.0162908e-07,6.1626065e-07,4259850,0.10008365,0.025663441,-0.003140176,0.4,0.0004998248,0.0004998248,0.00049982656,396809,0.016316805,-0.009077626,-0.08802575,0.5,9.764292e-05,0.00027450573,0.0003371446,1,1,1,1,1,0
264198154,264097501,4325386,0.0022818174,0.0022076683,-0.0012680507,0.34906584,2.0250317e-07,2.0181064e-07,6.1811005e-07,4259850,0.100381605,0.025240527,-0.0017324847,0.4,0.00050015433,0.0005001529,0.0005001428,396809,0.01651851,-0.008916871,-0.08806064,0.5,9.7549106e-05,0.00027447075,0.00033714125,1,1,1,1,1,0
264218210,264117502,4325386,0.0022931069,0.0022183887,-0.0012384638,0.34906584,2.0277768e-07,2.0209909e-07,6.182033e-07,4259850,0.1005639,0.025403373,-0.001742508,0.4,0.0005004164,0.0005004151,0.0005004121,396809,0.017861282,-0.011408784,-0.08807697,0.5,9.723326e-05,0.0002738342,0.00033649243,1,1,1,1,1,0
264298258,264197510,4325386,0.0023013162,0.0021771523,-0.0012262771,0.34906584,2.0131603e-07,2.0091105e-07,6.155817e-07,4259850,0.1008625,0.025194312,-0.0016366433,0.4,0.000500293,0.000500293,0.00050029653,396809,0.019344352,-0.013606972,-0.08814254,0.5,9.673502e-05,0.00027318156,0.0003359213,1,1,1,1,1,0
264368164,264267517,4325386,0.0023108898,0.0021861,-0.0011996023,0.34906584,2.018815e-07,2.0149108e-07,6.155559e-07,4259850,0.1009844,0.025317717,-0.0010869433,0.4,0.00050003896,0.00050003896,0.00050003984,396809,0.020554578,-0.015818996,-0.08818954,0.5,9.641114e-05,0.00027258784,0.00033541457,1,1,1,1,1,0
264438265,264337524,4325386,0.002320207,0.002194556,-0.0011759548,0.34906584,2.0244441e-07,2.0206893e-07,6.155336e-07,4259850,0.10109278,0.025420545,-0.00018198107,0.4,0.000499783,0.000499783,0.0004997857,396809,0.021679193,-0.017831825,-0.088262804,0.5,9.608105e-05,0.00027200903,0.00033496748,1,1,1,1,1,0
264518272,264417532,4325386,0.002318406,0.0021208369,-0.0012020976,0.34906584,2.0069648e-07,2.0065127e-07,6.082071e-07,4259850,0.101403534,0.024832185,-0.00017941147,0.4,0.00049940695,0.00049940695,0.00049940695,396809,0.023289302,-0.019368244,-0.088303804,0.5,9.531775e-05,0.0002712889,0.00033453712,1,1,1,1,1,0
264588206,264487539,4325386,0.002329466,0.002131282,-0.0011848618,0.34906584,2.017514e-07,2.0172105e-07,6.0968335e-07,4259850,0.1016015,0.024965398,7.1389346e-05,0.4,0.0005003709,0.0005003709,0.0005003718,396809,0.024299834,-0.020956038,-0.08822722,0.5,9.4965224e-05,0.00027072296,0.00033416125,1,1,1,1,1,0
264668424,264567547,4325386,0.0023056974,0.0020978965,-0.001256997,0.34906584,2.0029044e-07,2.0046451e-07,6.002974e-07,4259850,0.101677276,0.024467653,0.0010429655,0.4,0.0005002628,0.0005002628,0.0005002628,396809,0.026021132,-0.021948047,-0.08824261,0.5,9.407043e-05,0.00026997336,0.00033381424,1,1,1,1,1,0
264738351,264637554,4325386,0.00231615,0.002105951,-0.001245619,0.34906584,2.0085902e-07,2.0104862e-07,6.0031016e-07,4259850,0.10174679,0.024538342,0.0015040536,0.4,0.0005000151,0.0005000151,0.0005000151,396809,0.026913054,-0.023154708,-0.088283435,0.5,9.37025e-05,0.00026938156,0.00033348825,1,1,1,1,1,0
264818273,264717561,4325386,0.0023272296,0.00211435,-0.0012363759,0.34906584,2.015781e-07,2.0178398e-07,6.0057647e-07,4259850,0.1018201,0.024625303,0.0013123074,0.4,0.00049989857,0.00049989845,0.0004998997,396809,0.027722634,-0.024133319,-0.08833096,0.5,9.333692e-05,0.00026878447,0.00033315393,1,1,1,1,1,0
264868277,264767566,4325386,0.0022834188,0.0020798405,-0.0013542642,0.34906584,1.9982772e-07,2.0001747e-07,5.88366e-07,4259850,0.101631604,0.024020124,0.0013604941,0.4,0.00049935747,0.00049935747,0.00049935747,396809,0.028668765,-0.02357534,-0.088414334,0.5,9.2678114e-05,0.0002685351,0.0003331475,1,1,1,1,1,0
264888271,264787568,4325386,0.0022952305,0.0020884278,-0.0013486047,0.34906584,2.0010889e-07,2.0031514e-07,5.885231e-07,4259850,0.10173252,0.024093244,0.0013666836,0.4,0.00049964205,0.00049964205,0.00049964373,396809,0.029423693,-0.024399191,-0.08847278,0.5,9.23075e-05,0.0002679182,0.0003327698,1,1,1,1,1,0
265008128,264907580,4325386,0.0023077682,0.0020971214,-0.0013447038,0.34906584,2.0145045e-07,2.0167394e-07,5.8985995e-07,4259850,0.10183641,0.024128921,0.002370225,0.4,0.0005000841,0.0005000833,0.0005000793,396809,0.030140027,-0.025069533,-0.08852263,0.5,9.1953974e-05,0.00026733868,0.00033233428,1,1,1,1,1,0
265068272,264967586,4325386,0.002265631,0.0020750607,-0.0014952314,0.34906584,2.0003768e-07,2.0000198e-07,5.7640904e-07,4259850,0.10164074,0.023519883,0.0021696805,0.4,0.00049968314,0.00049968314,0.00049968314,396809,0.031979598,-0.024841495,-0.08866954,0.5,9.0911555e-05,0.0002665339,0.00033186006,1,1,1,1,1,0
265188362,265087597,4325386,0.0022890894,0.002090564,-0.0014932295,0.34906584,2.013426e-07,2.0134367e-07,5.774034e-07,4259850,0.10177755,0.023596074,0.0021109055,0.4,0.00050012197,0.00050012197,0.0005001222,396809,0.033020996,-0.025250072,-0.08883738,0.5,9.031565e-05,0.00026560077,0.00033086492,1,1,1,1,1,0
265268508,265167605,4325386,0.0022520663,0.0020817742,-0.0016379959,0.34906584,2.0046413e-07,1.999228e-07,5.642356e-07,4259850,0.101549685,0.023126446,0.002354096,0.4,0.0005000135,0.0005000135,0.0005000135,396809,0.034570057,-0.024668247,-0.08902979,0.5,8.934659e-05,0.0002649705,0.0003303165,1,1,1,1,1,0
265328152,265227612,4325386,0.0022512018,0.002080653,-0.0016371596,0.34906584,2.0090754e-07,2.0036657e-07,5.643951e-07,4259850,0.101494364,0.023084445,0.0034173997,0.4,0.00049962854,0.000499628,0.00049962336,396809,0.034569792,-0.024668558,-0.08902976,0.5,8.934659e-05,0.0002649705,0.0003303165,1,1,1,1,1,0
265418316,265317620,4325386,0.0022710662,0.0020923358,-0.0016373681,0.34906584,2.017427e-07,2.0124178e-07,5.6466064e-07,4259850,0.10154371,0.023107387,0.003775885,0.4,0.00049965264,0.0004996526,0.0004996495,396809,0.03552794,-0.02511279,-0.08909426,0.5,8.8886096e-05,0.00026445944,0.00032919587,1,1,1,1,1,0
265458473,265357624,4325386,0.002221776,0.0020938106,-0.0017930194,0.34906584,2.0099218e-07,1.9967996e-07,5.528475e-07,4259850,0.10108369,0.022789929,0.005013189,0.4,0.0005002001,0.0005002001,0.0005002001,396809,0.03666612,-0.02440544,-0.089200266,0.5,8.821622e-05,0.00026418446,0.00032918798,1,1,1,1,1,0
265668333,265567645,4325386,0.0022007448,0.0020730516,-0.0019077683,0.34906584,2.0192338e-07,1.9964243e-07,5.415947e-07,4259850,0.10036664,0.022244558,0.007911872,0.4,0.00050041435,0.00050041435,0.00050041435,396809,0.03827069,-0.024303595,-0.08941578,0.5,8.698991e-05,0.00026346513,0.00032775057,1,1,1,1,1,0
265848380,265747663,4325386,0.0021745097,0.0020732342,-0.0020245488,0.34906584,2.0275928e-07,1.993502e-07,5.3097426e-07,4259850,0.100141,0.021860411,0.0090295905,0.4,0.0005004681,0.0005004681,0.0005004681,396809,0.039501864,-0.02409435,-0.08957784,0.5,8.6056076e-05,0.00026300875,0.0003266849,1,1,1,1,1,0
265928262,265827670,4325386,0.0021767977,0.0020738349,-0.0020236424,0.34906584,2.0347473e-07,2.0009105e-07,5.3137643e-07,4259850,0.10006934,0.021824824,0.010376804,0.4,0.00050036487,0.0005003658,0.00050036004,396809,0.03967966,-0.024230001,-0.08959159,0.5,8.590777e-05,0.00026293876,0.00032615027,1,1,1,1,1,0
266068385,265967684,4325386,0.0021584888,0.0020645524,-0.002103196,0.34906584,2.038274e-07,1.9914873e-07,5.2005e-07,4259850,0.099590756,0.02148634,0.012043065,0.4,0.0004998643,0.0004998643,0.0004998643,396809,0.040520456,-0.0239362,-0.089706816,0.5,8.5100575e-05,0.00026260788,0.00032535684,1,1,1,1,1,0
266258530,266157703,4325386,0.002145386,0.0020751236,-0.002190495,0.34906584,2.0504446e-07,1.989937e-07,5.1046186e-07,4259850,0.09947108,0.021246402,0.012767342,0.4,0.00050006236,0.00050006236,0.00050006236,396809,0.04151207,-0.023362959,-0.08980202,0.5,8.4286396e-05,0.00026225796,0.0003247171,1,1,1,1,1,0
266488545,266387725,4325386,0.0021286954,0.0020461078,-0.0022699956,0.34906584,2.0643873e-07,1.9888508e-07,5.010617e-07,4259850,0.09928019,0.020696992,0.013522386,0.4,0.0004996024,0.0004996024,0.0004996024,396809,0.04253664,-0.022982743,-0.08990186,0.5,8.35058e-05,0.00026193415,0.0003242075,1,1,1,1,1,0
266698382,266597746,4325386,0.0021216562,0.0020449236,-0.0023226761,0.34906584,2.0808392e-07,1.9901421e-07,4.9374427e-07,4259850,0.0991651,0.020502318,0.014567866,0.4,0.00050008536,0.000500087,0.00050008536,396809,0.04326289,-0.0228787,-0.090073645,0.5,8.279118e-05,0.0002616354,0.00032391958,1,1,1,1,1,0
266858404,266757762,4325386,0.0021265836,0.0020473946,-0.0023158598,0.34906584,2.0938242e-07,2.003904e-07,4.943164e-07,4259850,0.09899927,0.020476127,0.015914448,0.4,0.00049962697,0.0004996408,0.00049962697,396809,0.043498892,-0.022923399,-0.09017175,0.5,8.2622944e-05,0.00026158086,0.00032376376,1,1,1,1,1,0
267058760,266957782,4325386,0.0021149085,0.0020784254,-0.0024094095,0.34906584,2.1040827e-07,1.9824687e-07,4.805854e-07,4259850,0.09930372,0.020391265,0.016020097,0.4,0.0004999625,0.0004999625,0.0004999625,396809,0.04446867,-0.022698972,-0.09041582,0.5,8.1713595e-05,0.0002610166,0.00032345235,1,1,1,1,1,0
267258585,267157801,4325386,0.0021064037,0.0020906236,-0.0024480687,0.34906584,2.1193664e-07,1.9821415e-07,4.762471e-07,4259850,0.09915753,0.020400934,0.01721052,0.4,0.0005003011,0.0005003011,0.0005003011,396809,0.04491832,-0.022645608,-0.09053096,0.5,8.1288206e-05,0.0002605808,0.00032305077,1,1,1,1,1,0
267378420,267277813,4325386,0.002104418,0.002089621,-0.0024408004,0.34906584,2.1268534e-07,1.9906436e-07,4.761179e-07,4259850,0.09892998,0.020377394,0.01842699,0.4,0.0004995243,0.0004995332,0.0004995243,396809,0.04503559,-0.022713987,-0.09061468,0.5,8.1110986e-05,0.00026023935,0.00032260394,1,1,1,1,1,0
267458608,267357821,4325386,0.00209944,0.002099691,-0.0024572888,0.34906584,2.1284949e-07,1.9768528e-07,4.7132113e-07,4259850,0.09857328,0.020454556,0.019696547,0.4,0.00049940747,0.00049940747,0.00049940747,396809,0.045198593,-0.022639306,-0.090674505,0.5,8.081312e-05,0.00025994796,0.00032235167,1,1,1,1,1,0
267598466,267497835,4325386,0.0021001229,0.002101714,-0.0024534306,0.34906584,2.1444013e-07,1.9933564e-07,4.7281e-07,4259850,0.09847841,0.020466456,0.02094556,0.4,0.000500144,0.00050015474,0.000500144,396809,0.04532271,-0.022735845,-0.09079323,0.5,8.059865e-05,0.00025947695,0.0003216628,1,1,1,1,1,0
267868604,267767862,4325386,0.002102693,0.0021375553,-0.0024567745,0.34906584,2.1581727e-07,1.9776961e-07,4.6644243e-07,4259850,0.0983841,0.020623745,0.022548385,0.4,0.00050022255,0.00050022255,0.00050022255,396809,0.045525126,-0.022805078,-0.09102756,0.5,7.9878315e-05,0.00025833573,0.0003201695,1,1,1,1,1,0
268028567,267927878,4325386,0.0020982416,0.002136511,-0.0024463877,0.34906584,2.169065e-07,1.9901584e-07,4.66407e-07,4259850,0.09810623,0.02061718,0.023783278,0.4,0.0004994951,0.0004995068,0.0004994951,396809,0.045682352,-0.022908563,-0.0912526,0.5,7.946146e-05,0.000257487,0.00031888435,1,1,1,1,1,0
268238514,268137898,4325386,0.0021004959,0.0021478003,-0.0024420011,0.34906584,2.1843583e-07,1.9916371e-07,4.6507347e-07,4259850,0.09807982,0.020650761,0.024950601,0.4,0.00049996434,0.00049997796,0.00049996434,396809,0.04575484,-0.022984166,-0.091382064,0.5,7.908229e-05,0.00025698234,0.0003181997,1,1,1,1,1,0
268458718,268357920,4325386,0.002099394,0.0022030133,-0.0024415306,0.34906584,2.1854896e-07,1.9680817e-07,4.6096298e-07,4259850,0.09789599,0.020894894,0.026405673,0.4,0.00049934513,0.00049934513,0.00049934513,396809,0.04583725,-0.0229407,-0.0916829,0.5,7.857812e-05,0.0002563513,0.0003172538,1,1,1,1,1,0
268578519,268477932,4325386,0.0020988814,0.0022038931,-0.0024385124,0.34906584,2.1979696e-07,1.9814102e-07,4.6190874e-07,4259850,0.097744495,0.020912586,0.027495539,0.4,0.0004997925,0.0004998016,0.0004997925,396809,0.04590798,-0.022985462,-0.09178856,0.5,7.835242e-05,0.00025588096,0.00031651964,1,1,1,1,1,0
268678622,268577942,4325386,0.0020977797,0.0022297562,-0.0024403012,0.34906584,2.1979135e-07,1.9706964e-07,4.6108656e-07,4259850,0.097566076,0.021046529,0.028557576,0.4,0.00049995654,0.0004999574,0.00049995654,396809,0.045874827,-0.022862945,-0.091858655,0.5,7.819946e-05,0.00025566778,0.00031620503,1,1,1,1,1,0
268788515,268687953,4325386,0.002095738,0.0022294736,-0.0024376423,0.34906584,2.2086984e-07,1.9824589e-07,4.6178337e-07,4259850,0.097361855,0.021062534,0.029767849,0.4,0.0005002611,0.0005002703,0.0005002611,396809,0.04588658,-0.022808552,-0.09194652,0.5,7.8004414e-05,0.00025534045,0.00031567947,1,1,1,1,1,0
268928541,268827967,4325386,0.0020846627,0.0022487184,-0.002445487,0.34906584,2.207673e-07,1.9735795e-07,4.6082667e-07,4259850,0.09722669,0.02111863,0.030162197,0.4,0.0004997752,0.000499779,0.00049977563,396809,0.045149162,-0.021547157,-0.09193336,0.5,7.774295e-05,0.00025489944,0.0003150186,1,1,1,1,1,0
268998605,268897974,4325386,0.0020719161,0.002239978,-0.0024530177,0.34906584,2.2126983e-07,1.97933e-07,4.6093126e-07,4259850,0.09706229,0.021096317,0.030496297,0.4,0.00049951894,0.0004995274,0.00049951946,396809,0.044474583,-0.020425925,-0.09185752,0.5,7.762589e-05,0.00025471373,0.0003147442,1,1,1,1,1,0
269078684,268977982,4325386,0.0020660656,0.0022909925,-0.0024699152,0.34906584,2.2078937e-07,1.969874e-07,4.616526e-07,4259850,0.0971201,0.021298494,0.030657025,0.4,0.0005003789,0.00050037995,0.00050037936,396809,0.04366542,-0.019072311,-0.09184309,0.5,7.747481e-05,0.00025442766,0.00031433956,1,1,1,1,1,0
269148601,269047988,4325386,0.002059335,0.0022843769,-0.0024801553,0.34906584,2.213075e-07,1.9757184e-07,4.6175742e-07,4259850,0.097031735,0.021251174,0.03066035,0.4,0.00050014065,0.0005001457,0.00050014164,396809,0.042845007,-0.017341781,-0.091739535,0.5,7.7274504e-05,0.00025368977,0.00031327218,1,1,1,1,1,0
269228606,269127997,4325386,0.0020571118,0.0022799126,-0.0024914767,0.34906584,2.2198847e-07,1.983062e-07,4.6207194e-07,4259850,0.097038366,0.021189963,0.030302368,0.4,0.000500031,0.00050004263,0.000500031,396809,0.042022537,-0.015408894,-0.0914777,0.5,7.695069e-05,0.00025190183,0.00031063112,1,1,1,1,1,0
269428535,269328016,4325386,0.0020578688,0.0023353102,-0.0024912623,0.34906584,2.2177974e-07,1.98306e-07,4.6346452e-07,4259850,0.09691249,0.021401763,0.031538583,0.4,0.00050034974,0.00050035823,0.00050034974,396809,0.042036917,-0.015760625,-0.09184432,0.5,7.600173e-05,0.00024517803,0.00030028736,1,1,1,1,1,0
269448601,269348018,4325386,0.0020539411,0.0023332557,-0.0024852208,0.34906584,2.2150334e-07,1.9810638e-07,4.623839e-07,4259850,0.096830204,0.021413334,0.03151035,0.4,0.0004994007,0.00049940497,0.00049940124,396809,0.042332113,-0.016602732,-0.09270958,0.5,7.5401076e-05,0.0002400623,0.0002920215,1,1,1,1,1,0
269458682,269358019,4325386,0.0020850508,0.0023431673,-0.0024828552,0.34906584,2.194005e-07,1.9628386e-07,4.6247297e-07,4259850,0.09645568,0.021487454,0.033774395,0.4,0.000499544,0.000499544,0.000499544,396809,0.0423458,-0.016492685,-0.092787,0.5,7.53749e-05,0.00024003946,0.00029200938,1,1,1,1,1,0
