timestamp,timestamp_sample,lat,lon,alt,alt_ellipsoid,delta_alt,eph,epv,terrain_alt,lat_lon_reset_counter,alt_reset_counter,terrain_alt_valid,dead_reckoning
218388680,218388334,36.66072300891827,126.34204033825945,9.542788,22.890345,-0.0,1.7819052,2.932684,9.44594,2,0,1,0
219398772,219398417,36.66072320688333,126.34204039720666,9.508463,22.95627,-0.0,1.7816025,2.9324808,9.413609,2,0,1,0
220388852,220388499,36.660723345378265,126.34204021479685,9.492325,23.03948,-0.0,1.7809929,2.9324677,9.395695,2,0,1,0
221388966,221388582,36.66072358205809,126.34204030462524,9.495554,23.14286,-0.0,1.7805517,2.9325726,9.390934,2,0,1,0
222389072,222388666,36.66072366714653,126.34204032746908,9.534702,23.273636,-0.0,1.7800593,2.9323492,9.390934,2,0,1,0
223399202,223398751,36.660724066327234,126.34203948677013,9.59369,23.411121,-0.0,1.7797872,2.9325597,9.390934,2,0,1,0
224389260,224388838,36.660724190336346,126.34203808452176,9.939595,23.81448,-0.0,1.7792054,2.9322698,nan,2,0,0,0
225389272,225388921,36.6607232320729,126.34203865109211,10.499202,24.424833,-0.0,1.7787927,2.9324102,nan,2,0,0,0
226399392,226399007,36.66072186509154,126.34204056548074,11.22904,25.199524,-0.0,1.7785854,2.9323251,nan,2,0,0,0
227389446,227389092,36.660721469633,126.34204219394209,12.105418,26.117714,-0.0,1.7780789,2.9323938,nan,2,0,0,0
228389532,228389179,36.660722421343856,126.34204291996566,13.059752,27.106962,-0.0,1.7777629,2.9325504,nan,2,0,0,0
229389666,229389266,36.66072375698622,126.34204280092483,14.124689,28.20683,-0.0,1.7774159,2.932627,nan,2,0,0,0
230399817,230399354,36.66072497671598,126.3420411980671,15.1667,29.273472,-0.0,1.7772471,2.9327312,nan,2,0,0,0
231389868,231389441,36.6607249474098,126.34204035800225,16.176945,30.308186,-0.0,1.776751,2.932671,nan,2,0,0,0
232389883,232389530,36.66072350411402,126.34203924984209,17.212626,31.37064,-0.0,1.776462,2.9326906,nan,2,0,0,0
233389974,233389619,36.6607223175244,126.34203837254786,18.26984,32.457268,-0.0,1.7761626,2.9327164,nan,2,0,0,0
234390152,234389708,36.66072176471968,126.34203908502842,19.12896,33.34732,-0.0,1.7759473,2.9324398,nan,2,0,0,0
235392648,235389797,36.66072236255144,126.34204054189858,20.056465,34.313766,-0.0,1.7757769,2.9325106,nan,2,0,0,0
236390241,236389888,36.660723303172766,126.34204105493453,22.481491,36.774086,-0.0,1.7756708,2.932595,nan,2,0,0,0
237390405,237389978,36.66072394284127,126.34204101790375,25.274733,39.61313,-0.0,1.7755283,2.932358,nan,2,0,0,0
238390425,238390072,36.66072373161682,126.34204034854946,28.201881,42.592117,-0.0,1.77532,2.9324634,nan,2,0,0,0
239390515,239390161,36.66072347080245,126.34204023391135,31.08519,45.531124,-0.0,1.775098,2.9325705,nan,2,0,0,0
240390627,240390253,36.660722918949766,126.34204001419869,34.058,48.565826,-0.0,1.7749457,2.9323585,nan,2,0,0,0
241390699,241390345,36.660722671266115,126.34204078810355,37.001472,51.57196,-0.0,1.774768,2.932485,nan,2,0,0,0
242390842,242390437,36.660723494610984,126.34204190365084,39.96996,54.6166,-0.0,1.7746482,2.9326038,nan,2,0,0,0
243390971,243390530,36.66072406644716,126.34204183716554,42.89292,57.620365,-0.0,1.774519,2.9324036,nan,2,0,0,0
244391161,244390623,36.66072311304677,126.34204015965854,45.80694,60.623055,-0.0,1.7744106,2.9322226,nan,2,0,0,0
245391320,245390717,36.66072213925973,126.34203975056114,48.738907,63.65224,-0.0,1.7743324,2.93238,nan,2,0,0,0
246391270,246390810,36.66072124232746,126.34204120780537,51.600937,66.61377,-0.0,1.7743016,2.932221,nan,2,0,0,0
247391340,247390904,36.66072179215594,126.34204319770589,54.406387,69.51952,-0.0,1.7742214,2.9323869,nan,2,0,0,0
248391446,248390998,36.66072387934849,126.34204383454342,56.591934,71.80567,-0.0,1.7741594,2.9322221,nan,2,0,0,0
249391511,249391092,36.660725189990245,126.34204156570128,57.863396,73.17713,-0.0,1.7740544,2.9323702,nan,2,0,0,0
250391582,250391186,36.6607240014796,126.34203881103302,58.63266,74.0448,-0.0,1.7739983,2.9324913,nan,2,0,0,0
251391723,251391280,36.660721738595456,126.3420368043971,59.021866,74.53551,-0.0,1.7739841,2.932615,nan,2,0,0,0
252391728,252391375,36.660713835430855,126.34202976452244,59.191906,74.80484,-0.0,1.7740314,2.9323902,nan,2,0,0,0
253391886,253391470,36.66070895009683,126.34202501136794,59.304775,75.01901,-0.0,1.7740612,2.932503,nan,2,0,0,0
254391866,254391565,36.66071656173446,126.34203646999104,59.399837,75.21342,-0.0,1.774212,2.9325643,nan,2,0,0,0
255391993,255391660,36.660738767758666,126.342043145806,59.51724,75.43098,-0.0,1.7810593,2.9325655,nan,2,0,0,0
256392059,256391756,36.660761380141984,126.34204806576149,59.71441,75.72806,-0.0,1.7812897,2.9325826,nan,2,0,0,0
257392187,257391851,36.66076969978681,126.34204264587912,59.642124,75.75606,-0.0,1.7780361,2.932632,nan,2,0,0,0
258392249,258391947,36.660775727112195,126.34202703103617,59.64349,75.85643,-0.0,1.7764411,2.9323797,nan,2,0,0,0
259392361,259392044,36.660790376578404,126.3420322695659,59.488823,75.80146,-0.0,1.7756139,2.9324677,nan,2,0,0,0
260392540,260392140,36.660803376335146,126.34204362967297,59.412697,75.82554,-0.0,1.7752392,2.932257,nan,2,0,0,0
261392563,261392238,36.66081004331939,126.34205061069326,59.421585,75.930336,-0.0,1.7750603,2.9323957,nan,2,0,0,0
262392648,262392334,36.660808892442994,126.34204841081409,59.460613,76.053535,-0.0,1.7750221,2.9325328,nan,2,0,0,0
263392751,263392432,36.66080763995111,126.34204547221385,59.473404,76.13808,-0.0,1.775015,2.9323413,nan,2,0,0,0
264392849,264392531,36.66081012586049,126.34205116301248,59.5802,76.31262,-0.0,1.7750292,2.932476,nan,2,0,0,0
265392953,265392627,36.66083114918191,126.34209722016489,60.0526,76.81506,-0.0,1.7782898,2.9322927,nan,2,0,0,0
266393044,266392726,36.66088382693354,126.34217204479614,60.258892,77.02815,-0.0,1.7925217,2.9324713,nan,2,0,0,0
267393144,267392825,36.66095333380048,126.34228816504768,60.223648,76.972275,-0.0,1.8088573,2.9323332,nan,2,0,0,0
268393241,268392923,36.66102593417532,126.34245397421907,60.936424,77.613525,-0.0,1.8168772,2.9325383,nan,2,0,0,0
269393402,269393023,36.6610896656431,126.34265908331535,62.20903,78.78633,-0.0,1.7938505,2.9323535,nan,2,0,0,0
270393427,270393122,36.66112575643533,126.3428744488209,63.252403,79.7296,-0.0,1.7837371,2.9324636,nan,2,0,0,0
271393560,271393221,36.661113305384426,126.34308164890078,62.947723,79.32501,-0.0,1.7794728,2.9322736,nan,2,0,0,0
272393629,272393321,36.661111720979534,126.34328811034416,61.04725,77.32402,-0.0,1.7778096,2.9323847,nan,2,0,0,0
273393770,273393421,36.66113944580257,126.34350436635775,59.705143,75.88254,-0.0,1.7768931,2.932179,nan,2,0,0,0
274393829,274393520,36.66118209047836,126.34372446139866,58.839886,74.91738,-0.0,1.77647,2.9323251,nan,2,0,0,0
275394007,275393619,36.661228754918525,126.34394402203142,58.671234,74.64873,-0.0,1.7761347,2.932172,nan,2,0,0,0
276394031,276393719,36.661305245285305,126.34414782121888,58.244907,74.1238,-0.0,1.776173,2.9323199,nan,2,0,0,0
277394162,277393818,36.66146309754533,126.34421918367165,59.50654,75.284836,-0.0,1.7764745,2.9321597,nan,2,0,0,0
278394222,278393917,36.66160527090692,126.34411318845599,61.316032,76.994125,-0.0,1.7767857,2.9324293,nan,2,0,0,0
279394288,279394015,36.66163662921089,126.34390597647385,62.622017,78.19991,-0.0,1.7774589,2.9323974,nan,2,0,0,0
280394445,280394113,36.661573850450026,126.34369541023526,61.205433,76.68323,-0.0,1.778443,2.9328935,nan,2,0,0,0
281394555,281394211,36.661525287348375,126.34347852027912,58.914368,74.29206,-0.0,1.7784204,2.9325008,nan,2,0,0,0
282394580,282394309,36.661540642745734,126.3432512804654,57.954098,73.23227,-0.0,1.77836,2.9322267,nan,2,0,0,0
283394679,283394406,36.661610827377714,126.34303848870564,57.78977,72.96727,-0.0,1.7784772,2.9317641,nan,2,0,0,0
284394813,284394502,36.661713744931895,126.34284768156222,57.330864,72.40883,-0.0,1.7787728,2.9318168,nan,2,0,0,0
285394871,285394598,36.66182875604913,126.34267539429666,57.102547,72.10257,-0.0,1.7789394,2.9316578,nan,2,0,0,0
286394994,286394694,36.66194362767442,126.34251029327272,56.909767,71.85307,-0.0,1.7790201,2.9318645,nan,2,0,0,0
287395182,287394789,36.66205543838852,126.34234665606168,56.901405,71.789276,-0.0,1.7790196,2.9317734,nan,2,0,0,0
288395252,288394887,36.66216555139979,126.34218180469837,56.683823,71.54198,-0.0,1.7789608,2.9320128,nan,2,0,0,0
289395424,289394978,36.6622747525941,126.34201548685071,56.640724,71.48521,-0.0,1.7788726,2.9319363,nan,2,0,0,0
290395413,290395072,36.662383727135136,126.34184927920495,56.674873,71.51434,-0.0,1.7787963,2.9321663,nan,2,0,0,0
291395520,291395165,36.66249567199149,126.34169136722015,56.961502,71.79937,-0.0,1.7787794,2.9320624,nan,2,0,0,0
292395646,292395257,36.66261331895413,126.34154378629765,57.237495,72.07882,-0.0,1.7787219,2.9322786,nan,2,0,0,0
293395746,293395349,36.66273416683341,126.34140327925061,57.20906,72.051506,-0.0,1.7786151,2.93215,nan,2,0,0,0
294395725,294395441,36.66285706222899,126.34126294708813,57.440437,72.29002,-0.0,1.7785639,2.9323304,nan,2,0,0,0
295395905,295395532,36.662979690014,126.34112349861194,57.836597,72.704796,-0.0,1.778498,2.932176,nan,2,0,0,0
296395950,296395622,36.66310108329022,126.34098381328945,57.713753,72.60105,-0.0,1.7784926,2.9323504,nan,2,0,0,0
297396100,297395712,36.66322231749452,126.34084396774918,57.8327,72.74876,-0.0,1.7784476,2.9321904,nan,2,0,0,0
298396071,298395801,36.66334333912138,126.34070513673369,57.99641,72.94086,-0.0,1.7783761,2.9323602,nan,2,0,0,0
299396222,299395890,36.66346421706877,126.34056790445445,58.254868,73.216,-0.0,1.7782556,2.9321978,nan,2,0,0,0
300396249,300395979,36.663584324748676,126.34043066739787,58.418377,73.37953,-0.0,1.7781507,2.9323668,nan,2,0,0,0
301396361,301396067,36.66370504682351,126.34029729867795,58.4816,73.43867,-0.0,1.7779819,2.9322014,nan,2,0,0,0
302396534,302396154,36.66384463262539,126.34021892246545,59.19815,74.14403,-0.0,1.7779881,2.9323447,nan,2,0,0,0
303396514,303396241,36.66399734373577,126.34026662434944,60.636967,75.56292,-0.0,1.779213,2.9324205,nan,2,0,0,0
304396597,304396327,36.66412920295422,126.34038012711284,60.432804,75.34888,-0.0,1.778741,2.932087,nan,2,0,0,0
305396724,305396413,36.66424009408497,126.3405221898782,59.55837,74.47063,-0.0,1.7783855,2.9319913,nan,2,0,0,0
306396915,306396498,36.66432117246729,126.34068432135524,57.694122,72.641754,-0.0,1.7781887,2.931915,nan,2,0,0,0
307396862,307396583,36.664302913397805,126.34088438690938,57.591484,72.55784,-0.0,1.7784408,2.931759,nan,2,0,0,0
308396979,308396667,36.66417994033793,126.34103788133199,57.380116,72.37773,-0.0,1.7785807,2.9321263,nan,2,0,0,0
309397065,309396751,36.66402024230892,126.34109267974534,56.072475,71.15398,-0.0,1.778657,2.9322217,nan,2,0,0,0
310397106,310396834,36.66386250316767,126.34109575292283,53.215786,68.39716,-0.0,1.7787043,2.9325383,nan,2,0,0,0
311387269,311386916,36.66371272510753,126.3411086099053,49.915726,65.197205,-0.0,1.7785054,2.9321282,nan,2,0,0,0
312397270,312396999,36.66356594866992,126.34115160669893,46.781906,62.16338,-0.0,1.778631,2.9321976,nan,2,0,0,0
313397407,313397081,36.663427060887344,126.341211963074,43.919052,59.400528,-0.0,1.7785112,2.9319727,nan,2,0,0,0
314397468,314397163,36.6632928492247,126.34128042946378,40.764446,56.34592,-0.0,1.7784078,2.932145,nan,2,0,0,0
315387544,315387243,36.663162511950354,126.3413489392888,37.868145,53.54872,-0.0,1.7781186,2.9319372,nan,2,0,0,0
316397599,316397325,36.66302943149185,126.34141639596876,34.88413,50.666004,-0.0,1.7781912,2.9322298,nan,2,0,0,0
317397712,317397406,36.66289997854287,126.34148149569238,32.181892,48.063366,-0.0,1.7781522,2.9321086,nan,2,0,0,0
318387763,318387485,36.662771819006764,126.34153684133132,29.33136,45.312534,-0.0,1.777996,2.9321983,nan,2,0,0,0
319397878,319397566,36.66263437144461,126.34155045156734,26.64214,42.723114,-0.0,1.7782108,2.9324427,nan,2,0,0,0
320397967,320397645,36.66249737147217,126.34155432003239,24.223211,40.393166,-0.0,1.7781646,2.932262,nan,2,0,0,0
321398003,321397725,36.66237033955143,126.3416288635333,21.55612,37.778923,-0.0,1.7779891,2.9323637,nan,2,0,0,0
322388077,322387803,36.66225099903979,126.3417413930108,20.517822,36.704155,-0.0,1.7779272,2.9320948,nan,2,0,0,0
323398239,323397883,36.66211355931054,126.34184263822704,20.08693,36.177612,-0.0,1.7781816,2.9323163,nan,2,0,0,0
324398261,324397962,36.661963627008866,126.34192210330714,20.773258,36.763844,-0.0,1.7782083,2.9321296,nan,2,0,0,0
325388363,325388040,36.6618165950523,126.34199435779864,21.518822,37.409103,-0.0,1.7780286,2.9322035,nan,2,0,0,0
326388408,326388118,36.66167256047091,126.34206541661368,21.074387,36.86457,-0.0,1.778001,2.9323802,nan,2,0,0,0
327398629,327398197,36.661529542068465,126.34213981072088,20.537212,36.2273,-0.0,1.7781045,2.9323153,nan,2,0,0,0
328398544,328398276,36.661386210191914,126.34221722530481,20.14763,35.739216,-0.0,1.7780995,2.9324749,nan,2,0,0,0
329388704,329388353,36.66124174155304,126.34229648951377,20.585018,36.074886,-0.0,1.7779223,2.9322026,nan,2,0,0,0
330388706,330388431,36.6610970463331,126.34237694232989,21.040262,36.430748,-0.0,1.7778718,2.9323401,nan,2,0,0,0
331398784,331398509,36.66095508548585,126.34245707036924,21.833702,37.123787,-0.0,1.7779546,2.932574,nan,2,0,0,0
332389079,332388586,36.660820035168406,126.34253171531284,21.84134,37.031425,-0.0,1.7777439,2.932305,nan,2,0,0,0
333389104,333388664,36.660687129743664,126.34260447628931,21.371363,36.46125,-0.0,1.7776338,2.9324574,nan,2,0,0,0
334389049,334388741,36.66055431843247,126.34267890083004,20.462355,35.46136,-0.0,1.7776203,2.932292,nan,2,0,0,0
335399296,335398818,36.660416307645434,126.3427567462608,19.734928,34.669086,-0.0,1.7777432,2.9322157,nan,2,0,0,0
336389173,336388895,36.66027228744061,126.34283671608975,20.253546,35.114307,-0.0,1.7776341,2.9322922,nan,2,0,0,0
337389257,337388971,36.66012226911772,126.34292630376129,21.24437,36.02682,-0.0,1.777596,2.932455,nan,2,0,0,0
338399444,338399049,36.659982001156216,126.34305660251229,23.148455,37.856174,-0.0,1.7777379,2.9323719,nan,2,0,0,0
339389397,339389125,36.659869779298226,126.34322767797075,25.882856,40.49482,-0.0,1.7776307,2.9324272,nan,2,0,0,0
340389511,340389201,36.65979617578743,126.34343278405422,28.975536,43.486603,-0.0,1.7777351,2.9322596,nan,2,0,0,0
341389591,341389277,36.65976825166671,126.34365169929956,32.38268,46.79464,-0.0,1.7778697,2.9324312,nan,2,0,0,0
342399628,342399354,36.65978850913721,126.34386866584958,35.197784,49.50975,-0.0,1.7781869,2.932378,nan,2,0,0,0
343389703,343389428,36.65985180011931,126.34406379185005,37.68474,51.896,-0.0,1.7778628,2.9324768,nan,2,0,0,0
344389780,344389504,36.65995206946902,126.34423523214411,39.973263,54.084724,-0.0,1.7775218,2.932666,nan,2,0,0,0
345389937,345389579,36.660083471339114,126.34436731183435,42.280666,56.29163,-0.0,1.7770448,2.932508,nan,2,0,0,0
346389953,346389655,36.6602379457213,126.3444560527111,44.510918,58.42295,-0.0,1.7766489,2.932347,nan,2,0,0,0
347390000,347389730,36.66040320052715,126.34449048386323,47.215137,61.045586,-0.0,1.7763833,2.9325151,nan,2,0,0,0
348390074,348389804,36.66056885287277,126.34447749287654,49.85679,63.642593,-0.0,1.7761985,2.932666,nan,2,0,0,0
349390203,349389879,36.66072666328481,126.34441549307718,52.455036,66.21744,-0.0,1.7760515,2.9324613,nan,2,0,0,0
350390231,350389954,36.660866424782085,126.34430625679973,54.6684,68.44492,-0.0,1.7759392,2.9325912,nan,2,0,0,0
351390356,351390028,36.6609816845019,126.34415959000509,56.137695,69.967255,-0.0,1.7757691,2.9323936,nan,2,0,0,0
352390371,352390102,36.66106392019794,126.34398003150191,56.647957,70.56853,-0.0,1.775647,2.9325607,nan,2,0,0,0
353390489,353390176,36.66110805289294,126.34377634174132,56.897373,70.91944,-0.0,1.7754467,2.9327116,nan,2,0,0,0
354390522,354390249,36.6611086712982,126.343560682957,57.067112,71.18658,-0.0,1.7753994,2.9325218,nan,2,0,0,0
355390596,355390323,36.66106477277112,126.34334944562458,57.56352,71.78398,-0.0,1.7753593,2.932671,nan,2,0,0,0
356390670,356390396,36.66097778617346,126.34315613239318,57.683033,72.0035,-0.0,1.7753999,2.9324973,nan,2,0,0,0
357390786,357390468,36.66084908024299,126.34299613049944,57.727665,72.14813,-0.0,1.7755084,2.9326456,nan,2,0,0,0
358390844,358390541,36.66068468698031,126.34288456606589,57.90252,72.42362,-0.0,1.7755582,2.9324625,nan,2,0,0,0
359390899,359390613,36.66049924448215,126.34283360970896,58.22241,72.843575,-0.0,1.7753711,2.9326267,nan,2,0,0,0
360390991,360390686,36.6603096313693,126.3428505303104,59.161358,73.88272,-0.0,1.7751205,2.9324498,nan,2,0,0,0
361391171,361390758,36.66013265310577,126.34292755315795,59.463543,74.28461,-0.0,1.774815,2.9326036,nan,2,0,0,0
362391104,362390830,36.65998413078158,126.34306209571861,59.751457,74.67252,-0.0,1.7746722,2.9327552,nan,2,0,0,0
363391178,363390901,36.65987330223571,126.34323999215545,60.30337,75.32534,-0.0,1.7747494,2.9325418,nan,2,0,0,0
364391246,364390972,36.65980168880177,126.34344064397173,60.052376,75.17384,-0.0,1.7749546,2.9326684,nan,2,0,0,0
365391320,365391043,36.65977936335558,126.34365286600934,59.56648,74.78854,-0.0,1.7751974,2.9324732,nan,2,0,0,0
366391390,366391115,36.659799135830035,126.34386340507024,58.693565,74.014435,-0.0,1.7753483,2.9326072,nan,2,0,0,0
367391491,367391185,36.65986030119271,126.34405469238777,58.03781,73.45768,-0.0,1.7753108,2.932404,nan,2,0,0,0
368391529,368391255,36.65995641582426,126.34421976868367,57.563046,73.08461,-0.0,1.775147,2.932549,nan,2,0,0,0
369391746,369391326,36.66007916928148,126.34434972502783,57.743553,73.36462,-0.0,1.7749647,2.932367,nan,2,0,0,0
370391672,370391396,36.660222459324594,126.34443608755942,58.611877,74.33244,-0.0,1.7749254,2.9325345,nan,2,0,0,0
371391764,371391465,36.66037493402966,126.34448459357081,58.55075,74.372116,-0.0,1.7748634,2.932362,nan,2,0,0,0
372391807,372391535,36.6605302949298,126.34448333897221,58.662422,74.58299,-0.0,1.7749025,2.932519,nan,2,0,0,0
373391876,373391604,36.660681182155116,126.34443687252583,58.52613,74.54659,-0.0,1.7749436,2.9326375,nan,2,0,0,0
374391946,374391674,36.66082095720163,126.34434877005839,58.422733,74.5439,-0.0,1.775077,2.9327648,nan,2,0,0,0
375392041,375391743,36.66094124400752,126.3442210750306,58.067562,74.28953,-0.0,1.7752408,2.9325285,nan,2,0,0,0
376392113,376391811,36.66103436560515,126.3440590994181,57.91294,74.233604,-0.0,1.775332,2.9326415,nan,2,0,0,0
377392348,377391880,36.66109266677501,126.34387082996565,57.927734,74.349106,-0.0,1.775252,2.9324334,nan,2,0,0,0
378392246,378391948,36.661113844842546,126.34366693241866,57.961323,74.48129,-0.0,1.775151,2.9325783,nan,2,0,0,0
379392323,379392017,36.66109291160331,126.34345970170564,58.039722,74.650185,-0.0,1.775091,2.9324002,nan,2,0,0,0
380392451,380392085,36.66103059904741,126.34326140844685,58.17719,74.8658,-0.0,1.7751573,2.932567,nan,2,0,0,0
381392748,381392152,36.66092713292362,126.34308354373412,58.375355,75.13975,-0.0,1.7753078,2.9323983,nan,2,0,0,0
382392643,382392220,36.66078591833596,126.34294203420626,58.119804,74.9552,-0.0,1.7755095,2.9325635,nan,2,0,0,0
383392635,383392288,36.66061388930359,126.3428563937835,58.216507,75.12128,-0.0,1.7756143,2.932399,nan,2,0,0,0
384392743,384392355,36.660424216747785,126.34282404490754,58.671196,75.66495,-0.0,1.7800051,2.9325721,nan,2,0,0,0
385392838,385392422,36.660270014704885,126.34282209242669,58.786636,75.87999,-0.0,1.8385303,2.9323814,nan,2,0,0,0
386392861,386392489,36.660235572065304,126.3428134878286,58.109947,75.303154,-0.0,2.1165795,2.9333534,nan,2,0,0,0
387392893,387392556,36.660187034112354,126.34296588040563,58.09729,75.39099,-0.0,32.008568,2.9338422,nan,2,0,0,1
388393000,388392623,36.66012267748537,126.34313397045698,57.8123,75.20615,-0.0,54.835827,2.9338322,nan,2,0,0,1
389393000,389392689,36.660011318211026,126.3432961508456,55.150406,72.64395,-0.0,73.616196,2.9342792,nan,2,0,0,1
390393170,390392756,36.65991619013287,126.34344417740331,51.5527,69.146545,-0.0,90.32316,2.9337068,nan,2,0,0,1
390823200,390822784,36.659868118557824,126.34351875820721,50.249252,67.882225,-0.0,97.72647,2.9336731,nan,2,0,0,1
392853320,392852920,36.66024374534756,126.34247252594473,46.195816,64.04967,-0.0,2.204004,2.9326687,nan,3,0,0,0
393393311,393392955,36.660271436931964,126.34245061476341,46.445415,64.3392,-0.0,1.9120448,2.9317853,nan,3,0,0,0
394393459,394393022,36.660304929682944,126.34243075127269,47.995434,65.989586,-0.0,1.8133917,2.9319193,nan,3,0,0,0
395393510,395393088,36.660337652086795,126.3424143064297,50.37288,68.46723,-0.0,1.7925018,2.9323235,nan,3,0,0,0
396393504,396393155,36.660371353240876,126.3424008039629,53.199398,71.393166,-0.0,1.7849126,2.9325418,nan,3,0,0,0
397393636,397393222,36.660405820334255,126.34238761601041,56.00097,74.29462,-0.0,1.781579,2.9322917,nan,3,0,0,0
398393667,398393289,36.6604372262812,126.34237525596137,57.913074,76.30702,-0.0,1.7800093,2.9323118,nan,3,0,0,0
399393742,399393356,36.66046983919495,126.3423658362012,58.572872,77.0662,-0.0,1.7792966,2.9320107,nan,3,0,0,0
400393861,400393423,36.660503267009084,126.34235488209707,58.823532,77.41732,-0.0,1.7790614,2.9320636,nan,3,0,0,0
401393893,401393490,36.6605367850348,126.34234241729341,58.97199,77.66583,-0.0,1.7790266,2.9321644,nan,3,0,0,0
402393957,402393558,36.66057143478267,126.34232804130905,59.044643,77.83759,-0.0,1.7791085,2.9319954,nan,3,0,0,0
403393973,403393625,36.66060637531867,126.3423138918663,59.117638,78.011185,-0.0,1.7791365,2.9321861,nan,3,0,0,0
404394044,404393693,36.66064164800335,126.3422999391575,59.166935,78.16048,-0.0,1.779219,2.9320729,nan,3,0,0,0
405394112,405393761,36.66067576124562,126.34228652907048,59.28201,78.37515,-0.0,1.7792879,2.9322917,nan,3,0,0,0
406394175,406393830,36.66070964234792,126.34227309493626,59.36382,78.55707,-0.0,1.7792921,2.9321811,nan,3,0,0,0
407394255,407393898,36.6607362829597,126.34226171658247,59.498665,78.792206,-0.0,1.7792689,2.9323878,nan,3,0,0,0
408394315,408393967,36.660751470654894,126.34225468887942,59.519836,78.91358,-0.0,1.7792416,2.932258,nan,3,0,0,0
409394381,409394036,36.66076086945204,126.34224874260788,59.485237,78.97888,-0.0,1.7791599,2.932445,nan,3,0,0,0
410394501,410394106,36.66075881311832,126.34223381247148,59.46305,79.056595,-0.0,1.7790623,2.932299,nan,3,0,0,0
411394591,411394176,36.66074845708318,126.34219855545653,59.529297,79.22345,-0.0,1.778931,2.9324725,nan,3,0,0,0
412394592,412394246,36.66073641665371,126.34216320117655,59.60718,79.39325,-0.0,1.7788297,2.9323103,nan,3,0,0,0
413394669,413394317,36.6607295750209,126.34213970291992,59.53007,79.40801,-0.0,1.7787386,2.932475,nan,3,0,0,0
414394746,414394387,36.660727163113364,126.34212493305837,59.47618,79.45139,-0.0,1.7786827,2.9323092,nan,3,0,0,0
415394809,415394459,36.66072636745323,126.34211367109567,59.44359,79.519,-0.0,1.7785766,2.9324718,nan,3,0,0,0
416394962,416394530,36.660720961228265,126.34208198248753,59.48136,79.65667,-0.0,1.778476,2.932289,nan,3,0,0,0
417394993,417394603,36.66071109061806,126.34204788036297,59.578426,79.852615,-0.0,1.7784234,2.9324334,nan,3,0,0,0
418395067,418394675,36.6607043077126,126.34203373256909,59.5092,79.88248,-0.0,1.7783445,2.932255,nan,3,0,0,0
419395124,419394748,36.6607030473384,126.3420286986736,59.468925,79.9427,-0.0,1.7782611,2.9324074,nan,3,0,0,0
420395234,420394822,36.660703518193635,126.34202744161873,59.427204,80.00147,-0.0,1.7782129,2.932231,nan,3,0,0,0
421395251,421394895,36.66070401555923,126.34202819007817,58.741093,79.41536,-0.0,1.7781619,2.9323864,nan,3,0,0,0
422395366,422394969,36.66070340587458,126.3420298148306,57.895855,78.67002,-0.0,1.7782063,2.9322205,nan,3,0,0,0
423395395,423395044,36.660704298355476,126.3420290367692,56.823822,77.69819,-0.0,1.7782197,2.9323843,nan,3,0,0,0
424395535,424395120,36.66070537449563,126.34202765894793,55.722763,76.69653,-0.0,1.7782358,2.9322274,nan,3,0,0,0
425395570,425395195,36.66070620546513,126.34202698819921,54.731964,75.797615,-0.0,1.7783003,2.9323995,nan,3,0,0,0
426395719,426395271,36.660705881844315,126.34202708523833,53.71536,74.85198,-0.0,1.7783645,2.93224,nan,3,0,0,0
427395765,427395348,36.66070521163454,126.34202693857848,52.683598,73.870575,-0.0,1.7783866,2.932407,nan,3,0,0,0
428395825,428395425,36.66070504601185,126.34202715895393,51.656357,72.87184,-0.0,1.7783852,2.9322374,nan,3,0,0,0
429395860,429395502,36.660704624883714,126.34202795000486,50.69697,71.92383,-0.0,1.7784169,2.9324014,nan,3,0,0,0
430395927,430395580,36.660703438980214,126.34202839818009,49.814247,71.045395,-0.0,1.7784324,2.9325657,nan,3,0,0,0
431396064,431395658,36.66070297177857,126.34202903349163,48.894543,70.12022,-0.0,1.7784464,2.932397,nan,3,0,0,0
432396188,432395738,36.660703749127215,126.34202926145703,47.85928,69.06281,-0.0,1.7784928,2.9325616,nan,3,0,0,0
433396390,433395817,36.66070427173372,126.34202942560525,46.874657,68.042946,-0.0,1.7784669,2.9323516,nan,3,0,0,0
434396315,434395897,36.66070417692798,126.34202916993371,45.898617,67.019196,-0.0,1.7784727,2.9324822,nan,3,0,0,0
435396418,435395978,36.66070410311776,126.34202874790209,44.853424,65.91445,-0.0,1.7785273,2.9322917,nan,3,0,0,0
436396515,436396061,36.660703789282834,126.3420285670493,43.875675,64.86691,-0.0,1.778603,2.9324415,nan,3,0,0,0
437396666,437396141,36.66070353394027,126.34202736692595,42.887817,63.7958,-0.0,1.7786149,2.932261,nan,3,0,0,0
438396685,438396223,36.66070458078279,126.3420269136639,41.84963,62.664158,-0.0,1.7786914,2.9324207,nan,3,0,0,0
439396802,439396306,36.66070527227113,126.34202737441322,40.883816,61.6015,-0.0,1.7786975,2.9322462,nan,3,0,0,0
440396777,440396389,36.66070532534313,126.3420275555106,39.89497,60.513252,-0.0,1.778763,2.9324074,nan,3,0,0,0
441396897,441396473,36.66070432204396,126.34202722190112,38.950775,59.468388,-0.0,1.7787819,2.932236,nan,3,0,0,0
442396958,442396557,36.6607038305534,126.34202784063679,38.00366,58.42167,-0.0,1.7788066,2.932394,nan,3,0,0,0
443396990,443396642,36.66070394252093,126.34202886459461,37.021988,57.339897,-0.0,1.7788628,2.9325578,nan,3,0,0,0
444387078,444386727,36.66070365593389,126.34202906342793,36.027954,56.245262,-0.0,1.7786726,2.9326108,nan,3,0,0,0
445397223,445396814,36.66070332870234,126.3420295002189,35.077667,55.196777,-0.0,1.778885,2.9325066,nan,3,0,0,0
446397250,446396901,36.6607034568796,126.34202944866428,34.122246,54.14026,-0.0,1.7789634,2.9326444,nan,3,0,0,0
447397433,447396988,36.6607031899158,126.34202944559883,33.151215,53.06922,-0.0,1.7790282,2.9324453,nan,3,0,0,0
448397428,448397076,36.66070386886511,126.34202889009195,32.139214,51.95732,-0.0,1.7791234,2.9325907,nan,3,0,0,0
449397545,449397164,36.66070455423824,126.3420271888248,31.11457,50.832756,-0.0,1.7791775,2.9324071,nan,3,0,0,0
450397604,450397254,36.660704231183416,126.34202617601895,30.100517,49.722157,-0.0,1.7791765,2.9325619,nan,3,0,0,0
451387695,451387342,36.6607046810947,126.34202696571968,29.095505,48.62735,-0.0,1.7789677,2.9323056,nan,3,0,0,0
452397836,452397433,36.660704709020145,126.34202791317318,28.105726,47.55544,-0.0,1.7790754,2.9322512,nan,3,0,0,0
453397907,453397524,36.66070422536858,126.34202839043368,27.176607,46.55355,-0.0,1.7790242,2.9324298,nan,3,113,0,0
454398060,454397617,36.66070285491379,126.34202783262921,26.218111,45.523697,-0.0,1.778984,2.9322717,nan,3,0,0,0
455388116,455387707,36.660702693853864,126.34202882024783,25.357557,44.59442,-0.0,1.7787819,2.932353,nan,3,0,0,0
456398148,456397800,36.6607038619867,126.34202980744006,24.328777,43.486298,-0.0,1.778919,2.932284,nan,3,0,0,0
457398258,457397893,36.66070448439907,126.34202913536225,23.295168,42.364624,-0.0,1.7788621,2.9324477,nan,3,0,0,0
458388376,458387986,36.6607041023287,126.34202853660011,22.307491,41.289238,-0.0,1.7786696,2.9325125,nan,3,0,0,0
459388437,459388081,36.66070376535409,126.34202775855482,21.297985,40.18979,-0.0,1.7785974,2.9323254,nan,3,0,0,0
460398595,460398176,36.66070327231971,126.34202765032268,20.34549,39.14899,-0.0,1.7787222,2.9325688,nan,3,0,0,0
461398705,461398272,36.66070402302944,126.34202786572648,19.31208,38.01749,-0.0,1.7786936,2.932382,nan,3,0,0,0
462388758,462388367,36.66070420287216,126.34202827572476,18.28629,36.8923,-0.0,1.7784917,2.9324303,nan,3,0,0,0
463388881,463388463,36.66070471991249,126.34202921016397,17.282608,35.78852,-0.0,1.7784601,2.9322426,nan,3,0,0,0
464398920,464398561,36.66070484875017,126.34202995918307,16.327639,34.735405,-0.0,1.7785584,2.9324777,nan,3,0,0,0
465389035,465388658,36.660703262225105,126.3420290933539,15.375015,33.68817,-0.0,1.778363,2.9325387,nan,3,0,0,0
466389174,466388756,36.66070264363788,126.34202895143238,14.424217,32.64366,-0.0,1.778402,2.9323645,nan,3,0,0,0
467389205,467388855,36.66070329861563,126.34202949332521,13.436339,31.569237,-0.0,1.7784249,2.9325252,nan,3,0,0,0
468399373,468398956,36.66070334127559,126.34202866990731,12.433725,30.48204,-0.0,1.7786447,2.9324474,nan,3,0,0,0
469389450,469389055,36.66070412071688,126.34202715005061,11.444283,29.40875,-0.0,1.7784941,2.9325147,nan,3,0,0,0
470389507,470389156,36.66070413857335,126.34202714654111,10.451798,28.337166,-0.0,1.7784824,2.932337,nan,3,0,0,0
471389605,471389257,36.66070410422411,126.34202797271475,9.470125,27.277025,-0.0,1.778481,2.9324932,nan,3,0,0,0
472389760,472389359,36.66070375907599,126.3420272056079,8.624396,26.360386,-0.0,1.7784259,2.9323177,nan,3,0,0,0
473389851,473389462,36.66070272573299,126.34202654756221,8.507558,26.181015,-0.0,1.77837,2.9323516,nan,3,0,0,0
474389912,474389565,36.66070230782961,126.34202646328082,8.469512,26.0994,-0.0,1.7782909,2.9318998,8.394889,3,0,1,0
475390048,475389668,36.6607017334376,126.3420262570811,8.376953,25.975351,-0.0,1.7783004,2.9317193,8.3062,3,0,1,0
476390214,476389773,36.66070121228912,126.34202611884083,8.255558,25.838614,-0.0,1.7782819,2.9316,8.195967,3,0,1,0
477390367,477389881,36.66070043868844,126.34202588567572,8.147805,25.734013,-0.0,1.778232,2.9313135,8.095313,3,0,1,0
478390587,478389983,36.6607000478871,126.34202562843926,8.045212,25.656506,-0.0,1.7780805,2.931473,7.9880934,3,0,1,0
479390560,479390089,36.6606995957974,126.34202548196114,7.9904423,25.64467,-0.0,1.7778881,2.931431,7.9319715,3,0,1,0
480390605,480390196,36.66069893025328,126.34202520439808,7.973339,25.681417,-0.0,1.7776603,2.9317505,7.9018993,3,0,1,0
481390723,481390304,36.66069820439851,126.34202480509312,7.9729576,25.741592,-0.0,1.7773701,2.9317617,nan,3,0,0,0
482390858,482390411,36.66069752994331,126.34202449499702,7.974218,25.803705,-0.0,1.7771177,2.9317641,nan,3,0,0,0
483390918,483390520,36.66069701574185,126.34202412486121,7.9812546,25.8736,-0.0,1.7768365,2.9320524,nan,3,0,0,0
484391017,484390629,36.66069674567332,126.34202403076634,8.027662,25.981918,-0.0,1.7765617,2.932306,nan,3,0,0,0
485391092,485390739,36.66069672351136,126.34202373577264,8.05188,26.06612,-0.0,1.776429,2.9322047,nan,3,0,0,0
486391262,486390849,36.660694451973455,126.34202545613823,8.559332,26.622656,-0.0,1.776582,2.9321365,nan,3,0,0,0
487391313,487390960,36.660686546836324,126.3420270921292,9.251149,27.347198,-0.0,1.7788349,2.9331658,nan,3,0,0,0
488391424,488391072,36.66067332330274,126.34202653500746,9.395956,27.53043,-0.0,1.779958,2.9335873,nan,3,0,0,0
489391573,489391184,36.66065847697357,126.34202434350827,9.409126,27.597033,-0.0,1.7792997,2.932927,nan,3,0,0,0
490391650,490391296,36.66064478063767,126.34202223181069,9.534893,27.78012,-0.0,1.779056,2.9327862,nan,3,0,0,0
491391764,491391410,36.660632386926224,126.34201910297931,9.650154,27.94464,-0.0,1.7790126,2.9324903,nan,3,0,0,0
492391959,492391524,36.66062175454375,126.34201642215045,9.688143,28.01495,-0.0,1.7792016,2.9326618,nan,3,0,0,0
493392067,493391638,36.66061323933972,126.34201350733099,9.687974,28.037048,-0.0,1.7795614,2.9329252,nan,3,0,0,0
494392108,494391753,36.66060641220009,126.34201203902886,9.66056,28.033314,-0.0,1.7799814,2.9328096,nan,3,0,0,0
495392222,495391869,36.66060042126627,126.34201061087745,9.694351,28.095852,-0.0,1.7805035,2.933056,nan,3,0,0,0
496392330,496391985,36.660597747916576,126.34201132802454,9.731412,28.167519,-0.0,1.7810957,2.9332578,9.628485,3,0,1,0
497392492,497392101,36.66059651576047,126.34201096332082,9.719818,28.194973,-0.0,1.7816527,2.9330328,9.606887,3,0,1,0
498392576,498392219,36.660594168282906,126.34201299582772,9.689771,28.202087,-0.0,1.7829399,2.9334724,9.612566,3,0,1,0
499392712,499392336,36.66059340323863,126.34201395149817,9.386663,27.928339,-0.0,1.7883407,2.935111,9.360016,3,0,1,0
500392811,500392455,36.660591888386016,126.3420135584526,8.996321,27.565926,-0.0,1.7944314,2.9362788,8.883425,3,0,1,0
501392931,501392574,36.66059148145848,126.3420131834113,9.081726,27.66455,-0.0,1.7953717,2.9356687,8.85478,3,0,1,0
502393131,502392694,36.660591358281536,126.34201422170163,9.171612,27.766247,-0.0,1.7924027,2.9345815,8.85478,3,0,1,0
503393166,503392814,36.66059130950113,126.34201471823756,9.236606,27.831562,-0.0,1.7906679,2.933427,nan,3,0,0,0
504393320,504392935,36.660590832626156,126.34201488795232,9.34503,27.934793,-0.0,1.7902577,2.933129,nan,3,0,0,0
505393456,505393056,36.66059026775305,126.34201442769287,9.427376,28.00358,-0.0,1.7920609,2.9332345,nan,3,0,0,0
506393565,506393178,36.660590144455846,126.34201434728462,9.480386,28.043385,-0.0,1.7931303,2.9336762,nan,3,0,0,0
507393730,507393301,36.66058947712662,126.34201357784228,9.482035,28.032793,-0.0,1.7922828,2.9332604,nan,3,0,0,0
508393778,508393424,36.66058956208098,126.34201315768262,9.377776,27.915722,-0.0,1.7934655,2.9338696,9.23354,3,0,1,0
509393931,509393548,36.6605887998486,126.3420131973898,9.112293,27.651342,-0.0,1.7948343,2.934542,9.02804,3,0,1,0
510399021,510398673,36.6605895441689,126.34201412060033,9.032675,27.599346,-0.0,1.8009344,2.936751,8.956749,3,0,1,0
