timestamp,voltage_v,voltage_filtered_v,current_a,current_filtered_a,current_average_a,discharged_mah,remaining,scale,time_remaining_s,temperature,voltage_cell_v[0],voltage_cell_v[1],voltage_cell_v[2],voltage_cell_v[3],voltage_cell_v[4],voltage_cell_v[5],voltage_cell_v[6],voltage_cell_v[7],voltage_cell_v[8],voltage_cell_v[9],voltage_cell_v[10],voltage_cell_v[11],voltage_cell_v[12],voltage_cell_v[13],max_cell_voltage_delta,custom_faults,average_power,available_energy,full_charge_capacity_wh,remaining_capacity_wh,design_capacity,nominal_voltage,capacity,cycle_count,average_time_to_empty,serial_number,manufacture_date,state_of_health,max_error,interface_error,faults,average_time_to_full,over_discharge_count,connected,cell_count,source,priority,id,is_powering_off,is_required,warning,mode
217452562,24.924261,24.92907,1.794625,1.7826719,14.970741,108.96661,1.0,1.0,nan,nan,0.0,0.0,0.0,0.0,0.0,0.0,0.0,0.0,0.0,0.0,0.0,0.0,0.0,0.0,0.0,0,0.0,0.0,0.0,0.0,0.0,0.0,0,0,0,0,0,0,0,0,0,0,0,1,6,0,0,1,0,0,0,0
217462562,24.883247,24.928616,1.7341937,1.7817214,14.968106,108.97143,1.0,1.0,nan,nan,0.0,0.0,0.0,0.0,0.0,0.0,0.0,0.0,0.0,0.0,0.0,0.0,0.0,0.0,0.0,0,0.0,0.0,0.0,0.0,0.0,0.0,0,0,0,0,0,0,0,0,0,0,0,1,6,0,0,1,0,0,0,0
217662561,24.959805,24.914434,1.9960625,1.7423766,14.914936,109.06375,1.0,1.0,nan,nan,0.0,0.0,0.0,0.0,0.0,0.0,0.0,0.0,0.0,0.0,0.0,0.0,0.0,0.0,0.0,0,0.0,0.0,0.0,0.0,0.0,0.0,0,0,0,0,0,0,0,0,0,0,0,1,6,0,0,1,0,0,0,0
217862565,24.969831,24.906708,1.9301375,1.7466962,14.862453,109.161766,1.0,1.0,nan,nan,0.0,0.0,0.0,0.0,0.0,0.0,0.0,0.0,0.0,0.0,0.0,0.0,0.0,0.0,0.0,0,0.0,0.0,0.0,0.0,0.0,0.0,0,0,0,0,0,0,0,0,0,0,0,1,6,0,0,1,0,0,0,0
218052561,24.856815,24.902632,1.677425,1.741316,14.812678,109.25282,1.0,1.0,nan,nan,0.0,0.0,0.0,0.0,0.0,0.0,0.0,0.0,0.0,0.0,0.0,0.0,0.0,0.0,0.0,0,0.0,0.0,0.0,0.0,0.0,0.0,0,0,0,0,0,0,0,0,0,0,0,1,6,0,0,1,0,0,0,0
218252560,24.855906,24.899576,1.7122188,1.7504195,14.7606125,109.35124,1.0,1.0,nan,nan,0.0,0.0,0.0,0.0,0.0,0.0,0.0,0.0,0.0,0.0,0.0,0.0,0.0,0.0,0.0,0,0.0,0.0,0.0,0.0,0.0,0.0,0,0,0,0,0,0,0,0,0,0,0,1,6,0,0,1,0,0,0,0
218452564,24.761118,24.897596,1.4906375,1.7510672,14.70873,109.4486,1.0,1.0,nan,nan,0.0,0.0,0.0,0.0,0.0,0.0,0.0,0.0,0.0,0.0,0.0,0.0,0.0,0.0,0.0,0,0.0,0.0,0.0,0.0,0.0,0.0,0,0,0,0,0,0,0,0,0,0,0,1,6,0,0,1,0,0,0,0
218652561,24.960718,24.895206,1.8404063,1.7518828,14.656929,109.545815,1.0,1.0,nan,nan,0.0,0.0,0.0,0.0,0.0,0.0,0.0,0.0,0.0,0.0,0.0,0.0,0.0,0.0,0.0,0,0.0,0.0,0.0,0.0,0.0,0.0,0,0,0,0,0,0,0,0,0,0,0,1,6,0,0,1,0,0,0,0
218852561,24.87869,24.889225,1.6426312,1.7332166,14.605218,109.63986,1.0,1.0,nan,nan,0.0,0.0,0.0,0.0,0.0,0.0,0.0,0.0,0.0,0.0,0.0,0.0,0.0,0.0,0.0,0,0.0,0.0,0.0,0.0,0.0,0.0,0,0,0,0,0,0,0,0,0,0,0,1,6,0,0,1,0,0,0,0
219062561,24.637167,24.881569,1.3386438,1.734596,14.551439,109.74251,1.0,1.0,nan,nan,0.0,0.0,0.0,0.0,0.0,0.0,0.0,0.0,0.0,0.0,0.0,0.0,0.0,0.0,0.0,0,0.0,0.0,0.0,0.0,0.0,0.0,0,0,0,0,0,0,0,0,0,0,0,1,6,0,0,1,0,0,0,0
219262575,24.829473,24.877499,2.5014875,1.8152622,14.500927,109.851135,1.0,1.0,nan,nan,0.0,0.0,0.0,0.0,0.0,0.0,0.0,0.0,0.0,0.0,0.0,0.0,0.0,0.0,0.0,0,0.0,0.0,0.0,0.0,0.0,0.0,0,0,0,0,0,0,0,0,0,0,0,1,6,0,0,1,0,0,0,0
219452561,24.895096,24.864418,3.9078875,2.2664733,14.457843,110.02082,1.0,1.0,nan,nan,0.0,0.0,0.0,0.0,0.0,0.0,0.0,0.0,0.0,0.0,0.0,0.0,0.0,0.0,0.0,0,0.0,0.0,0.0,0.0,0.0,0.0,0,0,0,0,0,0,0,0,0,0,0,1,6,0,0,1,0,0,0,0
219652579,24.89692,24.843346,3.7082813,2.8070338,14.415918,110.24004,1.0,1.0,nan,nan,0.0,0.0,0.0,0.0,0.0,0.0,0.0,0.0,0.0,0.0,0.0,0.0,0.0,0.0,0.0,0,0.0,0.0,0.0,0.0,0.0,0.0,0,0,0,0,0,0,0,0,0,0,0,1,6,0,0,1,0,0,0,0
219852586,24.617117,24.825058,3.1094625,2.9905095,14.371975,110.42769,1.0,1.0,nan,nan,0.0,0.0,0.0,0.0,0.0,0.0,0.0,0.0,0.0,0.0,0.0,0.0,0.0,0.0,0.0,0,0.0,0.0,0.0,0.0,0.0,0.0,0,0,0,0,0,0,0,0,0,0,0,1,6,0,0,1,0,0,0,0
220052560,24.766586,24.822062,3.523325,3.1799908,14.32876,110.625824,1.0,1.0,nan,nan,0.0,0.0,0.0,0.0,0.0,0.0,0.0,0.0,0.0,0.0,0.0,0.0,0.0,0.0,0.0,0,0.0,0.0,0.0,0.0,0.0,0.0,0,0,0,0,0,0,0,0,0,0,0,1,6,0,0,1,0,0,0,0
220252560,24.72922,24.812443,3.7504,3.383956,14.286657,110.83659,1.0,1.0,nan,nan,0.0,0.0,0.0,0.0,0.0,0.0,0.0,0.0,0.0,0.0,0.0,0.0,0.0,0.0,0.0,0,0.0,0.0,0.0,0.0,0.0,0.0,0,0,0,0,0,0,0,0,0,0,0,1,6,0,0,1,0,0,0,0
220462561,24.790283,24.799688,4.3657,3.6188188,14.24368,111.073524,1.0,1.0,nan,nan,0.0,0.0,0.0,0.0,0.0,0.0,0.0,0.0,0.0,0.0,0.0,0.0,0.0,0.0,0.0,0,0.0,0.0,0.0,0.0,0.0,0.0,0,0,0,0,0,0,0,0,0,0,0,1,6,0,0,1,0,0,0,0
220662561,24.570633,24.787817,4.6184125,3.9083376,14.204695,111.32298,1.0,1.0,nan,nan,0.0,0.0,0.0,0.0,0.0,0.0,0.0,0.0,0.0,0.0,0.0,0.0,0.0,0.0,0.0,0,0.0,0.0,0.0,0.0,0.0,0.0,0,0,0,0,0,0,0,0,0,0,0,1,6,0,0,1,0,0,0,0
220852560,24.803955,24.786379,5.222725,4.2543325,14.1696615,111.58686,1.0,1.0,nan,nan,0.0,0.0,0.0,0.0,0.0,0.0,0.0,0.0,0.0,0.0,0.0,0.0,0.0,0.0,0.0,0,0.0,0.0,0.0,0.0,0.0,0.0,0,0,0,0,0,0,0,0,0,0,0,1,6,0,0,1,0,0,0,0
221052575,24.725573,24.769314,5.7885814,4.6391864,14.134569,111.88728,1.0,1.0,nan,nan,0.0,0.0,0.0,0.0,0.0,0.0,0.0,0.0,0.0,0.0,0.0,0.0,0.0,0.0,0.0,0,0.0,0.0,0.0,0.0,0.0,0.0,0,0,0,0,0,0,0,0,0,0,0,1,6,0,0,1,0,0,0,0
221252562,24.684559,24.756926,6.228081,5.0730343,14.101813,112.21787,1.0,1.0,nan,nan,0.0,0.0,0.0,0.0,0.0,0.0,0.0,0.0,0.0,0.0,0.0,0.0,0.0,0.0,0.0,0,0.0,0.0,0.0,0.0,0.0,0.0,0,0,0,0,0,0,0,0,0,0,0,1,6,0,0,1,0,0,0,0
221452562,24.370123,24.728447,7.5905313,5.837792,14.074554,112.62567,1.0,1.0,nan,nan,0.0,0.0,0.0,0.0,0.0,0.0,0.0,0.0,0.0,0.0,0.0,0.0,0.0,0.0,0.0,0,0.0,0.0,0.0,0.0,0.0,0.0,0,0,0,0,0,0,0,0,0,0,0,1,6,0,0,1,0,0,0,0
221652563,24.595242,24.6998,8.249782,6.590159,14.05067,113.07703,1.0,1.0,nan,nan,0.0,0.0,0.0,0.0,0.0,0.0,0.0,0.0,0.0,0.0,0.0,0.0,0.0,0.0,0.0,0,0.0,0.0,0.0,0.0,0.0,0.0,0,0,0,0,0,0,0,0,0,0,0,1,6,0,0,1,0,0,0,0
221862561,24.488607,24.65802,9.983974,7.46402,14.029597,113.608154,1.0,1.0,nan,nan,0.0,0.0,0.0,0.0,0.0,0.0,0.0,0.0,0.0,0.0,0.0,0.0,0.0,0.0,0.0,0,0.0,0.0,0.0,0.0,0.0,0.0,0,0,0,0,0,0,0,0,0,0,0,1,6,0,0,1,0,0,0,0
222062560,24.444859,24.612202,11.47095,8.495227,14.015429,114.1945,1.0,1.0,nan,nan,0.0,0.0,0.0,0.0,0.0,0.0,0.0,0.0,0.0,0.0,0.0,0.0,0.0,0.0,0.0,0,0.0,0.0,0.0,0.0,0.0,0.0,0,0,0,0,0,0,0,0,0,0,0,1,6,0,0,1,0,0,0,0
222252561,24.259844,24.560143,12.959756,9.661045,14.00815,114.83707,1.0,1.0,nan,nan,0.0,0.0,0.0,0.0,0.0,0.0,0.0,0.0,0.0,0.0,0.0,0.0,0.0,0.0,0.0,0,0.0,0.0,0.0,0.0,0.0,0.0,0,0,0,0,0,0,0,0,0,0,0,1,6,0,0,1,0,0,0,0
222452573,24.129513,24.4921,14.551112,11.022575,14.006825,115.60137,1.0,1.0,nan,nan,0.0,0.0,0.0,0.0,0.0,0.0,0.0,0.0,0.0,0.0,0.0,0.0,0.0,0.0,0.0,0,0.0,0.0,0.0,0.0,0.0,0.0,0,0,0,0,0,0,0,0,0,0,0,1,6,0,0,1,0,0,0,0
222652562,24.180552,24.416521,15.930043,12.480903,14.012285,116.45934,1.0,1.0,nan,nan,0.0,0.0,0.0,0.0,0.0,0.0,0.0,0.0,0.0,0.0,0.0,0.0,0.0,0.0,0.0,0,0.0,0.0,0.0,0.0,0.0,0.0,0,0,0,0,0,0,0,0,0,0,0,1,6,0,0,1,0,0,0,0
222852560,23.860647,24.337458,18.817926,14.189999,14.025935,117.435776,1.0,1.0,nan,nan,0.0,0.0,0.0,0.0,0.0,0.0,0.0,0.0,0.0,0.0,0.0,0.0,0.0,0.0,0.0,0,0.0,0.0,0.0,0.0,0.0,0.0,0,0,0,0,0,0,0,0,0,0,0,1,6,0,0,1,0,0,0,0
223052601,23.74581,24.24052,21.128962,16.301235,14.051496,118.57744,1.0,1.0,nan,nan,0.0,0.0,0.0,0.0,0.0,0.0,0.0,0.0,0.0,0.0,0.0,0.0,0.0,0.0,0.0,0,0.0,0.0,0.0,0.0,0.0,0.0,0,0,0,0,0,0,0,0,0,0,0,1,6,0,0,1,0,0,0,0
223262560,23.871586,24.135294,23.353931,18.347092,14.08542,119.87527,1.0,1.0,nan,nan,0.0,0.0,0.0,0.0,0.0,0.0,0.0,0.0,0.0,0.0,0.0,0.0,0.0,0.0,0.0,0,0.0,0.0,0.0,0.0,0.0,0.0,0,0,0,0,0,0,0,0,0,0,0,1,6,0,0,1,0,0,0,0
223462560,23.547123,24.050175,23.51325,19.753628,14.119678,121.13512,1.0,1.0,nan,nan,0.0,0.0,0.0,0.0,0.0,0.0,0.0,0.0,0.0,0.0,0.0,0.0,0.0,0.0,0.0,0,0.0,0.0,0.0,0.0,0.0,0.0,0,0,0,0,0,0,0,0,0,0,0,1,6,0,0,1,0,0,0,0
223652561,23.723024,23.997517,20.700449,20.257133,14.1481,122.268166,1.0,1.0,nan,nan,0.0,0.0,0.0,0.0,0.0,0.0,0.0,0.0,0.0,0.0,0.0,0.0,0.0,0.0,0.0,0,0.0,0.0,0.0,0.0,0.0,0.0,0,0,0,0,0,0,0,0,0,0,0,1,6,0,0,1,0,0,0,0
223852561,23.766773,23.954035,21.931051,20.61103,14.176459,123.4523,1.0,1.0,nan,nan,0.0,0.0,0.0,0.0,0.0,0.0,0.0,0.0,0.0,0.0,0.0,0.0,0.0,0.0,0.0,0,0.0,0.0,0.0,0.0,0.0,0.0,0,0,0,0,0,0,0,0,0,0,0,1,6,0,0,1,0,0,0,0
224052561,23.733051,23.899094,22.308287,21.069668,14.207577,124.674065,1.0,1.0,nan,nan,0.0,0.0,0.0,0.0,0.0,0.0,0.0,0.0,0.0,0.0,0.0,0.0,0.0,0.0,0.0,0,0.0,0.0,0.0,0.0,0.0,0.0,0,0,0,0,0,0,0,0,0,0,0,1,6,0,0,1,0,0,0,0
224252570,23.685658,23.853529,23.537056,21.76521,14.243174,125.96231,1.0,1.0,nan,nan,0.0,0.0,0.0,0.0,0.0,0.0,0.0,0.0,0.0,0.0,0.0,0.0,0.0,0.0,0.0,0,0.0,0.0,0.0,0.0,0.0,0.0,0,0,0,0,0,0,0,0,0,0,0,1,6,0,0,1,0,0,0,0
224452561,23.723024,23.805548,22.623262,22.069458,14.277183,127.224434,1.0,1.0,nan,nan,0.0,0.0,0.0,0.0,0.0,0.0,0.0,0.0,0.0,0.0,0.0,0.0,0.0,0.0,0.0,0,0.0,0.0,0.0,0.0,0.0,0.0,0,0,0,0,0,0,0,0,0,0,0,1,6,0,0,1,0,0,0,0
224662576,23.683834,23.768854,24.007689,22.469707,14.314246,128.57716,1.0,1.0,nan,nan,0.0,0.0,0.0,0.0,0.0,0.0,0.0,0.0,0.0,0.0,0.0,0.0,0.0,0.0,0.0,0,0.0,0.0,0.0,0.0,0.0,0.0,0,0,0,0,0,0,0,0,0,0,0,1,6,0,0,1,0,0,0,0
224862561,23.546213,23.735281,22.601286,22.687304,14.3498335,129.86372,1.0,1.0,nan,nan,0.0,0.0,0.0,0.0,0.0,0.0,0.0,0.0,0.0,0.0,0.0,0.0,0.0,0.0,0.0,0,0.0,0.0,0.0,0.0,0.0,0.0,0,0,0,0,0,0,0,0,0,0,0,1,6,0,0,1,0,0,0,0
225052561,23.713911,23.720243,23.128687,22.662094,14.381012,131.0565,1.0,1.0,nan,nan,0.0,0.0,0.0,0.0,0.0,0.0,0.0,0.0,0.0,0.0,0.0,0.0,0.0,0.0,0.0,0,0.0,0.0,0.0,0.0,0.0,0.0,0,0,0,0,0,0,0,0,0,0,0,1,6,0,0,1,0,0,0,0
225252562,23.497908,23.69525,23.92345,22.904444,14.416789,132.35568,1.0,1.0,nan,nan,0.0,0.0,0.0,0.0,0.0,0.0,0.0,0.0,0.0,0.0,0.0,0.0,0.0,0.0,0.0,0,0.0,0.0,0.0,0.0,0.0,0.0,0,0,0,0,0,0,0,0,0,0,0,1,6,0,0,1,0,0,0,0
225452660,23.408588,23.65604,23.447325,23.185127,14.454196,133.67659,1.0,1.0,nan,nan,0.0,0.0,0.0,0.0,0.0,0.0,0.0,0.0,0.0,0.0,0.0,0.0,0.0,0.0,0.0,0,0.0,0.0,0.0,0.0,0.0,0.0,0,0,0,0,0,0,0,0,0,0,0,1,6,0,0,1,0,0,0,0
225652560,23.64191,23.629679,23.242224,23.216576,14.489505,134.96983,1.0,1.0,nan,nan,0.0,0.0,0.0,0.0,0.0,0.0,0.0,0.0,0.0,0.0,0.0,0.0,0.0,0.0,0.0,0,0.0,0.0,0.0,0.0,0.0,0.0,0,0,0,0,0,0,0,0,0,0,0,1,6,0,0,1,0,0,0,0
225852560,23.418615,23.61468,23.181793,23.301403,14.52532,136.27315,1.0,1.0,nan,nan,0.0,0.0,0.0,0.0,0.0,0.0,0.0,0.0,0.0,0.0,0.0,0.0,0.0,0.0,0.0,0,0.0,0.0,0.0,0.0,0.0,0.0,0,0,0,0,0,0,0,0,0,0,0,1,6,0,0,1,0,0,0,0
226062561,23.472387,23.587881,23.952751,23.46798,14.56395,137.66034,1.0,1.0,nan,nan,0.0,0.0,0.0,0.0,0.0,0.0,0.0,0.0,0.0,0.0,0.0,0.0,0.0,0.0,0.0,0,0.0,0.0,0.0,0.0,0.0,0.0,0,0,0,0,0,0,0,0,0,0,0,1,6,0,0,1,0,0,0,0
226262658,23.621859,23.583487,22.982187,23.393394,14.598881,138.95361,1.0,1.0,nan,nan,0.0,0.0,0.0,0.0,0.0,0.0,0.0,0.0,0.0,0.0,0.0,0.0,0.0,0.0,0.0,0,0.0,0.0,0.0,0.0,0.0,0.0,0,0,0,0,0,0,0,0,0,0,0,1,6,0,0,1,0,0,0,0
226452563,23.697506,23.57776,22.888794,23.176163,14.629613,140.151,1.0,1.0,nan,nan,0.0,0.0,0.0,0.0,0.0,0.0,0.0,0.0,0.0,0.0,0.0,0.0,0.0,0.0,0.0,0,0.0,0.0,0.0,0.0,0.0,0.0,0,0,0,0,0,0,0,0,0,0,0,1,6,0,0,1,0,0,0,0
226652562,23.383982,23.568222,22.610443,23.079159,14.662549,141.42137,1.0,1.0,nan,nan,0.0,0.0,0.0,0.0,0.0,0.0,0.0,0.0,0.0,0.0,0.0,0.0,0.0,0.0,0.0,0,0.0,0.0,0.0,0.0,0.0,0.0,0,0,0,0,0,0,0,0,0,0,0,1,6,0,0,1,0,0,0,0
226852561,23.529808,23.55762,22.636082,22.96873,14.694826,142.6853,1.0,1.0,nan,nan,0.0,0.0,0.0,0.0,0.0,0.0,0.0,0.0,0.0,0.0,0.0,0.0,0.0,0.0,0.0,0,0.0,0.0,0.0,0.0,0.0,0.0,0,0,0,0,0,0,0,0,0,0,0,1,6,0,0,1,0,0,0,0
227052804,23.695683,23.556244,23.07375,22.88017,14.726637,143.9472,1.0,1.0,nan,nan,0.0,0.0,0.0,0.0,0.0,0.0,0.0,0.0,0.0,0.0,0.0,0.0,0.0,0.0,0.0,0,0.0,0.0,0.0,0.0,0.0,0.0,0,0,0,0,0,0,0,0,0,0,0,1,6,0,0,1,0,0,0,0
227252593,23.208078,23.54407,22.412668,22.883211,14.759358,145.21768,1.0,1.0,nan,nan,0.0,0.0,0.0,0.0,0.0,0.0,0.0,0.0,0.0,0.0,0.0,0.0,0.0,0.0,0.0,0,0.0,0.0,0.0,0.0,0.0,0.0,0,0,0,0,0,0,0,0,0,0,0,1,6,0,0,1,0,0,0,0
227462561,23.349348,23.53044,22.130657,22.79906,14.792515,146.53926,1.0,1.0,nan,nan,0.0,0.0,0.0,0.0,0.0,0.0,0.0,0.0,0.0,0.0,0.0,0.0,0.0,0.0,0.0,0,0.0,0.0,0.0,0.0,0.0,0.0,0,0,0,0,0,0,0,0,0,0,0,1,6,0,0,1,0,0,0,0
227662561,23.560795,23.539158,22.740461,22.656603,14.822602,147.78156,1.0,1.0,nan,nan,0.0,0.0,0.0,0.0,0.0,0.0,0.0,0.0,0.0,0.0,0.0,0.0,0.0,0.0,0.0,0,0.0,0.0,0.0,0.0,0.0,0.0,0,0,0,0,0,0,0,0,0,0,0,1,6,0,0,1,0,0,0,0
227852930,23.458715,23.535696,21.7699,22.548122,14.851196,148.96135,1.0,1.0,nan,nan,0.0,0.0,0.0,0.0,0.0,0.0,0.0,0.0,0.0,0.0,0.0,0.0,0.0,0.0,0.0,0,0.0,0.0,0.0,0.0,0.0,0.0,0,0,0,0,0,0,0,0,0,0,0,1,6,0,0,1,0,0,0,0
228052564,23.542566,23.54508,21.103325,22.245275,14.878484,150.16223,1.0,1.0,nan,nan,0.0,0.0,0.0,0.0,0.0,0.0,0.0,0.0,0.0,0.0,0.0,0.0,0.0,0.0,0.0,0,0.0,0.0,0.0,0.0,0.0,0.0,0,0,0,0,0,0,0,0,0,0,0,1,6,0,0,1,0,0,0,0
228252560,23.617302,23.550917,21.821177,22.010662,14.904792,151.357,1.0,1.0,nan,nan,0.0,0.0,0.0,0.0,0.0,0.0,0.0,0.0,0.0,0.0,0.0,0.0,0.0,0.0,0.0,0,0.0,0.0,0.0,0.0,0.0,0.0,0,0,0,0,0,0,0,0,0,0,0,1,6,0,0,1,0,0,0,0
228452560,23.464186,23.548061,22.242363,22.053812,14.933551,152.58653,1.0,1.0,nan,nan,0.0,0.0,0.0,0.0,0.0,0.0,0.0,0.0,0.0,0.0,0.0,0.0,0.0,0.0,0.0,0,0.0,0.0,0.0,0.0,0.0,0.0,0,0,0,0,0,0,0,0,0,0,0,1,6,0,0,1,0,0,0,0
228652575,23.64282,23.539536,21.824837,22.04441,14.962008,153.81125,1.0,1.0,nan,nan,0.0,0.0,0.0,0.0,0.0,0.0,0.0,0.0,0.0,0.0,0.0,0.0,0.0,0.0,0.0,0,0.0,0.0,0.0,0.0,0.0,0.0,0,0,0,0,0,0,0,0,0,0,0,1,6,0,0,1,0,0,0,0
228852575,23.34388,23.539974,21.059376,21.808327,14.987605,154.99661,1.0,1.0,nan,nan,0.0,0.0,0.0,0.0,0.0,0.0,0.0,0.0,0.0,0.0,0.0,0.0,0.0,0.0,0.0,0,0.0,0.0,0.0,0.0,0.0,0.0,0,0,0,0,0,0,0,0,0,0,0,1,6,0,0,1,0,0,0,0
229062574,23.76495,23.542086,21.204044,21.710077,15.014942,156.25186,1.0,1.0,nan,nan,0.0,0.0,0.0,0.0,0.0,0.0,0.0,0.0,0.0,0.0,0.0,0.0,0.0,0.0,0.0,0,0.0,0.0,0.0,0.0,0.0,0.0,0,0,0,0,0,0,0,0,0,0,0,1,6,0,0,1,0,0,0,0
229252561,23.476034,23.53896,21.454926,21.570793,15.038565,157.3737,1.0,1.0,nan,nan,0.0,0.0,0.0,0.0,0.0,0.0,0.0,0.0,0.0,0.0,0.0,0.0,0.0,0.0,0.0,0,0.0,0.0,0.0,0.0,0.0,0.0,0,0,0,0,0,0,0,0,0,0,0,1,6,0,0,1,0,0,0,0
229452563,23.400387,23.534136,21.072193,21.503569,15.063868,158.56029,1.0,1.0,nan,nan,0.0,0.0,0.0,0.0,0.0,0.0,0.0,0.0,0.0,0.0,0.0,0.0,0.0,0.0,0.0,0,0.0,0.0,0.0,0.0,0.0,0.0,0,0,0,0,0,0,0,0,0,0,0,1,6,0,0,1,0,0,0,0
229652561,23.191673,23.529013,21.198551,21.507938,15.089632,159.75607,1.0,1.0,nan,nan,0.0,0.0,0.0,0.0,0.0,0.0,0.0,0.0,0.0,0.0,0.0,0.0,0.0,0.0,0.0,0,0.0,0.0,0.0,0.0,0.0,0.0,0,0,0,0,0,0,0,0,0,0,0,1,6,0,0,1,0,0,0,0
229852560,23.60272,23.531199,21.174744,21.468975,15.114802,160.94473,1.0,1.0,nan,nan,0.0,0.0,0.0,0.0,0.0,0.0,0.0,0.0,0.0,0.0,0.0,0.0,0.0,0.0,0.0,0,0.0,0.0,0.0,0.0,0.0,0.0,0,0,0,0,0,0,0,0,0,0,0,1,6,0,0,1,0,0,0,0
230052579,23.497908,23.530632,21.383505,21.443737,15.139786,162.13284,1.0,1.0,nan,nan,0.0,0.0,0.0,0.0,0.0,0.0,0.0,0.0,0.0,0.0,0.0,0.0,0.0,0.0,0.0,0,0.0,0.0,0.0,0.0,0.0,0.0,0,0,0,0,0,0,0,0,0,0,0,1,6,0,0,1,0,0,0,0
230252562,23.66652,23.532711,21.561138,21.44735,15.164981,163.32507,1.0,1.0,nan,nan,0.0,0.0,0.0,0.0,0.0,0.0,0.0,0.0,0.0,0.0,0.0,0.0,0.0,0.0,0.0,0,0.0,0.0,0.0,0.0,0.0,0.0,0,0,0,0,0,0,0,0,0,0,0,1,6,0,0,1,0,0,0,0
230462560,23.243626,23.530022,21.103325,21.431057,15.1911745,164.57301,1.0,1.0,nan,nan,0.0,0.0,0.0,0.0,0.0,0.0,0.0,0.0,0.0,0.0,0.0,0.0,0.0,0.0,0.0,0,0.0,0.0,0.0,0.0,0.0,0.0,0,0,0,0,0,0,0,0,0,0,0,1,6,0,0,1,0,0,0,0
230652574,23.62915,23.528063,21.757082,21.539164,15.215992,165.7221,1.0,1.0,nan,nan,0.0,0.0,0.0,0.0,0.0,0.0,0.0,0.0,0.0,0.0,0.0,0.0,0.0,0.0,0.0,0,0.0,0.0,0.0,0.0,0.0,0.0,0,0,0,0,0,0,0,0,0,0,0,1,6,0,0,1,0,0,0,0
230852560,23.669252,23.51828,21.0667,21.443047,15.240285,166.90356,1.0,1.0,nan,nan,0.0,0.0,0.0,0.0,0.0,0.0,0.0,0.0,0.0,0.0,0.0,0.0,0.0,0.0,0.0,0,0.0,0.0,0.0,0.0,0.0,0.0,0,0,0,0,0,0,0,0,0,0,0,1,6,0,0,1,0,0,0,0
231052560,23.43502,23.5206,21.431118,21.32291,15.26349,168.07428,1.0,1.0,nan,nan,0.0,0.0,0.0,0.0,0.0,0.0,0.0,0.0,0.0,0.0,0.0,0.0,0.0,0.0,0.0,0,0.0,0.0,0.0,0.0,0.0,0.0,0,0,0,0,0,0,0,0,0,0,0,1,6,0,0,1,0,0,0,0
231252561,23.55168,23.513113,22.029938,21.419653,15.288657,169.27414,1.0,1.0,nan,nan,0.0,0.0,0.0,0.0,0.0,0.0,0.0,0.0,0.0,0.0,0.0,0.0,0.0,0.0,0.0,0,0.0,0.0,0.0,0.0,0.0,0.0,0,0,0,0,0,0,0,0,0,0,0,1,6,0,0,1,0,0,0,0
231452582,23.315626,23.508717,21.103325,21.425825,15.313445,170.46608,1.0,1.0,nan,nan,0.0,0.0,0.0,0.0,0.0,0.0,0.0,0.0,0.0,0.0,0.0,0.0,0.0,0.0,0.0,0,0.0,0.0,0.0,0.0,0.0,0.0,0,0,0,0,0,0,0,0,0,0,0,1,6,0,0,1,0,0,0,0
231652560,23.55806,23.511656,20.823145,21.242329,15.335708,171.62582,1.0,1.0,nan,nan,0.0,0.0,0.0,0.0,0.0,0.0,0.0,0.0,0.0,0.0,0.0,0.0,0.0,0.0,0.0,0,0.0,0.0,0.0,0.0,0.0,0.0,0,0,0,0,0,0,0,0,0,0,0,1,6,0,0,1,0,0,0,0
231862561,23.317448,23.512499,21.244331,21.14504,15.359038,172.84636,1.0,1.0,nan,nan,0.0,0.0,0.0,0.0,0.0,0.0,0.0,0.0,0.0,0.0,0.0,0.0,0.0,0.0,0.0,0,0.0,0.0,0.0,0.0,0.0,0.0,0,0,0,0,0,0,0,0,0,0,0,1,6,0,0,1,0,0,0,0
232052560,23.443224,23.506363,21.577618,21.349432,15.383394,173.99692,1.0,1.0,nan,nan,0.0,0.0,0.0,0.0,0.0,0.0,0.0,0.0,0.0,0.0,0.0,0.0,0.0,0.0,0.0,0,0.0,0.0,0.0,0.0,0.0,0.0,0,0,0,0,0,0,0,0,0,0,0,1,6,0,0,1,0,0,0,0
232252562,23.45963,23.501135,20.868925,21.2593,15.406406,175.16995,1.0,1.0,nan,nan,0.0,0.0,0.0,0.0,0.0,0.0,0.0,0.0,0.0,0.0,0.0,0.0,0.0,0.0,0.0,0,0.0,0.0,0.0,0.0,0.0,0.0,0,0,0,0,0,0,0,0,0,0,0,1,6,0,0,1,0,0,0,0
232452563,23.208078,23.488562,20.6565,21.14098,15.428343,176.33069,1.0,1.0,nan,nan,0.0,0.0,0.0,0.0,0.0,0.0,0.0,0.0,0.0,0.0,0.0,0.0,0.0,0.0,0.0,0,0.0,0.0,0.0,0.0,0.0,0.0,0,0,0,0,0,0,0,0,0,0,0,1,6,0,0,1,0,0,0,0
232652562,23.3375,23.493929,20.8909,21.185448,15.451611,177.5124,1.0,1.0,nan,nan,0.0,0.0,0.0,0.0,0.0,0.0,0.0,0.0,0.0,0.0,0.0,0.0,0.0,0.0,0.0,0,0.0,0.0,0.0,0.0,0.0,0.0,0,0,0,0,0,0,0,0,0,0,0,1,6,0,0,1,0,0,0,0
232852562,23.67472,23.484127,21.6527,21.263872,15.475324,178.70306,1.0,1.0,nan,nan,0.0,0.0,0.0,0.0,0.0,0.0,0.0,0.0,0.0,0.0,0.0,0.0,0.0,0.0,0.0,0,0.0,0.0,0.0,0.0,0.0,0.0,0,0,0,0,0,0,0,0,0,0,0,1,6,0,0,1,0,0,0,0
233052560,23.508844,23.48688,21.588606,21.305386,15.498956,179.89157,1.0,1.0,nan,nan,0.0,0.0,0.0,0.0,0.0,0.0,0.0,0.0,0.0,0.0,0.0,0.0,0.0,0.0,0.0,0,0.0,0.0,0.0,0.0,0.0,0.0,0,0,0,0,0,0,0,0,0,0,0,1,6,0,0,1,0,0,0,0
233262560,23.49244,23.478918,21.66918,21.347609,15.523788,181.14163,1.0,1.0,nan,nan,0.0,0.0,0.0,0.0,0.0,0.0,0.0,0.0,0.0,0.0,0.0,0.0,0.0,0.0,0.0,0,0.0,0.0,0.0,0.0,0.0,0.0,0,0,0,0,0,0,0,0,0,0,0,1,6,0,0,1,0,0,0,0
233452567,23.569908,23.479975,21.4476,21.412622,15.546729,182.27965,1.0,1.0,nan,nan,0.0,0.0,0.0,0.0,0.0,0.0,0.0,0.0,0.0,0.0,0.0,0.0,0.0,0.0,0.0,0,0.0,0.0,0.0,0.0,0.0,0.0,0,0,0,0,0,0,0,0,0,0,0,1,6,0,0,1,0,0,0,0
233652587,23.404943,23.47469,21.319412,21.392046,15.569893,183.4656,1.0,1.0,nan,nan,0.0,0.0,0.0,0.0,0.0,0.0,0.0,0.0,0.0,0.0,0.0,0.0,0.0,0.0,0.0,0,0.0,0.0,0.0,0.0,0.0,0.0,0,0,0,0,0,0,0,0,0,0,0,1,6,0,0,1,0,0,0,0
233852578,23.51887,23.457994,22.061068,21.462093,15.593756,184.66481,1.0,1.0,nan,nan,0.0,0.0,0.0,0.0,0.0,0.0,0.0,0.0,0.0,0.0,0.0,0.0,0.0,0.0,0.0,0,0.0,0.0,0.0,0.0,0.0,0.0,0,0,0,0,0,0,0,0,0,0,0,1,6,0,0,1,0,0,0,0
234052578,23.430464,23.450603,21.500708,21.584316,15.618835,185.8786,1.0,1.0,nan,nan,0.0,0.0,0.0,0.0,0.0,0.0,0.0,0.0,0.0,0.0,0.0,0.0,0.0,0.0,0.0,0,0.0,0.0,0.0,0.0,0.0,0.0,0,0,0,0,0,0,0,0,0,0,0,1,6,0,0,1,0,0,0,0
234252575,23.31107,23.443722,21.293774,21.580334,15.642621,187.07693,1.0,1.0,nan,nan,0.0,0.0,0.0,0.0,0.0,0.0,0.0,0.0,0.0,0.0,0.0,0.0,0.0,0.0,0.0,0,0.0,0.0,0.0,0.0,0.0,0.0,0,0,0,0,0,0,0,0,0,0,0,1,6,0,0,1,0,0,0,0
234462574,23.56444,23.43626,22.339418,21.636106,15.667885,188.34398,1.0,1.0,nan,nan,0.0,0.0,0.0,0.0,0.0,0.0,0.0,0.0,0.0,0.0,0.0,0.0,0.0,0.0,0.0,0,0.0,0.0,0.0,0.0,0.0,0.0,0,0,0,0,0,0,0,0,0,0,0,1,6,0,0,1,0,0,0,0
234662561,23.469654,23.423075,22.235037,21.735182,15.692926,189.56264,1.0,1.0,nan,nan,0.0,0.0,0.0,0.0,0.0,0.0,0.0,0.0,0.0,0.0,0.0,0.0,0.0,0.0,0.0,0,0.0,0.0,0.0,0.0,0.0,0.0,0,0,0,0,0,0,0,0,0,0,0,1,6,0,0,1,0,0,0,0
234852572,23.287373,23.421461,21.275461,21.774115,15.716545,190.717,1.0,1.0,nan,nan,0.0,0.0,0.0,0.0,0.0,0.0,0.0,0.0,0.0,0.0,0.0,0.0,0.0,0.0,0.0,0,0.0,0.0,0.0,0.0,0.0,0.0,0,0,0,0,0,0,0,0,0,0,0,1,6,0,0,1,0,0,0,0
235052563,22.900024,23.38895,27.933887,22.712751,15.749793,192.07127,1.0,1.0,nan,nan,0.0,0.0,0.0,0.0,0.0,0.0,0.0,0.0,0.0,0.0,0.0,0.0,0.0,0.0,0.0,0,0.0,0.0,0.0,0.0,0.0,0.0,0,0,0,0,0,0,0,0,0,0,0,1,6,0,0,1,0,0,0,0
235252562,22.771517,23.294296,31.764864,25.269997,15.807604,193.76149,1.0,1.0,nan,nan,0.0,0.0,0.0,0.0,0.0,0.0,0.0,0.0,0.0,0.0,0.0,0.0,0.0,0.0,0.0,0,0.0,0.0,0.0,0.0,0.0,0.0,0,0,0,0,0,0,0,0,0,0,0,1,6,0,0,1,0,0,0,0
235452561,22.61931,23.19389,33.50455,27.73788,15.874912,195.5813,1.0,1.0,nan,nan,0.0,0.0,0.0,0.0,0.0,0.0,0.0,0.0,0.0,0.0,0.0,0.0,0.0,0.0,0.0,0,0.0,0.0,0.0,0.0,0.0,0.0,0,0,0,0,0,0,0,0,0,0,0,1,6,0,0,1,0,0,0,0
235652560,22.044214,23.073225,35.45666,30.696152,15.957624,197.61975,1.0,1.0,nan,nan,0.0,0.0,0.0,0.0,0.0,0.0,0.0,0.0,0.0,0.0,0.0,0.0,0.0,0.0,0.0,0,0.0,0.0,0.0,0.0,0.0,0.0,0,0,0,0,0,0,0,0,0,0,0,1,6,0,0,1,0,0,0,0
235862561,22.971113,23.040863,27.959524,30.575565,16.020515,199.40552,1.0,1.0,nan,nan,0.0,0.0,0.0,0.0,0.0,0.0,0.0,0.0,0.0,0.0,0.0,0.0,0.0,0.0,0.0,0,0.0,0.0,0.0,0.0,0.0,0.0,0,0,0,0,0,0,0,0,0,0,0,1,6,0,0,1,0,0,0,0
236062569,23.214458,23.032797,27.93938,29.542978,16.065989,200.92857,1.0,1.0,nan,nan,0.0,0.0,0.0,0.0,0.0,0.0,0.0,0.0,0.0,0.0,0.0,0.0,0.0,0.0,0.0,0,0.0,0.0,0.0,0.0,0.0,0.0,0,0,0,0,0,0,0,0,0,0,0,1,6,0,0,1,0,0,0,0
236252590,23.424995,23.06272,22.973032,27.902525,16.098814,202.21971,1.0,1.0,nan,nan,0.0,0.0,0.0,0.0,0.0,0.0,0.0,0.0,0.0,0.0,0.0,0.0,0.0,0.0,0.0,0,0.0,0.0,0.0,0.0,0.0,0.0,0,0,0,0,0,0,0,0,0,0,0,1,6,0,0,1,0,0,0,0
236452645,23.0978,23.089392,26.655676,26.729523,16.130198,203.56145,1.0,1.0,nan,nan,0.0,0.0,0.0,0.0,0.0,0.0,0.0,0.0,0.0,0.0,0.0,0.0,0.0,0.0,0.0,0,0.0,0.0,0.0,0.0,0.0,0.0,0,0,0,0,0,0,0,0,0,0,0,1,6,0,0,1,0,0,0,0
236652620,23.134256,23.06985,28.197586,26.947433,16.174747,205.08176,1.0,1.0,nan,nan,0.0,0.0,0.0,0.0,0.0,0.0,0.0,0.0,0.0,0.0,0.0,0.0,0.0,0.0,0.0,0,0.0,0.0,0.0,0.0,0.0,0.0,0,0,0,0,0,0,0,0,0,0,0,1,6,0,0,1,0,0,0,0
236852666,23.211725,23.062471,26.705118,27.0433,16.219318,206.5971,1.0,1.0,nan,nan,0.0,0.0,0.0,0.0,0.0,0.0,0.0,0.0,0.0,0.0,0.0,0.0,0.0,0.0,0.0,0,0.0,0.0,0.0,0.0,0.0,0.0,0,0,0,0,0,0,0,0,0,0,0,1,6,0,0,1,0,0,0,0
237052659,23.217194,23.054953,27.831337,27.11338,16.263004,208.10933,1.0,1.0,nan,nan,0.0,0.0,0.0,0.0,0.0,0.0,0.0,0.0,0.0,0.0,0.0,0.0,0.0,0.0,0.0,0,0.0,0.0,0.0,0.0,0.0,0.0,0,0,0,0,0,0,0,0,0,0,0,1,6,0,0,1,0,0,0,0
237262648,23.125141,23.04335,28.016294,27.36184,16.311485,209.73332,1.0,1.0,nan,nan,0.0,0.0,0.0,0.0,0.0,0.0,0.0,0.0,0.0,0.0,0.0,0.0,0.0,0.0,0.0,0,0.0,0.0,0.0,0.0,0.0,0.0,0,0,0,0,0,0,0,0,0,0,0,1,6,0,0,1,0,0,0,0
237462655,23.236334,23.039509,27.741606,27.407309,16.356153,211.2606,1.0,1.0,nan,nan,0.0,0.0,0.0,0.0,0.0,0.0,0.0,0.0,0.0,0.0,0.0,0.0,0.0,0.0,0.0,0,0.0,0.0,0.0,0.0,0.0,0.0,0,0,0,0,0,0,0,0,0,0,0,1,6,0,0,1,0,0,0,0
237652670,23.087774,23.03092,27.959524,27.521101,16.399338,212.72559,1.0,1.0,nan,nan,0.0,0.0,0.0,0.0,0.0,0.0,0.0,0.0,0.0,0.0,0.0,0.0,0.0,0.0,0.0,0,0.0,0.0,0.0,0.0,0.0,0.0,0,0,0,0,0,0,0,0,0,0,0,1,6,0,0,1,0,0,0,0
237852581,22.61293,22.989883,28.88797,27.906895,16.448168,214.31818,1.0,1.0,nan,nan,0.0,0.0,0.0,0.0,0.0,0.0,0.0,0.0,0.0,0.0,0.0,0.0,0.0,0.0,0.0,0,0.0,0.0,0.0,0.0,0.0,0.0,0,0,0,0,0,0,0,0,0,0,0,1,6,0,0,1,0,0,0,0
238052583,23.02671,22.966269,30.406075,28.514532,16.500872,215.9698,1.0,1.0,nan,nan,0.0,0.0,0.0,0.0,0.0,0.0,0.0,0.0,0.0,0.0,0.0,0.0,0.0,0.0,0.0,0,0.0,0.0,0.0,0.0,0.0,0.0,0,0,0,0,0,0,0,0,0,0,0,1,6,0,0,1,0,0,0,0
238252581,22.829845,22.941425,32.30142,29.461159,16.55982,217.71233,1.0,1.0,nan,nan,0.0,0.0,0.0,0.0,0.0,0.0,0.0,0.0,0.0,0.0,0.0,0.0,0.0,0.0,0.0,0,0.0,0.0,0.0,0.0,0.0,0.0,0,0,0,0,0,0,0,0,0,0,0,1,6,0,0,1,0,0,0,0
238452626,22.92919,22.910715,30.98841,30.140503,16.620129,219.46852,1.0,1.0,nan,nan,0.0,0.0,0.0,0.0,0.0,0.0,0.0,0.0,0.0,0.0,0.0,0.0,0.0,0.0,0.0,0,0.0,0.0,0.0,0.0,0.0,0.0,0,0,0,0,0,0,0,0,0,0,0,1,6,0,0,1,0,0,0,0
238662560,22.967468,22.888212,31.819801,30.44163,16.680265,221.27687,1.0,1.0,nan,nan,0.0,0.0,0.0,0.0,0.0,0.0,0.0,0.0,0.0,0.0,0.0,0.0,0.0,0.0,0.0,0,0.0,0.0,0.0,0.0,0.0,0.0,0,0,0,0,0,0,0,0,0,0,0,1,6,0,0,1,0,0,0,0
238862560,22.694046,22.853348,31.999262,30.875116,16.740387,223.04092,1.0,1.0,nan,nan,0.0,0.0,0.0,0.0,0.0,0.0,0.0,0.0,0.0,0.0,0.0,0.0,0.0,0.0,0.0,0,0.0,0.0,0.0,0.0,0.0,0.0,0,0,0,0,0,0,0,0,0,0,0,1,6,0,0,1,0,0,0,0
239052562,22.784275,22.826698,32.30691,31.099817,16.796606,224.70781,0.9941054,1.0008011,nan,nan,0.0,0.0,0.0,0.0,0.0,0.0,0.0,0.0,0.0,0.0,0.0,0.0,0.0,0.0,0.0,0,0.0,0.0,0.0,0.0,0.0,0.0,0,0,0,0,0,0,0,0,0,0,0,1,6,0,0,1,0,0,0,0
239252588,22.57374,22.803905,31.270426,31.32867,16.856726,226.47519,0.9880305,1.0016282,nan,nan,0.0,0.0,0.0,0.0,0.0,0.0,0.0,0.0,0.0,0.0,0.0,0.0,0.0,0.0,0.0,0,0.0,0.0,0.0,0.0,0.0,0.0,0,0,0,0,0,0,0,0,0,0,0,1,6,0,0,1,0,0,0,0
239452560,22.685843,22.78379,31.60005,31.43026,16.915655,228.23257,0.9810305,1.0025828,nan,nan,0.0,0.0,0.0,0.0,0.0,0.0,0.0,0.0,0.0,0.0,0.0,0.0,0.0,0.0,0.0,0,0.0,0.0,0.0,0.0,0.0,0.0,0,0,0,0,0,0,0,0,0,0,0,1,6,0,0,1,0,0,0,0
239652561,22.915518,22.765972,31.142239,31.404806,16.973444,229.97539,0.9718552,1.0038368,nan,nan,0.0,0.0,0.0,0.0,0.0,0.0,0.0,0.0,0.0,0.0,0.0,0.0,0.0,0.0,0.0,0,0.0,0.0,0.0,0.0,0.0,0.0,0,0,0,0,0,0,0,0,0,0,0,1,6,0,0,1,0,0,0,0
239852560,22.808884,22.76585,30.360294,31.097675,17.02749,231.6685,0.9692927,1.0041876,nan,nan,0.0,0.0,0.0,0.0,0.0,0.0,0.0,0.0,0.0,0.0,0.0,0.0,0.0,0.0,0.0,0,0.0,0.0,0.0,0.0,0.0,0.0,0,0,0,0,0,0,0,0,0,0,0,1,6,0,0,1,0,0,0,0
240062560,22.679462,22.755604,30.481157,30.82363,17.08303,233.43527,0.9663959,1.0045844,nan,nan,0.0,0.0,0.0,0.0,0.0,0.0,0.0,0.0,0.0,0.0,0.0,0.0,0.0,0.0,0.0,0,0.0,0.0,0.0,0.0,0.0,0.0,0,0,0,0,0,0,0,0,0,0,0,1,6,0,0,1,0,0,0,0
240262561,22.726856,22.75971,30.244926,30.68667,17.136269,235.12468,0.9663649,1.0045887,nan,nan,0.0,0.0,0.0,0.0,0.0,0.0,0.0,0.0,0.0,0.0,0.0,0.0,0.0,0.0,0.0,0,0.0,0.0,0.0,0.0,0.0,0.0,0,0,0,0,0,0,0,0,0,0,0,1,6,0,0,1,0,0,0,0
240452560,22.621134,22.749298,30.935307,30.647402,17.18695,236.73642,0.9648848,1.0047916,nan,nan,0.0,0.0,0.0,0.0,0.0,0.0,0.0,0.0,0.0,0.0,0.0,0.0,0.0,0.0,0.0,0,0.0,0.0,0.0,0.0,0.0,0.0,0,0,0,0,0,0,0,0,0,0,0,1,6,0,0,1,0,0,0,0
240652560,22.685843,22.737034,30.622162,30.631933,17.240587,238.43703,0.96299225,1.0050511,nan,nan,0.0,0.0,0.0,0.0,0.0,0.0,0.0,0.0,0.0,0.0,0.0,0.0,0.0,0.0,0.0,0,0.0,0.0,0.0,0.0,0.0,0.0,0,0,0,0,0,0,0,0,0,0,0,1,6,0,0,1,0,0,0,0
240852560,22.43612,22.726023,30.642305,30.726524,17.295216,240.1554,0.96017796,1.0054374,nan,nan,0.0,0.0,0.0,0.0,0.0,0.0,0.0,0.0,0.0,0.0,0.0,0.0,0.0,0.0,0.0,0,0.0,0.0,0.0,0.0,0.0,0.0,0,0,0,0,0,0,0,0,0,0,0,1,6,0,0,1,0,0,0,0
241052560,22.581032,22.711525,30.873043,30.824419,17.349947,241.87872,0.95494133,1.0061567,nan,nan,0.0,0.0,0.0,0.0,0.0,0.0,0.0,0.0,0.0,0.0,0.0,0.0,0.0,0.0,0.0,0,0.0,0.0,0.0,0.0,0.0,0.0,0,0,0,0,0,0,0,0,0,0,0,1,6,0,0,1,0,0,0,0
241252562,22.72959,22.709011,30.182661,30.773447,17.403313,243.58359,0.95217234,1.0065376,nan,nan,0.0,0.0,0.0,0.0,0.0,0.0,0.0,0.0,0.0,0.0,0.0,0.0,0.0,0.0,0.0,0,0.0,0.0,0.0,0.0,0.0,0.0,0,0,0,0,0,0,0,0,0,0,0,1,6,0,0,1,0,0,0,0
241462562,22.788832,22.706793,30.453688,30.623375,17.457457,245.35326,0.95150286,1.0066297,nan,nan,0.0,0.0,0.0,0.0,0.0,0.0,0.0,0.0,0.0,0.0,0.0,0.0,0.0,0.0,0.0,0,0.0,0.0,0.0,0.0,0.0,0.0,0,0,0,0,0,0,0,0,0,0,0,1,6,0,0,1,0,0,0,0
241662754,22.581032,22.709839,30.316343,30.68583,17.51078,247.06656,0.9529725,1.0064275,nan,nan,0.0,0.0,0.0,0.0,0.0,0.0,0.0,0.0,0.0,0.0,0.0,0.0,0.0,0.0,0.0,0,0.0,0.0,0.0,0.0,0.0,0.0,0,0,0,0,0,0,0,0,0,0,0,1,6,0,0,1,0,0,0,0
241852561,22.743261,22.705341,30.5599,30.541037,17.558968,248.66042,0.95051056,1.0067663,nan,nan,0.0,0.0,0.0,0.0,0.0,0.0,0.0,0.0,0.0,0.0,0.0,0.0,0.0,0.0,0.0,0,0.0,0.0,0.0,0.0,0.0,0.0,0,0,0,0,0,0,0,0,0,0,0,1,6,0,0,1,0,0,0,0
242052560,22.879972,22.704063,30.5599,30.435768,17.609459,250.3387,0.95025355,1.0068016,nan,nan,0.0,0.0,0.0,0.0,0.0,0.0,0.0,0.0,0.0,0.0,0.0,0.0,0.0,0.0,0.0,0,0.0,0.0,0.0,0.0,0.0,0.0,0,0,0,0,0,0,0,0,0,0,0,1,6,0,0,1,0,0,0,0
242252562,22.645742,22.695057,30.4427,30.527927,17.661737,252.04434,0.94981676,1.0068618,nan,nan,0.0,0.0,0.0,0.0,0.0,0.0,0.0,0.0,0.0,0.0,0.0,0.0,0.0,0.0,0.0,0,0.0,0.0,0.0,0.0,0.0,0.0,0,0,0,0,0,0,0,0,0,0,0,1,6,0,0,1,0,0,0,0
242452686,22.808884,22.692106,30.981087,30.576569,17.713564,253.74948,0.94833666,1.0070655,nan,nan,0.0,0.0,0.0,0.0,0.0,0.0,0.0,0.0,0.0,0.0,0.0,0.0,0.0,0.0,0.0,0,0.0,0.0,0.0,0.0,0.0,0.0,0,0,0,0,0,0,0,0,0,0,0,1,6,0,0,1,0,0,0,0
242652561,22.678553,22.683317,30.2669,30.515114,17.764307,255.43686,0.9447294,1.0075626,nan,nan,0.0,0.0,0.0,0.0,0.0,0.0,0.0,0.0,0.0,0.0,0.0,0.0,0.0,0.0,0.0,0,0.0,0.0,0.0,0.0,0.0,0.0,0,0,0,0,0,0,0,0,0,0,0,1,6,0,0,1,0,0,0,0
242862578,22.828934,22.689465,30.276056,30.455187,17.817,257.20685,0.94614416,1.0073676,nan,nan,0.0,0.0,0.0,0.0,0.0,0.0,0.0,0.0,0.0,0.0,0.0,0.0,0.0,0.0,0.0,0,0.0,0.0,0.0,0.0,0.0,0.0,0,0,0,0,0,0,0,0,0,0,0,1,6,0,0,1,0,0,0,0
243062562,22.860834,22.67946,30.358461,30.391151,17.866695,258.88852,0.9423428,1.0078918,nan,nan,0.0,0.0,0.0,0.0,0.0,0.0,0.0,0.0,0.0,0.0,0.0,0.0,0.0,0.0,0.0,0,0.0,0.0,0.0,0.0,0.0,0.0,0,0,0,0,0,0,0,0,0,0,0,1,6,0,0,1,0,0,0,0
243262561,22.660324,22.690351,30.116737,30.361536,17.916365,260.5718,0.94622856,1.007356,nan,nan,0.0,0.0,0.0,0.0,0.0,0.0,0.0,0.0,0.0,0.0,0.0,0.0,0.0,0.0,0.0,0,0.0,0.0,0.0,0.0,0.0,0.0,0,0,0,0,0,0,0,0,0,0,0,1,6,0,0,1,0,0,0,0
243452563,22.932837,22.690191,30.453688,30.390982,17.9638,262.1785,0.9453278,1.0074801,nan,nan,0.0,0.0,0.0,0.0,0.0,0.0,0.0,0.0,0.0,0.0,0.0,0.0,0.0,0.0,0.0,0,0.0,0.0,0.0,0.0,0.0,0.0,0,0,0,0,0,0,0,0,0,0,0,1,6,0,0,1,0,0,0,0
243652581,22.583765,22.685825,29.832895,30.386997,18.013485,263.86642,0.945447,1.0074637,nan,nan,0.0,0.0,0.0,0.0,0.0,0.0,0.0,0.0,0.0,0.0,0.0,0.0,0.0,0.0,0.0,0,0.0,0.0,0.0,0.0,0.0,0.0,0,0,0,0,0,0,0,0,0,0,0,1,6,0,0,1,0,0,0,0
243852575,22.68311,22.674204,30.625824,30.47019,18.06368,265.568,0.9440313,1.0076588,nan,nan,0.0,0.0,0.0,0.0,0.0,0.0,0.0,0.0,0.0,0.0,0.0,0.0,0.0,0.0,0.0,0,0.0,0.0,0.0,0.0,0.0,0.0,0,0,0,0,0,0,0,0,0,0,0,1,6,0,0,1,0,0,0,0
244052840,22.584677,22.664717,31.477356,30.634571,18.115019,267.2908,0.943616,1.0077162,nan,nan,0.0,0.0,0.0,0.0,0.0,0.0,0.0,0.0,0.0,0.0,0.0,0.0,0.0,0.0,0.0,0,0.0,0.0,0.0,0.0,0.0,0.0,0,0,0,0,0,0,0,0,0,0,0,1,6,0,0,1,0,0,0,0
244262560,22.599258,22.66052,31.356493,30.825802,18.169954,269.10944,0.9415527,1.0080007,nan,nan,0.0,0.0,0.0,0.0,0.0,0.0,0.0,0.0,0.0,0.0,0.0,0.0,0.0,0.0,0.0,0,0.0,0.0,0.0,0.0,0.0,0.0,0,0,0,0,0,0,0,0,0,0,0,1,6,0,0,1,0,0,0,0
244462561,22.542751,22.646898,30.992075,30.729868,18.219376,270.8058,0.9358211,1.0087923,nan,nan,0.0,0.0,0.0,0.0,0.0,0.0,0.0,0.0,0.0,0.0,0.0,0.0,0.0,0.0,0.0,0,0.0,0.0,0.0,0.0,0.0,0.0,0,0,0,0,0,0,0,0,0,0,0,1,6,0,0,1,0,0,0,0
244652571,22.564627,22.648643,31.208162,30.72293,18.266653,272.426,0.93659455,1.0086854,nan,nan,0.0,0.0,0.0,0.0,0.0,0.0,0.0,0.0,0.0,0.0,0.0,0.0,0.0,0.0,0.0,0,0.0,0.0,0.0,0.0,0.0,0.0,0,0,0,0,0,0,0,0,0,0,0,1,6,0,0,1,0,0,0,0
244852922,22.67673,22.640547,30.523275,30.745892,18.316788,274.1394,0.9342318,1.009012,nan,nan,0.0,0.0,0.0,0.0,0.0,0.0,0.0,0.0,0.0,0.0,0.0,0.0,0.0,0.0,0.0,0,0.0,0.0,0.0,0.0,0.0,0.0,0,0,0,0,0,0,0,0,0,0,0,1,6,0,0,1,0,0,0,0
245052590,22.480776,22.631567,29.886,30.681442,18.365795,275.83484,0.9290009,1.0097357,nan,nan,0.0,0.0,0.0,0.0,0.0,0.0,0.0,0.0,0.0,0.0,0.0,0.0,0.0,0.0,0.0,0,0.0,0.0,0.0,0.0,0.0,0.0,0,0,0,0,0,0,0,0,0,0,0,1,6,0,0,1,0,0,0,0
245252658,22.81982,22.635155,30.838251,30.615356,18.413887,277.527,0.9321824,1.0092953,nan,nan,0.0,0.0,0.0,0.0,0.0,0.0,0.0,0.0,0.0,0.0,0.0,0.0,0.0,0.0,0.0,0,0.0,0.0,0.0,0.0,0.0,0.0,0,0,0,0,0,0,0,0,0,0,0,1,6,0,0,1,0,0,0,0
245452560,22.915518,22.629864,31.552439,30.776554,18.46437,279.2546,0.9328223,1.0092069,nan,nan,0.0,0.0,0.0,0.0,0.0,0.0,0.0,0.0,0.0,0.0,0.0,0.0,0.0,0.0,0.0,0,0.0,0.0,0.0,0.0,0.0,0.0,0,0,0,0,0,0,0,0,0,0,0,1,6,0,0,1,0,0,0,0
245662941,22.624779,22.612148,31.4975,30.895447,18.517473,281.0742,0.92778164,1.0099045,nan,nan,0.0,0.0,0.0,0.0,0.0,0.0,0.0,0.0,0.0,0.0,0.0,0.0,0.0,0.0,0.0,0,0.0,0.0,0.0,0.0,0.0,0.0,0,0,0,0,0,0,0,0,0,0,0,1,6,0,0,1,0,0,0,0
245862590,22.581944,22.597332,31.255774,30.974577,18.567957,282.8019,0.92244536,1.0106442,nan,nan,0.0,0.0,0.0,0.0,0.0,0.0,0.0,0.0,0.0,0.0,0.0,0.0,0.0,0.0,0.0,0,0.0,0.0,0.0,0.0,0.0,0.0,0,0,0,0,0,0,0,0,0,0,0,1,6,0,0,1,0,0,0,0
246052589,22.434296,22.593302,30.472,30.948055,18.614902,284.4331,0.92069584,1.0108869,nan,nan,0.0,0.0,0.0,0.0,0.0,0.0,0.0,0.0,0.0,0.0,0.0,0.0,0.0,0.0,0.0,0,0.0,0.0,0.0,0.0,0.0,0.0,0,0,0,0,0,0,0,0,0,0,0,1,6,0,0,1,0,0,0,0
246252560,22.766958,22.59697,31.04152,30.948284,18.66398,286.1516,0.92278296,1.0105975,nan,nan,0.0,0.0,0.0,0.0,0.0,0.0,0.0,0.0,0.0,0.0,0.0,0.0,0.0,0.0,0.0,0,0.0,0.0,0.0,0.0,0.0,0.0,0,0,0,0,0,0,0,0,0,0,0,1,6,0,0,1,0,0,0,0
246452560,22.738705,22.576994,31.098286,30.926733,18.712837,287.8688,0.91832405,1.0112163,nan,nan,0.0,0.0,0.0,0.0,0.0,0.0,0.0,0.0,0.0,0.0,0.0,0.0,0.0,0.0,0.0,0,0.0,0.0,0.0,0.0,0.0,0.0,0,0,0,0,0,0,0,0,0,0,0,1,6,0,0,1,0,0,0,0
246652560,22.898201,22.590998,27.227024,30.480742,18.757603,289.5209,0.9032207,1.013318,nan,nan,0.0,0.0,0.0,0.0,0.0,0.0,0.0,0.0,0.0,0.0,0.0,0.0,0.0,0.0,0.0,0,0.0,0.0,0.0,0.0,0.0,0.0,0,0,0,0,0,0,0,0,0,0,0,1,6,0,0,1,0,0,0,0
246852561,22.313078,22.620434,27.988825,29.281933,18.78938,291.00748,0.9157844,1.011569,nan,nan,0.0,0.0,0.0,0.0,0.0,0.0,0.0,0.0,0.0,0.0,0.0,0.0,0.0,0.0,0.0,0,0.0,0.0,0.0,0.0,0.0,0.0,0,0,0,0,0,0,0,0,0,0,0,1,6,0,0,1,0,0,0,0
247062560,22.305786,22.598162,31.504826,29.89107,18.839796,292.81506,0.9231306,1.0105492,nan,nan,0.0,0.0,0.0,0.0,0.0,0.0,0.0,0.0,0.0,0.0,0.0,0.0,0.0,0.0,0.0,0,0.0,0.0,0.0,0.0,0.0,0.0,0,0,0,0,0,0,0,0,0,0,0,1,6,0,0,1,0,0,0,0
247262560,22.77516,22.580544,31.079973,30.388393,18.89005,294.56006,0.91359097,1.0118738,nan,nan,0.0,0.0,0.0,0.0,0.0,0.0,0.0,0.0,0.0,0.0,0.0,0.0,0.0,0.0,0.0,0,0.0,0.0,0.0,0.0,0.0,0.0,0,0,0,0,0,0,0,0,0,0,0,1,6,0,0,1,0,0,0,0
247452560,22.87815,22.61917,23.928944,29.04127,18.919523,295.94778,0.8977204,1.0140855,nan,nan,0.0,0.0,0.0,0.0,0.0,0.0,0.0,0.0,0.0,0.0,0.0,0.0,0.0,0.0,0.0,0,0.0,0.0,0.0,0.0,0.0,0.0,0,0,0,0,0,0,0,0,0,0,0,1,6,0,0,1,0,0,0,0
247652561,22.804325,22.66818,24.319,27.43096,18.940105,297.28647,0.90951353,1.0124412,nan,nan,0.0,0.0,0.0,0.0,0.0,0.0,0.0,0.0,0.0,0.0,0.0,0.0,0.0,0.0,0.0,0,0.0,0.0,0.0,0.0,0.0,0.0,0,0,0,0,0,0,0,0,0,0,0,1,6,0,0,1,0,0,0,0
247852571,22.653944,22.700245,24.3776,26.583424,18.9637,298.66742,0.9178782,1.0112782,nan,nan,0.0,0.0,0.0,0.0,0.0,0.0,0.0,0.0,0.0,0.0,0.0,0.0,0.0,0.0,0.0,0,0.0,0.0,0.0,0.0,0.0,0.0,0,0,0,0,0,0,0,0,0,0,0,1,6,0,0,1,0,0,0,0
248052560,23.008482,22.74081,23.549875,25.792103,18.984737,300.0115,0.926261,1.0101153,nan,nan,0.0,0.0,0.0,0.0,0.0,0.0,0.0,0.0,0.0,0.0,0.0,0.0,0.0,0.0,0.0,0,0.0,0.0,0.0,0.0,0.0,0.0,0,0,0,0,0,0,0,0,0,0,0,1,6,0,0,1,0,0,0,0
248252560,22.762402,22.77445,23.026136,25.089325,19.003485,301.32574,0.93421656,1.0090141,nan,nan,0.0,0.0,0.0,0.0,0.0,0.0,0.0,0.0,0.0,0.0,0.0,0.0,0.0,0.0,0.0,0,0.0,0.0,0.0,0.0,0.0,0.0,0,0,0,0,0,0,0,0,0,0,0,1,6,0,0,1,0,0,0,0
248462561,23.022154,22.813997,23.070087,24.470068,19.021435,302.68436,0.93892866,1.008363,nan,nan,0.0,0.0,0.0,0.0,0.0,0.0,0.0,0.0,0.0,0.0,0.0,0.0,0.0,0.0,0.0,0,0.0,0.0,0.0,0.0,0.0,0.0,0,0,0,0,0,0,0,0,0,0,0,1,6,0,0,1,0,0,0,0
248662575,22.937393,22.844086,22.806387,23.86199,19.035816,303.94077,0.94701487,1.0072477,nan,nan,0.0,0.0,0.0,0.0,0.0,0.0,0.0,0.0,0.0,0.0,0.0,0.0,0.0,0.0,0.0,0,0.0,0.0,0.0,0.0,0.0,0.0,0,0,0,0,0,0,0,0,0,0,0,1,6,0,0,1,0,0,0,0
248852560,22.989342,22.86515,23.09023,23.488955,19.049534,305.13712,0.9542437,1.0062526,nan,nan,0.0,0.0,0.0,0.0,0.0,0.0,0.0,0.0,0.0,0.0,0.0,0.0,0.0,0.0,0.0,0,0.0,0.0,0.0,0.0,0.0,0.0,0,0,0,0,0,0,0,0,0,0,0,1,6,0,0,1,0,0,0,0
249052561,22.873594,22.883274,22.784412,23.305704,19.065132,306.4118,0.9608179,1.0053495,nan,nan,0.0,0.0,0.0,0.0,0.0,0.0,0.0,0.0,0.0,0.0,0.0,0.0,0.0,0.0,0.0,0,0.0,0.0,0.0,0.0,0.0,0.0,0,0,0,0,0,0,0,0,0,0,0,1,6,0,0,1,0,0,0,0
249252563,22.965645,22.895697,22.163618,23.143353,19.080204,307.67908,0.96442515,1.0048546,nan,nan,0.0,0.0,0.0,0.0,0.0,0.0,0.0,0.0,0.0,0.0,0.0,0.0,0.0,0.0,0.0,0,0.0,0.0,0.0,0.0,0.0,0.0,0,0,0,0,0,0,0,0,0,0,0,1,6,0,0,1,0,0,0,0
249452560,23.04038,22.908924,22.584806,23.025274,19.094944,308.94556,0.9681273,1.0043472,nan,nan,0.0,0.0,0.0,0.0,0.0,0.0,0.0,0.0,0.0,0.0,0.0,0.0,0.0,0.0,0.0,0,0.0,0.0,0.0,0.0,0.0,0.0,0,0,0,0,0,0,0,0,0,0,0,1,6,0,0,1,0,0,0,0
249652608,23.05952,22.921638,21.746094,22.823532,19.108397,310.19168,0.9677182,1.0044032,nan,nan,0.0,0.0,0.0,0.0,0.0,0.0,0.0,0.0,0.0,0.0,0.0,0.0,0.0,0.0,0.0,0,0.0,0.0,0.0,0.0,0.0,0.0,0,0,0,0,0,0,0,0,0,0,0,1,6,0,0,1,0,0,0,0
249862561,22.843515,22.936357,21.846813,22.59116,19.121145,311.48383,0.9709702,1.003958,nan,nan,0.0,0.0,0.0,0.0,0.0,0.0,0.0,0.0,0.0,0.0,0.0,0.0,0.0,0.0,0.0,0,0.0,0.0,0.0,0.0,0.0,0.0,0,0,0,0,0,0,0,0,0,0,0,1,6,0,0,1,0,0,0,0
250062560,23.05314,22.955837,22.421825,22.37184,19.132166,312.70117,0.9765411,1.0031959,nan,nan,0.0,0.0,0.0,0.0,0.0,0.0,0.0,0.0,0.0,0.0,0.0,0.0,0.0,0.0,0.0,0,0.0,0.0,0.0,0.0,0.0,0.0,0,0,0,0,0,0,0,0,0,0,0,1,6,0,0,1,0,0,0,0
250252560,23.118761,22.966116,22.614105,22.364246,19.14428,313.88004,0.9801045,1.0027092,nan,nan,0.0,0.0,0.0,0.0,0.0,0.0,0.0,0.0,0.0,0.0,0.0,0.0,0.0,0.0,0.0,0,0.0,0.0,0.0,0.0,0.0,0.0,0,0,0,0,0,0,0,0,0,0,0,1,6,0,0,1,0,0,0,0
250452562,23.025797,22.972202,22.0336,22.339964,19.156986,315.11896,0.983347,1.0022666,nan,nan,0.0,0.0,0.0,0.0,0.0,0.0,0.0,0.0,0.0,0.0,0.0,0.0,0.0,0.0,0.0,0,0.0,0.0,0.0,0.0,0.0,0.0,0,0,0,0,0,0,0,0,0,0,0,1,6,0,0,1,0,0,0,0
250652560,23.106003,22.98642,21.396324,22.221035,19.168446,316.3411,0.9848929,1.0020558,nan,nan,0.0,0.0,0.0,0.0,0.0,0.0,0.0,0.0,0.0,0.0,0.0,0.0,0.0,0.0,0.0,0,0.0,0.0,0.0,0.0,0.0,0.0,0,0,0,0,0,0,0,0,0,0,0,1,6,0,0,1,0,0,0,0
250852561,23.01395,22.995052,22.495075,22.227674,19.180363,317.57498,0.98973423,1.0013961,nan,nan,0.0,0.0,0.0,0.0,0.0,0.0,0.0,0.0,0.0,0.0,0.0,0.0,0.0,0.0,0.0,0,0.0,0.0,0.0,0.0,0.0,0.0,0,0,0,0,0,0,0,0,0,0,0,1,6,0,0,1,0,0,0,0
251052561,23.127876,23.000433,22.029938,22.288757,19.193464,318.8217,0.986507,1.0018357,nan,nan,0.0,0.0,0.0,0.0,0.0,0.0,0.0,0.0,0.0,0.0,0.0,0.0,0.0,0.0,0.0,0,0.0,0.0,0.0,0.0,0.0,0.0,0,0,0,0,0,0,0,0,0,0,0,1,6,0,0,1,0,0,0,0
251262560,22.980227,23.014635,20.524649,21.60332,19.198439,320.00653,0.9846278,1.002092,nan,nan,0.0,0.0,0.0,0.0,0.0,0.0,0.0,0.0,0.0,0.0,0.0,0.0,0.0,0.0,0.0,0,0.0,0.0,0.0,0.0,0.0,0.0,0,0,0,0,0,0,0,0,0,0,0,1,6,0,0,1,0,0,0,0
251462560,22.901848,22.99592,26.895567,22.536879,19.21732,321.35355,1.0,1.0,nan,nan,0.0,0.0,0.0,0.0,0.0,0.0,0.0,0.0,0.0,0.0,0.0,0.0,0.0,0.0,0.0,0,0.0,0.0,0.0,0.0,0.0,0.0,0,0,0,0,0,0,0,0,0,0,0,1,6,0,0,1,0,0,0,0
251652561,22.957441,22.961275,24.485645,23.469093,19.241983,322.70438,0.9933,1.0009108,nan,nan,0.0,0.0,0.0,0.0,0.0,0.0,0.0,0.0,0.0,0.0,0.0,0.0,0.0,0.0,0.0,0,0.0,0.0,0.0,0.0,0.0,0.0,0,0,0,0,0,0,0,0,0,0,0,1,6,0,0,1,0,0,0,0
251852560,23.124231,22.958624,24.881193,23.594925,19.260263,324.02896,0.9911395,1.0012047,nan,nan,0.0,0.0,0.0,0.0,0.0,0.0,0.0,0.0,0.0,0.0,0.0,0.0,0.0,0.0,0.0,0,0.0,0.0,0.0,0.0,0.0,0.0,0,0,0,0,0,0,0,0,0,0,0,1,6,0,0,1,0,0,0,0
252052560,23.052229,22.94896,23.6451,23.680439,19.279062,325.3573,0.98337895,1.0022622,nan,nan,0.0,0.0,0.0,0.0,0.0,0.0,0.0,0.0,0.0,0.0,0.0,0.0,0.0,0.0,0.0,0,0.0,0.0,0.0,0.0,0.0,0.0,0,0,0,0,0,0,0,0,0,0,0,1,6,0,0,1,0,0,0,0
252252560,23.04038,22.960737,20.922031,23.107412,19.290514,326.58032,0.97396284,1.0035484,nan,nan,0.0,0.0,0.0,0.0,0.0,0.0,0.0,0.0,0.0,0.0,0.0,0.0,0.0,0.0,0.0,0,0.0,0.0,0.0,0.0,0.0,0.0,0,0,0,0,0,0,0,0,0,0,0,1,6,0,0,1,0,0,0,0
252452559,23.137903,22.97802,22.727644,22.628323,19.299269,327.77896,0.98289734,1.002328,nan,nan,0.0,0.0,0.0,0.0,0.0,0.0,0.0,0.0,0.0,0.0,0.0,0.0,0.0,0.0,0.0,0,0.0,0.0,0.0,0.0,0.0,0.0,0,0,0,0,0,0,0,0,0,0,0,1,6,0,0,1,0,0,0,0
252662563,23.116938,22.974497,22.52987,22.68008,19.313927,329.10834,0.98360735,1.0022311,nan,nan,0.0,0.0,0.0,0.0,0.0,0.0,0.0,0.0,0.0,0.0,0.0,0.0,0.0,0.0,0.0,0,0.0,0.0,0.0,0.0,0.0,0.0,0,0,0,0,0,0,0,0,0,0,0,1,6,0,0,1,0,0,0,0
252862589,22.757845,22.973864,22.539024,22.50742,19.325136,330.33762,0.98166186,1.0024966,nan,nan,0.0,0.0,0.0,0.0,0.0,0.0,0.0,0.0,0.0,0.0,0.0,0.0,0.0,0.0,0.0,0,0.0,0.0,0.0,0.0,0.0,0.0,0,0,0,0,0,0,0,0,0,0,0,1,6,0,0,1,0,0,0,0
253052562,22.57283,22.956621,26.976145,23.410246,19.346676,331.66937,0.9996863,1.0000427,nan,nan,0.0,0.0,0.0,0.0,0.0,0.0,0.0,0.0,0.0,0.0,0.0,0.0,0.0,0.0,0.0,0,0.0,0.0,0.0,0.0,0.0,0.0,0,0,0,0,0,0,0,0,0,0,0,1,6,0,0,1,0,0,0,0
253252561,22.880884,22.926289,22.374212,23.966095,19.371311,333.07443,0.97737366,1.0030822,nan,nan,0.0,0.0,0.0,0.0,0.0,0.0,0.0,0.0,0.0,0.0,0.0,0.0,0.0,0.0,0.0,0,0.0,0.0,0.0,0.0,0.0,0.0,0,0,0,0,0,0,0,0,0,0,0,1,6,0,0,1,0,0,0,0
253452560,23.077747,22.933493,22.9126,23.635622,19.385584,334.3509,0.97619873,1.0032427,nan,nan,0.0,0.0,0.0,0.0,0.0,0.0,0.0,0.0,0.0,0.0,0.0,0.0,0.0,0.0,0.0,0,0.0,0.0,0.0,0.0,0.0,0.0,0,0,0,0,0,0,0,0,0,0,0,1,6,0,0,1,0,0,0,0
253652561,22.980227,22.92749,26.3407,24.017687,19.406046,335.72217,0.990953,1.0012301,nan,nan,0.0,0.0,0.0,0.0,0.0,0.0,0.0,0.0,0.0,0.0,0.0,0.0,0.0,0.0,0.0,0,0.0,0.0,0.0,0.0,0.0,0.0,0,0,0,0,0,0,0,0,0,0,0,1,6,0,0,1,0,0,0,0
253852562,22.805239,22.888483,25.582563,24.836279,19.434662,337.1966,0.9794951,1.0027924,nan,nan,0.0,0.0,0.0,0.0,0.0,0.0,0.0,0.0,0.0,0.0,0.0,0.0,0.0,0.0,0.0,0,0.0,0.0,0.0,0.0,0.0,0.0,0,0,0,0,0,0,0,0,0,0,0,1,6,0,0,1,0,0,0,0
254062561,22.828024,22.875366,29.204775,24.933268,19.457344,338.65607,0.96791846,1.0043758,nan,nan,0.0,0.0,0.0,0.0,0.0,0.0,0.0,0.0,0.0,0.0,0.0,0.0,0.0,0.0,0.0,0,0.0,0.0,0.0,0.0,0.0,0.0,0,0,0,0,0,0,0,0,0,0,0,1,6,0,0,1,0,0,0,0
254262561,22.721388,22.865498,27.747099,24.95193,19.47953,340.04187,0.9631024,1.005036,nan,nan,0.0,0.0,0.0,0.0,0.0,0.0,0.0,0.0,0.0,0.0,0.0,0.0,0.0,0.0,0.0,0,0.0,0.0,0.0,0.0,0.0,0.0,0,0,0,0,0,0,0,0,0,0,0,1,6,0,0,1,0,0,0,0
254452561,22.26204,22.789541,33.660206,27.31378,19.526922,341.7459,0.98273236,1.0023504,nan,nan,0.0,0.0,0.0,0.0,0.0,0.0,0.0,0.0,0.0,0.0,0.0,0.0,0.0,0.0,0.0,0,0.0,0.0,0.0,0.0,0.0,0.0,0,0,0,0,0,0,0,0,0,0,0,1,6,0,0,1,0,0,0,0
254652687,22.905493,22.747984,23.386894,27.744469,19.566856,343.3593,0.93219477,1.0092937,nan,nan,0.0,0.0,0.0,0.0,0.0,0.0,0.0,0.0,0.0,0.0,0.0,0.0,0.0,0.0,0.0,0,0.0,0.0,0.0,0.0,0.0,0.0,0,0,0,0,0,0,0,0,0,0,0,1,6,0,0,1,0,0,0,0
254852560,23.069548,22.790236,22.907106,25.788506,19.575684,344.5672,0.93146473,1.0093948,nan,nan,0.0,0.0,0.0,0.0,0.0,0.0,0.0,0.0,0.0,0.0,0.0,0.0,0.0,0.0,0.0,0,0.0,0.0,0.0,0.0,0.0,0.0,0,0,0,0,0,0,0,0,0,0,0,1,6,0,0,1,0,0,0,0
255052560,22.633892,22.800665,26.221668,25.558788,19.596544,345.95428,0.9514571,1.006636,nan,nan,0.0,0.0,0.0,0.0,0.0,0.0,0.0,0.0,0.0,0.0,0.0,0.0,0.0,0.0,0.0,0,0.0,0.0,0.0,0.0,0.0,0.0,0,0,0,0,0,0,0,0,0,0,0,1,6,0,0,1,0,0,0,0
255252561,22.998455,22.80422,23.928944,25.595354,19.621511,347.38425,0.9459544,1.0073938,nan,nan,0.0,0.0,0.0,0.0,0.0,0.0,0.0,0.0,0.0,0.0,0.0,0.0,0.0,0.0,0.0,0,0.0,0.0,0.0,0.0,0.0,0.0,0,0,0,0,0,0,0,0,0,0,0,1,6,0,0,1,0,0,0,0
255462576,23.168888,22.840345,20.202349,24.229477,19.630964,348.6505,0.9352403,1.0088725,nan,nan,0.0,0.0,0.0,0.0,0.0,0.0,0.0,0.0,0.0,0.0,0.0,0.0,0.0,0.0,0.0,0,0.0,0.0,0.0,0.0,0.0,0.0,0,0,0,0,0,0,0,0,0,0,0,1,6,0,0,1,0,0,0,0
255662560,22.82711,22.865421,21.40365,23.152393,19.635788,349.81155,0.94596726,1.007392,nan,nan,0.0,0.0,0.0,0.0,0.0,0.0,0.0,0.0,0.0,0.0,0.0,0.0,0.0,0.0,0.0,0,0.0,0.0,0.0,0.0,0.0,0.0,0,0,0,0,0,0,0,0,0,0,0,1,6,0,0,1,0,0,0,0
255862563,22.806149,22.881042,21.586775,22.72779,19.644554,351.02505,0.95188624,1.0065769,nan,nan,0.0,0.0,0.0,0.0,0.0,0.0,0.0,0.0,0.0,0.0,0.0,0.0,0.0,0.0,0.0,0,0.0,0.0,0.0,0.0,0.0,0.0,0,0,0,0,0,0,0,0,0,0,0,1,6,0,0,1,0,0,0,0
256052560,23.204435,22.908846,20.803,22.297401,19.651302,352.15366,0.95483404,1.0061715,nan,nan,0.0,0.0,0.0,0.0,0.0,0.0,0.0,0.0,0.0,0.0,0.0,0.0,0.0,0.0,0.0,0,0.0,0.0,0.0,0.0,0.0,0.0,0,0,0,0,0,0,0,0,0,0,0,1,6,0,0,1,0,0,0,0
256252687,23.13061,22.93266,20.667488,21.588898,19.653172,353.27188,0.9570189,1.0058712,nan,nan,0.0,0.0,0.0,0.0,0.0,0.0,0.0,0.0,0.0,0.0,0.0,0.0,0.0,0.0,0.0,0,0.0,0.0,0.0,0.0,0.0,0.0,0,0,0,0,0,0,0,0,0,0,0,1,6,0,0,1,0,0,0,0
256452559,22.674906,22.929901,24.088263,22.043873,19.66522,354.54013,0.9727145,1.0037192,nan,nan,0.0,0.0,0.0,0.0,0.0,0.0,0.0,0.0,0.0,0.0,0.0,0.0,0.0,0.0,0.0,0,0.0,0.0,0.0,0.0,0.0,0.0,0,0,0,0,0,0,0,0,0,0,0,1,6,0,0,1,0,0,0,0
256652578,22.957441,22.912262,24.355625,23.01192,19.686571,355.93082,0.9737106,1.003583,nan,nan,0.0,0.0,0.0,0.0,0.0,0.0,0.0,0.0,0.0,0.0,0.0,0.0,0.0,0.0,0.0,0,0.0,0.0,0.0,0.0,0.0,0.0,0,0,0,0,0,0,0,0,0,0,0,1,6,0,0,1,0,0,0,0
256862561,22.782454,22.913485,21.883438,22.908855,19.699984,357.25903,0.9643093,1.0048705,nan,nan,0.0,0.0,0.0,0.0,0.0,0.0,0.0,0.0,0.0,0.0,0.0,0.0,0.0,0.0,0.0,0,0.0,0.0,0.0,0.0,0.0,0.0,0,0,0,0,0,0,0,0,0,0,0,1,6,0,0,1,0,0,0,0
257062981,22.944683,22.91534,23.623125,22.706469,19.709745,358.49683,0.96858317,1.0042847,nan,nan,0.0,0.0,0.0,0.0,0.0,0.0,0.0,0.0,0.0,0.0,0.0,0.0,0.0,0.0,0.0,0,0.0,0.0,0.0,0.0,0.0,0.0,0,0,0,0,0,0,0,0,0,0,0,1,6,0,0,1,0,0,0,0
257262563,22.87177,22.908077,24.813438,23.111177,19.726208,359.82153,0.9746824,1.00345,nan,nan,0.0,0.0,0.0,0.0,0.0,0.0,0.0,0.0,0.0,0.0,0.0,0.0,0.0,0.0,0.0,0,0.0,0.0,0.0,0.0,0.0,0.0,0,0,0,0,0,0,0,0,0,0,0,1,6,0,0,1,0,0,0,0
257452562,22.861744,22.888102,24.101082,23.653355,19.745865,361.1343,0.9673143,1.0044587,nan,nan,0.0,0.0,0.0,0.0,0.0,0.0,0.0,0.0,0.0,0.0,0.0,0.0,0.0,0.0,0.0,0,0.0,0.0,0.0,0.0,0.0,0.0,0,0,0,0,0,0,0,0,0,0,0,1,6,0,0,1,0,0,0,0
257652607,23.260029,22.91,20.119944,22.963846,19.754354,362.33875,0.9546972,1.0061903,nan,nan,0.0,0.0,0.0,0.0,0.0,0.0,0.0,0.0,0.0,0.0,0.0,0.0,0.0,0.0,0.0,0,0.0,0.0,0.0,0.0,0.0,0.0,0,0,0,0,0,0,0,0,0,0,0,1,6,0,0,1,0,0,0,0
257852923,22.661234,22.918316,23.892317,22.649288,19.762047,363.55588,0.9719115,1.0038291,nan,nan,0.0,0.0,0.0,0.0,0.0,0.0,0.0,0.0,0.0,0.0,0.0,0.0,0.0,0.0,0.0,0,0.0,0.0,0.0,0.0,0.0,0.0,0,0,0,0,0,0,0,0,0,0,0,1,6,0,0,1,0,0,0,0
258052664,22.408777,22.884523,26.296751,23.742123,19.786112,364.9936,0.97755724,1.0030571,nan,nan,0.0,0.0,0.0,0.0,0.0,0.0,0.0,0.0,0.0,0.0,0.0,0.0,0.0,0.0,0.0,0,0.0,0.0,0.0,0.0,0.0,0.0,0,0,0,0,0,0,0,0,0,0,0,1,6,0,0,1,0,0,0,0
258262688,22.868124,22.87516,19.95147,23.56456,19.802755,366.36206,0.94693,1.0072594,nan,nan,0.0,0.0,0.0,0.0,0.0,0.0,0.0,0.0,0.0,0.0,0.0,0.0,0.0,0.0,0.0,0,0.0,0.0,0.0,0.0,0.0,0.0,0,0,0,0,0,0,0,0,0,0,0,1,6,0,0,1,0,0,0,0
258462560,22.900024,22.892756,24.046144,22.9649,19.808908,367.5585,0.9643455,1.0048655,nan,nan,0.0,0.0,0.0,0.0,0.0,0.0,0.0,0.0,0.0,0.0,0.0,0.0,0.0,0.0,0.0,0,0.0,0.0,0.0,0.0,0.0,0.0,0,0,0,0,0,0,0,0,0,0,0,1,6,0,0,1,0,0,0,0
258663236,22.502651,22.868698,26.783863,24.114187,19.834625,369.0295,0.97289664,1.0036943,nan,nan,0.0,0.0,0.0,0.0,0.0,0.0,0.0,0.0,0.0,0.0,0.0,0.0,0.0,0.0,0.0,0,0.0,0.0,0.0,0.0,0.0,0.0,0,0,0,0,0,0,0,0,0,0,0,1,6,0,0,1,0,0,0,0
258852663,22.908228,22.875162,20.535637,23.883884,19.850086,370.26996,0.95075566,1.0067325,nan,nan,0.0,0.0,0.0,0.0,0.0,0.0,0.0,0.0,0.0,0.0,0.0,0.0,0.0,0.0,0.0,0,0.0,0.0,0.0,0.0,0.0,0.0,0,0,0,0,0,0,0,0,0,0,0,1,6,0,0,1,0,0,0,0
259052598,22.954708,22.902935,21.557474,22.80334,19.852566,371.4099,0.95593697,1.00602,nan,nan,0.0,0.0,0.0,0.0,0.0,0.0,0.0,0.0,0.0,0.0,0.0,0.0,0.0,0.0,0.0,0,0.0,0.0,0.0,0.0,0.0,0.0,0,0,0,0,0,0,0,0,0,0,0,1,6,0,0,1,0,0,0,0
259252939,22.902758,22.897058,25.85542,23.168833,19.86736,372.7331,0.97604805,1.0032634,nan,nan,0.0,0.0,0.0,0.0,0.0,0.0,0.0,0.0,0.0,0.0,0.0,0.0,0.0,0.0,0.0,0,0.0,0.0,0.0,0.0,0.0,0.0,0,0,0,0,0,0,0,0,0,0,0,1,6,0,0,1,0,0,0,0
259453082,22.77425,22.879345,21.379845,23.500599,19.88609,374.0857,0.9594298,1.00554,nan,nan,0.0,0.0,0.0,0.0,0.0,0.0,0.0,0.0,0.0,0.0,0.0,0.0,0.0,0.0,0.0,0,0.0,0.0,0.0,0.0,0.0,0.0,0,0,0,0,0,0,0,0,0,0,0,1,6,0,0,1,0,0,0,0
259652587,22.927366,22.890806,24.335482,23.25314,19.896576,375.34152,0.9704223,1.004033,nan,nan,0.0,0.0,0.0,0.0,0.0,0.0,0.0,0.0,0.0,0.0,0.0,0.0,0.0,0.0,0.0,0,0.0,0.0,0.0,0.0,0.0,0.0,0,0,0,0,0,0,0,0,0,0,0,1,6,0,0,1,0,0,0,0
259862890,22.790655,22.855381,24.621157,23.936926,19.919004,376.8174,0.96457106,1.0048347,nan,nan,0.0,0.0,0.0,0.0,0.0,0.0,0.0,0.0,0.0,0.0,0.0,0.0,0.0,0.0,0.0,0,0.0,0.0,0.0,0.0,0.0,0.0,0,0,0,0,0,0,0,0,0,0,0,1,6,0,0,1,0,0,0,0
260062878,22.97567,22.85763,22.729473,23.72138,19.933115,378.11505,0.95203644,1.0065563,nan,nan,0.0,0.0,0.0,0.0,0.0,0.0,0.0,0.0,0.0,0.0,0.0,0.0,0.0,0.0,0.0,0,0.0,0.0,0.0,0.0,0.0,0.0,0,0,0,0,0,0,0,0,0,0,0,1,6,0,0,1,0,0,0,0
260252998,22.901848,22.869305,21.775394,23.213924,19.941591,379.28317,0.95248085,1.0064951,nan,nan,0.0,0.0,0.0,0.0,0.0,0.0,0.0,0.0,0.0,0.0,0.0,0.0,0.0,0.0,0.0,0,0.0,0.0,0.0,0.0,0.0,0.0,0,0,0,0,0,0,0,0,0,0,0,1,6,0,0,1,0,0,0,0
260452712,22.751465,22.870123,23.0884,23.014282,19.95178,380.53467,0.9589892,1.0056006,nan,nan,0.0,0.0,0.0,0.0,0.0,0.0,0.0,0.0,0.0,0.0,0.0,0.0,0.0,0.0,0.0,0,0.0,0.0,0.0,0.0,0.0,0.0,0,0,0,0,0,0,0,0,0,0,0,1,6,0,0,1,0,0,0,0
260652925,22.860834,22.867786,22.399849,23.086672,19.965122,381.8283,0.95486933,1.0061666,nan,nan,0.0,0.0,0.0,0.0,0.0,0.0,0.0,0.0,0.0,0.0,0.0,0.0,0.0,0.0,0.0,0,0.0,0.0,0.0,0.0,0.0,0.0,0,0,0,0,0,0,0,0,0,0,0,1,6,0,0,1,0,0,0,0
260852860,23.050406,22.87943,20.517324,22.45185,19.970465,383.00616,0.9489923,1.0069753,nan,nan,0.0,0.0,0.0,0.0,0.0,0.0,0.0,0.0,0.0,0.0,0.0,0.0,0.0,0.0,0.0,0,0.0,0.0,0.0,0.0,0.0,0.0,0,0,0,0,0,0,0,0,0,0,0,1,6,0,0,1,0,0,0,0
261063209,22.631159,22.866108,26.148418,22.722223,19.982273,384.35345,0.96882874,1.0042511,nan,nan,0.0,0.0,0.0,0.0,0.0,0.0,0.0,0.0,0.0,0.0,0.0,0.0,0.0,0.0,0.0,0,0.0,0.0,0.0,0.0,0.0,0.0,0,0,0,0,0,0,0,0,0,0,0,1,6,0,0,1,0,0,0,0
261262837,22.867214,22.833199,25.481844,24.109108,20.010374,385.8502,0.96270424,1.0050906,nan,nan,0.0,0.0,0.0,0.0,0.0,0.0,0.0,0.0,0.0,0.0,0.0,0.0,0.0,0.0,0.0,0,0.0,0.0,0.0,0.0,0.0,0.0,0,0,0,0,0,0,0,0,0,0,0,1,6,0,0,1,0,0,0,0
261452892,23.000278,22.833153,21.876114,23.821138,20.02362,387.08112,0.9441467,1.007643,nan,nan,0.0,0.0,0.0,0.0,0.0,0.0,0.0,0.0,0.0,0.0,0.0,0.0,0.0,0.0,0.0,0,0.0,0.0,0.0,0.0,0.0,0.0,0,0,0,0,0,0,0,0,0,0,0,1,6,0,0,1,0,0,0,0
261652794,22.855366,22.834652,25.139399,23.558924,20.034443,388.35263,0.95400864,1.006285,nan,nan,0.0,0.0,0.0,0.0,0.0,0.0,0.0,0.0,0.0,0.0,0.0,0.0,0.0,0.0,0.0,0,0.0,0.0,0.0,0.0,0.0,0.0,0,0,0,0,0,0,0,0,0,0,0,1,6,0,0,1,0,0,0,0
261853169,23.017595,22.830688,22.062899,23.787506,20.052399,389.70947,0.9401646,1.0081923,nan,nan,0.0,0.0,0.0,0.0,0.0,0.0,0.0,0.0,0.0,0.0,0.0,0.0,0.0,0.0,0.0,0,0.0,0.0,0.0,0.0,0.0,0.0,0,0,0,0,0,0,0,0,0,0,0,1,6,0,0,1,0,0,0,0
262052888,23.070457,22.862175,20.387306,22.553051,20.052721,390.82187,0.9379373,1.0084999,nan,nan,0.0,0.0,0.0,0.0,0.0,0.0,0.0,0.0,0.0,0.0,0.0,0.0,0.0,0.0,0.0,0,0.0,0.0,0.0,0.0,0.0,0.0,0,0,0,0,0,0,0,0,0,0,0,1,6,0,0,1,0,0,0,0
262252978,22.91643,22.855146,26.17772,22.853685,20.064457,392.11594,0.9638358,1.0049354,nan,nan,0.0,0.0,0.0,0.0,0.0,0.0,0.0,0.0,0.0,0.0,0.0,0.0,0.0,0.0,0.0,0,0.0,0.0,0.0,0.0,0.0,0.0,0,0,0,0,0,0,0,0,0,0,0,1,6,0,0,1,0,0,0,0
262462880,22.842606,22.835238,23.075583,23.729837,20.088123,393.60672,0.94806534,1.007103,nan,nan,0.0,0.0,0.0,0.0,0.0,0.0,0.0,0.0,0.0,0.0,0.0,0.0,0.0,0.0,0.0,0,0.0,0.0,0.0,0.0,0.0,0.0,0,0,0,0,0,0,0,0,0,0,0,1,6,0,0,1,0,0,0,0
262663786,22.801592,22.870144,20.006407,22.63607,20.0902,394.7484,0.9427181,1.00784,nan,nan,0.0,0.0,0.0,0.0,0.0,0.0,0.0,0.0,0.0,0.0,0.0,0.0,0.0,0.0,0.0,0,0.0,0.0,0.0,0.0,0.0,0.0,0,0,0,0,0,0,0,0,0,0,0,1,6,0,0,1,0,0,0,0
262852961,22.88362,22.879772,24.359287,22.562988,20.097563,395.91867,0.96203953,1.0051819,nan,nan,0.0,0.0,0.0,0.0,0.0,0.0,0.0,0.0,0.0,0.0,0.0,0.0,0.0,0.0,0.0,0,0.0,0.0,0.0,0.0,0.0,0.0,0,0,0,0,0,0,0,0,0,0,0,1,6,0,0,1,0,0,0,0
263053018,22.576473,22.856642,23.815407,23.352709,20.117233,397.30804,0.9588023,1.0056262,nan,nan,0.0,0.0,0.0,0.0,0.0,0.0,0.0,0.0,0.0,0.0,0.0,0.0,0.0,0.0,0.0,0,0.0,0.0,0.0,0.0,0.0,0.0,0,0,0,0,0,0,0,0,0,0,0,1,6,0,0,1,0,0,0,0
263253109,23.14246,22.869133,19.55775,22.553518,20.121964,398.48032,0.9396792,1.0082594,nan,nan,0.0,0.0,0.0,0.0,0.0,0.0,0.0,0.0,0.0,0.0,0.0,0.0,0.0,0.0,0.0,0,0.0,0.0,0.0,0.0,0.0,0.0,0,0,0,0,0,0,0,0,0,0,0,1,6,0,0,1,0,0,0,0
263453266,22.592878,22.869188,22.409006,22.0718,20.124788,399.64667,0.9505053,1.006767,nan,nan,0.0,0.0,0.0,0.0,0.0,0.0,0.0,0.0,0.0,0.0,0.0,0.0,0.0,0.0,0.0,0,0.0,0.0,0.0,0.0,0.0,0.0,0,0,0,0,0,0,0,0,0,0,0,1,6,0,0,1,0,0,0,0
263653012,22.323103,22.832365,26.686806,23.150057,20.14432,401.0466,0.94860846,1.0070282,nan,nan,0.0,0.0,0.0,0.0,0.0,0.0,0.0,0.0,0.0,0.0,0.0,0.0,0.0,0.0,0.0,0,0.0,0.0,0.0,0.0,0.0,0.0,0,0,0,0,0,0,0,0,0,0,0,1,6,0,0,1,0,0,0,0
263863353,21.272251,22.686768,44.253986,27.128822,20.200027,403.04974,0.90919024,1.0124862,nan,nan,0.0,0.0,0.0,0.0,0.0,0.0,0.0,0.0,0.0,0.0,0.0,0.0,0.0,0.0,0.0,0,0.0,0.0,0.0,0.0,0.0,0.0,0,0,0,0,0,0,0,0,0,0,0,1,6,0,0,1,0,0,0,0
264063171,20.96146,22.336409,57.865665,37.06397,20.345692,406.23575,0.8207846,1.024945,nan,nan,0.0,0.0,0.0,0.0,0.0,0.0,0.0,0.0,0.0,0.0,0.0,0.0,0.0,0.0,0.0,0,0.0,0.0,0.0,0.0,0.0,0.0,0,0,0,0,0,0,0,0,0,0,0,1,6,0,0,1,0,0,0,0
264253383,20.880346,22.027697,56.528854,43.33187,20.485224,409.2511,0.7254401,1.03873,nan,nan,0.0,0.0,0.0,0.0,0.0,0.0,0.0,0.0,0.0,0.0,0.0,0.0,0.0,0.0,0.0,0,0.0,0.0,0.0,0.0,0.0,0.0,0,0,0,0,0,0,0,0,0,0,0,1,6,0,0,1,0,0,0,0
264453047,21.170174,21.804598,54.472363,47.166363,20.62402,412.30984,0.6480742,1.0501912,nan,nan,0.0,0.0,0.0,0.0,0.0,0.0,0.0,0.0,0.0,0.0,0.0,0.0,0.0,0.0,0.0,0,0.0,0.0,0.0,0.0,0.0,0.0,0,0,0,0,0,0,0,0,0,0,0,1,6,0,0,1,0,0,0,0
264652583,21.14283,21.627024,53.884533,49.117226,20.75379,415.25327,0.58962303,1.0590193,nan,nan,0.0,0.0,0.0,0.0,0.0,0.0,0.0,0.0,0.0,0.0,0.0,0.0,0.0,0.0,0.0,0,0.0,0.0,0.0,0.0,0.0,0.0,0,0,0,0,0,0,0,0,0,0,0,1,6,0,0,1,0,0,0,0
264852586,20.5732,21.488092,50.758587,49.98963,20.878569,418.13455,0.5360828,1.0672371,nan,nan,0.0,0.0,0.0,0.0,0.0,0.0,0.0,0.0,0.0,0.0,0.0,0.0,0.0,0.0,0.0,0,0.0,0.0,0.0,0.0,0.0,0.0,0,0,0,0,0,0,0,0,0,0,0,1,6,0,0,1,0,0,0,0
265052578,20.61148,21.39553,48.410923,50.00436,20.995705,420.91803,0.4935599,1.0738553,nan,nan,0.0,0.0,0.0,0.0,0.0,0.0,0.0,0.0,0.0,0.0,0.0,0.0,0.0,0.0,0.0,0,0.0,0.0,0.0,0.0,0.0,0.0,0,0,0,0,0,0,0,0,0,0,0,1,6,0,0,1,0,0,0,0
265262560,21.311441,21.340134,46.12186,49.176174,21.107885,423.6982,0.4587217,1.0793389,nan,nan,0.0,0.0,0.0,0.0,0.0,0.0,0.0,0.0,0.0,0.0,0.0,0.0,0.0,0.0,0.0,0,0.0,0.0,0.0,0.0,0.0,0.0,0,0,0,0,0,0,0,0,0,0,0,1,6,0,0,1,0,0,0,0
265462561,21.84917,21.358957,33.407494,46.48852,21.191921,426.0056,0.24956518,1.1134753,nan,nan,0.0,0.0,0.0,0.0,0.0,0.0,0.0,0.0,0.0,0.0,0.0,0.0,0.0,0.0,0.0,0,0.0,0.0,0.0,0.0,0.0,0.0,0,0,0,0,0,0,0,0,0,0,0,1,6,0,0,1,0,0,0,0
265652562,21.863752,21.435656,34.574,42.512375,21.239414,427.7883,0.34552628,1.0975492,nan,nan,0.0,0.0,0.0,0.0,0.0,0.0,0.0,0.0,0.0,0.0,0.0,0.0,0.0,0.0,0.0,0,0.0,0.0,0.0,0.0,0.0,0.0,0,0,0,0,0,0,0,0,0,0,0,1,6,0,0,1,0,0,0,0
265852561,21.956717,21.498205,33.757263,39.69988,21.29026,429.6737,0.3302093,1.1000607,nan,nan,0.0,0.0,0.0,0.0,0.0,0.0,0.0,0.0,0.0,0.0,0.0,0.0,0.0,0.0,0.0,0,0.0,0.0,0.0,0.0,0.0,0.0,0,0,0,0,0,0,0,0,0,0,0,1,6,0,0,1,0,0,0,0
266052573,21.517418,21.546999,37.11944,38.383728,21.34648,431.64825,0.40829426,1.0873762,nan,nan,0.0,0.0,0.0,0.0,0.0,0.0,0.0,0.0,0.0,0.0,0.0,0.0,0.0,0.0,0.0,0,0.0,0.0,0.0,0.0,0.0,0.0,0,0,0,0,0,0,0,0,0,0,0,1,6,0,0,1,0,0,0,0
266252560,21.79722,21.595894,35.680077,37.264046,21.401285,433.59296,0.40916973,1.0872357,nan,nan,0.0,0.0,0.0,0.0,0.0,0.0,0.0,0.0,0.0,0.0,0.0,0.0,0.0,0.0,0.0,0,0.0,0.0,0.0,0.0,0.0,0.0,0,0,0,0,0,0,0,0,0,0,0,1,6,0,0,1,0,0,0,0
266452601,21.826385,21.634798,32.84713,36.144302,21.451714,435.47644,0.3930593,1.089828,nan,nan,0.0,0.0,0.0,0.0,0.0,0.0,0.0,0.0,0.0,0.0,0.0,0.0,0.0,0.0,0.0,0,0.0,0.0,0.0,0.0,0.0,0.0,0,0,0,0,0,0,0,0,0,0,0,1,6,0,0,1,0,0,0,0
266662560,22.105276,21.684862,33.03575,34.970833,21.498909,437.38495,0.3708735,1.0934184,nan,nan,0.0,0.0,0.0,0.0,0.0,0.0,0.0,0.0,0.0,0.0,0.0,0.0,0.0,0.0,0.0,0,0.0,0.0,0.0,0.0,0.0,0.0,0,0,0,0,0,0,0,0,0,0,0,1,6,0,0,1,0,0,0,0
266862560,21.930288,21.711823,32.42045,34.708523,21.55007,439.2899,0.36510187,1.0943562,nan,nan,0.0,0.0,0.0,0.0,0.0,0.0,0.0,0.0,0.0,0.0,0.0,0.0,0.0,0.0,0.0,0,0.0,0.0,0.0,0.0,0.0,0.0,0,0,0,0,0,0,0,0,0,0,0,1,6,0,0,1,0,0,0,0
267052561,21.77717,21.728605,31.926012,34.70318,21.600431,441.1269,0.37926108,1.0920582,nan,nan,0.0,0.0,0.0,0.0,0.0,0.0,0.0,0.0,0.0,0.0,0.0,0.0,0.0,0.0,0.0,0,0.0,0.0,0.0,0.0,0.0,0.0,0,0,0,0,0,0,0,0,0,0,0,1,6,0,0,1,0,0,0,0
267252561,22.298494,21.774662,30.374943,33.69093,21.64083,442.88495,0.34461266,1.0976987,nan,nan,0.0,0.0,0.0,0.0,0.0,0.0,0.0,0.0,0.0,0.0,0.0,0.0,0.0,0.0,0.0,0,0.0,0.0,0.0,0.0,0.0,0.0,0,0,0,0,0,0,0,0,0,0,0,1,6,0,0,1,0,0,0,0
267452560,21.605825,21.806206,30.72105,32.820618,21.678236,444.60892,0.38002115,1.0919352,nan,nan,0.0,0.0,0.0,0.0,0.0,0.0,0.0,0.0,0.0,0.0,0.0,0.0,0.0,0.0,0.0,0,0.0,0.0,0.0,0.0,0.0,0.0,0,0,0,0,0,0,0,0,0,0,0,1,6,0,0,1,0,0,0,0
267652560,21.922995,21.840715,31.048843,32.30554,21.716412,446.3457,0.38960844,1.090385,nan,nan,0.0,0.0,0.0,0.0,0.0,0.0,0.0,0.0,0.0,0.0,0.0,0.0,0.0,0.0,0.0,0,0.0,0.0,0.0,0.0,0.0,0.0,0,0,0,0,0,0,0,0,0,0,0,1,6,0,0,1,0,0,0,0
267852561,22.329483,21.877098,29.752317,31.7568,21.752354,448.04898,0.36530262,1.0943235,nan,nan,0.0,0.0,0.0,0.0,0.0,0.0,0.0,0.0,0.0,0.0,0.0,0.0,0.0,0.0,0.0,0,0.0,0.0,0.0,0.0,0.0,0.0,0,0,0,0,0,0,0,0,0,0,0,1,6,0,0,1,0,0,0,0
268062561,22.336775,21.912033,29.752317,31.326902,21.789032,449.8285,0.3170076,1.1022345,nan,nan,0.0,0.0,0.0,0.0,0.0,0.0,0.0,0.0,0.0,0.0,0.0,0.0,0.0,0.0,0.0,0,0.0,0.0,0.0,0.0,0.0,0.0,0,0,0,0,0,0,0,0,0,0,0,1,6,0,0,1,0,0,0,0
268262562,21.703346,21.918362,29.543556,30.900557,21.822079,451.49847,0.34213167,1.0981048,nan,nan,0.0,0.0,0.0,0.0,0.0,0.0,0.0,0.0,0.0,0.0,0.0,0.0,0.0,0.0,0.0,0,0.0,0.0,0.0,0.0,0.0,0.0,0,0,0,0,0,0,0,0,0,0,0,1,6,0,0,1,0,0,0,0
268452560,21.694233,21.931107,29.199282,30.531685,21.85214,453.06766,0.31462485,1.1026279,nan,nan,0.0,0.0,0.0,0.0,0.0,0.0,0.0,0.0,0.0,0.0,0.0,0.0,0.0,0.0,0.0,0,0.0,0.0,0.0,0.0,0.0,0.0,0,0,0,0,0,0,0,0,0,0,0,1,6,0,0,1,0,0,0,0
268652562,21.986794,21.976444,29.096731,30.151108,21.882257,454.70062,0.29877764,1.1052505,nan,nan,0.0,0.0,0.0,0.0,0.0,0.0,0.0,0.0,0.0,0.0,0.0,0.0,0.0,0.0,0.0,0,0.0,0.0,0.0,0.0,0.0,0.0,0,0,0,0,0,0,0,0,0,0,0,1,6,0,0,1,0,0,0,0
268852560,23.79047,22.090343,2.0711439,27.118153,21.887844,455.91962,0.33040673,1.1000283,nan,nan,0.0,0.0,0.0,0.0,0.0,0.0,0.0,0.0,0.0,0.0,0.0,0.0,0.0,0.0,0.0,0,0.0,0.0,0.0,0.0,0.0,0.0,0,0,0,0,0,0,0,0,0,0,0,1,6,0,0,1,0,0,0,0
269052561,23.569908,22.35686,7.938469,19.617542,21.815271,456.14175,0.4111691,1.0869148,nan,nan,0.0,0.0,0.0,0.0,0.0,0.0,0.0,0.0,0.0,0.0,0.0,0.0,0.0,0.0,0.0,0,0.0,0.0,0.0,0.0,0.0,0.0,0,0,0,0,0,0,0,0,0,0,0,1,6,0,0,1,0,0,0,0
269252561,22.054237,22.374336,32.3472,21.045404,21.81435,457.40726,0.41646534,1.0860658,nan,nan,0.0,0.0,0.0,0.0,0.0,0.0,0.0,0.0,0.0,0.0,0.0,0.0,0.0,0.0,0.0,0,0.0,0.0,0.0,0.0,0.0,0.0,0,0,0,0,0,0,0,0,0,0,0,1,6,0,0,1,0,0,0,0
269462575,22.077934,22.347322,26.089817,23.571617,21.84426,459.07907,0.40827948,1.0873786,nan,nan,0.0,0.0,0.0,0.0,0.0,0.0,0.0,0.0,0.0,0.0,0.0,0.0,0.0,0.0,0.0,0,0.0,0.0,0.0,0.0,0.0,0.0,0,0,0,0,0,0,0,0,0,0,0,1,6,0,0,1,0,0,0,0
269662560,22.342241,22.335081,24.4362,24.356564,21.861458,460.52744,0.4045697,1.0879747,nan,nan,0.0,0.0,0.0,0.0,0.0,0.0,0.0,0.0,0.0,0.0,0.0,0.0,0.0,0.0,0.0,0,0.0,0.0,0.0,0.0,0.0,0.0,0,0,0,0,0,0,0,0,0,0,0,1,6,0,0,1,0,0,0,0
269852561,22.704985,22.363728,21.559305,23.752283,21.86467,461.71808,0.41325098,1.086581,nan,nan,0.0,0.0,0.0,0.0,0.0,0.0,0.0,0.0,0.0,0.0,0.0,0.0,0.0,0.0,0.0,0,0.0,0.0,0.0,0.0,0.0,0.0,0,0,0,0,0,0,0,0,0,0,0,1,6,0,0,1,0,0,0,0
270052561,22.413334,22.419847,16.821861,22.260927,21.85566,462.79456,0.43025643,1.0838611,nan,nan,0.0,0.0,0.0,0.0,0.0,0.0,0.0,0.0,0.0,0.0,0.0,0.0,0.0,0.0,0.0,0,0.0,0.0,0.0,0.0,0.0,0.0,0,0,0,0,0,0,0,0,0,0,0,1,6,0,0,1,0,0,0,0
270252575,22.78701,22.499609,15.166412,20.330908,21.834362,463.70792,0.45442683,1.0800188,nan,nan,0.0,0.0,0.0,0.0,0.0,0.0,0.0,0.0,0.0,0.0,0.0,0.0,0.0,0.0,0.0,0,0.0,0.0,0.0,0.0,0.0,0.0,0,0,0,0,0,0,0,0,0,0,0,1,6,0,0,1,0,0,0,0
270452560,23.644644,22.636723,11.377557,17.503855,21.795103,464.36404,0.4959765,1.073477,nan,nan,0.0,0.0,0.0,0.0,0.0,0.0,0.0,0.0,0.0,0.0,0.0,0.0,0.0,0.0,0.0,0,0.0,0.0,0.0,0.0,0.0,0.0,0,0,0,0,0,0,0,0,0,0,0,1,6,0,0,1,0,0,0,0
270652560,22.98114,22.745317,9.842969,15.189577,21.7502,464.94583,0.5288835,1.0683519,nan,nan,0.0,0.0,0.0,0.0,0.0,0.0,0.0,0.0,0.0,0.0,0.0,0.0,0.0,0.0,0.0,0,0.0,0.0,0.0,0.0,0.0,0.0,0,0,0,0,0,0,0,0,0,0,0,1,6,0,0,1,0,0,0,0
270862562,23.543478,22.852432,13.426725,13.916267,21.705952,465.60858,0.5613428,1.0633442,nan,nan,0.0,0.0,0.0,0.0,0.0,0.0,0.0,0.0,0.0,0.0,0.0,0.0,0.0,0.0,0.0,0,0.0,0.0,0.0,0.0,0.0,0.0,0,0,0,0,0,0,0,0,0,0,0,1,6,0,0,1,0,0,0,0
271062560,23.13608,22.878922,15.6755,13.9156475,21.674032,466.37653,0.56936985,1.062113,nan,nan,0.0,0.0,0.0,0.0,0.0,0.0,0.0,0.0,0.0,0.0,0.0,0.0,0.0,0.0,0.0,0,0.0,0.0,0.0,0.0,0.0,0.0,0,0,0,0,0,0,0,0,0,0,0,1,6,0,0,1,0,0,0,0
