timestamp,data_rate,rate_multiplier,tx_rate_avg,tx_error_rate_avg,tx_message_count,tx_buffer_overruns,rx_rate_avg,rx_message_count,rx_message_lost_count,rx_buffer_overruns,rx_parse_errors,rx_packet_drop_count,rx_message_lost_rate,type,mode,flow_control,forwarding,mavlink_v2,ftp,streams,heartbeat_type_antenna_tracker,heartbeat_type_gcs,heartbeat_type_onboard_controller,heartbeat_type_gimbal,heartbeat_type_adsb,heartbeat_type_camera,heartbeat_type_parachute,heartbeat_component_telemetry_radio,heartbeat_component_log,heartbeat_component_osd,heartbeat_component_obstacle_avoidance,heartbeat_component_vio,heartbeat_component_pairing_manager,heartbeat_component_udp_bridge,heartbeat_component_uart_bridge,avoidance_system_healthy,parachute_system_healthy
217909108,1200.0,0.5867378,1176.0016,0.0,7567,0,41.751534,297,0,0,0,38,0.0,0,0,1,1,1,1,48,0,1,0,0,0,0,0,0,0,0,0,0,0,0,0,0,0
218814647,1200.0,0.5867378,1427.2894,0.0,7604,0,41.832626,299,0,0,0,38,0.0,0,0,1,1,1,1,48,0,1,0,0,0,0,0,0,0,0,0,0,0,0,0,0,0
219849762,1200.0,0.5867378,1477.4872,0.0,7644,0,41.815678,301,0,0,0,38,0.0,0,0,1,1,1,1,48,0,1,0,0,0,0,0,0,0,0,0,0,0,0,0,0,0
220931692,1200.0,0.5867378,1126.8895,0.0,7683,0,41.995884,304,0,0,0,38,0.0,0,0,1,1,1,1,48,0,1,0,0,0,0,0,0,0,0,0,0,0,0,0,0,0
221831767,1200.0,0.5867378,1246.6302,0.0,7710,0,67.49272,306,0,0,0,38,0.0,0,0,1,1,1,1,48,0,1,0,0,0,0,0,0,0,0,0,0,0,0,0,0,0
222843751,1200.0,0.5867378,1362.2202,0.0,7751,0,41.792,307,0,0,0,38,0.0,0,0,1,1,1,1,48,0,1,0,0,0,0,0,0,0,0,0,0,0,0,0,0,0
223929546,1200.0,0.5867378,1203.3671,0.0,7792,0,41.66646,310,0,0,0,38,0.0,0,0,1,1,1,1,48,0,1,0,0,0,0,0,0,0,0,0,0,0,0,0,0,0
224825715,1200.0,0.5867378,1316.1099,0.0,7819,0,41.74971,312,0,0,0,38,0.0,0,0,1,1,1,1,48,0,1,0,0,0,0,0,0,0,0,0,0,0,0,0,0,0
225844790,1200.0,0.5867378,1003.9801,0.0,7859,0,41.791046,313,0,0,0,38,0.0,0,0,1,1,1,1,48,0,1,0,0,0,0,0,0,0,0,0,0,0,0,0,0,0
226911742,1200.0,0.5867378,1398.8807,0.0,7894,0,41.727978,316,0,0,0,38,0.0,0,0,1,1,1,1,48,0,1,0,0,0,0,0,0,0,0,0,0,0,0,0,0,0
227845696,1200.0,0.5867378,1308.1383,0.0,7929,0,41.81264,318,0,0,0,38,0.0,0,0,1,1,1,1,48,0,1,0,0,0,0,0,0,0,0,0,0,0,0,0,0,0
228854916,1200.0,0.5867378,1093.6233,0.0,7962,0,41.83259,320,0,0,0,38,0.0,0,0,1,1,1,1,48,0,1,0,0,0,0,0,0,0,0,0,0,0,0,0,0,0
229912692,1200.0,0.5867378,1412.118,0.0,8002,0,41.70813,322,0,0,0,38,0.0,0,0,1,1,1,1,48,0,1,0,0,0,0,0,0,0,0,0,0,0,0,0,0,0
230846717,1200.0,0.5867378,1123.383,0.0,8040,0,41.791046,324,0,0,0,38,0.0,0,0,1,1,1,1,48,0,1,0,0,0,0,0,0,0,0,0,0,0,0,0,0,0
231856716,1200.0,0.5867378,1227.0892,0.0,8072,0,67.72895,327,0,0,0,38,0.0,0,0,1,1,1,1,48,0,1,0,0,0,0,0,0,0,0,0,0,0,0,0,0,0
232895163,1200.0,0.5867378,1331.936,0.0,8114,0,41.997982,329,0,0,0,38,0.0,0,0,1,1,1,1,48,0,1,0,0,0,0,0,0,0,0,0,0,0,0,0,0,0
233840692,1200.0,0.5867378,1201.4558,0.0,8144,0,41.876465,331,0,0,0,38,0.0,0,0,1,1,1,1,48,0,1,0,0,0,0,0,0,0,0,0,0,0,0,0,0,0
234855707,1200.0,0.5867378,1283.7301,0.0,8181,0,41.666664,333,0,0,0,38,0.0,0,0,1,1,1,1,48,0,1,0,0,0,0,0,0,0,0,0,0,0,0,0,0,0
235957806,1200.0,0.5867378,1065.4762,0.0,8223,0,41.666664,335,0,0,0,38,0.0,0,0,1,1,1,1,48,0,1,0,0,0,0,0,0,0,0,0,0,0,0,0,0,0
236850789,1200.0,0.5867378,1463.8257,0.0,8252,0,41.625374,337,0,0,0,38,0.0,0,0,1,1,1,1,48,0,1,0,0,0,0,0,0,0,0,0,0,0,0,0,0,0
237854752,1200.0,0.5867378,1105.2546,0.0,8290,0,41.745228,339,0,0,0,38,0.0,0,0,1,1,1,1,48,0,1,0,0,0,0,0,0,0,0,0,0,0,0,0,0,0
238914727,1200.0,0.5867378,1285.9885,0.0,8322,0,41.836964,341,0,0,0,38,0.0,0,0,1,1,1,1,48,0,1,0,0,0,0,0,0,0,0,0,0,0,0,0,0,0
239931070,1200.0,0.5867378,1276.5115,0.0,8362,0,41.625374,343,0,0,0,38,0.0,0,0,1,1,1,1,48,0,1,0,0,0,0,0,0,0,0,0,0,0,0,0,0,0
241025923,1200.0,0.5867378,1238.3684,0.0,8406,0,41.91094,346,0,0,0,38,0.0,0,0,1,1,1,1,48,0,1,0,0,0,0,0,0,0,0,0,0,0,0,0,0,0
241909747,1200.0,0.5867378,1268.0131,0.0,8434,0,67.46861,348,0,0,0,38,0.0,0,0,1,1,1,1,48,0,1,0,0,0,0,0,0,0,0,0,0,0,0,0,0,0
242932454,1200.0,0.5867378,1097.3915,0.0,8474,0,41.748592,350,0,0,0,38,0.0,0,0,1,1,1,1,48,0,1,0,0,0,0,0,0,0,0,0,0,0,0,0,0,0
244001320,1200.0,0.5867378,1336.358,0.0,8508,0,41.91713,352,0,0,0,38,0.0,0,0,1,1,1,1,48,0,1,0,0,0,0,0,0,0,0,0,0,0,0,0,0,0
244906711,1200.0,0.5867378,1457.0669,0.0,8541,0,41.82967,354,0,0,0,38,0.0,0,0,1,1,1,1,48,0,1,0,0,0,0,0,0,0,0,0,0,0,0,0,0,0
245932751,1200.0,0.5867378,1009.9966,0.0,8575,0,41.751827,356,0,0,0,38,0.0,0,0,1,1,1,1,48,0,1,0,0,0,0,0,0,0,0,0,0,0,0,0,0,0
246986818,1200.0,0.5867378,1454.929,0.0,8616,0,41.626034,358,0,0,0,38,0.0,0,0,1,1,1,1,48,0,1,0,0,0,0,0,0,0,0,0,0,0,0,0,0,0
248011811,1200.0,0.5867378,984.0954,0.0,8654,0,41.7495,360,0,0,0,38,0.0,0,0,1,1,1,1,48,0,1,0,0,0,0,0,0,0,0,0,0,0,0,0,0,0
249272077,1200.0,0.5867378,1300.2802,0.0,8694,0,41.78406,361,0,0,0,38,0.0,0,0,1,1,1,1,48,0,1,0,0,0,0,0,0,0,0,0,0,0,0,0,0,0
249984706,1200.0,0.5867378,1219.5681,0.0,8726,0,20.95821,363,1,0,0,38,0.002754821,0,0,1,1,1,1,48,0,1,0,0,0,0,0,0,0,0,0,0,0,0,0,0,0
250932019,1200.0,0.5867378,1456.6454,0.0,8757,0,41.96098,366,1,0,0,38,0.0027322404,0,0,1,1,1,1,48,0,1,0,0,0,0,0,0,0,0,0,0,0,0,0,0,0
251937713,1200.0,0.5867378,1169.5989,0.0,8795,0,67.80283,368,1,0,0,38,0.0027173914,0,0,1,1,1,1,48,0,1,0,0,0,0,0,0,0,0,0,0,0,0,0,0,0
253015692,1200.0,0.5867378,1130.6171,0.0,8840,0,41.58136,370,1,0,0,38,0.0027027028,0,0,1,1,1,1,48,0,1,0,0,0,0,0,0,0,0,0,0,0,0,0,0,0
253947275,1200.0,0.5867378,1426.9622,0.0,8880,0,41.79387,372,1,0,0,38,0.002688172,0,0,1,1,1,1,48,0,1,0,0,0,0,0,0,0,0,0,0,0,0,0,0,0
254938713,1200.0,0.5867378,1253.7301,0.0,8917,0,41.791004,374,1,0,0,38,0.0026737968,0,0,1,1,1,1,48,0,1,0,0,0,0,0,0,0,0,0,0,0,0,0,0,0
255998767,1200.0,0.5867378,1196.8044,0.0,8950,0,41.958084,376,1,0,0,38,0.0026595744,0,0,1,1,1,1,48,0,1,0,0,0,0,0,0,0,0,0,0,0,0,0,0,0
257017838,1200.0,0.5867378,1384.5046,0.0,8989,0,41.95469,378,1,0,0,38,0.0026455026,0,0,1,1,1,1,48,0,1,0,0,0,0,0,0,0,0,0,0,0,0,0,0,0
257934691,1200.0,0.5867378,1195.5068,0.0,9021,0,41.877636,380,1,0,0,38,0.002631579,0,0,1,1,1,1,48,0,1,0,0,0,0,0,0,0,0,0,0,0,0,0,0,0
259012857,1200.0,0.5867378,1320.239,0.0,9058,0,41.786015,382,1,0,0,38,0.002617801,0,0,1,1,1,1,48,0,1,0,0,0,0,0,0,0,0,0,0,0,0,0,0,0
260015692,1200.0,0.5867378,1053.6139,0.0,9099,0,41.786385,384,1,0,0,38,0.0026041667,0,0,1,1,1,1,48,0,1,0,0,0,0,0,0,0,0,0,0,0,0,0,0,0
260948721,1200.0,0.5867378,1506.2302,0.0,9138,0,41.674355,387,1,0,0,38,0.0025839794,0,0,1,1,1,1,48,0,1,0,0,0,0,0,0,0,0,0,0,0,0,0,0,0
261986691,1200.0,0.5867378,1377.2946,0.0,9180,0,67.33,389,1,0,0,38,0.002570694,0,0,1,1,1,1,48,0,1,0,0,0,0,0,0,0,0,0,0,0,0,0,0,0
263017172,1200.0,0.5867378,1096.9031,0.0,9214,0,41.95804,391,1,0,0,38,0.0025575447,0,0,1,1,1,1,48,0,1,0,0,0,0,0,0,0,0,0,0,0,0,0,0,0
264098691,1200.0,0.5867378,1550.8641,0.0,9267,0,41.915245,393,1,0,0,38,0.0025445293,0,0,1,1,1,1,48,0,1,0,0,0,0,0,0,0,0,0,0,0,0,0,0,0
264996690,1200.0,0.5867378,1184.1056,0.0,9303,0,41.79196,395,1,0,0,38,0.0025316456,0,0,1,1,1,1,48,0,1,0,0,0,0,0,0,0,0,0,0,0,0,0,0,0
266023717,1200.0,0.5867378,1203.7773,0.0,9336,0,41.7495,397,1,0,0,38,0.0025188916,0,0,1,1,1,1,48,0,1,0,0,0,0,0,0,0,0,0,0,0,0,0,0,0
267071735,1200.0,0.5867378,1264.3564,0.0,9377,0,41.58416,399,1,0,0,38,0.0025062656,0,0,1,1,1,1,48,0,1,0,0,0,0,0,0,0,0,0,0,0,0,0,0,0
268004713,1200.0,0.5867378,1413.1737,0.0,9409,0,41.91617,401,1,0,0,38,0.0024937657,0,0,1,1,1,1,48,0,1,0,0,0,0,0,0,0,0,0,0,0,0,0,0,0
269022713,1200.0,0.5867378,1258.6495,0.0,9450,0,41.62463,403,1,0,0,38,0.0024813896,0,0,1,1,1,1,48,0,1,0,0,0,0,0,0,0,0,0,0,0,0,0,0,0
270113690,1200.0,0.5867378,1096.3442,0.0,9490,0,41.708748,405,1,0,0,38,0.002469136,0,0,1,1,1,1,48,0,1,0,0,0,0,0,0,0,0,0,0,0,0,0,0,0
271024692,1200.0,0.5867378,1539.9216,0.0,9523,0,41.91621,408,1,0,0,38,0.0024509805,0,0,1,1,1,1,48,0,1,0,0,0,0,0,0,0,0,0,0,0,0,0,0,0
272021825,1200.0,0.5867378,1193.1035,0.0,9562,0,66.99507,410,1,0,0,38,0.0024390244,0,0,1,1,1,1,48,0,1,0,0,0,0,0,0,0,0,0,0,0,0,0,0,0
273090693,1200.0,0.5867378,1278.2219,0.0,9603,0,41.941658,412,1,0,0,38,0.0024271845,0,0,1,1,1,1,48,0,1,0,0,0,0,0,0,0,0,0,0,0,0,0,0,0
274101839,1200.0,0.5867378,1463.2969,0.0,9650,0,41.72333,414,1,0,0,38,0.002415459,0,0,1,1,1,1,48,0,1,0,0,0,0,0,0,0,0,0,0,0,0,0,0,0
275017769,1200.0,0.5867378,1239.0709,0.0,9681,0,41.833584,416,1,0,0,38,0.0024038462,0,0,1,1,1,1,48,0,1,0,0,0,0,0,0,0,0,0,0,0,0,0,0,0
276089757,1200.0,0.5867378,1336.6534,0.0,9732,0,41.832672,418,1,0,0,38,0.0023923444,0,0,1,1,1,1,48,0,1,0,0,0,0,0,0,0,0,0,0,0,0,0,0,0
277095713,1200.0,0.5867378,1287.4252,0.0,9774,0,41.91617,420,1,0,0,38,0.0023809525,0,0,1,1,1,1,48,0,1,0,0,0,0,0,0,0,0,0,0,0,0,0,0,0
278152692,1200.0,0.5867378,1390.8275,0.0,9807,0,41.874374,422,1,0,0,38,0.0023696683,0,0,1,1,1,1,48,0,1,0,0,0,0,0,0,0,0,0,0,0,0,0,0,0
279092697,1200.0,0.5867378,1383.1683,0.0,9842,0,41.58416,424,1,0,0,38,0.0023584906,0,0,1,1,1,1,48,0,1,0,0,0,0,0,0,0,0,0,0,0,0,0,0,0
280101814,1200.0,0.5867378,1079.444,0.0,9879,0,41.708046,426,1,0,0,38,0.0023474179,0,0,1,1,1,1,48,0,1,0,0,0,0,0,0,0,0,0,0,0,0,0,0,0
281175173,1200.0,0.5867378,1501.6943,0.0,9920,0,41.82438,428,1,0,0,38,0.0023364485,0,0,1,1,1,1,48,0,1,0,0,0,0,0,0,0,0,0,0,0,0,0,0,0
282093747,1200.0,0.5867378,1163.0898,0.0,9964,0,41.716286,430,1,0,0,38,0.0023255814,0,0,1,1,1,1,48,0,1,0,0,0,0,0,0,0,0,0,0,0,0,0,0,0
283106693,1200.0,0.5867378,1461.8102,0.0,10003,0,41.624424,432,1,0,0,38,0.0023148148,0,0,1,1,1,1,48,0,1,0,0,0,0,0,0,0,0,0,0,0,0,0,0,0
284150714,1200.0,0.5867378,1522.8976,0.0,10047,0,41.750458,434,1,0,0,38,0.0023041475,0,0,1,1,1,1,48,0,1,0,0,0,0,0,0,0,0,0,0,0,0,0,0,0
285187711,1200.0,0.5867378,1284.9576,0.0,10082,0,41.70651,436,1,0,0,38,0.0022935779,0,0,1,1,1,1,48,0,1,0,0,0,0,0,0,0,0,0,0,0,0,0,0,0
286106704,1200.0,0.5867378,1253.5105,0.0,10117,0,41.91675,438,1,0,0,38,0.002283105,0,0,1,1,1,1,48,0,1,0,0,0,0,0,0,0,0,0,0,0,0,0,0,0
287162845,1200.0,0.5867378,1034.8616,0.0,10157,0,41.83271,440,1,0,0,38,0.0022727272,0,0,1,1,1,1,48,0,1,0,0,0,0,0,0,0,0,0,0,0,0,0,0,0
288100751,1200.0,0.5867378,1429.718,0.0,10188,0,41.874584,442,1,0,0,38,0.0022624435,0,0,1,1,1,1,48,0,1,0,0,0,0,0,0,0,0,0,0,0,0,0,0,0
289104693,1200.0,0.5867378,1283.4548,0.0,10228,0,41.916878,444,1,0,0,38,0.0022522523,0,0,1,1,1,1,48,0,1,0,0,0,0,0,0,0,0,0,0,0,0,0,0,0
290184739,1200.0,0.5867378,1312.3293,0.0,10271,0,41.914703,446,1,0,0,38,0.0022421526,0,0,1,1,1,1,48,0,1,0,0,0,0,0,0,0,0,0,0,0,0,0,0,0
291092799,1200.0,0.5867378,1514.9474,0.0,10312,0,41.91554,449,1,0,0,38,0.0022271716,0,0,1,1,1,1,48,0,1,0,0,0,0,0,0,0,0,0,0,0,0,0,0,0
292041755,1200.0,0.5867378,1140.7755,0.0,10346,0,67.86765,451,1,0,0,38,0.0022172949,0,0,1,1,1,1,48,0,1,0,0,0,0,0,0,0,0,0,0,0,0,0,0,0
293183692,1200.0,0.5867378,1296.9216,0.0,10387,0,41.708046,453,1,0,0,38,0.0022075055,0,0,1,1,1,1,48,0,1,0,0,0,0,0,0,0,0,0,0,0,0,0,0,0
294119712,1200.0,0.5867378,1225.9664,0.0,10426,0,41.625374,455,1,0,0,38,0.0021978023,0,0,1,1,1,1,48,0,1,0,0,0,0,0,0,0,0,0,0,0,0,0,0,0
295373911,1200.0,0.5867378,1360.835,0.0,10465,0,41.7495,456,1,0,0,38,0.0021929825,0,0,1,1,1,1,48,0,1,0,0,0,0,0,0,0,0,0,0,0,0,0,0,0
296382692,1200.0,0.5867378,1396.4321,0.0,10504,0,20.812687,457,1,0,0,38,0.0021881838,0,0,1,1,1,1,48,0,1,0,0,0,0,0,0,0,0,0,0,0,0,0,0,0
296632714,1200.0,0.5867378,1396.4321,0.0,10513,0,20.812687,457,1,0,0,38,0.0021881838,0,0,1,1,1,1,48,0,0,0,0,0,0,0,0,0,0,0,0,0,0,0,0,0
297892841,1200.0,0.5867378,1529.9756,0.0,10562,0,20.999664,459,1,0,0,38,0.0021786492,0,0,1,1,1,1,48,0,0,0,0,0,0,0,0,0,0,0,0,0,0,0,0,0
299144740,1200.0,0.5867378,1078.5845,0.0,10608,0,20.895086,460,1,0,0,38,0.002173913,0,0,1,1,1,1,48,0,0,0,0,0,0,0,0,0,0,0,0,0,0,0,0,0
300399784,1200.0,0.5867378,1349.849,0.0,10651,0,20.827942,461,1,0,0,38,0.0021691974,0,0,1,1,1,1,48,0,0,0,0,0,0,0,0,0,0,0,0,0,0,0,0,0
301406719,1200.0,0.5867378,1357.6893,0.0,10701,0,20.96432,462,1,0,0,38,0.0021645022,0,0,1,1,1,1,48,0,0,0,0,0,0,0,0,0,0,0,0,0,0,0,0,0
302161891,1200.0,0.5867378,1453.5376,0.0,10729,0,20.935728,464,9,0,0,38,0.019396551,0,0,1,1,1,1,48,0,1,0,0,0,0,0,0,0,0,0,0,0,0,0,0,0
303106758,1200.0,0.5867378,1293.3561,0.0,10767,0,41.946686,466,9,0,0,38,0.019313306,0,0,1,1,1,1,48,0,1,0,0,0,0,0,0,0,0,0,0,0,0,0,0,0
304106818,1200.0,0.5867378,1086.802,0.0,10806,0,41.761833,468,9,0,0,38,0.01923077,0,0,1,1,1,1,48,0,1,0,0,0,0,0,0,0,0,0,0,0,0,0,0,0
305154713,1200.0,0.5867378,1398.9961,0.0,10845,0,41.73142,470,9,0,0,38,0.019148936,0,0,1,1,1,1,48,0,1,0,0,0,0,0,0,0,0,0,0,0,0,0,0,0
306123713,1200.0,0.5867378,1346.9526,0.0,10891,0,41.936256,472,9,0,0,38,0.019067796,0,0,1,1,1,1,48,0,1,0,0,0,0,0,0,0,0,0,0,0,0,0,0,0
307107749,1200.0,0.5867378,1314.3713,0.0,10922,0,41.91617,474,9,0,0,38,0.01898734,0,0,1,1,1,1,48,0,1,0,0,0,0,0,0,0,0,0,0,0,0,0,0,0
308171152,1200.0,0.5867378,1512.4625,0.0,10965,0,41.874374,476,9,0,0,38,0.018907564,0,0,1,1,1,1,48,0,1,0,0,0,0,0,0,0,0,0,0,0,0,0,0,0
309106765,1200.0,0.5867378,1059.9491,0.0,10995,0,41.997982,478,9,0,0,38,0.018828452,0,0,1,1,1,1,48,0,1,0,0,0,0,0,0,0,0,0,0,0,0,0,0,0
310246691,1200.0,0.5867378,1382.7327,0.0,11038,0,41.750378,480,9,0,0,38,0.01875,0,0,1,1,1,1,48,0,1,0,0,0,0,0,0,0,0,0,0,0,0,0,0,0
311199717,1200.0,0.5867378,1135.6738,0.0,11080,0,41.58527,483,9,0,0,38,0.01863354,0,0,1,1,1,1,48,0,1,0,0,0,0,0,0,0,0,0,0,0,0,0,0,0
312189712,1200.0,0.5867378,1344.9651,0.0,11109,0,67.79661,485,9,0,0,38,0.018556701,0,0,1,1,1,1,48,0,1,0,0,0,0,0,0,0,0,0,0,0,0,0,0,0
313261691,1200.0,0.5867378,1340.9075,0.0,11151,0,41.9971,487,9,0,0,38,0.018480493,0,0,1,1,1,1,48,0,1,0,0,0,0,0,0,0,0,0,0,0,0,0,0,0
314197841,1200.0,0.5867378,1164.9259,0.0,11184,0,41.710903,489,9,0,0,38,0.018404908,0,0,1,1,1,1,48,0,1,0,0,0,0,0,0,0,0,0,0,0,0,0,0,0
315194798,1200.0,0.56512696,1477.0917,0.0,11223,0,41.832672,491,9,0,0,38,0.018329939,0,0,1,1,1,1,48,0,1,0,0,0,0,0,0,0,0,0,0,0,0,0,0,0
316229691,1200.0,0.56512696,1157.1875,0.0,11262,0,41.79009,493,9,0,0,38,0.018255578,0,0,1,1,1,1,48,0,1,0,0,0,0,0,0,0,0,0,0,0,0,0,0,0
317168707,1200.0,0.56512696,1265.9019,0.0,11293,0,41.667618,495,9,0,0,38,0.018181818,0,0,1,1,1,1,48,0,1,0,0,0,0,0,0,0,0,0,0,0,0,0,0,0
318195694,1200.0,0.56512696,1267.4208,0.0,11338,0,41.815926,497,9,0,0,38,0.018108651,0,0,1,1,1,1,48,0,1,0,0,0,0,0,0,0,0,0,0,0,0,0,0,0
319238773,1200.0,0.56512696,1424.1484,0.0,11371,0,41.9749,499,9,0,0,38,0.018036073,0,0,1,1,1,1,48,0,1,0,0,0,0,0,0,0,0,0,0,0,0,0,0,0
320273739,1200.0,0.56512696,1235.7642,0.0,11409,0,41.95804,501,9,0,0,38,0.017964073,0,0,1,1,1,1,48,0,1,0,0,0,0,0,0,0,0,0,0,0,0,0,0,0
321192692,1200.0,0.56512696,1071.3058,0.0,11438,0,41.623352,504,9,0,0,38,0.017857144,0,0,1,1,1,1,48,0,1,0,0,0,0,0,0,0,0,0,0,0,0,0,0,0
322240750,1200.0,0.56512696,1523.4108,0.0,11480,0,67.530594,506,9,0,0,38,0.01778656,0,0,1,1,1,1,48,0,1,0,0,0,0,0,0,0,0,0,0,0,0,0,0,0
323199771,1200.0,0.56512696,1133.7292,0.0,11526,0,41.916042,508,9,0,0,38,0.017716536,0,0,1,1,1,1,48,0,1,0,0,0,0,0,0,0,0,0,0,0,0,0,0,0
324188745,1200.0,0.56512696,1337.9762,0.0,11561,0,41.74963,510,9,0,0,38,0.01764706,0,0,1,1,1,1,48,0,1,0,0,0,0,0,0,0,0,0,0,0,0,0,0,0
325281720,1200.0,0.56512696,1203.8845,0.0,11605,0,62.993954,512,9,0,0,38,0.017578125,0,0,1,1,1,1,48,0,1,0,0,0,0,0,0,0,0,0,0,0,0,0,0,0
326270799,1200.0,0.56512696,1325.1519,0.0,11644,0,20.939194,514,9,0,0,38,0.017509727,0,0,1,1,1,1,48,0,1,0,0,0,0,0,0,0,0,0,0,0,0,0,0,0
327194709,1200.0,0.56512696,1406.746,0.0,11680,0,62.5,516,9,0,0,38,0.017441861,0,0,1,1,1,1,48,0,1,0,0,0,0,0,0,0,0,0,0,0,0,0,0,0
328269746,1200.0,0.56512696,1114.885,0.0,11716,0,41.95804,518,9,0,0,38,0.017374517,0,0,1,1,1,1,48,0,1,0,0,0,0,0,0,0,0,0,0,0,0,0,0,0
329275691,1200.0,0.56512696,1443.3497,0.0,11755,0,20.689655,520,9,0,0,38,0.017307693,0,0,1,1,1,1,48,0,1,0,0,0,0,0,0,0,0,0,0,0,0,0,0,0
330334019,1200.0,0.56512696,1048.563,0.0,11795,0,41.625374,522,9,0,0,38,0.01724138,0,0,1,1,1,1,48,0,1,0,0,0,0,0,0,0,0,0,0,0,0,0,0,0
331349692,1200.0,0.56512696,1296.5175,0.0,11828,0,62.68657,525,9,0,0,38,0.017142856,0,0,1,1,1,1,48,0,1,0,0,0,0,0,0,0,0,0,0,0,0,0,0,0
332274692,1200.0,0.56512696,1133.3334,0.0,11864,0,67.66169,527,9,0,0,38,0.017077798,0,0,1,1,1,1,48,0,1,0,0,0,0,0,0,0,0,0,0,0,0,0,0,0
333330723,1200.0,0.56512696,1305.7955,0.0,11898,0,41.706017,529,9,0,0,38,0.017013233,0,0,1,1,1,1,48,0,1,0,0,0,0,0,0,0,0,0,0,0,0,0,0,0
334247691,1200.0,0.56512696,1421.5784,0.0,11934,0,20.97902,531,9,0,0,38,0.016949153,0,0,1,1,1,1,48,0,1,0,0,0,0,0,0,0,0,0,0,0,0,0,0,0
335277691,1200.0,0.56512696,1009.95,0.0,11967,0,62.379265,533,9,0,0,38,0.016885553,0,0,1,1,1,1,48,0,1,0,0,0,0,0,0,0,0,0,0,0,0,0,0,0
336354723,1200.0,0.56512696,1508.8889,0.0,12022,0,41.830585,535,9,0,0,38,0.01682243,0,0,1,1,1,1,48,0,1,0,0,0,0,0,0,0,0,0,0,0,0,0,0,0
337271294,1200.0,0.56512696,1299.6381,0.0,12068,0,41.667786,537,9,0,0,38,0.016759777,0,0,1,1,1,1,48,0,1,0,0,0,0,0,0,0,0,0,0,0,0,0,0,0
338277690,1200.0,0.56512696,1432.6003,0.0,12105,0,41.959003,539,9,0,0,38,0.016697587,0,0,1,1,1,1,48,0,1,0,0,0,0,0,0,0,0,0,0,0,0,0,0,0
339330691,1200.0,0.56512696,1089.3744,0.0,12144,0,41.708046,541,9,0,0,38,0.01663586,0,0,1,1,1,1,48,0,1,0,0,0,0,0,0,0,0,0,0,0,0,0,0,0
340332731,1200.0,0.56512696,1488.0437,0.0,12181,0,41.665222,542,9,0,0,38,0.016605167,0,0,1,1,1,1,48,0,1,0,0,0,0,0,0,0,0,0,0,0,0,0,0,0
340592753,1200.0,0.56512696,1488.0437,0.0,12187,0,41.665222,542,9,0,0,38,0.016605167,0,0,1,1,1,1,48,0,1,0,0,0,0,0,0,0,0,0,0,0,0,0,0,0
341846784,1200.0,0.56512696,1324.4243,0.0,12237,0,0.0,543,9,0,0,38,0.016574586,0,0,1,1,1,1,48,0,0,0,0,0,0,0,0,0,0,0,0,0,0,0,0,0
343110724,1200.0,0.56512696,1296.8129,0.0,12286,0,20.916336,545,9,0,0,38,0.016513761,0,0,1,1,1,1,48,0,0,0,0,0,0,0,0,0,0,0,0,0,0,0,0,0
344280010,1200.0,0.56512696,1273.6116,0.0,12326,0,20.895191,547,14,0,0,38,0.02559415,0,0,1,1,1,1,48,0,1,0,0,0,0,0,0,0,0,0,0,0,0,0,0,0
345355710,1200.0,0.56512696,1200.019,0.0,12366,0,41.79171,549,14,0,0,38,0.02550091,0,0,1,1,1,1,48,0,1,0,0,0,0,0,0,0,0,0,0,0,0,0,0,0
346358793,1200.0,0.56512696,1240.796,0.0,12406,0,41.791046,551,14,0,0,38,0.025408348,0,0,1,1,1,1,48,0,1,0,0,0,0,0,0,0,0,0,0,0,0,0,0,0
347365713,1200.0,0.56512696,1384.0134,0.0,12439,0,41.789047,552,14,0,0,38,0.025362318,0,0,1,1,1,1,48,0,1,0,0,0,0,0,0,0,0,0,0,0,0,0,0,0
348348691,1200.0,0.56512696,1433.6001,0.0,12479,0,41.66865,555,14,0,0,38,0.025225226,0,0,1,1,1,1,48,0,1,0,0,0,0,0,0,0,0,0,0,0,0,0,0,0
349353773,1200.0,0.56512696,1061.6398,0.0,12511,0,41.78901,557,14,0,0,38,0.02513465,0,0,1,1,1,1,48,0,1,0,0,0,0,0,0,0,0,0,0,0,0,0,0,0
350354691,1200.0,0.56512696,1363.6124,0.0,12551,0,41.834713,558,14,0,0,38,0.025089607,0,0,1,1,1,1,48,0,1,0,0,0,0,0,0,0,0,0,0,0,0,0,0,0
351357760,1200.0,0.56512696,1186.982,0.0,12586,0,67.65698,562,14,0,0,38,0.024911031,0,0,1,1,1,1,48,0,1,0,0,0,0,0,0,0,0,0,0,0,0,0,0,0
352361693,1200.0,0.56512696,1390.5353,0.0,12625,0,41.835587,564,14,0,0,38,0.024822695,0,0,1,1,1,1,48,0,1,0,0,0,0,0,0,0,0,0,0,0,0,0,0,0
353401691,1200.0,0.56512696,1145.2737,0.0,12665,0,41.791046,566,14,0,0,38,0.024734983,0,0,1,1,1,1,48,0,1,0,0,0,0,0,0,0,0,0,0,0,0,0,0,0
354341762,1200.0,0.56512696,1416.0874,0.0,12699,0,41.708046,568,14,0,0,38,0.024647888,0,0,1,1,1,1,48,0,1,0,0,0,0,0,0,0,0,0,0,0,0,0,0,0
355357692,1200.0,0.56512696,1353.2875,0.0,12739,0,41.216877,570,14,0,0,38,0.024561403,0,0,1,1,1,1,48,0,1,0,0,0,0,0,0,0,0,0,0,0,0,0,0,0
356412691,1200.0,0.56512696,1204.9751,0.0,12773,0,41.791046,572,14,0,0,38,0.024475524,0,0,1,1,1,1,48,0,1,0,0,0,0,0,0,0,0,0,0,0,0,0,0,0
357413708,1200.0,0.56512696,1282.8687,0.0,12811,0,41.832672,573,14,0,0,38,0.02443281,0,0,1,1,1,1,48,0,1,0,0,0,0,0,0,0,0,0,0,0,0,0,0,0
357433722,1200.0,0.56512696,1282.8687,0.0,12812,0,41.832672,574,14,0,0,38,0.024390243,0,0,1,1,1,1,48,0,1,0,0,0,0,0,0,0,0,0,0,0,0,0,0,0
359406695,1200.0,0.56512696,1283.2081,0.0,12884,0,41.87626,578,14,0,0,38,0.024221454,0,0,1,1,1,1,48,0,1,0,0,0,0,0,0,0,0,0,0,0,0,0,0,0
360414864,1200.0,0.56512696,1122.1483,0.0,12925,0,41.708168,579,14,0,0,38,0.02417962,0,0,1,1,1,1,48,0,1,0,0,0,0,0,0,0,0,0,0,0,0,0,0,0
360434692,1200.0,0.56512696,1122.1483,0.0,12925,0,41.708168,580,14,0,0,38,0.024137931,0,0,1,1,1,1,48,0,1,0,0,0,0,0,0,0,0,0,0,0,0,0,0,0
361692690,1200.0,0.56512696,1461.5166,0.0,12969,0,67.93105,582,14,0,0,38,0.024054984,0,0,1,1,1,1,48,0,1,0,0,0,0,0,0,0,0,0,0,0,0,0,0,0
362948691,1200.0,0.56512696,1221.9088,0.0,13016,0,20.895834,584,14,0,0,38,0.023972603,0,0,1,1,1,1,48,0,0,0,0,0,0,0,0,0,0,0,0,0,0,0,0,0
364205689,1200.0,0.56512696,1338.5834,0.0,13068,0,20.791605,585,14,0,0,38,0.023931624,0,0,1,1,1,1,48,0,0,0,0,0,0,0,0,0,0,0,0,0,0,0,0,0
364496695,1200.0,0.56512696,1338.5834,0.0,13074,0,20.791605,586,17,0,0,38,0.029010238,0,0,1,1,1,1,48,0,1,0,0,0,0,0,0,0,0,0,0,0,0,0,0,0
365421692,1200.0,0.56512696,1244.2957,0.0,13104,0,41.875336,588,17,0,0,38,0.028911564,0,0,1,1,1,1,48,0,1,0,0,0,0,0,0,0,0,0,0,0,0,0,0,0
366438804,1200.0,0.56512696,1357.2759,0.0,13145,0,41.915874,590,17,0,0,38,0.02881356,0,0,1,1,1,1,48,0,1,0,0,0,0,0,0,0,0,0,0,0,0,0,0,0
367502691,1200.0,0.56512696,1096.5251,0.0,13187,0,41.791336,592,17,0,0,38,0.028716216,0,0,1,1,1,1,48,0,1,0,0,0,0,0,0,0,0,0,0,0,0,0,0,0
368463691,1200.0,0.56512696,1424.28,0.0,13221,0,41.832,594,17,0,0,38,0.028619528,0,0,1,1,1,1,48,0,1,0,0,0,0,0,0,0,0,0,0,0,0,0,0,0
369587749,1200.0,0.56512696,1225.9608,0.0,13262,0,41.998657,596,17,0,0,38,0.02852349,0,0,1,1,1,1,48,0,1,0,0,0,0,0,0,0,0,0,0,0,0,0,0,0
370497749,1200.0,0.56512696,1231.8997,0.0,13291,0,41.79304,598,17,0,0,38,0.028428094,0,0,1,1,1,1,48,0,1,0,0,0,0,0,0,0,0,0,0,0,0,0,0,0
371520706,1200.0,0.56512696,1433.9103,0.0,13335,0,67.712425,601,17,0,0,38,0.028286189,0,0,1,1,1,1,48,0,1,0,0,0,0,0,0,0,0,0,0,0,0,0,0,0
372590776,1200.0,0.56512696,1285.068,0.0,13372,0,41.839424,603,17,0,0,38,0.028192371,0,0,1,1,1,1,48,0,1,0,0,0,0,0,0,0,0,0,0,0,0,0,0,0
373515693,1200.0,0.56512696,1326.4803,0.0,13407,0,41.79458,605,17,0,0,38,0.028099174,0,0,1,1,1,1,48,0,1,0,0,0,0,0,0,0,0,0,0,0,0,0,0,0
374513750,1200.0,0.56512696,1031.9043,0.0,13447,0,41.874374,607,17,0,0,38,0.028006589,0,0,1,1,1,1,48,0,1,0,0,0,0,0,0,0,0,0,0,0,0,0,0,0
375590715,1200.0,0.56512696,1459.7684,0.0,13483,0,41.70767,609,17,0,0,38,0.027914613,0,0,1,1,1,1,48,0,1,0,0,0,0,0,0,0,0,0,0,0,0,0,0,0
376500689,1200.0,0.56512696,1157.3809,0.0,13519,0,41.833042,611,17,0,0,38,0.027823241,0,0,1,1,1,1,48,0,1,0,0,0,0,0,0,0,0,0,0,0,0,0,0,0
377515693,1200.0,0.56512696,1313.5958,0.0,13552,0,41.95515,613,17,0,0,38,0.027732464,0,0,1,1,1,1,48,0,1,0,0,0,0,0,0,0,0,0,0,0,0,0,0,0
378566690,1200.0,0.56512696,1422.4084,0.0,13595,0,41.83554,615,17,0,0,38,0.027642276,0,0,1,1,1,1,48,0,1,0,0,0,0,0,0,0,0,0,0,0,0,0,0,0
379593741,1200.0,0.56512696,1243.604,0.0,13627,0,41.81855,617,17,0,0,38,0.027552674,0,0,1,1,1,1,48,0,1,0,0,0,0,0,0,0,0,0,0,0,0,0,0,0
380654872,1200.0,0.56512696,1325.3251,0.0,13669,0,41.75818,619,17,0,0,38,0.02746365,0,0,1,1,1,1,48,0,1,0,0,0,0,0,0,0,0,0,0,0,0,0,0,0
381593690,1200.0,0.56512696,1044.7332,0.0,13708,0,67.402145,622,17,0,0,38,0.02733119,0,0,1,1,1,1,48,0,1,0,0,0,0,0,0,0,0,0,0,0,0,0,0,0
382602959,1200.0,0.56512696,1509.9801,0.0,13744,0,41.91617,624,17,0,0,38,0.02724359,0,0,1,1,1,1,48,0,1,0,0,0,0,0,0,0,0,0,0,0,0,0,0,0
383680690,1200.0,0.56512696,1117.6351,0.0,13794,0,41.911316,626,17,0,0,38,0.02715655,0,0,1,1,1,1,48,0,1,0,0,0,0,0,0,0,0,0,0,0,0,0,0,0
384569690,1200.0,0.56512696,1555.2933,0.0,13829,0,41.71285,628,17,0,0,38,0.027070064,0,0,1,1,1,1,48,0,1,0,0,0,0,0,0,0,0,0,0,0,0,0,0,0
385595691,1200.0,0.56512696,1327.7474,0.0,13870,0,41.647045,630,17,0,0,38,0.026984127,0,0,1,1,1,1,48,0,1,0,0,0,0,0,0,0,0,0,0,0,0,0,0,0
386858737,1200.0,0.56512696,1282.6078,0.0,13918,0,41.72698,632,17,0,0,38,0.026898734,0,0,1,1,1,1,48,0,1,0,0,0,0,0,0,0,0,0,0,0,0,0,0,0
387579153,1200.0,0.56512696,1144.4166,0.0,13940,0,20.916231,633,18,0,0,38,0.028436018,0,0,1,1,1,1,48,0,1,0,0,0,0,0,0,0,0,0,0,0,0,0,0,0
388598369,1200.0,0.56512696,1175.2743,0.0,13981,0,41.585106,635,18,0,0,38,0.028346457,0,0,1,1,1,1,48,0,1,0,0,0,0,0,0,0,0,0,0,0,0,0,0,0
389674725,1200.0,0.56512696,1376.7395,0.0,14016,0,41.7495,637,18,0,0,38,0.028257458,0,0,1,1,1,1,48,0,1,0,0,0,0,0,0,0,0,0,0,0,0,0,0,0
390583747,1200.0,0.56512696,1142.5742,0.0,14048,0,41.58416,639,18,0,0,38,0.028169014,0,0,1,1,1,1,48,0,1,0,0,0,0,0,0,0,0,0,0,0,0,0,0,0
391598841,1200.0,0.56512696,1271.9125,0.0,14081,0,67.72909,642,18,0,0,38,0.028037382,0,0,1,1,1,1,48,0,1,0,0,0,0,0,0,0,0,0,0,0,0,0,0,0
392672701,1200.0,0.56512696,1363.4543,0.0,14122,0,41.708,644,18,0,0,38,0.027950311,0,0,1,1,1,1,48,0,1,0,0,0,0,0,0,0,0,0,0,0,0,0,0,0
393927693,1200.0,0.56512696,1111.1552,0.0,14171,0,41.705555,646,18,0,0,38,0.027863776,0,0,1,1,1,1,48,0,1,0,0,0,0,0,0,0,0,0,0,0,0,0,0,0
394603724,1200.0,0.56512696,1239.6378,0.0,14189,0,20.876017,647,19,0,0,38,0.029366305,0,0,1,1,1,1,48,0,1,0,0,0,0,0,0,0,0,0,0,0,0,0,0,0
395743789,1200.0,0.56512696,996.9512,0.0,14233,0,41.997944,649,19,0,0,38,0.029275808,0,0,1,1,1,1,48,0,1,0,0,0,0,0,0,0,0,0,0,0,0,0,0,0
396680716,1200.0,0.56512696,1487.5374,0.0,14262,0,41.874374,651,19,0,0,38,0.029185869,0,0,1,1,1,1,48,0,1,0,0,0,0,0,0,0,0,0,0,0,0,0,0,0
397754744,1200.0,0.56512696,1035.7292,0.0,14302,0,41.627396,653,19,0,0,38,0.029096479,0,0,1,1,1,1,48,0,1,0,0,0,0,0,0,0,0,0,0,0,0,0,0,0
398659694,1200.0,0.56512696,1236.0558,0.0,14329,0,41.832672,655,19,0,0,38,0.029007634,0,0,1,1,1,1,48,0,1,0,0,0,0,0,0,0,0,0,0,0,0,0,0,0
399677738,1200.0,0.56512696,1289.644,0.0,14369,0,41.98841,657,19,0,0,38,0.02891933,0,0,1,1,1,1,48,0,1,0,0,0,0,0,0,0,0,0,0,0,0,0,0,0
400771711,1200.0,0.56512696,1223.7714,0.0,14405,0,41.71948,660,19,0,0,38,0.02878788,0,0,1,1,1,1,48,0,1,0,0,0,0,0,0,0,0,0,0,0,0,0,0,0
401666363,1200.0,0.56512696,1137.1866,0.0,14436,0,67.832184,662,19,0,0,38,0.028700907,0,0,1,1,1,1,48,0,1,0,0,0,0,0,0,0,0,0,0,0,0,0,0,0
402679342,1200.0,0.56512696,1128.3883,0.0,14470,0,41.977245,664,19,0,0,38,0.028614458,0,0,1,1,1,1,48,0,1,0,0,0,0,0,0,0,0,0,0,0,0,0,0,0
403755692,1200.0,0.56512696,1382.1901,0.0,14512,0,41.914787,666,19,0,0,38,0.028528528,0,0,1,1,1,1,48,0,1,0,0,0,0,0,0,0,0,0,0,0,0,0,0,0
404657114,1200.0,0.56512696,1143.735,0.0,14543,0,41.6264,668,19,0,0,38,0.028443113,0,0,1,1,1,1,48,0,1,0,0,0,0,0,0,0,0,0,0,0,0,0,0,0
405685692,1200.0,0.56512696,1113.4594,0.0,14575,0,41.79204,670,19,0,0,38,0.02835821,0,0,1,1,1,1,48,0,1,0,0,0,0,0,0,0,0,0,0,0,0,0,0,0
406754693,1200.0,0.56512696,1291.938,0.0,14619,0,41.997982,672,19,0,0,38,0.02827381,0,0,1,1,1,1,48,0,1,0,0,0,0,0,0,0,0,0,0,0,0,0,0,0
407759694,1200.0,0.56512696,1243.0588,0.0,14650,0,41.83371,674,19,0,0,38,0.02818991,0,0,1,1,1,1,48,0,1,0,0,0,0,0,0,0,0,0,0,0,0,0,0,0
408680692,1200.0,0.56512696,1254.5199,0.0,14682,0,41.91713,676,19,0,0,38,0.028106509,0,0,1,1,1,1,48,0,1,0,0,0,0,0,0,0,0,0,0,0,0,0,0,0
409760823,1200.0,0.56512696,1033.6968,0.0,14720,0,41.625374,678,19,0,0,38,0.028023599,0,0,1,1,1,1,48,0,1,0,0,0,0,0,0,0,0,0,0,0,0,0,0,0
410674799,1200.0,0.56512696,1463.8984,0.0,14752,0,41.82567,680,19,0,0,38,0.027941177,0,0,1,1,1,1,48,0,1,0,0,0,0,0,0,0,0,0,0,0,0,0,0,0
411687714,1200.0,0.56512696,988.2716,0.0,14791,0,67.404686,683,19,0,0,38,0.027818449,0,0,1,1,1,1,48,0,1,0,0,0,0,0,0,0,0,0,0,0,0,0,0,0
412742770,1200.0,0.56512696,1258.672,0.0,14823,0,41.625374,685,19,0,0,38,0.027737226,0,0,1,1,1,1,48,0,1,0,0,0,0,0,0,0,0,0,0,0,0,0,0,0
413671692,1200.0,0.56512696,1174.8047,0.0,14858,0,41.01562,687,19,0,0,38,0.027656477,0,0,1,1,1,1,48,0,1,0,0,0,0,0,0,0,0,0,0,0,0,0,0,0
414686692,1200.0,0.56512696,1225.7742,0.0,14895,0,41.95804,689,19,0,0,38,0.027576197,0,0,1,1,1,1,48,0,1,0,0,0,0,0,0,0,0,0,0,0,0,0,0,0
415752771,1200.0,0.56512696,1423.4154,0.0,14943,0,41.68999,691,19,0,0,38,0.027496383,0,0,1,1,1,1,48,0,1,0,0,0,0,0,0,0,0,0,0,0,0,0,0,0
416676752,1200.0,0.56512696,1081.204,0.0,14971,0,41.891666,693,19,0,0,38,0.027417028,0,0,1,1,1,1,48,0,1,0,0,0,0,0,0,0,0,0,0,0,0,0,0,0
417687753,1200.0,0.56512696,1405.5422,0.0,15010,0,41.339478,695,19,0,0,38,0.02733813,0,0,1,1,1,1,48,0,1,0,0,0,0,0,0,0,0,0,0,0,0,0,0,0
418773732,1200.0,0.56512696,1126.8584,0.0,15059,0,41.625374,698,19,0,0,38,0.027220631,0,0,1,1,1,1,48,0,1,0,0,0,0,0,0,0,0,0,0,0,0,0,0,0
419763769,1200.0,0.56512696,1264.9873,0.0,15092,0,41.99958,699,19,0,0,38,0.027181689,0,0,1,1,1,1,48,0,1,0,0,0,0,0,0,0,0,0,0,0,0,0,0,0
420872694,1200.0,0.56512696,1139.9932,0.0,15135,0,41.99975,702,19,0,0,38,0.027065527,0,0,1,1,1,1,48,0,1,0,0,0,0,0,0,0,0,0,0,0,0,0,0,0
421777694,1200.0,0.56512696,1306.4846,0.0,15164,0,67.66257,705,19,0,0,38,0.026950354,0,0,1,1,1,1,48,0,1,0,0,0,0,0,0,0,0,0,0,0,0,0,0,0
422765693,1200.0,0.56512696,1367.9004,0.0,15198,0,41.8745,706,19,0,0,38,0.02691218,0,0,1,1,1,1,48,0,1,0,0,0,0,0,0,0,0,0,0,0,0,0,0,0
423849772,1200.0,0.56512696,971.1192,0.0,15236,0,41.789963,709,19,0,0,38,0.026798308,0,0,1,1,1,1,48,0,1,0,0,0,0,0,0,0,0,0,0,0,0,0,0,0
424742862,1200.0,0.56512696,1393.6741,0.0,15270,0,41.75058,710,19,0,0,38,0.026760563,0,0,1,1,1,1,48,0,1,0,0,0,0,0,0,0,0,0,0,0,0,0,0,0
425707692,1200.0,0.56512696,1084.493,0.0,15300,0,41.7495,712,19,0,0,38,0.026685392,0,0,1,1,1,1,48,0,1,0,0,0,0,0,0,0,0,0,0,0,0,0,0,0
426856007,1200.0,0.56512696,1250.9674,0.0,15341,0,41.831715,715,19,0,0,38,0.026573427,0,0,1,1,1,1,48,0,1,0,0,0,0,0,0,0,0,0,0,0,0,0,0,0
427771750,1200.0,0.56512696,1075.3795,0.0,15375,0,41.589264,717,19,0,0,38,0.026499303,0,0,1,1,1,1,48,0,1,0,0,0,0,0,0,0,0,0,0,0,0,0,0,0
428772749,1200.0,0.56512696,1397.0299,0.0,15407,0,41.9109,718,19,0,0,38,0.026462395,0,0,1,1,1,1,48,0,1,0,0,0,0,0,0,0,0,0,0,0,0,0,0,0
429926693,1200.0,0.56512696,1240.8401,0.0,15449,0,41.692226,721,19,0,0,38,0.026352288,0,0,1,1,1,1,48,0,1,0,0,0,0,0,0,0,0,0,0,0,0,0,0,0
430771694,1200.0,0.56512696,1066.0377,0.0,15476,0,41.766403,723,19,0,0,38,0.026279392,0,0,1,1,1,1,48,0,1,0,0,0,0,0,0,0,0,0,0,0,0,0,0,0
431773733,1200.0,0.56512696,1257.9681,0.0,15515,0,67.72909,725,19,0,0,38,0.026206896,0,0,1,1,1,1,48,0,1,0,0,0,0,0,0,0,0,0,0,0,0,0,0,0
432838845,1200.0,0.56512696,1235.3525,0.0,15555,0,41.708046,728,19,0,0,38,0.026098901,0,0,1,1,1,1,48,0,1,0,0,0,0,0,0,0,0,0,0,0,0,0,0,0
433757692,1200.0,0.56512696,1136.6337,0.0,15582,0,41.58416,730,19,0,0,38,0.026027398,0,0,1,1,1,1,48,0,1,0,0,0,0,0,0,0,0,0,0,0,0,0,0,0
434774693,1200.0,0.56512696,1143.7067,0.0,15619,0,41.625374,731,19,0,0,38,0.025991792,0,0,1,1,1,1,48,0,1,0,0,0,0,0,0,0,0,0,0,0,0,0,0,0
435820691,1200.0,0.56512696,1311.144,0.0,15655,0,41.781525,734,19,0,0,38,0.025885558,0,0,1,1,1,1,48,0,1,0,0,0,0,0,0,0,0,0,0,0,0,0,0,0
436773898,1200.0,0.56512696,1376.6786,0.0,15690,0,41.717533,736,19,0,0,38,0.025815217,0,0,1,1,1,1,48,0,1,0,0,0,0,0,0,0,0,0,0,0,0,0,0,0
437769692,1200.0,0.56512696,931.34326,0.0,15719,0,41.791046,737,19,0,0,38,0.02578019,0,0,1,1,1,1,48,0,1,0,0,0,0,0,0,0,0,0,0,0,0,0,0,0
438834178,1200.0,0.56512696,1291.8328,0.0,15760,0,41.832672,740,19,0,0,38,0.025675675,0,0,1,1,1,1,48,0,1,0,0,0,0,0,0,0,0,0,0,0,0,0,0,0
439768718,1200.0,0.56512696,1195.825,0.0,15791,0,41.7495,742,19,0,0,38,0.025606468,0,0,1,1,1,1,48,0,1,0,0,0,0,0,0,0,0,0,0,0,0,0,0,0
440917749,1200.0,0.56512696,1251.9921,0.0,15832,0,41.832672,745,19,0,0,38,0.025503356,0,0,1,1,1,1,48,0,1,0,0,0,0,0,0,0,0,0,0,0,0,0,0,0
441867692,1200.0,0.56512696,1087.5621,0.0,15868,0,67.66169,747,19,0,0,38,0.025435073,0,0,1,1,1,1,48,0,1,0,0,0,0,0,0,0,0,0,0,0,0,0,0,0
442848692,1200.0,0.56512696,1405.164,0.0,15901,0,41.708046,749,19,0,0,38,0.025367156,0,0,1,1,1,1,48,0,1,0,0,0,0,0,0,0,0,0,0,0,0,0,0,0
443897715,1200.0,0.56512696,1260.5703,0.0,15940,0,41.297935,751,19,0,0,38,0.025299601,0,0,1,1,1,1,48,0,1,0,0,0,0,0,0,0,0,0,0,0,0,0,0,0
444842753,1200.0,0.56512696,1056.943,0.0,15968,0,41.95804,753,19,0,0,38,0.025232404,0,0,1,1,1,1,48,0,1,0,0,0,0,0,0,0,0,0,0,0,0,0,0,0
445855692,1200.0,0.56512696,1238.2852,0.0,16007,0,41.874374,755,19,0,0,38,0.025165563,0,0,1,1,1,1,48,0,1,0,0,0,0,0,0,0,0,0,0,0,0,0,0,0
446930746,1200.0,0.56512696,1211.9137,0.0,16042,0,41.790127,757,19,0,0,38,0.025099074,0,0,1,1,1,1,48,0,1,0,0,0,0,0,0,0,0,0,0,0,0,0,0,0
447855752,1200.0,0.56512696,1202.9965,0.0,16076,0,41.58506,759,19,0,0,38,0.025032938,0,0,1,1,1,1,48,0,1,0,0,0,0,0,0,0,0,0,0,0,0,0,0,0
448854810,1200.0,0.56512696,1059.7015,0.0,16113,0,41.791046,761,19,0,0,38,0.024967149,0,0,1,1,1,1,48,0,1,0,0,0,0,0,0,0,0,0,0,0,0,0,0,0
449928693,1200.0,0.56512696,1344.246,0.0,16148,0,41.666664,763,19,0,0,38,0.024901703,0,0,1,1,1,1,48,0,1,0,0,0,0,0,0,0,0,0,0,0,0,0,0,0
450936753,1200.0,0.56512696,1191.776,0.0,16186,0,41.95691,766,19,0,0,38,0.024804177,0,0,1,1,1,1,48,0,1,0,0,0,0,0,0,0,0,0,0,0,0,0,0,0
452001692,1200.0,0.56512696,1146.0088,0.0,16218,0,67.52911,768,19,0,0,38,0.024739584,0,0,1,1,1,1,48,0,1,0,0,0,0,0,0,0,0,0,0,0,0,0,0,0
452916725,1200.0,0.56512696,1267.8572,0.0,16254,0,41.666664,770,19,0,0,38,0.024675325,0,0,1,1,1,1,48,0,1,0,0,0,0,0,0,0,0,0,0,0,0,0,0,0
453950541,1200.0,0.56512696,1222.664,0.0,16290,0,41.7495,772,19,0,0,38,0.024611399,0,0,1,1,1,1,48,0,1,0,0,0,0,0,0,0,0,0,0,0,0,0,0,0
454983773,1200.0,0.56512696,1266.2014,0.0,16324,0,41.874374,774,19,0,0,38,0.024547804,0,0,1,1,1,1,48,0,1,0,0,0,0,0,0,0,0,0,0,0,0,0,0,0
455933692,1200.0,0.56512696,1016.9154,0.0,16360,0,41.791046,776,19,0,0,38,0.024484536,0,0,1,1,1,1,48,0,1,0,0,0,0,0,0,0,0,0,0,0,0,0,0,0
456935693,1200.0,0.56512696,1334.6575,0.0,16394,0,41.708046,778,19,0,0,38,0.024421593,0,0,1,1,1,1,48,0,1,0,0,0,0,0,0,0,0,0,0,0,0,0,0,0
458003692,1200.0,0.56512696,1197.8131,0.0,16433,0,41.7495,780,19,0,0,38,0.024358975,0,0,1,1,1,1,48,0,1,0,0,0,0,0,0,0,0,0,0,0,0,0,0,0
458909692,1200.0,0.56512696,1143.5431,0.0,16459,0,41.873417,782,19,0,0,38,0.024296675,0,0,1,1,1,1,48,0,1,0,0,0,0,0,0,0,0,0,0,0,0,0,0,0
459936774,1200.0,0.56512696,1272.8464,0.0,16501,0,41.667618,784,19,0,0,38,0.024234693,0,0,1,1,1,1,48,0,1,0,0,0,0,0,0,0,0,0,0,0,0,0,0,0
460986750,1200.0,0.56512696,1283.449,0.0,16533,0,41.625374,787,19,0,0,38,0.024142312,0,0,1,1,1,1,48,0,1,0,0,0,0,0,0,0,0,0,0,0,0,0,0,0
461919693,1200.0,0.56512696,1218.0618,0.0,16569,0,67.50465,789,19,0,0,38,0.024081115,0,0,1,1,1,1,48,0,1,0,0,0,0,0,0,0,0,0,0,0,0,0,0,0
462931692,1200.0,0.56512696,1002.3029,0.0,16607,0,41.76262,791,19,0,0,38,0.024020227,0,0,1,1,1,1,48,0,1,0,0,0,0,0,0,0,0,0,0,0,0,0,0,0
464003068,1200.0,0.56512696,1369.2915,0.0,16642,0,41.917088,793,19,0,0,38,0.023959646,0,0,1,1,1,1,48,0,1,0,0,0,0,0,0,0,0,0,0,0,0,0,0,0
464915728,1200.0,0.56512696,1271.7283,0.0,16675,0,41.95804,795,19,0,0,38,0.02389937,0,0,1,1,1,1,48,0,1,0,0,0,0,0,0,0,0,0,0,0,0,0,0,0
465930692,1200.0,0.56512696,1029.7618,0.0,16706,0,41.666664,797,19,0,0,38,0.023839397,0,0,1,1,1,1,48,0,1,0,0,0,0,0,0,0,0,0,0,0,0,0,0,0
467085045,1200.0,0.56512696,1364.4489,0.0,16749,0,41.708046,799,19,0,0,38,0.023779724,0,0,1,1,1,1,48,0,1,0,0,0,0,0,0,0,0,0,0,0,0,0,0,0
467935127,1200.0,0.56512696,1150.9435,0.0,16776,0,41.708046,801,19,0,0,38,0.02372035,0,0,1,1,1,1,48,0,1,0,0,0,0,0,0,0,0,0,0,0,0,0,0,0
468934935,1200.0,0.56512696,1316.1547,0.0,16813,0,41.625374,803,19,0,0,38,0.02366127,0,0,1,1,1,1,48,0,1,0,0,0,0,0,0,0,0,0,0,0,0,0,0,0
470044925,1200.0,0.56512696,894.63214,0.0,16854,0,41.7495,805,19,0,0,38,0.023602484,0,0,1,1,1,1,48,0,1,0,0,0,0,0,0,0,0,0,0,0,0,0,0,0
470912031,1200.0,0.56512696,1475.5028,0.0,16883,0,41.872375,808,19,0,0,38,0.023514852,0,0,1,1,1,1,48,0,1,0,0,0,0,0,0,0,0,0,0,0,0,0,0,0
471932693,1200.0,0.56512696,1042.666,0.0,16921,0,67.39666,810,19,0,0,38,0.02345679,0,0,1,1,1,1,48,0,1,0,0,0,0,0,0,0,0,0,0,0,0,0,0,0
472997708,1200.0,0.56512696,1286.2822,0.0,16952,0,41.7495,812,19,0,0,38,0.023399014,0,0,1,1,1,1,48,0,1,0,0,0,0,0,0,0,0,0,0,0,0,0,0,0
473947253,1200.0,0.56512696,1225.9347,0.0,16995,0,41.6243,814,19,0,0,38,0.023341523,0,0,1,1,1,1,48,0,1,0,0,0,0,0,0,0,0,0,0,0,0,0,0,0
474936693,1200.0,0.56512696,1453.3834,0.0,17024,0,41.581814,816,19,0,0,38,0.023284314,0,0,1,1,1,1,48,0,1,0,0,0,0,0,0,0,0,0,0,0,0,0,0,0
475998692,1200.0,0.56512696,1253.0781,0.0,17064,0,41.670055,818,19,0,0,38,0.023227384,0,0,1,1,1,1,48,0,1,0,0,0,0,0,0,0,0,0,0,0,0,0,0,0
476931723,1200.0,0.56512696,1021.75616,0.0,17096,0,41.623432,820,19,0,0,38,0.023170732,0,0,1,1,1,1,48,0,1,0,0,0,0,0,0,0,0,0,0,0,0,0,0,0
477935722,1200.0,0.56512696,1465.4147,0.0,17135,0,41.586094,822,19,0,0,38,0.023114355,0,0,1,1,1,1,48,0,1,0,0,0,0,0,0,0,0,0,0,0,0,0,0,0
478996725,1200.0,0.56512696,1084.3254,0.0,17174,0,41.666664,824,19,0,0,38,0.023058252,0,0,1,1,1,1,48,0,1,0,0,0,0,0,0,0,0,0,0,0,0,0,0,0
480016694,1200.0,0.56512696,1227.8618,0.0,17203,0,41.791084,826,19,0,0,38,0.023002421,0,0,1,1,1,1,48,0,1,0,0,0,0,0,0,0,0,0,0,0,0,0,0,0
480946694,1200.0,0.56512696,1207.5848,0.0,17241,0,41.91617,829,19,0,0,38,0.02291918,0,0,1,1,1,1,48,0,1,0,0,0,0,0,0,0,0,0,0,0,0,0,0,0
481998694,1200.0,0.56512696,1209.901,0.0,17274,0,67.32674,831,19,0,0,38,0.02286402,0,0,1,1,1,1,48,0,1,0,0,0,0,0,0,0,0,0,0,0,0,0,0,0
483022794,1200.0,0.56512696,1103.689,0.0,17310,0,41.874374,833,19,0,0,38,0.022809124,0,0,1,1,1,1,48,0,1,0,0,0,0,0,0,0,0,0,0,0,0,0,0,0
483938729,1200.0,0.56512696,1012.90967,0.0,17340,0,41.708046,835,19,0,0,38,0.02275449,0,0,1,1,1,1,48,0,1,0,0,0,0,0,0,0,0,0,0,0,0,0,0,0
485016739,1200.0,0.56512696,1361.9142,0.0,17380,0,41.874374,837,19,0,0,38,0.02270012,0,0,1,1,1,1,48,0,1,0,0,0,0,0,0,0,0,0,0,0,0,0,0,0
485955749,1200.0,0.56512696,1041.791,0.0,17415,0,41.791046,839,19,0,0,38,0.022646008,0,0,1,1,1,1,48,0,1,0,0,0,0,0,0,0,0,0,0,0,0,0,0,0
487081693,1200.0,0.56512696,1225.8706,0.0,17447,0,41.791046,841,19,0,0,38,0.022592152,0,0,1,1,1,1,48,0,1,0,0,0,0,0,0,0,0,0,0,0,0,0,0,0
488007237,1200.0,0.56512696,1273.6318,0.0,17483,0,41.791046,843,19,0,0,38,0.022538552,0,0,1,1,1,1,48,0,1,0,0,0,0,0,0,0,0,0,0,0,0,0,0,0
489024696,1200.0,0.56512696,1083.3086,0.0,17515,0,41.665714,845,19,0,0,38,0.022485208,0,0,1,1,1,1,48,0,1,0,0,0,0,0,0,0,0,0,0,0,0,0,0,0
490087693,1200.0,0.56512696,1185.4708,0.0,17553,0,41.875336,847,19,0,0,38,0.022432113,0,0,1,1,1,1,48,0,1,0,0,0,0,0,0,0,0,0,0,0,0,0,0,0
491026953,1200.0,0.56512696,933.3333,0.0,17583,0,41.791046,850,19,0,0,38,0.022352941,0,0,1,1,1,1,48,0,1,0,0,0,0,0,0,0,0,0,0,0,0,0,0,0
492024788,1200.0,0.56512696,1519.3645,0.0,17621,0,67.52731,852,19,0,0,38,0.022300469,0,0,1,1,1,1,48,0,1,0,0,0,0,0,0,0,0,0,0,0,0,0,0,0
493077693,1200.0,0.56512696,959.204,0.0,17659,0,41.791046,854,19,0,0,38,0.022248244,0,0,1,1,1,1,48,0,1,0,0,0,0,0,0,0,0,0,0,0,0,0,0,0
494102706,1200.0,0.56512696,1247.2582,0.0,17690,0,41.874374,856,19,0,0,38,0.022196261,0,0,1,1,1,1,48,0,1,0,0,0,0,0,0,0,0,0,0,0,0,0,0,0
495027753,1200.0,0.56512696,1254.369,0.0,17723,0,40.7767,858,19,0,0,38,0.022144523,0,0,1,1,1,1,48,0,1,0,0,0,0,0,0,0,0,0,0,0,0,0,0,0
496089693,1200.0,0.56512696,1171.6567,0.0,17759,0,41.91617,860,19,0,0,38,0.022093024,0,0,1,1,1,1,48,0,1,0,0,0,0,0,0,0,0,0,0,0,0,0,0,0
496999832,1200.0,0.56512696,1210.908,0.0,17794,0,62.99521,862,19,0,0,38,0.022041764,0,0,1,1,1,1,48,0,1,0,0,0,0,0,0,0,0,0,0,0,0,0,0,0
498021709,1200.0,0.56512696,1015.0171,0.0,17827,0,20.917917,864,19,0,0,38,0.02199074,0,0,1,1,1,1,48,0,1,0,0,0,0,0,0,0,0,0,0,0,0,0,0,0
499101750,1200.0,0.56512696,1436.8646,0.0,17869,0,62.732136,866,19,0,0,38,0.021939954,0,0,1,1,1,1,48,0,1,0,0,0,0,0,0,0,0,0,0,0,0,0,0,0
500021723,1200.0,0.56512696,1095.7627,0.0,17898,0,41.83821,868,19,0,0,38,0.021889402,0,0,1,1,1,1,48,0,1,0,0,0,0,0,0,0,0,0,0,0,0,0,0,0
501020748,1200.0,0.56512696,1138.864,0.0,17933,0,20.814747,871,19,0,0,38,0.021814007,0,0,1,1,1,1,48,0,1,0,0,0,0,0,0,0,0,0,0,0,0,0,0,0
502079694,1200.0,0.56512696,1151.5273,0.0,17971,0,67.32919,873,19,0,0,38,0.021764033,0,0,1,1,1,1,48,0,1,0,0,0,0,0,0,0,0,0,0,0,0,0,0,0
503012038,1200.0,0.56512696,1269.7302,0.0,18001,0,62.93706,875,19,0,0,38,0.021714285,0,0,1,1,1,1,48,0,1,0,0,0,0,0,0,0,0,0,0,0,0,0,0,0
504021727,1200.0,0.56512696,1164.3564,0.0,18039,0,20.79208,877,19,0,0,38,0.021664767,0,0,1,1,1,1,48,0,1,0,0,0,0,0,0,0,0,0,0,0,0,0,0,0
505102692,1200.0,0.56512696,944.36395,0.0,18070,0,41.706924,879,19,0,0,38,0.021615472,0,0,1,1,1,1,48,0,1,0,0,0,0,0,0,0,0,0,0,0,0,0,0,0
506008784,1200.0,0.56512696,1488.8065,0.0,18107,0,62.991814,881,19,0,0,38,0.021566402,0,0,1,1,1,1,48,0,1,0,0,0,0,0,0,0,0,0,0,0,0,0,0,0
507029252,1200.0,0.56512696,964.9653,0.0,18139,0,41.99849,883,19,0,0,38,0.021517554,0,0,1,1,1,1,48,0,1,0,0,0,0,0,0,0,0,0,0,0,0,0,0,0
508095693,1200.0,0.56512696,1205.1096,0.0,18178,0,20.915127,885,19,0,0,38,0.021468926,0,0,1,1,1,1,48,0,1,0,0,0,0,0,0,0,0,0,0,0,0,0,0,0
509015697,1200.0,0.56512696,1181.8738,0.0,18212,0,62.886868,887,19,0,0,38,0.021420518,0,0,1,1,1,1,48,0,1,0,0,0,0,0,0,0,0,0,0,0,0,0,0,0
510109896,1200.0,0.34105256,1319.4686,0.0,18270,0,41.79312,889,19,0,0,38,0.021372328,0,0,1,1,1,1,48,0,1,0,0,0,0,0,0,0,0,0,0,0,0,0,0,0
