timestamp,timestamp_sample,output_tracking_error[0],output_tracking_error[1],output_tracking_error[2],control_mode_flags,filter_fault_flags,pos_horiz_accuracy,pos_vert_accuracy,mag_test_ratio,vel_test_ratio,pos_test_ratio,hgt_test_ratio,tas_test_ratio,hagl_test_ratio,beta_test_ratio,time_slip,accel_device_id,gyro_device_id,baro_device_id,mag_device_id,gps_check_fail_flags,innovation_check_flags,solution_status_flags,reset_count_vel_ne,reset_count_vel_d,reset_count_pos_ne,reset_count_pod_d,reset_count_quat,pre_flt_fail_innov_heading,pre_flt_fail_innov_vel_horiz,pre_flt_fail_innov_vel_vert,pre_flt_fail_innov_height,pre_flt_fail_mag_field_disturbed,health_flags,timeout_flags
217451538,217352205,0.00024138537,0.00093290507,0.0021663692,67109399,0,0.36816782,0.3966718,0.06306865,0.020089988,0.008430827,0.016424337,0.0,0.0,0.0,0.0,2490378,2490378,4028193,396809,0,0,895,2,1,2,0,3,0,0,0,0,0,0,0
217461401,217362083,0.00023885653,0.0009636397,0.0020661913,67109399,0,0.36900127,0.39734846,0.06306865,0.020089988,0.008430827,0.016424337,0.0,0.0,0.0,0.0,2490378,2490378,4028193,396809,0,0,895,2,1,2,0,3,0,0,0,0,0,0,0
217659607,217559640,0.0005425765,0.0035206915,0.007368496,67109399,0,0.3519876,0.3917832,0.076158874,0.008842171,0.007095813,0.01737941,0.0,0.0,0.0,0.0,2490378,2490378,4028193,396809,0,0,895,2,1,2,0,3,0,0,0,0,0,0,0
217856503,217757197,0.0006297711,0.0023254221,0.005064537,67109399,0,0.36774483,0.39497048,0.08137922,0.008842171,0.007095813,0.010414905,0.0,0.0,0.0,0.0,2490378,2490378,4028193,396809,0,0,895,2,1,2,0,3,0,0,0,0,0,0,0
218054186,217954754,0.0005135516,0.0017645168,0.0024921345,67109399,0,0.36712137,0.39634866,0.07215765,0.015478387,0.0067496547,0.018978577,0.0,0.0,0.0,0.0,2490378,2490378,4028193,396809,0,0,895,2,1,2,0,3,0,0,0,0,0,0,0
218261783,218162189,0.0005695972,0.002008556,0.0045454344,67109399,0,0.350887,0.39150828,0.075892754,0.019273689,0.007591279,0.016679872,0.0,0.0,0.0,0.0,2490378,2490378,4028193,396809,0,0,895,2,1,2,0,3,0,0,0,0,0,0,0
218459224,218359746,0.0005617985,0.0010758972,0.0026263376,67109399,0,0.36673358,0.39727756,0.077906966,0.019273689,0.007591279,0.014732818,0.0,0.0,0.0,0.0,2490378,2490378,4028193,396809,0,0,895,2,1,2,0,3,0,0,0,0,0,0,0
218656551,218557303,0.0005971823,0.0021293752,0.001715978,67109399,0,0.3659948,0.396135,0.066996105,0.013096286,0.0058600646,0.010709875,0.0,0.0,0.0,0.0,2490378,2490378,4028193,396809,0,0,895,2,1,2,0,3,0,0,0,0,0,0,0
218854069,218754860,0.0004464848,0.0021927424,0.003108775,67109399,0,0.36533827,0.39500958,0.07950127,0.0251655,0.0073433546,0.01587488,0.0,0.0,0.0,0.0,2490378,2490378,4028193,396809,0,0,895,2,1,2,0,3,0,0,0,0,0,0,0
219061822,218962295,0.00050776603,0.0061978856,0.008972591,67109399,0,0.34899732,0.39269197,0.038680356,0.010135439,0.0072275647,0.016683804,0.0,0.0,0.0,0.0,2490378,2490378,4028193,396809,0,0,895,2,1,2,0,3,0,0,0,0,0,0,0
219259330,219159853,0.0006508229,0.0032952123,0.004381677,1049239,0,0.36489305,0.39600888,0.06793525,0.010135439,0.0072275647,0.018760407,0.0,0.0,0.0,0.0,2490378,2490378,4028193,396809,0,0,895,2,1,2,0,3,0,0,0,0,0,0,0
219456640,219357410,0.00043754917,0.0017100013,0.0022585394,1049239,0,0.36421272,0.3949094,0.06403581,0.018784575,0.0065578944,1.1754944e-38,0.0,0.0,0.0,0.0,2490378,2490378,4028193,396809,0,0,895,2,1,2,0,3,0,0,0,0,0,0,0
219654192,219554967,0.00037037552,0.0010072517,0.000965352,1049239,0,0.36354285,0.39635032,0.040078126,0.014085897,0.006987878,0.009945981,0.0,0.0,0.0,0.0,2490378,2490378,4028193,396809,0,0,895,2,1,2,0,3,0,0,0,0,0,0,0
219851806,219752525,0.0003801946,0.0028523463,0.005984355,1049239,0,0.3629014,0.39528412,0.057145454,0.048153024,0.005367346,0.01237227,0.0,0.0,0.0,0.0,2490378,2490378,4028193,396809,0,0,895,2,1,2,0,3,0,0,0,0,0,0,0
220059356,219959960,0.00041362797,0.0031486654,0.009010456,1049239,0,0.36304134,0.39489877,0.052920505,0.024030173,0.0057647247,0.01951493,0.0,0.0,0.0,0.0,2490378,2490378,4028193,396809,0,0,895,2,1,2,0,3,0,0,0,0,0,0,0
220256744,220157517,0.00036344858,0.0018730734,0.005221517,1049239,0,0.36234936,0.39636424,0.05394399,0.03342629,0.004014206,0.017709779,0.0,0.0,0.0,0.0,2490378,2490378,4028193,396809,0,0,895,2,1,2,0,3,0,0,0,0,0,0,0
220454354,220355074,0.00020846337,0.002871376,0.006484278,1049239,0,0.36168772,0.39531222,0.018533811,0.03549554,0.0056110127,0.019703269,0.0,0.0,0.0,0.0,2490378,2490378,4028193,396809,0,0,895,2,1,2,0,3,0,0,0,0,0,0,0
220662063,220562510,0.00025393002,0.005660268,0.0070358347,1049239,0,0.3452011,0.39055243,0.02860864,0.02207005,0.0062517966,0.015142125,0.0,0.0,0.0,0.0,2490378,2490378,4028193,396809,0,0,895,2,1,2,0,3,0,0,0,0,0,0,0
220860046,220760067,0.00022058669,0.0038452577,0.005557002,1049239,0,0.34459013,0.38953832,0.025183158,0.009117925,0.0054317303,0.0031417077,0.0,0.0,0.0,0.0,2490378,2490378,4028193,396809,0,0,895,2,1,2,0,3,0,0,0,0,0,0,0
221056997,220957625,0.0002656715,0.0035687631,0.010236673,1049239,0,0.36055484,0.3929033,0.036133096,0.009117925,0.0054317303,0.030000798,0.0,0.0,0.0,0.0,2490378,2490378,4028193,396809,0,0,895,2,1,2,0,3,0,0,0,0,0,0,0
221254410,221155182,0.00023235253,0.0043275845,0.009116163,1049239,0,0.3598773,0.39442804,0.03564419,0.017549712,0.0072148363,0.016349219,0.0,0.0,0.0,0.0,2490378,2490378,4028193,396809,0,0,895,2,1,2,0,3,0,0,0,0,0,0,0
221452025,221352740,0.0002844466,0.0050813262,0.011875933,1049239,0,0.3592281,0.3934256,0.03699367,0.016404908,0.007646102,0.0038146174,0.0,0.0,0.0,0.0,2490378,2490378,4028193,396809,0,0,895,2,1,2,0,3,0,0,0,0,0,0,0
221660068,221560175,0.0004178858,0.0054704887,0.009639032,1049239,0,0.3427607,0.39119372,0.053112965,0.0136142755,0.0080364635,0.014716507,0.0,0.0,0.0,0.0,2490378,2490378,4028193,396809,0,0,895,2,1,2,0,3,0,0,0,0,0,0,0
221857046,221757732,0.0005239949,0.0034633502,0.0076925177,1049239,0,0.35876906,0.39461774,0.05864969,0.0136142755,0.0080364635,0.029970022,0.0,0.0,0.0,0.0,2490378,2490378,4028193,396809,0,0,895,2,1,2,0,3,0,0,0,0,0,0,0
222054545,221955290,0.00043827502,0.0030061048,0.009224138,1049239,0,0.3581104,0.39362404,0.060703397,0.045491133,0.005360647,0.023993231,0.0,0.0,0.0,0.0,2490378,2490378,4028193,396809,0,0,895,2,1,2,0,3,0,0,0,0,0,0,0
222262249,222162725,0.0005876997,0.0060480824,0.008456971,1049239,0,0.34140489,0.3913586,0.073476605,0.03703134,0.006217687,0.017504228,0.0,0.0,0.0,0.0,2490378,2490378,4028193,396809,0,0,895,2,1,2,0,3,0,0,0,0,0,0,0
222459557,222360283,0.0007379204,0.0017518874,0.0045604524,1049239,0,0.35741478,0.39480224,0.08477054,0.03703134,0.006217687,0.013060733,0.0,0.0,0.0,0.0,2490378,2490378,4028193,396809,0,0,895,2,1,2,0,3,0,0,0,0,0,0,0
222657180,222557841,0.00070744596,0.0034046732,0.008782103,1049239,0,0.35660014,0.39378956,0.1043352,0.026552515,0.0069144946,0.0011971405,0.0,0.0,0.0,0.0,2490378,2490378,4028193,396809,0,0,895,2,1,2,0,3,0,0,0,0,0,0,0
222854624,222755398,0.00092799467,0.0028386642,0.0053151282,1049239,0,0.355896,0.3952969,0.11297321,0.024951177,0.0072366814,0.029254077,0.0,0.0,0.0,0.0,2490378,2490378,4028193,396809,0,0,895,2,1,2,0,3,0,0,0,0,0,0,0
223052247,222952956,0.0012082664,0.0020490559,0.01316623,1049239,0,0.35529047,0.39429367,0.139146,0.020394808,0.006116855,0.054929353,0.0,0.0,0.0,0.0,2490378,2490378,4028193,396809,0,0,895,2,1,2,0,3,0,0,0,0,0,0,0
223259755,223160392,0.0010168874,0.005764291,0.02731377,1049239,0,0.35556507,0.39399096,0.15171595,0.023520924,0.0059305523,0.0404104,0.0,0.0,0.0,0.0,2490378,2490378,4028193,396809,0,0,895,2,1,2,0,3,0,0,0,0,0,0,0
223457223,223357949,0.0013175731,0.00536071,0.029131306,1049239,0,0.35494167,0.39301425,0.16298969,0.042659465,0.007402101,0.027305596,0.0,0.0,0.0,0.0,2490378,2490378,4028193,396809,0,0,895,2,1,2,0,3,0,0,0,0,0,0,0
223654808,223555507,0.0014739509,0.0008861759,0.009684351,1049239,0,0.35432965,0.394542,0.1610372,0.07228099,0.006265551,0.06623866,0.0,0.0,0.0,0.0,2490378,2490378,4028193,396809,0,0,895,2,1,2,0,3,0,0,0,0,0,0,0
223852338,223753065,0.0011206346,0.0060731857,0.009006151,1049239,0,0.35371786,0.39357233,0.15690413,0.06173825,0.008226675,1.1754944e-38,0.0,0.0,0.0,0.0,2490378,2490378,4028193,396809,0,0,895,2,1,2,0,3,0,0,0,0,0,0,0
224059819,223960501,0.0013019667,0.0066843345,0.013598361,1049239,0,0.35391337,0.39328396,0.15990348,0.058497883,0.0090325,0.026101049,0.0,0.0,0.0,0.0,2490378,2490378,4028193,396809,0,0,895,2,1,2,0,3,0,0,0,0,0,0,0
224257569,224158061,0.0014300521,0.0055755763,0.015003012,1049239,0,0.33657363,0.39042294,0.1642776,0.034559257,0.0076499726,0.017895427,0.0,0.0,0.0,0.0,2490378,2490378,4028193,396809,0,0,831,2,1,2,0,3,0,0,0,0,0,0,0
224454899,224355618,0.0011672517,0.002820691,0.014056228,1049239,0,0.35270825,0.39388078,0.16851819,0.034559257,0.0076499726,0.0057272646,0.0,0.0,0.0,0.0,2490378,2490378,4028193,396809,0,0,831,2,1,2,0,3,0,0,0,0,0,0,0
224662275,224563052,0.0013255015,0.006039368,0.01132003,1049239,0,0.3528867,0.3936002,0.17132337,0.059834912,0.008952338,0.009649578,0.0,0.0,0.0,0.0,2490378,2490378,4028193,396809,0,0,831,2,1,2,0,3,0,0,0,0,0,0,0
224859923,224760610,0.001453184,0.005282286,0.009124685,1049239,0,0.35225534,0.3951453,0.17533383,0.08211394,0.0075768535,0.01829512,0.0,0.0,0.0,0.0,2490378,2490378,4028193,396809,0,0,831,2,1,2,0,3,0,0,0,0,0,0,0
225057388,224958168,0.0011271976,0.006394372,0.013968641,1049239,0,0.3515809,0.3941722,0.15428978,0.07377565,0.009734292,0.006425222,0.0,0.0,0.0,0.0,2490378,2490378,4028193,396809,0,0,831,2,1,2,0,3,0,0,0,0,0,0,0
225254990,225155726,0.00127093,0.0016970888,0.004110087,1049239,0,0.35097536,0.39322707,0.1636548,0.007596656,0.008753354,0.016581887,0.0,0.0,0.0,0.0,2490378,2490378,4028193,396809,0,0,831,2,1,2,0,3,0,0,0,0,0,0,0
225452584,225353284,0.0014755976,0.0019942697,0.012069672,1049239,0,0.35039207,0.39478838,0.17194259,0.029474052,0.007923106,0.0022914694,0.0,0.0,0.0,0.0,2490378,2490378,4028193,396809,0,0,831,2,1,2,0,3,0,0,0,0,0,0,0
225660231,225560720,0.0011129364,0.009318189,0.020655744,1049239,0,0.33391434,0.3901208,0.1531709,0.04758182,0.007802971,0.008672432,0.0,0.0,0.0,0.0,2490378,2490378,4028193,396809,0,0,831,2,1,2,0,3,0,0,0,0,0,0,0
225857498,225758278,0.0012221162,0.003815045,0.012839515,1049239,0,0.350148,0.3935918,0.1578922,0.04758182,0.007802971,1.1754944e-38,0.0,0.0,0.0,0.0,2490378,2490378,4028193,396809,0,0,831,2,1,2,0,3,0,0,0,0,0,0,0
226055170,225955836,0.001320655,0.0072730193,0.012417701,1049239,0,0.3495432,0.3926596,0.149445,0.09878804,0.009050519,0.062177185,0.0,0.0,0.0,0.0,2490378,2490378,4028193,396809,0,0,831,2,1,2,0,3,0,0,0,0,0,0,0
226262544,226163272,0.00094227755,0.006842512,0.012688594,1049239,0,0.34984335,0.39490345,0.14848278,0.067886494,0.008174682,0.010753541,0.0,0.0,0.0,0.0,2490378,2490378,4028193,396809,0,0,831,2,1,2,0,3,0,0,0,0,0,0,0
226460055,226360830,0.0006630421,0.0059160898,0.011721898,9437847,0,0.34899527,0.39396265,0.0051691886,0.03458348,0.009251792,1.1754944e-38,0.0,0.0,0.0,0.0,2490378,2490378,4028193,396809,0,0,831,2,1,2,0,4,0,0,0,0,0,0,0
226657705,226558388,0.0015848182,0.0040938584,0.00871279,9437847,0,0.3481008,0.39302278,0.013146898,0.014172212,0.007880045,1.1754944e-38,0.0,0.0,0.0,0.0,2490378,2490378,4028193,396809,0,0,831,2,1,2,0,4,0,0,0,0,0,0,0
226855497,226755946,0.00069070846,0.009767658,0.021205166,9437847,0,0.33141917,0.3901864,0.0012249179,0.02755776,0.010809458,1.1754944e-38,0.0,0.0,0.0,0.0,2490378,2490378,4028193,396809,0,0,831,2,1,2,0,4,0,0,0,0,0,0,0
227052732,226953504,0.00010733535,0.005393165,0.012870247,9437847,0,0.3462649,0.39367932,0.0020438945,0.02755776,0.010809458,0.0075207157,0.0,0.0,0.0,0.0,2490378,2490378,4028193,396809,0,0,831,2,1,2,0,4,0,0,0,0,0,0,0
227260171,227160940,0.000954707,0.009956633,0.01762939,9437847,0,0.3460674,0.39342782,0.009263631,0.09063032,0.011430418,1.1754944e-38,0.0,0.0,0.0,0.0,2490378,2490378,4028193,396809,0,0,831,2,1,2,0,4,0,0,0,0,0,0,0
227457721,227358498,0.000264977,0.006250094,0.013393423,9437847,0,0.34506154,0.39498854,0.0004445109,0.07732653,0.006461223,1.1754944e-38,0.0,0.0,0.0,0.0,2490378,2490378,4028193,396809,0,0,831,2,1,2,0,4,0,0,0,0,0,0,0
227655300,227556057,0.00015523162,0.0041498686,0.009087445,9437847,0,0.34411818,0.39405775,0.0088014975,0.048407607,0.006058869,0.014824966,0.0,0.0,0.0,0.0,2490378,2490378,4028193,396809,0,0,831,2,1,2,0,4,0,0,0,0,0,0,0
227852859,227753615,0.00065897586,0.0026448586,0.004097418,9437847,0,0.34322923,0.39313585,0.005862799,0.032741465,0.0076004276,0.00028857597,0.0,0.0,0.0,0.0,2490378,2490378,4028193,396809,0,0,831,2,1,2,0,4,0,0,0,0,0,0,0
228060776,227961051,0.0012138259,0.023124313,0.042257976,9437847,0,0.32805726,0.38852748,0.0062025054,0.05617699,0.011246649,1.1754944e-38,0.0,0.0,0.0,0.0,2490378,2490378,4028193,396809,0,0,831,2,1,2,0,4,0,0,0,0,0,0,0
228258133,228158610,0.0014380536,0.026238956,0.042217206,9437847,0,0.32731757,0.39005247,0.0129989665,0.11427484,0.012825096,1.1754944e-38,0.0,0.0,0.0,0.0,2490378,2490378,4028193,396809,0,0,831,2,1,2,0,4,0,0,0,0,0,0,0
228455446,228356167,0.00086822204,0.011922658,0.020273468,9437847,0,0.34183747,0.3935096,0.00564176,0.11427484,0.012825096,1.1754944e-38,0.0,0.0,0.0,0.0,2490378,2490378,4028193,396809,0,0,831,2,1,2,0,4,0,0,0,0,0,0,0
228652954,228553726,0.00025919633,0.006170432,0.015044201,9437847,0,0.34105128,0.3950231,0.0066284393,0.04508446,0.009703349,0.051080752,0.0,0.0,0.0,0.0,2490378,2490378,4028193,396809,0,0,831,2,1,2,0,4,0,0,0,0,0,0,0
228860881,228761162,0.0004807141,0.00584463,0.019003939,9437847,0,0.32583812,0.39027098,0.01205166,0.020559736,0.012946228,1.1754944e-38,0.0,0.0,0.0,0.0,2490378,2490378,4028193,396809,0,0,831,2,1,2,0,4,0,0,0,0,0,0,0
229057938,228958720,0.00053976226,0.004500614,0.016972791,9437847,0,0.34090164,0.39614552,0.005237133,0.020559736,0.012946228,0.009600423,0.0,0.0,0.0,0.0,2490378,2490378,4028193,396809,0,0,831,2,1,2,0,4,0,0,0,0,0,0,0
229255577,229156279,0.00041977217,0.0035325328,0.0067698746,9437847,0,0.3404695,0.39755693,0.0065109665,0.018373055,0.010975647,1.1754944e-38,0.0,0.0,0.0,0.0,2490378,2490378,4028193,396809,0,0,831,2,1,2,0,4,0,0,0,0,0,0,0
229453430,229353837,0.0004706218,0.015638,0.018212283,9437847,0,0.32424185,0.39190874,0.010235467,0.075011685,0.0115833115,0.011209965,0.0,0.0,0.0,0.0,2490378,2490378,4028193,396809,0,0,831,2,1,2,0,4,0,0,0,0,0,0,0
229661005,229561274,0.00056549115,0.02085891,0.028911455,9437847,0,0.3245204,0.3914376,0.00201499,0.07355492,0.013007879,0.030447965,0.0,0.0,0.0,0.0,2490378,2490378,4028193,396809,0,0,831,2,1,2,0,4,0,0,0,0,0,0,0
229858112,229758832,0.00039683477,0.009797817,0.016253904,9437847,0,0.3403744,0.39728463,0.0049389633,0.07355492,0.013007879,0.0092521,0.0,0.0,0.0,0.0,2490378,2490378,4028193,396809,0,0,831,2,1,2,0,4,0,0,0,0,0,0,0
230055673,229956390,0.00038104242,0.007150371,0.012302047,9437847,0,0.34002987,0.39608753,0.005529479,0.06594255,0.017138291,1.1754944e-38,0.0,0.0,0.0,0.0,2490378,2490378,4028193,396809,0,0,831,2,1,2,0,4,0,0,0,0,0,0,0
230253198,230153949,0.00016382517,0.007683253,0.016502565,9437847,0,0.3397047,0.3974641,0.0020954225,0.04433206,0.01758541,0.003680112,0.0,0.0,0.0,0.0,2490378,2490378,4028193,396809,0,0,831,2,1,2,0,4,0,0,0,0,0,0,0
230460639,230361385,0.00028790624,0.008947205,0.018896693,9437847,0,0.34026095,0.3969792,0.0034223571,0.09459677,0.017078694,0.0004744956,0.0,0.0,0.0,0.0,2490378,2490378,4028193,396809,0,0,831,2,1,2,0,4,0,0,0,0,0,0,0
230658448,230558944,0.0002547384,0.01195548,0.023038423,9437847,0,0.3231948,0.3914157,0.0020587314,0.053858086,0.016869357,1.1754944e-38,0.0,0.0,0.0,0.0,2490378,2490378,4028193,396809,0,0,831,2,1,2,0,4,0,0,0,0,0,0,0
230855732,230756503,0.00018611345,0.0051654605,0.0093114935,9437847,0,0.33961284,0.39725724,0.00060790434,0.053858086,0.016869357,1.1754944e-38,0.0,0.0,0.0,0.0,2490378,2490378,4028193,396809,0,0,831,2,1,2,0,4,0,0,0,0,0,0,0
231053335,230954061,0.00015429805,0.00883026,0.013400618,9437847,0,0.3392846,0.3961037,0.008506136,0.053862214,0.017864954,1.1754944e-38,0.0,0.0,0.0,0.0,2490378,2490378,4028193,396809,0,0,831,2,1,2,0,4,0,0,0,0,0,0,0
231260890,231161498,0.00016909726,0.004966717,0.0066331723,9437847,0,0.33985478,0.39563712,0.0035014192,0.05456323,0.015622769,1.1754944e-38,0.0,0.0,0.0,0.0,2490378,2490378,4028193,396809,0,0,831,2,1,2,0,4,0,0,0,0,0,0,0
231458285,231359056,0.00027428314,0.0107887415,0.016448494,9437847,0,0.3394782,0.3970185,0.008189264,0.09313102,0.013671802,1.1754944e-38,0.0,0.0,0.0,0.0,2490378,2490378,4028193,396809,0,0,831,2,1,2,0,4,0,0,0,0,0,0,0
231656133,231556615,0.00020426621,0.004644075,0.007318017,9437847,0,0.32216585,0.39145836,0.0022572982,0.055517428,0.016271025,1.1754944e-38,0.0,0.0,0.0,0.0,2490378,2490378,4028193,396809,0,0,831,2,1,2,0,4,0,0,0,0,0,0,0
231853396,231754174,0.00015266403,0.0016862157,0.007510539,9437847,0,0.33876103,0.3972788,0.00025461224,0.055517428,0.016271025,1.1754944e-38,0.0,0.0,0.0,0.0,2490378,2490378,4028193,396809,0,0,831,2,1,2,0,4,0,0,0,0,0,0,0
232061146,231961610,0.00061046344,0.020396095,0.030591918,9437847,0,0.3222635,0.3923314,0.004680299,0.073216066,0.0154736,1.1754944e-38,0.0,0.0,0.0,0.0,2490378,2490378,4028193,396809,0,0,831,2,1,2,0,4,0,0,0,0,0,0,0
232258452,232159169,0.00020488743,0.008628377,0.016365265,9437847,0,0.33892447,0.39561206,0.00358605,0.073216066,0.0154736,1.1754944e-38,0.0,0.0,0.0,0.0,2490378,2490378,4028193,396809,0,0,831,2,1,2,0,4,0,0,0,0,0,0,0
232456067,232356728,7.852389e-05,0.004941887,0.011212488,9437847,0,0.3384725,0.39701536,0.0017540269,0.03799333,0.01752136,1.1754944e-38,0.0,0.0,0.0,0.0,2490378,2490378,4028193,396809,0,0,831,2,1,2,0,4,0,0,0,0,0,0,0
232653533,232554287,0.00011152653,0.0044562146,0.00903824,9437847,0,0.33796027,0.3958579,0.00056719116,0.046865538,0.015825927,1.1754944e-38,0.0,0.0,0.0,0.0,2490378,2490378,4028193,396809,0,0,831,2,1,2,0,4,0,0,0,0,0,0,0
232851148,232751845,0.00021069119,0.00556533,0.011117767,9437847,0,0.33744776,0.3972343,0.009796289,0.06309499,0.015587161,1.1754944e-38,0.0,0.0,0.0,0.0,2490378,2490378,4028193,396809,0,0,831,2,1,2,0,4,0,0,0,0,0,0,0
233058556,232959282,0.00015190085,0.0059076007,0.011460368,9437847,0,0.3378113,0.3967605,0.004257856,0.05761528,0.013397535,1.1754944e-38,0.0,0.0,0.0,0.0,2490378,2490378,4028193,396809,0,0,831,2,1,2,0,4,0,0,0,0,0,0,0
233256063,233156841,0.00023382186,0.008148889,0.015575122,9437847,0,0.33731934,0.3956382,0.0070091896,0.0987942,0.013787427,1.1754944e-38,0.0,0.0,0.0,0.0,2490378,2490378,4028193,396809,0,0,831,2,1,2,0,4,0,0,0,0,0,0,0
233453690,233354400,0.00019937159,0.005190721,0.016638272,8389271,0,0.33685133,0.39453074,0.000869575,0.06772651,0.014002555,0.03132758,0.0,0.0,0.0,0.0,2490378,2490378,4028193,396809,0,0,831,2,1,2,0,4,0,0,0,0,0,0,0
233661206,233561837,0.00011837199,0.006115657,0.028216569,8389271,0,0.3372213,0.3966361,0.0057646963,0.049804024,0.015025611,0.02057542,0.0,0.0,0.0,0.0,2490378,2490378,4028193,396809,0,0,831,2,1,2,0,4,0,0,0,0,0,0,0
233858618,233759395,0.00020996902,0.010088176,0.045595136,8389271,0,0.33673936,0.39554214,0.002993417,0.07745143,0.013763284,0.040321525,0.0,0.0,0.0,0.0,2490378,2490378,4028193,396809,0,0,831,2,1,2,0,4,0,0,0,0,0,0,0
234056237,233956954,0.000153688,0.007253728,0.037827473,8389271,0,0.33629987,0.3944611,0.0014716261,0.05809313,0.013792594,0.020684985,0.0,0.0,0.0,0.0,2490378,2490378,4028193,396809,0,0,831,2,1,2,0,4,0,0,0,0,0,0,0
234253742,234154513,0.00011907105,0.009720293,0.038522776,8389271,0,0.33588174,0.39590117,0.009686348,0.029787844,0.015554222,0.028971285,0.0,0.0,0.0,0.0,2490378,2490378,4028193,396809,0,0,831,2,1,2,0,4,0,0,0,0,0,0,0
234461170,234361950,6.676714e-05,0.008850652,0.032064676,8389271,0,0.33635098,0.39548647,0.0048942906,0.035164855,0.012530314,0.030153818,0.0,0.0,0.0,0.0,2490378,2490378,4028193,396809,0,0,831,2,1,2,0,4,0,0,0,0,0,0,0
234659069,234559509,0.00027880233,0.01634465,0.05415645,8389271,0,0.31900212,0.3900239,0.0025783575,0.034365635,0.014548111,0.035862003,0.0,0.0,0.0,0.0,2490378,2490378,4028193,396809,0,0,831,2,1,2,0,4,0,0,0,0,0,0,0
234856429,234757069,6.240772e-05,0.009006716,0.029261185,8389271,0,0.33538088,0.39583528,0.0068806927,0.034365635,0.014548111,0.026148908,0.0,0.0,0.0,0.0,2490378,2490378,4028193,396809,0,0,831,2,1,2,0,4,0,0,0,0,0,0,0
235054158,234954627,0.00029980863,0.019847961,0.04880124,8389271,0,0.31830078,0.3904002,0.006274212,0.06612739,0.016069451,0.07523333,0.0,0.0,0.0,0.0,2490378,2490378,4028193,396809,0,0,831,2,1,2,0,4,0,0,0,0,0,0,0
235261704,235162064,0.00061569654,0.017296895,0.04196913,8389271,0,0.3186737,0.39002648,0.05393434,0.084820375,0.014244575,0.024050089,0.0,0.0,0.0,0.0,2490378,2490378,4028193,396809,0,0,831,2,1,2,0,4,0,0,0,0,0,0,0
235458896,235359623,0.0012977065,0.008073811,0.017736688,8389271,0,0.3351822,0.39587012,0.062561095,0.084820375,0.014244575,0.015613015,0.0,0.0,0.0,0.0,2490378,2490378,4028193,396809,0,0,831,2,1,2,0,4,0,0,0,0,0,0,0
235656453,235557182,0.0010242077,0.008251472,0.022105342,8389271,0,0.3347954,0.39482066,0.07986368,0.0682912,0.013013065,0.015431458,0.0,0.0,0.0,0.0,2490378,2490378,4028193,396809,0,0,831,2,1,2,0,4,0,0,0,0,0,0,0
235854014,235754741,0.00128053,0.013892709,0.031356085,8389271,0,0.33445588,0.3962803,0.050166354,0.14950953,0.012993596,0.052862465,0.0,0.0,0.0,0.0,2490378,2490378,4028193,396809,0,0,831,2,1,2,0,4,0,0,0,0,0,0,0
236061724,235962179,0.0005983736,0.012193975,0.028530704,8389271,0,0.31787738,0.3914799,0.03606705,0.022502936,0.010761402,0.0054655266,0.0,0.0,0.0,0.0,2490378,2490378,4028193,396809,0,0,831,2,1,2,0,4,0,0,0,0,0,0,0
236258997,236159738,0.0002296398,0.006332355,0.016047038,8389271,0,0.33468252,0.39485446,0.016124584,0.022502936,0.010761402,0.052800495,0.0,0.0,0.0,0.0,2490378,2490378,4028193,396809,0,0,831,2,1,2,0,4,0,0,0,0,0,0,0
236456579,236357297,0.0001297869,0.0064729867,0.021648485,8389271,0,0.3342531,0.39631578,0.011887019,0.026542038,0.008072911,0.007003703,0.0,0.0,0.0,0.0,2490378,2490378,4028193,396809,0,0,831,2,1,2,0,4,0,0,0,0,0,0,0
236654130,236554856,0.00019622817,0.008402904,0.017376697,8389271,0,0.33383337,0.39525944,0.024749545,0.04756748,0.010192879,0.006757472,0.0,0.0,0.0,0.0,2490378,2490378,4028193,396809,0,0,831,2,1,2,0,4,0,0,0,0,0,0,0
236851717,236752417,0.00031333938,0.010222613,0.021463936,8389271,0,0.33343476,0.39421305,0.021591045,0.05060853,0.011496548,0.0073762718,0.0,0.0,0.0,0.0,2490378,2490378,4028193,396809,0,0,831,2,1,2,0,4,0,0,0,0,0,0,0
237059559,236959852,0.000316764,0.014787342,0.04073977,8389271,0,0.31691238,0.38951087,0.019430771,0.052370295,0.009629928,0.0011367586,0.0,0.0,0.0,0.0,2490378,2490378,4028193,396809,0,0,831,2,1,2,0,4,0,0,0,0,0,0,0
237256663,237157412,0.0003364651,0.015919495,0.050906736,8389271,0,0.31664628,0.39096284,0.016009986,0.046551824,0.010803187,0.056383297,0.0,0.0,0.0,0.0,2490378,2490378,4028193,396809,0,0,831,2,1,2,0,4,0,0,0,0,0,0,0
237454512,237354971,0.00035653962,0.016633162,0.058177356,8389271,0,0.31632006,0.3899892,0.02873897,0.04039297,0.0072830427,0.030386413,0.0,0.0,0.0,0.0,2490378,2490378,4028193,396809,0,0,831,2,1,2,0,4,0,0,0,0,0,0,0
237661738,237562408,0.0004475916,0.009520835,0.039648645,8389271,0,0.33381906,0.39404947,0.037336387,0.04039297,0.0072830427,0.03700973,0.0,0.0,0.0,0.0,2490378,2490378,4028193,396809,0,0,831,2,1,2,0,4,0,0,0,0,0,0,0
237859195,237759968,0.000611476,0.0089684585,0.034808274,8389271,0,0.33331576,0.39554778,0.043488186,0.04459731,0.007829162,0.024796272,0.0,0.0,0.0,0.0,2490378,2490378,4028193,396809,0,0,831,2,1,2,0,4,0,0,0,0,0,0,0
238056750,237957527,0.0004601624,0.011802506,0.046590056,8389271,0,0.33283624,0.394515,0.043416653,0.060419224,0.009922652,0.034311168,0.0,0.0,0.0,0.0,2490378,2490378,4028193,396809,0,0,831,2,1,2,0,4,0,0,0,0,0,0,0
238254307,238155087,0.0007025891,0.00837282,0.034026805,8389271,0,0.33237633,0.39599246,0.05532306,0.04807865,0.007217373,0.036782894,0.0,0.0,0.0,0.0,2490378,2490378,4028193,396809,0,0,831,2,1,2,0,4,0,0,0,0,0,0,0
238451879,238352646,0.00082066713,0.0020230522,0.002573071,8389271,0,0.33193597,0.39497393,0.046455454,0.031345483,0.008629342,0.09640668,0.0,0.0,0.0,0.0,2490378,2490378,4028193,396809,0,0,831,2,1,2,0,4,0,0,0,0,0,0,0
238659301,238560083,0.0005533852,0.0033856824,0.0036610393,8389271,0,0.3323472,0.3946334,0.05300492,0.03918239,0.008116781,0.07903561,0.0,0.0,0.0,0.0,2490378,2490378,4028193,396809,0,0,831,2,1,2,0,4,0,0,0,0,0,0,0
238856943,238757642,0.000694385,0.0043073306,0.0048057637,8389271,0,0.33189982,0.3936272,0.057641968,0.07770984,0.008188351,0.034626663,0.0,0.0,0.0,0.0,2490378,2490378,4028193,396809,0,0,831,2,1,2,0,4,0,0,0,0,0,0,0
239054445,238955202,0.0007635807,0.007308608,0.026522325,8389271,0,0.33149883,0.39513844,0.052647125,0.07356661,0.0071252715,0.03886775,0.0,0.0,0.0,0.0,2490378,2490378,4028193,396809,0,0,831,2,1,2,0,4,0,0,0,0,0,0,0
239261938,239162639,0.0008684374,0.0055014947,0.018458746,8389271,0,0.33199298,0.3948221,0.06614111,0.071087174,0.009783682,0.039417624,0.0,0.0,0.0,0.0,2490378,2490378,4028193,396809,0,0,831,2,1,2,0,4,0,0,0,0,0,0,0
239459505,239360199,0.0007294933,0.0050329077,0.007823898,8389271,0,0.33154947,0.39382166,0.06670862,0.09572357,0.009720702,0.04305353,0.0,0.0,0.0,0.0,2490378,2490378,4028193,396809,0,0,831,2,1,2,0,4,0,0,0,0,0,0,0
239657278,239557760,0.00081897713,0.014752829,0.030007768,8389271,0,0.31429493,0.39092273,0.0659901,0.045704335,0.0070422716,0.03408594,0.0,0.0,0.0,0.0,2490378,2490378,4028193,396809,0,0,831,2,1,2,0,4,0,0,0,0,0,0,0
239854591,239755318,0.00058409746,0.007180817,0.031041728,8389271,0,0.33084875,0.39435032,0.060147543,0.045704335,0.0070422716,0.057340384,0.0,0.0,0.0,0.0,2490378,2490378,4028193,396809,0,0,831,2,1,2,0,4,0,0,0,0,0,0,0
240062361,239962755,0.0006081268,0.0076587107,0.018332632,8389271,0,0.31442353,0.38964927,0.058539554,0.028653372,0.0078106285,0.054693595,0.0,0.0,0.0,0.0,2490378,2490378,4028193,396809,0,0,831,2,1,2,0,4,0,0,0,0,0,0,0
240259594,240160316,0.0006498805,0.006164108,0.02858327,8389271,0,0.33105028,0.39555484,0.050092492,0.028653372,0.0078106285,0.044045866,0.0,0.0,0.0,0.0,2490378,2490378,4028193,396809,0,0,831,2,1,2,0,4,0,0,0,0,0,0,0
240457151,240357875,0.00045576628,0.0045705857,0.0125742825,8389271,0,0.33067346,0.39456812,0.04895074,0.034900628,0.008662306,0.029930867,0.0,0.0,0.0,0.0,2490378,2490378,4028193,396809,0,0,831,2,1,2,0,4,0,0,0,0,0,0,0
240654722,240555434,0.0006303443,0.005183468,0.011874738,8389271,0,0.33015347,0.3935695,0.060359363,0.05736332,0.0068892594,0.060544457,0.0,0.0,0.0,0.0,2490378,2490378,4028193,396809,0,0,831,2,1,2,0,4,0,0,0,0,0,0,0
240852240,240752994,0.0007318599,0.00234423,0.002289959,8389271,0,0.32965904,0.3950858,0.061584905,0.009270842,0.008805711,0.044807255,0.0,0.0,0.0,0.0,2490378,2490378,4028193,396809,0,0,831,2,1,2,0,4,0,0,0,0,0,0,0
241059776,240960431,0.0007577954,0.008239439,0.033045612,8389271,0,0.33016908,0.39478207,0.06280326,0.037092786,0.0063814484,0.03541014,0.0,0.0,0.0,0.0,2490378,2490378,4028193,396809,0,0,831,2,1,2,0,4,0,0,0,0,0,0,0
241257220,241157991,0.000563034,0.0059320964,0.01784475,8389271,0,0.32981634,0.39380106,0.05860622,0.0104730325,0.008627044,0.05117865,0.0,0.0,0.0,0.0,2490378,2490378,4028193,396809,0,0,831,2,1,2,0,4,0,0,0,0,0,0,0
241454781,241355551,0.0006228001,0.0041373232,0.017450208,8389271,0,0.32948136,0.39533907,0.05521634,0.054145683,0.007965825,0.0006049417,0.0,0.0,0.0,0.0,2490378,2490378,4028193,396809,0,0,831,2,1,2,0,4,0,0,0,0,0,0,0
241662684,241562988,0.00080701924,0.021551283,0.034803703,8389271,0,0.31304547,0.3906332,0.04680685,0.06864233,0.013237772,0.02947141,0.0,0.0,0.0,0.0,2490378,2490378,4028193,396809,0,0,831,2,1,2,0,4,0,0,0,0,0,0,0
241860113,241760548,0.00049531093,0.013088968,0.023465924,8389271,0,0.31277254,0.38969362,0.049800336,0.033793874,0.011571276,0.039695177,0.0,0.0,0.0,0.0,2490378,2490378,4028193,396809,0,0,831,2,1,2,0,4,0,0,0,0,0,0,0
242057329,241958108,0.0004967304,0.006636088,0.014096917,8389271,0,0.32940102,0.3955793,0.0476557,0.033793874,0.011571276,0.09924136,0.0,0.0,0.0,0.0,2490378,2490378,4028193,396809,0,0,831,2,1,2,0,4,0,0,0,0,0,0,0
242254976,242155668,0.00048694463,0.005900336,0.022130065,8389271,0,0.32905155,0.3945558,0.040272266,0.032933544,0.013142276,0.07640906,0.0,0.0,0.0,0.0,2490378,2490378,4028193,396809,0,0,831,2,1,2,0,4,0,0,0,0,0,0,0
242452571,242353227,0.00036234604,0.005503211,0.021225443,8389271,0,0.32863677,0.39353934,0.038324043,0.016192632,0.014637751,0.032928944,0.0,0.0,0.0,0.0,2490378,2490378,4028193,396809,0,0,831,2,1,2,0,4,0,0,0,0,0,0,0
242659959,242560665,0.00044105132,0.007770452,0.022709873,8389271,0,0.32914624,0.39573663,0.040568035,0.04753896,0.01664059,0.048118055,0.0,0.0,0.0,0.0,2490378,2490378,4028193,396809,0,0,831,2,1,2,0,4,0,0,0,0,0,0,0
242857508,242758225,0.00041260614,0.0110469535,0.04061352,8389271,0,0.3287898,0.39475253,0.034279805,0.05874247,0.018869419,0.09618,0.0,0.0,0.0,0.0,2490378,2490378,4028193,396809,0,0,831,2,1,2,0,4,0,0,0,0,0,0,0
243055049,242955785,0.0003298992,0.007884851,0.026877446,8389271,0,0.3284453,0.3937894,0.03312186,0.039339762,0.020619672,0.0128617035,0.0,0.0,0.0,0.0,2490378,2490378,4028193,396809,0,0,831,2,1,2,0,4,0,0,0,0,0,0,0
243262453,243163223,0.00037194305,0.0043775686,0.012452959,8389271,0,0.32899854,0.39353222,0.040763512,0.053125117,0.021492328,0.030570738,0.0,0.0,0.0,0.0,2490378,2490378,4028193,396809,0,0,831,2,1,2,0,4,0,0,0,0,0,0,0
243460040,243360783,0.0003769128,0.0031899111,0.0052232663,8389271,0,0.3286217,0.3950908,0.033956766,0.049954303,0.0185997,0.017199686,0.0,0.0,0.0,0.0,2490378,2490378,4028193,396809,0,0,831,2,1,2,0,4,0,0,0,0,0,0,0
243657867,243558342,0.00051446864,0.016522719,0.024137307,8389271,0,0.3113641,0.38976002,0.036915194,0.05450306,0.017038468,0.0137908785,0.0,0.0,0.0,0.0,2490378,2490378,4028193,396809,0,0,831,2,1,2,0,4,0,0,0,0,0,0,0
243855147,243755902,0.00039501907,0.010136931,0.029591825,8389271,0,0.32801336,0.39321524,0.04267796,0.05450306,0.017038468,0.045705955,0.0,0.0,0.0,0.0,2490378,2490378,4028193,396809,0,0,831,2,1,2,0,4,0,0,0,0,0,0,0
244052768,243953462,0.00046380237,0.010927034,0.026035994,8389271,0,0.32769135,0.3947716,0.047106594,0.067542315,0.015389138,0.058567803,0.0,0.0,0.0,0.0,2490378,2490378,4028193,396809,0,0,831,2,1,2,0,4,0,0,0,0,0,0,0
244260213,244160900,0.0004299321,0.008748019,0.029618602,8389271,0,0.3281833,0.39450482,0.052739304,0.05111025,0.014665153,0.055385828,0.0,0.0,0.0,0.0,2490378,2490378,4028193,396809,0,0,831,2,1,2,0,4,0,0,0,0,0,0,0
244457742,244358460,0.000536799,0.006707965,0.017942937,8389271,0,0.3278309,0.39355773,0.0577217,0.043622233,0.013788354,0.02226315,0.0,0.0,0.0,0.0,2490378,2490378,4028193,396809,0,0,831,2,1,2,0,4,0,0,0,0,0,0,0
244655305,244556020,0.0005596865,0.007802562,0.015748786,8389271,0,0.32740855,0.392621,0.049191028,0.08077462,0.01320028,0.0042891945,0.0,0.0,0.0,0.0,2490378,2490378,4028193,396809,0,0,831,2,1,2,0,4,0,0,0,0,0,0,0
244852815,244753580,0.000438421,0.0062441416,0.025411291,8389271,0,0.3270835,0.39418635,0.056312863,0.04880261,0.012143565,0.08481526,0.0,0.0,0.0,0.0,2490378,2490378,4028193,396809,0,0,831,2,1,2,0,4,0,0,0,0,0,0,0
245060359,244961018,0.00047646053,0.010048338,0.02167354,8389271,0,0.31076294,0.3895522,0.044439636,0.03783551,0.009080894,0.08835572,0.0,0.0,0.0,0.0,2490378,2490378,4028193,396809,0,0,831,2,1,2,0,4,0,0,0,0,0,0,0
245257839,245158579,0.00047564926,0.007937332,0.039895225,8389271,0,0.3274775,0.39302543,0.049147133,0.03783551,0.009080894,0.15132034,0.0,0.0,0.0,0.0,2490378,2490378,4028193,396809,0,0,831,2,1,2,0,4,0,0,0,0,0,0,0
245455676,245356138,0.000648667,0.020560835,0.0327274,8389271,0,0.31023204,0.390203,0.054284938,0.08119128,0.0071268175,0.00642111,0.0,0.0,0.0,0.0,2490378,2490378,4028193,396809,0,0,831,2,1,2,0,4,0,0,0,0,0,0,0
245662877,245563576,0.00053919095,0.01652663,0.03146311,8389271,0,0.3108239,0.3899803,0.051457535,0.06127164,0.008067998,0.031983025,0.0,0.0,0.0,0.0,2490378,2490378,4028193,396809,0,0,831,2,1,2,0,4,0,0,0,0,0,0,0
245860805,245761136,0.00050274364,0.008975293,0.02660387,8389271,0,0.31058028,0.38910547,0.05447081,0.027617924,0.010069322,0.043843918,0.0,0.0,0.0,0.0,2490378,2490378,4028193,396809,0,0,831,2,1,2,0,4,0,0,0,0,0,0,0
246058336,245958696,0.00039832637,0.009213167,0.037340295,8389271,0,0.3103603,0.3882297,0.051832158,0.034854077,0.008493747,0.046353336,0.0,0.0,0.0,0.0,2490378,2490378,4028193,396809,0,0,831,2,1,2,0,4,0,0,0,0,0,0,0
246255843,246156256,0.00045559494,0.00823449,0.015038594,8389271,0,0.31014055,0.38976336,0.051378664,0.042147726,0.006237174,0.05462959,0.0,0.0,0.0,0.0,2490378,2490378,4028193,396809,0,0,831,2,1,2,0,4,0,0,0,0,0,0,0
246453042,246353816,0.00047150985,0.007655734,0.028499052,8389271,0,0.32687137,0.39325935,0.04803382,0.042147726,0.006237174,0.031362165,0.0,0.0,0.0,0.0,2490378,2490378,4028193,396809,0,0,831,2,1,2,0,4,0,0,0,0,0,0,0
246661621,246561257,0.00047890045,0.008968458,0.014760555,8389271,0,0.3102411,0.38863117,0.04318507,0.022111613,0.0062560886,0.019620165,0.0,0.0,0.0,0.0,2490378,2490378,4028193,396809,0,0,831,2,1,2,0,4,0,0,0,0,0,0,0
246858338,246758814,0.00018031157,0.010140183,0.02001127,8389271,0,0.31002024,0.39016882,0.0007959284,0.02503611,0.0061217267,0.01894581,0.0,0.0,0.0,0.0,2490378,2490378,4028193,396809,0,0,831,2,1,2,0,4,0,0,0,0,0,0,0
247055613,246956374,0.00019469576,0.0069266595,0.020846358,8389271,0,0.32670397,0.3936867,0.03795883,0.02503611,0.0061217267,0.047122017,0.0,0.0,0.0,0.0,2490378,2490378,4028193,396809,0,0,831,2,1,2,0,4,0,0,0,0,0,0,0
247263366,247163812,0.00048364612,0.01981243,0.035527967,8389271,0,0.31027323,0.38905746,0.034042645,0.053952202,0.010051073,0.03490694,0.0,0.0,0.0,0.0,2490378,2490378,4028193,396809,0,0,831,2,1,2,0,4,0,0,0,0,0,0,0
247461624,247361373,0.00038787196,0.021621615,0.04220492,8389271,0,0.31004038,0.39059103,0.010608308,0.053005528,0.009365766,0.020448927,0.0,0.0,0.0,0.0,2490378,2490378,4028193,396809,0,0,831,2,1,2,0,4,0,0,0,0,0,0,0
247658254,247558933,0.00033421407,0.016584551,0.034137256,8389271,0,0.3098861,0.3897123,0.029550387,0.07979242,0.009221751,0.02711169,0.0,0.0,0.0,0.0,2490378,2490378,4028193,396809,0,0,831,2,1,2,0,4,0,0,0,0,0,0,0
247855820,247756493,0.0002559938,0.008189856,0.015303883,8389271,0,0.3265119,0.39321372,0.026697444,0.07979242,0.009221751,0.038671628,0.0,0.0,0.0,0.0,2490378,2490378,4028193,396809,0,0,831,2,1,2,0,4,0,0,0,0,0,0,0
248053280,247954053,0.00025962552,0.00746013,0.0139927985,8389271,0,0.32615453,0.39478996,0.027820885,0.0460341,0.009454844,0.02036752,0.0,0.0,0.0,0.0,2490378,2490378,4028193,396809,0,0,831,2,1,2,0,4,0,0,0,0,0,0,0
248250846,248151613,0.00041240448,0.010373216,0.018119806,8389271,0,0.32582504,0.39386892,0.036964595,0.061935015,0.01167223,0.01247232,0.0,0.0,0.0,0.0,2490378,2490378,4028193,396809,0,0,831,2,1,2,0,4,0,0,0,0,0,0,0
248458429,248359051,0.00035294765,0.0077061197,0.013794598,8389271,0,0.32631254,0.39361894,0.033052087,0.04944616,0.009211552,0.04015053,0.0,0.0,0.0,0.0,2490378,2490378,4028193,396809,0,0,831,2,1,2,0,4,0,0,0,0,0,0,0
248655840,248556612,0.00029498377,0.0052055693,0.01063787,8389271,0,0.32595924,0.39519083,0.034406643,0.07319072,0.009720045,0.03504364,0.0,0.0,0.0,0.0,2490378,2490378,4028193,396809,0,0,831,2,1,2,0,4,0,0,0,0,0,0,0
248853392,248754172,0.00041939854,0.00534731,0.009000283,8389271,0,0.32561132,0.3942581,0.044029787,0.042990252,0.010406519,0.034304522,0.0,0.0,0.0,0.0,2490378,2490378,4028193,396809,0,0,831,2,1,2,0,4,0,0,0,0,0,0,0
249062106,248961610,0.0006463105,0.017707516,0.030642793,8389271,0,0.30942163,0.3895874,0.022104451,0.0665229,0.012279837,0.07203991,0.0,0.0,0.0,0.0,2490378,2490378,4028193,396809,0,0,831,2,1,2,0,4,0,0,0,0,0,0,0
249258451,249159170,0.00029518438,0.008250766,0.01949006,8389271,0,0.32585424,0.39554036,0.030623026,0.0665229,0.012279837,0.030776242,0.0,0.0,0.0,0.0,2490378,2490378,4028193,396809,0,0,831,2,1,2,0,4,0,0,0,0,0,0,0
249455988,249356730,0.00025904443,0.0047340007,0.008704439,8389271,0,0.32547754,0.39457422,0.02110571,0.033312663,0.010041165,0.0011380012,0.0,0.0,0.0,0.0,2490378,2490378,4028193,396809,0,0,831,2,1,2,0,4,0,0,0,0,0,0,0
249653570,249554291,0.00024943435,0.005782513,0.010036414,8389271,0,0.32514155,0.39609697,0.027046334,0.0740343,0.0064192675,0.017596712,0.0,0.0,0.0,0.0,2490378,2490378,4028193,396809,0,0,831,2,1,2,0,4,0,0,0,0,0,0,0
249861987,249761729,0.00031308076,0.013637688,0.031644028,8389271,0,0.3089374,0.39130488,0.026938789,0.0803273,0.0076887137,0.027322244,0.0,0.0,0.0,0.0,2490378,2490378,4028193,396809,0,0,831,2,1,2,0,4,0,0,0,0,0,0,0
250058955,249959290,0.00043785368,0.012994445,0.023098812,8389271,0,0.30870932,0.39033413,0.025131848,0.06764205,0.008141987,0.04825299,0.0,0.0,0.0,0.0,2490378,2490378,4028193,396809,0,0,831,2,1,2,0,4,0,0,0,0,0,0,0
250257103,250156849,0.0007228337,0.023648284,0.037308913,8389271,0,0.3085042,0.3893678,0.018968143,0.10892116,0.007025818,0.028105581,0.0,0.0,0.0,0.0,2490378,2490378,4028193,396809,0,0,831,2,1,2,0,4,0,0,0,0,0,0,0
250453643,250354410,0.00030503466,0.009702345,0.017855234,8389271,0,0.32496175,0.39528576,0.011937353,0.10892116,0.007025818,0.018304985,0.0,0.0,0.0,0.0,2490378,2490378,4028193,396809,0,0,831,2,1,2,0,4,0,0,0,0,0,0,0
250662158,250561848,0.00051293324,0.019335523,0.03275772,8389271,0,0.3087714,0.3905395,0.007165131,0.086653806,0.010051675,0.06532671,0.0,0.0,0.0,0.0,2490378,2490378,4028193,396809,0,0,831,2,1,2,0,4,0,0,0,0,0,0,0
250858637,250759408,0.00023977576,0.00963087,0.028332613,8389271,0,0.32530817,0.39398456,0.0028252804,0.086653806,0.010051675,0.04554128,0.0,0.0,0.0,0.0,2490378,2490378,4028193,396809,0,0,831,2,1,2,0,4,0,0,0,0,0,0,0
251056285,250956969,4.5681845e-05,0.006085544,0.023062456,8389271,0,0.3250592,0.3955125,0.0021491307,0.05045643,0.008154921,0.055225503,0.0,0.0,0.0,0.0,2490378,2490378,4028193,396809,0,0,831,2,1,2,0,4,0,0,0,0,0,0,0
251253823,251154529,0.00035792147,0.009653476,0.024716737,8389271,0,0.3248521,0.394524,0.017912613,0.12536752,0.005868791,0.024986943,0.0,0.0,0.0,0.0,2490378,2490378,4028193,396809,0,0,831,2,1,2,0,4,0,0,0,0,0,0,0
251461283,251361968,0.0004490047,0.0062864227,0.016473852,8389271,0,0.32553262,0.39419374,0.051909346,0.014760027,0.0074270675,0.023143744,0.0,0.0,0.0,0.0,2490378,2490378,4028193,396809,0,0,831,2,1,2,0,4,0,0,0,0,0,0,0
251659213,251559528,0.0007033327,0.021387782,0.030836064,8389271,0,0.30851856,0.39125612,0.06561513,0.0874115,0.0094788335,0.004361598,0.0,0.0,0.0,0.0,2490378,2490378,4028193,396809,0,0,831,2,1,2,0,4,0,0,0,0,0,0,0
251856789,251757088,0.0006165239,0.009486039,0.015082466,8389271,0,0.32513538,0.39469326,0.06891049,0.0874115,0.0094788335,0.06363842,0.0,0.0,0.0,0.0,2490378,2490378,4028193,396809,0,0,831,2,1,2,0,4,0,0,0,0,0,0,0
252054013,251954649,0.00080622704,0.013762932,0.025433043,8389271,0,0.32496744,0.39367664,0.03066415,0.16143009,0.013743445,0.03765532,0.0,0.0,0.0,0.0,2490378,2490378,4028193,396809,0,0,831,2,1,2,0,4,0,0,0,0,0,0,0
252251878,252152209,0.00041515552,0.01064698,0.0170435,8389271,0,0.32482204,0.39517844,0.0020189404,0.07760414,0.012129192,0.016437849,0.0,0.0,0.0,0.0,2490378,2490378,4028193,396809,0,0,831,2,1,2,0,4,0,0,0,0,0,0,0
252459047,252359648,0.0002873768,0.010817078,0.02018046,8389271,0,0.3256024,0.3948517,0.01457335,0.10461142,0.012141126,0.044248324,0.0,0.0,0.0,0.0,2490378,2490378,4028193,396809,0,0,831,2,1,2,0,4,0,0,0,0,0,0,0
252656883,252557208,0.00052709004,0.014872824,0.024487928,8389271,0,0.32519394,0.39383295,0.061382882,0.17002183,0.020669887,0.018833907,0.0,0.0,0.0,0.0,2490378,2490378,4028193,396809,0,0,831,2,1,2,0,4,0,0,0,0,0,0,0
252854422,252754768,0.0009822525,0.034792144,0.05474069,8389271,0,0.30831677,0.39092904,0.049883172,0.1054218,0.00627291,0.003270599,0.0,0.0,0.0,0.0,2490378,2490378,4028193,396809,0,0,831,2,1,2,0,4,0,0,0,0,0,0,0
253062060,252962207,0.00036463712,0.013695428,0.026944946,8389271,0,0.3258556,0.39504024,0.05240428,0.1054218,0.00627291,0.03265724,0.0,0.0,0.0,0.0,2490378,2490378,4028193,396809,0,0,831,2,1,2,0,4,0,0,0,0,0,0,0
253259011,253159767,0.0007160646,0.012668224,0.025269259,8389271,0,0.3257126,0.394046,0.10714509,0.07531392,0.008722407,0.10977904,0.0,0.0,0.0,0.0,2490378,2490378,4028193,396809,0,0,831,2,1,2,0,4,0,0,0,0,0,0,0
253457136,253357328,0.00095271424,0.012075752,0.02044501,8389271,0,0.32562205,0.39553684,0.108678356,0.11835665,0.006052741,0.051139243,0.0,0.0,0.0,0.0,2490378,2490378,4028193,396809,0,0,831,2,1,2,0,4,0,0,0,0,0,0,0
253654323,253554888,0.0008063396,0.026282247,0.046501625,8389351,0,0.3254648,0.394451,0.081113145,0.242875,7.406687e-05,0.026114136,0.0,0.0,0.0,0.0,2490378,2490378,4028193,396809,0,0,831,2,1,2,0,4,0,0,0,0,0,0,0
253852135,253752449,0.0010277213,0.035232086,0.060666084,8389351,0,0.3253522,0.39589787,0.07728327,0.27874625,0.0051861024,0.029275868,0.0,0.0,0.0,0.0,2490378,2490378,4028193,396809,0,0,831,2,1,2,0,4,0,0,0,0,0,0,0
254059395,253959887,0.0013449012,0.037938185,0.06437897,8389351,0,0.3261871,0.3954994,0.05663688,0.2555721,0.008286335,0.017760348,0.0,0.0,0.0,0.0,2490378,2490378,4028193,396809,0,0,831,2,1,2,0,4,0,0,0,0,0,0,0
254257254,254157448,0.0019291596,0.044789314,0.070405036,8389351,0,0.32618907,0.3969475,0.06393544,0.28382033,0.013833151,0.013736158,0.0,0.0,0.0,0.0,2490378,2490378,4028193,396809,0,0,831,2,1,2,0,4,0,0,0,0,0,0,0
254454338,254355008,0.003834223,0.05458873,0.08458539,8389351,0,0.32617477,0.39582193,0.23905967,0.31491822,0.021400703,0.0062378473,0.0,0.0,0.0,0.0,2490378,2490378,4028193,396809,0,0,831,2,1,2,0,4,0,0,0,0,0,0,0
254662167,254562447,0.003997539,0.056500707,0.09638303,8389351,0,0.32690105,0.39531097,0.13404216,0.28579742,0.02181489,0.01981427,0.0,0.0,0.0,0.0,2490378,2490378,4028193,396809,0,0,831,2,1,2,0,4,0,0,0,0,0,0,0
254859349,254760008,0.0032498608,0.0637552,0.10536723,8389351,0,0.3268888,0.39665985,0.1654361,0.39044228,0.034472954,0.021469653,0.0,0.0,0.0,0.0,2490378,2490378,4028193,396809,0,0,831,2,1,2,0,4,0,0,0,0,0,0,0
255057481,254957568,0.0033641064,0.064904,0.10860728,8389351,0,0.32673258,0.39546445,0.15365382,0.38207978,0.037588213,0.008893973,0.0,0.0,0.0,0.0,2490378,2490378,4028193,396809,0,0,831,2,1,2,0,4,0,0,0,0,0,0,0
255254619,255155129,0.002320403,0.049306802,0.09176422,8389351,0,0.32662132,0.39681277,0.14340599,0.28397533,0.04081138,0.031942382,0.0,0.0,0.0,0.0,2490378,2490378,4028193,396809,0,0,831,2,1,2,0,4,0,0,0,0,0,0,0
255462494,255362567,0.004986184,0.099569365,0.16245206,8389351,0,0.31035778,0.39190298,0.16932833,0.22701783,0.048792463,0.041363712,0.0,0.0,0.0,0.0,2490378,2490378,4028193,396809,0,0,831,2,1,2,0,4,0,0,0,0,0,0,0
255659485,255560128,0.0008895435,0.04446839,0.08339203,8389351,0,0.327265,0.39764503,0.19238319,0.22701783,0.048792463,0.021182952,0.0,0.0,0.0,0.0,2490378,2490378,4028193,396809,0,0,831,2,1,2,0,4,0,0,0,0,0,0,0
255857590,255757689,0.0008733199,0.041943505,0.08899913,8389351,0,0.32699445,0.396461,0.17785378,0.25742537,0.05299271,0.094559036,0.0,0.0,0.0,0.0,2490378,2490378,4028193,396809,0,0,831,2,1,2,0,4,0,0,0,0,0,0,0
256054575,255955249,0.0008303439,0.04416559,0.09776822,8389351,0,0.3267095,0.3953102,0.17553553,0.21890154,0.050761133,0.081414945,0.0,0.0,0.0,0.0,2490378,2490378,4028193,396809,0,0,831,2,1,2,0,4,0,0,0,0,0,0,0
256252458,256152810,0.0009828013,0.04720576,0.095530994,8389351,0,0.32644048,0.3966979,0.19581808,0.25545895,0.051941533,0.06673884,0.0,0.0,0.0,0.0,2490378,2490378,4028193,396809,0,0,831,2,1,2,0,4,0,0,0,0,0,0,0
256459670,256360249,0.00082721753,0.046532217,0.08357878,8389351,0,0.32704836,0.39623472,0.1552715,0.25366327,0.045600157,0.030463694,0.0,0.0,0.0,0.0,2490378,2490378,4028193,396809,0,0,831,2,1,2,0,4,0,0,0,0,0,0,0
256658039,256557809,0.005747978,0.11688136,0.1721188,8389351,0,0.30998448,0.39079577,0.11594559,0.33076903,0.033555035,0.04256681,0.0,0.0,0.0,0.0,2490378,2490378,4028193,396809,0,0,831,2,1,2,0,4,0,0,0,0,0,0,0
256854827,256755370,0.0017498962,0.059066463,0.09868938,8389351,0,0.3264836,0.3939886,0.108556844,0.33076903,0.033555035,0.010004138,0.0,0.0,0.0,0.0,2490378,2490378,4028193,396809,0,0,831,2,1,2,0,4,0,0,0,0,0,0,0
257062901,256962809,0.0046913004,0.097607665,0.14137585,8389351,0,0.31037766,0.39172676,0.11675499,0.17963903,0.02531809,0.063485816,0.0,0.0,0.0,0.0,2490378,2490378,4028193,396809,0,0,831,2,1,2,0,4,0,0,0,0,0,0,0
257259766,257160369,0.0014312844,0.05098635,0.091358036,8389351,0,0.32709056,0.3949878,0.07634314,0.17963903,0.02531809,0.09615242,0.0,0.0,0.0,0.0,2490378,2490378,4028193,396809,0,0,831,2,1,2,0,4,0,0,0,0,0,0,0
257457804,257357930,0.0015950578,0.049713045,0.09658077,8389351,0,0.32691073,0.39390787,0.040834285,0.16712303,0.026987063,0.080749325,0.0,0.0,0.0,0.0,2490378,2490378,4028193,396809,0,0,831,2,1,2,0,4,0,0,0,0,0,0,0
257654861,257555491,0.0019395236,0.04884854,0.08051339,8389351,0,0.32668465,0.39536005,0.15703484,0.18814686,0.027710993,0.0048379586,0.0,0.0,0.0,0.0,2490378,2490378,4028193,396809,0,0,831,2,1,2,0,4,0,0,0,0,0,0,0
257852684,257753052,0.0017026281,0.048768815,0.08186772,8389351,0,0.3265469,0.3943135,0.1984137,0.23268269,0.021703085,0.033366874,0.0,0.0,0.0,0.0,2490378,2490378,4028193,396809,0,0,831,2,1,2,0,4,0,0,0,0,0,0,0
258059938,257960490,0.003021014,0.08224347,0.13229994,8389351,0,0.31046233,0.3896405,0.10483859,0.22930276,0.019378947,0.02039707,0.0,0.0,0.0,0.0,2490378,2490378,4028193,396809,0,0,831,2,1,2,0,4,0,0,0,0,0,0,0
258258278,258158051,0.0028935594,0.09093612,0.14099649,8389351,0,0.31040084,0.39105907,0.13475098,0.25863382,0.0142547395,0.10850101,0.0,0.0,0.0,0.0,2490378,2490378,4028193,396809,0,0,831,2,1,2,0,4,0,0,0,0,0,0,0
258454953,258355612,0.0014975702,0.04471023,0.08318027,8389351,0,0.32711706,0.3943463,0.21752423,0.25863382,0.0142547395,0.020401562,0.0,0.0,0.0,0.0,2490378,2490378,4028193,396809,0,0,831,2,1,2,0,4,0,0,0,0,0,0,0
258663154,258563051,0.0024305908,0.07654918,0.12665348,8389351,0,0.31083566,0.3896592,0.07476236,0.15414862,0.013080593,0.11019221,0.0,0.0,0.0,0.0,2490378,2490378,4028193,396809,0,0,831,2,1,2,0,4,0,0,0,0,0,0,0
258860320,258760612,0.0017532995,0.06130743,0.10265446,8389351,0,0.3107598,0.3910809,0.0538221,0.15348166,0.014574094,0.007119786,0.0,0.0,0.0,0.0,2490378,2490378,4028193,396809,0,0,831,2,1,2,0,4,0,0,0,0,0,0,0
259057908,258958172,0.00072137866,0.027500387,0.05422532,8389351,0,0.3274526,0.39438444,0.15561666,0.15348166,0.014574094,0.0019733151,0.0,0.0,0.0,0.0,2490378,2490378,4028193,396809,0,0,831,2,1,2,0,4,0,0,0,0,0,0,0
259255421,259155733,0.0009471751,0.03295241,0.058532637,8389351,0,0.31065756,0.3890932,0.03513794,0.044122413,0.015491199,0.02321776,0.0,0.0,0.0,0.0,2490378,2490378,4028193,396809,0,0,831,2,1,2,0,4,0,0,0,0,0,0,0
259452852,259353294,0.00016944557,0.020001262,0.04188239,8389351,0,0.32735226,0.3948741,0.024958337,0.044122413,0.015491199,0.11428752,0.0,0.0,0.0,0.0,2490378,2490378,4028193,396809,0,0,831,2,1,2,0,4,0,0,0,0,0,0,0
259660570,259560733,0.000110111236,0.014885094,0.032798965,8389351,0,0.3113747,0.39022484,0.14755383,0.029033061,0.012002251,0.03183647,0.0,0.0,0.0,0.0,2490378,2490378,4028193,396809,0,0,831,2,1,2,0,4,0,0,0,0,0,0,0
259858555,259758294,0.00038055412,0.021889701,0.038066585,8389351,0,0.31141564,0.38927087,0.008650348,0.05209851,0.012799182,0.07855527,0.0,0.0,0.0,0.0,2490378,2490378,4028193,396809,0,0,831,2,1,2,0,4,0,0,0,0,0,0,0
260055509,259955855,0.00071368716,0.026609719,0.04842177,8389351,0,0.3114386,0.39074528,0.027783712,0.0889672,0.015341177,0.026796268,0.0,0.0,0.0,0.0,2490378,2490378,4028193,396809,0,0,831,2,1,2,0,4,0,0,0,0,0,0,0
260252903,260153416,0.00028643996,0.01491374,0.02735499,8389351,0,0.32824033,0.3941323,0.04347288,0.0889672,0.015341177,0.012096227,0.0,0.0,0.0,0.0,2490378,2490378,4028193,396809,0,0,831,2,1,2,0,4,0,0,0,0,0,0,0
260460266,260360855,0.00014038687,0.009476919,0.016766978,8389351,0,0.3290859,0.39383626,0.011736205,0.0642985,0.011733329,0.0031855963,0.0,0.0,0.0,0.0,2490378,2490378,4028193,396809,0,0,831,2,1,2,0,4,0,0,0,0,0,0,0
260658579,260558415,0.00012120498,0.016294774,0.027724538,8389351,0,0.31207663,0.38856202,0.032941636,0.08570181,0.013537446,0.015588583,0.0,0.0,0.0,0.0,2490378,2490378,4028193,396809,0,0,831,2,1,2,0,4,0,0,0,0,0,0,0
260855421,260755976,0.00018677948,0.009670545,0.017857762,8389351,0,0.32886583,0.394414,0.08958231,0.08570181,0.013537446,0.037029095,0.0,0.0,0.0,0.0,2490378,2490378,4028193,396809,0,0,831,2,1,2,0,4,0,0,0,0,0,0,0
261063124,260963415,0.0008290169,0.03422367,0.05550097,8389351,0,0.31283498,0.38979104,0.091119036,0.13723806,0.021126216,0.011765138,0.0,0.0,0.0,0.0,2490378,2490378,4028193,396809,0,0,831,2,1,2,0,4,0,0,0,0,0,0,0
261260363,261160976,0.00027628112,0.015005515,0.02870553,8389351,0,0.32963902,0.39319053,0.066053696,0.13723806,0.021126216,0.07919178,0.0,0.0,0.0,0.0,2490378,2490378,4028193,396809,0,0,831,2,1,2,0,4,0,0,0,0,0,0,0
261458392,261358537,0.00021403079,0.013383097,0.030950883,8389351,0,0.32951358,0.3947285,0.064614825,0.099514455,0.020923937,0.011373862,0.0,0.0,0.0,0.0,2490378,2490378,4028193,396809,0,0,831,2,1,2,0,4,0,0,0,0,0,0,0
261655362,261556098,0.00024678573,0.006251344,0.017166836,8389351,0,0.3294135,0.3937751,0.11540131,0.041754745,0.020028085,0.0054147174,0.0,0.0,0.0,0.0,2490378,2490378,4028193,396809,0,0,831,2,1,2,0,4,0,0,0,0,0,0,0
261853068,261753659,9.9459205e-05,0.0066196653,0.019593408,8389351,0,0.3292973,0.39280957,0.04306229,0.02511779,0.014619374,0.0008841295,0.0,0.0,0.0,0.0,2490378,2490378,4028193,396809,0,0,831,2,1,2,0,4,0,0,0,0,0,0,0
262060776,261961098,0.0005650704,0.01592482,0.02254594,8389351,0,0.3132736,0.39062914,0.15034154,0.07084333,0.007671008,0.072812386,0.0,0.0,0.0,0.0,2490378,2490378,4028193,396809,0,0,831,2,1,2,0,4,0,0,0,0,0,0,0
262258220,262158660,0.00036387733,0.008220558,0.017594349,8389351,0,0.33002213,0.39406526,0.102699295,0.07084333,0.007671008,0.013975917,0.0,0.0,0.0,0.0,2490378,2490378,4028193,396809,0,0,831,2,1,2,0,4,0,0,0,0,0,0,0
262455553,262356221,0.00021130404,0.009715239,0.01758259,8389351,0,0.3298441,0.39310268,0.05093464,0.08046362,0.005953321,0.009757281,0.0,0.0,0.0,0.0,2490378,2490378,4028193,396809,0,0,831,2,1,2,0,4,0,0,0,0,0,0,0
262663706,262563660,0.00038510686,0.012347676,0.029831838,8389351,0,0.31358305,0.3908882,0.11398814,0.042560607,0.0044754623,0.012135292,0.0,0.0,0.0,0.0,2490378,2490378,4028193,396809,0,0,831,2,1,2,0,4,0,0,0,0,0,0,0
262860831,262761221,0.00043782068,0.005539642,0.019294307,8389351,0,0.31351915,0.38996255,0.08630684,0.03421148,0.0059291003,0.016619379,0.0,0.0,0.0,0.0,2490378,2490378,4028193,396809,0,0,831,2,1,2,0,4,0,0,0,0,0,0,0
263058747,262958782,0.00022962218,0.008762307,0.017472913,8389351,0,0.31344515,0.38905582,0.029981414,0.028279923,0.0043661622,0.0055714874,0.0,0.0,0.0,0.0,2490378,2490378,4028193,396809,0,0,831,2,1,2,0,4,0,0,0,0,0,0,0
263255931,263156343,8.705008e-05,0.0036764506,0.0059808837,8389351,0,0.31336117,0.38815942,0.04752789,0.018767633,0.0059867008,0.020975813,0.0,0.0,0.0,0.0,2490378,2490378,4028193,396809,0,0,831,2,1,2,0,4,0,0,0,0,0,0,0
263453186,263353904,0.0002866902,0.0053910776,0.0066090706,8389351,0,0.32994562,0.3940284,0.14690311,0.018767633,0.0059867008,0.024246763,0.0,0.0,0.0,0.0,2490378,2490378,4028193,396809,0,0,831,2,1,2,0,4,0,0,0,0,0,0,0
263650758,263551465,0.0001661874,0.0037918594,0.00663577,8389351,0,0.32976446,0.39306435,0.03220471,0.04903998,0.0046794494,0.024278082,0.0,0.0,0.0,0.0,2490378,2490378,4028193,396809,0,0,831,2,1,2,0,4,0,0,0,0,0,0,0
263858897,263758904,0.00041380952,0.013392299,0.024862912,8389351,0,0.31377143,0.39086288,0.24484694,0.05407464,0.0030034985,0.004386336,0.0,0.0,0.0,0.0,2490378,2490378,4028193,396809,0,0,831,2,1,2,0,4,0,0,0,0,0,0,0
264055696,263956466,0.0009874778,0.017542856,0.088951446,8389351,0,0.33031425,0.39432523,0.75430536,0.05407464,0.0030034985,0.0026045623,0.0,0.0,0.0,0.0,2490378,2490378,4028193,396809,0,0,831,2,1,2,0,4,0,0,0,0,0,0,0
264253366,264154027,0.00086724764,0.026863987,0.107056566,8389351,0,0.33011904,0.3933598,0.97784597,0.29245433,0.009151591,0.009153083,0.0,0.0,0.0,0.0,2490378,2490378,4028193,396809,0,0,831,2,1,2,0,4,0,0,0,0,0,0,0
264460793,264361466,0.0013785252,0.027282223,0.1230793,8389351,0,0.3308578,0.3930762,0.92307466,0.2184419,0.010640492,0.020052677,0.0,0.0,0.0,0.0,2490378,2490378,4028193,396809,0,0,831,2,1,2,0,4,0,0,0,0,0,0,0
264658539,264559027,0.00063085055,0.0340964,0.12681876,8389351,0,0.33052334,0.394596,0.8258922,0.28328118,0.03179933,0.29212102,0.0,0.0,0.0,0.0,2490378,2490378,4028193,396809,0,0,831,2,1,2,0,4,0,0,0,0,0,0,0
264855922,264756588,0.0015849887,0.022102557,0.054597203,8389351,0,0.33041304,0.39363566,0.9672558,0.23979352,0.016860569,0.051296324,0.0,0.0,0.0,0.0,2490378,2490378,4028193,396809,0,0,831,2,1,2,0,4,0,0,0,0,0,0,0
265053378,264954150,0.0026764572,0.028749341,0.056125354,8389351,0,0.33034903,0.39518526,0.89280635,0.2561331,0.019875234,0.07793871,0.0,0.0,0.0,0.0,2490378,2490378,4028193,396809,0,0,831,2,1,2,0,4,0,0,0,0,0,0,0
265261029,265161589,0.0034679817,0.040834684,0.0568323,8389351,0,0.33121988,0.39492792,0.80747646,0.30459693,0.024648027,0.042638704,0.0,0.0,0.0,0.0,2490378,2490378,4028193,396809,0,0,831,2,1,2,0,4,0,0,0,0,0,0,0
265459046,265359150,0.0093391435,0.12028458,0.14328396,8389351,0,0.31383002,0.3895688,0.7306952,0.24307324,0.027269118,0.08994808,0.0,0.0,0.0,0.0,2490378,2490378,4028193,396809,0,0,831,2,1,2,0,4,0,0,0,0,0,0,0
265655992,265556712,0.0028661757,0.049177326,0.07304533,8389351,0,0.33108562,0.39307624,0.2222039,0.24307324,0.027269118,0.072725266,0.0,0.0,0.0,0.0,2490378,2490378,4028193,396809,0,0,831,2,1,2,0,4,0,0,0,0,0,0,0
265853728,265754273,0.0063765217,0.09347043,0.118047625,8389351,0,0.3135758,0.39020225,0.26988292,0.20782423,0.02277333,0.054400433,0.0,0.0,0.0,0.0,2490378,2490378,4028193,396809,0,0,831,2,1,2,0,4,0,0,0,0,0,0,0
266061184,265961712,0.0048563182,0.07047679,0.11129326,8389351,0,0.31420177,0.38996884,0.19035873,0.14187492,0.027319644,0.06042176,0.0,0.0,0.0,0.0,2490378,2490378,4028193,396809,0,0,831,2,1,2,0,4,0,0,0,0,0,0,0
266259132,266159274,0.0051471246,0.06946447,0.08649569,8389351,0,0.31400552,0.38908422,0.17664783,0.15642141,0.024914183,0.08617347,0.0,0.0,0.0,0.0,2490378,2490378,4028193,396809,0,0,831,2,1,2,0,4,0,0,0,0,0,0,0
266456214,266356835,0.0018056831,0.024259675,0.040388543,8389351,0,0.33145055,0.39515954,0.20936018,0.15642141,0.024914183,0.11267253,0.0,0.0,0.0,0.0,2490378,2490378,4028193,396809,0,0,831,2,1,2,0,4,0,0,0,0,0,0,0
266663897,266564274,0.0041772462,0.04559447,0.06274265,8389351,0,0.31417826,0.39034984,0.18256196,0.11237177,0.024847353,0.09788562,0.0,0.0,0.0,0.0,2490378,2490378,4028193,396809,0,0,831,2,1,2,0,4,0,0,0,0,0,0,0
266861336,266761836,0.0036371509,0.04350637,0.054641828,8389351,0,0.31396753,0.38943014,0.30177695,0.12831168,0.022012351,0.14353621,0.0,0.0,0.0,0.0,2490378,2490378,4028193,396809,0,0,831,2,1,2,0,4,0,0,0,0,0,0,0
267059455,266959397,0.0025477519,0.04588357,0.06325368,8389351,0,0.31379157,0.38855568,0.2276874,0.1323666,0.013581172,0.16873196,0.0,0.0,0.0,0.0,2490378,2490378,4028193,396809,0,0,831,2,1,2,0,4,0,0,0,0,0,0,0
267256456,267156958,0.0022881601,0.041578926,0.06324184,8389351,0,0.31363285,0.3901325,0.08811399,0.09783995,0.012606474,0.11139222,0.0,0.0,0.0,0.0,2490378,2490378,4028193,396809,0,0,831,2,1,2,0,4,0,0,0,0,0,0,0
267453751,267354520,0.0006906129,0.02903532,0.06799429,8389351,0,0.33111697,0.39384165,0.045647163,0.09783995,0.012606474,0.13505003,0.0,0.0,0.0,0.0,2490378,2490378,4028193,396809,0,0,831,2,1,2,0,4,0,0,0,0,0,0,0
267651562,267552081,0.00035451533,0.030744715,0.08321694,8389351,0,0.33085144,0.3929656,0.051571306,0.074527375,0.023770373,0.11610706,0.0,0.0,0.0,0.0,2490378,2490378,4028193,396809,0,0,831,2,1,2,0,4,0,0,0,0,0,0,0
267858773,267759521,0.00025932555,0.03307062,0.061893415,8389351,0,0.33154023,0.395282,0.043330617,0.13747427,0.014439737,0.09030544,0.0,0.0,0.0,0.0,2490378,2490378,4028193,396809,0,0,831,2,1,2,0,4,0,0,0,0,0,0,0
268056400,267957082,0.00019833224,0.03616319,0.0735741,8389351,0,0.33118555,0.3943872,0.045974318,0.05535721,0.024413256,0.13247974,0.0,0.0,0.0,0.0,2490378,2490378,4028193,396809,0,0,831,2,1,2,0,4,0,0,0,0,0,0,0
268254070,268154644,0.00013418347,0.03479434,0.07819328,8389351,0,0.33088335,0.39348766,0.037332654,0.111723416,0.016027575,0.13118821,0.0,0.0,0.0,0.0,2490378,2490378,4028193,396809,0,0,831,2,1,2,0,4,0,0,0,0,0,0,0
268461629,268362083,0.000894883,0.042234305,0.076195925,8389351,0,0.31404144,0.38873452,0.037719518,0.099367976,0.002639388,0.11664416,0.0,0.0,0.0,0.0,2490378,2490378,4028193,396809,0,0,831,2,1,2,0,4,0,0,0,0,0,0,0
268658882,268559645,0.00017517532,0.03101693,0.07246622,8389351,0,0.3312062,0.3948917,0.0471556,0.099367976,0.002639388,0.14238611,0.0,0.0,0.0,0.0,2490378,2490378,4028193,396809,0,0,831,2,1,2,0,4,0,0,0,0,0,0,0
268856482,268757206,0.00019635767,0.0303291,0.09035559,8553447,0,0.33084524,0.3939867,0.0345265,0.11222696,0.022805195,0.178413,0.0,0.0,0.0028888406,0.0,2490378,2490378,4028193,396809,0,0,831,2,1,2,0,4,0,0,0,0,0,0,0
269054085,268954768,0.00039744997,0.020304311,0.037208185,9077735,0,0.33048984,0.39306924,0.81547195,0.09860015,0.014579874,0.052021004,0.88672376,0.0,0.009502618,0.0,2490378,2490378,4028193,396809,0,0,831,2,1,2,0,4,0,0,0,0,0,0,0
269251582,269152329,0.00061661995,0.028640317,0.08836806,9077735,0,0.33010793,0.39464232,0.46380684,0.23174863,0.0044494946,0.15778878,0.17314175,0.0,0.017592119,0.0,2490378,2490378,4028193,396809,0,0,831,2,1,2,0,4,0,0,0,0,0,0,0
269459311,269359769,0.00059327035,0.048040923,0.07555243,9077735,0,0.31386465,0.38991448,0.14892635,0.11797091,0.011075481,0.16631448,0.11322281,0.0,0.015202783,0.0,2490378,2490378,4028193,396809,0,0,831,2,1,2,0,4,0,0,0,0,0,0,0
269656889,269557330,0.0010393432,0.069974124,0.119088456,9077735,0,0.3137277,0.38906574,0.08134858,0.22893427,0.020917695,0.070156984,0.14248978,0.0,0.030496797,0.0,2490378,2490378,4028193,396809,0,0,831,2,1,2,0,4,0,0,0,0,0,0,0
269854165,269754892,0.0003520306,0.0455664,0.086474486,9077735,0,0.33001846,0.3950325,0.11596471,0.22893427,0.020917695,0.15123351,0.017619308,0.0,0.03826102,0.0,2490378,2490378,4028193,396809,0,0,831,2,1,2,0,4,0,0,0,0,0,0,0
270061948,269962331,0.0046289796,0.19917539,0.3141094,9077735,0,0.31410712,0.39033875,0.14105117,0.7271508,0.029176539,0.13651282,0.29471585,0.0,0.027221974,0.0,2490378,2490378,4028193,396809,0,0,831,2,1,2,0,4,0,0,0,0,0,0,0
270259438,270159893,0.004968353,0.1809635,0.29735664,9077735,0,0.31399876,0.38936734,0.15479353,0.54485834,0.033516508,0.04324541,0.10856571,0.0,0.035568137,0.0,2490378,2490378,4028193,396809,0,0,831,2,1,2,0,4,0,0,0,0,0,0,0
270456691,270357454,0.0013400991,0.067506164,0.13739699,9077735,0,0.33068308,0.39514178,0.3324905,0.54485834,0.033516508,0.084838875,0.40090433,0.0,0.038520876,0.0,2490378,2490378,4028193,396809,0,0,831,2,1,2,0,4,0,0,0,0,0,0,0
270654354,270555016,0.00050478155,0.033673868,0.08839789,9077735,0,0.3303321,0.3940995,0.5361212,0.22654498,0.1414455,0.03272005,0.29831818,0.0,0.022430187,0.0,2490378,2490378,4028193,396809,0,0,831,2,1,2,0,4,0,0,0,0,0,0,0
270861836,270762456,0.001105775,0.015473454,0.0315692,9077735,0,0.33112317,0.39377308,0.5268872,0.13866901,0.009576538,0.005962303,0.29530114,0.0,0.07097117,0.0,2490378,2490378,4028193,396809,0,0,831,2,1,2,0,4,0,0,0,0,0,0,0
271059605,270960017,0.00201955,0.06752169,0.10757112,9077735,0,0.31439984,0.3884937,0.47684434,0.17571414,0.016903028,0.039775778,0.27422193,0.0,0.08227518,0.0,2490378,2490378,4028193,396809,0,0,831,2,1,2,0,4,0,0,0,0,0,0,0
271256847,271157579,0.0009936363,0.048518687,0.09421183,9077735,0,0.33082467,0.39431626,0.32240167,0.17571414,0.016903028,0.08213101,0.118560344,0.0,0.06775828,0.0,2490378,2490378,4028193,396809,0,0,831,2,1,2,0,4,0,0,0,0,0,0,0
271454451,271355140,0.0010349151,0.05694799,0.10846959,9077735,0,0.33069152,0.39335954,0.2279926,0.29627737,0.015925957,0.0260927,0.3421582,0.0,0.04735565,0.0,2490378,2490378,4028193,396809,0,0,831,2,1,2,0,4,0,0,0,0,0,0,0
271651991,271552702,0.00087378203,0.061142188,0.1327423,9077735,0,0.3305856,0.39241743,0.15103473,0.2983312,0.009759875,0.058639783,0.39515442,0.0,0.020732138,0.0,2490378,2490378,4028193,396809,0,0,831,2,1,2,0,4,0,0,0,0,0,0,0
271859445,271760142,0.0005290647,0.05063647,0.11065209,9077735,0,0.33134517,0.3921378,0.17862128,0.20533764,0.009895332,0.04201085,0.17266767,0.0,0.02335376,0.0,2490378,2490378,4028193,396809,0,0,831,2,1,2,0,4,0,0,0,0,0,0,0
