timestamp,timestamp_sample,gyro_device_id,gyro_bias[0],gyro_bias[1],gyro_bias[2],gyro_bias_limit,gyro_bias_variance[0],gyro_bias_variance[1],gyro_bias_variance[2],accel_device_id,accel_bias[0],accel_bias[1],accel_bias[2],accel_bias_limit,accel_bias_variance[0],accel_bias_variance[1],accel_bias_variance[2],mag_device_id,mag_bias[0],mag_bias[1],mag_bias[2],mag_bias_limit,mag_bias_variance[0],mag_bias_variance[1],mag_bias_variance[2],gyro_bias_valid,gyro_bias_stable,accel_bias_valid,accel_bias_stable,mag_bias_valid,mag_bias_stable
216869267,216769412,2490378,-0.00035699163,-0.0005944766,0.0013185927,0.34906584,2.1613586e-07,2.1846137e-07,4.2531607e-07,2490378,0.13609079,0.05432291,-0.044688035,0.4,0.0005124404,0.00059813145,0.0005124404,396321,0.0,0.0,0.0,0.5,0.0025000002,0.0025000002,0.0025000002,1,1,1,0,1,0
217876153,217776953,2490378,-0.0003441323,-0.0006004826,0.0012637682,0.34906584,2.13571e-07,2.1607066e-07,4.2596216e-07,2490378,0.1360908,0.05441148,-0.044608463,0.4,0.00051244104,0.0005979434,0.00051244104,396321,0.0,0.0,0.0,0.5,0.0025000002,0.0025000002,0.0025000002,1,1,1,0,1,0
218883988,218784494,2490378,-0.00034581812,-0.00062187837,0.0011022118,0.34906584,2.110487e-07,2.1362415e-07,4.258564e-07,2490378,0.13606192,0.054621745,-0.04524791,0.4,0.00051244214,0.0005979338,0.0005124422,396321,0.0,0.0,0.0,0.5,0.0025000002,0.0025000002,0.0025000002,1,1,1,0,1,0
219891240,219792036,2490378,-0.00034686876,-0.00064668484,0.001038028,0.34906584,2.0868922e-07,2.1125187e-07,4.2643586e-07,2490378,0.13599509,0.054644495,-0.045011163,0.4,0.0005124421,0.00059784995,0.0005124413,396321,0.0,0.0,0.0,0.5,0.0025000002,0.0025000002,0.0025000002,1,0,1,0,1,0
220899214,220799579,2490378,-0.00035752778,-0.00065731077,0.0011288873,0.34906584,2.065749e-07,2.090475e-07,4.269774e-07,2490378,0.13591185,0.054491412,-0.044710163,0.4,0.00051244354,0.00059763575,0.00051244354,396321,0.0,0.0,0.0,0.5,0.0025000002,0.0025000002,0.0025000002,1,0,1,0,1,0
221471756,221372495,2490378,-0.00036867868,-0.0006470766,0.0012800171,0.34906584,2.0509069e-07,2.07478e-07,4.2683075e-07,2490378,0.13588238,0.054317553,-0.04348872,0.4,0.00051244063,0.00059745554,0.00051244063,396321,0.0,0.0,0.0,0.5,0.0025000002,0.0025000002,0.0025000002,1,0,1,0,1,0
222114117,222014557,2490378,-0.0003698095,-0.00065034855,0.0015418266,0.34906584,2.0430772e-07,2.0658676e-07,4.2662336e-07,2490378,0.13583337,0.05387748,-0.04259092,0.4,0.0005124413,0.0005972566,0.00051244133,396321,0.0,0.0,0.0,0.5,0.0025000002,0.0025000002,0.0025000002,1,0,1,0,1,0
223121205,223022101,2490378,-0.00038731255,-0.00063262356,0.0021054524,0.34906584,2.0277683e-07,2.0486686e-07,4.2709058e-07,2490378,0.13581218,0.05313497,-0.042211052,0.4,0.0005124456,0.00059683516,0.0005124439,396321,0.0,0.0,0.0,0.5,0.0025000002,0.0025000002,0.0025000002,1,0,1,0,1,0
223664703,223565385,2490378,-0.00039090402,-0.00061810034,0.0024584052,0.34906584,2.012446e-07,2.0326864e-07,4.2728868e-07,2490378,0.1358871,0.052679043,-0.043434955,0.4,0.00051244017,0.0005964304,0.00051244017,396321,0.0,0.0,0.0,0.5,0.0025000002,0.0025000002,0.0025000002,1,0,1,0,1,0
224474906,224375372,2490378,-0.00035391285,-0.0006159422,0.0029412962,0.34906584,2.0006856e-07,2.0185965e-07,4.2715536e-07,2490378,0.13606541,0.05174208,-0.044343602,0.4,0.00051244,0.00059584895,0.00051244,396321,0.0,0.0,0.0,0.5,0.0025000002,0.0025000002,0.0025000002,1,0,1,0,1,0
224760965,224661831,2490378,-0.00036426392,-0.00063662574,0.0030671724,0.34906584,2.0062834e-07,2.0235238e-07,4.2774042e-07,2490378,0.13584507,0.05146576,-0.043405343,0.4,0.0005124476,0.0005957259,0.0005124399,396321,0.0,0.0,0.0,0.5,0.0025000002,0.0025000002,0.0025000002,1,0,1,0,1,0
225264911,225165604,2490378,-0.00035773823,-0.00065385,0.003370961,0.34906584,1.988791e-07,2.0042252e-07,4.2746845e-07,2490378,0.13574731,0.050879892,-0.044322032,0.4,0.0005124396,0.00059537234,0.0005124396,396321,0.0,0.0,0.0,0.5,0.0025000002,0.0025000002,0.0025000002,1,0,1,0,1,0
225867405,225768156,2490378,-0.00036607942,-0.00065651955,0.0037109407,0.34906584,1.9827104e-07,1.9964449e-07,4.2743426e-07,2490378,0.1356781,0.050449155,-0.045240283,0.4,0.0005124391,0.00059511873,0.0005124391,396321,0.0,0.0,0.0,0.5,0.0025000002,0.0025000002,0.0025000002,1,0,1,0,1,0
226874804,226775702,2490378,-0.00040895818,-0.00066679926,0.004249646,0.34906584,1.9746012e-07,1.9862992e-07,4.2780442e-07,2490378,0.1354883,0.049832527,-0.045348186,0.4,0.0005124403,0.00059488206,0.00051243947,396321,0.0,0.0,0.0,0.5,0.0025000002,0.0025000002,0.0025000002,1,0,1,0,1,0
227358872,227259720,2490378,-0.0004435005,-0.00066069723,0.004529224,0.34906584,1.9800063e-07,1.9911997e-07,4.2743312e-07,2490378,0.1354688,0.04959069,-0.044214513,0.4,0.00051244535,0.00059484615,0.00051243755,396321,0.0,0.0,0.0,0.5,0.0025000002,0.0025000002,0.0025000002,1,0,1,0,1,0
228060407,227961051,2490378,-0.0004290324,-0.0006221406,0.004875746,0.34906584,1.965622e-07,1.9760876e-07,4.2771126e-07,2490378,0.13562305,0.049171392,-0.045670737,0.4,0.0005124381,0.0005948108,0.0005124381,396321,0.0,0.0,0.0,0.5,0.0025000002,0.0025000002,0.0025000002,1,0,1,0,1,0
228662919,228563604,2490378,-0.0004297283,-0.00060827925,0.005192974,0.34906584,1.9623984e-07,1.9723834e-07,4.277675e-07,2490378,0.13568507,0.048782807,-0.044707306,0.4,0.00051243755,0.00059480895,0.00051243755,396321,0.0,0.0,0.0,0.5,0.0025000002,0.0025000002,0.0025000002,1,0,1,0,1,0
229265449,229166157,2490378,-0.00042098045,-0.00057946175,0.0055175023,0.34906584,1.9600995e-07,1.9696466e-07,4.278098e-07,2490378,0.13580284,0.04839286,-0.043224428,0.4,0.00051243696,0.0005948023,0.00051243696,396321,0.0,0.0,0.0,0.5,0.0025000002,0.0025000002,0.0025000002,1,0,1,0,1,0
230065595,229966268,2490378,-0.00038982864,-0.0005816584,0.0059180553,0.34906584,1.957053e-07,1.9660254e-07,4.282918e-07,2490378,0.13588122,0.047867335,-0.044404633,0.4,0.00051243656,0.00059475383,0.00051243656,396321,0.0,0.0,0.0,0.5,0.0025000002,0.0025000002,0.0025000002,1,0,1,0,1,0
231072967,230973817,2490378,-0.00035352603,-0.0005753425,0.0063921423,0.34906584,1.9539264e-07,1.9617212e-07,4.2852434e-07,2490378,0.13605458,0.04725234,-0.04425546,0.4,0.00051243504,0.00059463363,0.00051243504,396321,0.0,0.0,0.0,0.5,0.0025000002,0.0025000002,0.0025000002,1,0,1,0,1,0
231478112,231378812,2490378,-0.00036981126,-0.0006039811,0.006606029,0.34906584,1.9525206e-07,1.9597277e-07,4.2800113e-07,2490378,0.1359477,0.04686533,-0.04326132,0.4,0.0005124334,0.0005945771,0.0005124334,396321,0.0,0.0,0.0,0.5,0.0025000002,0.0025000002,0.0025000002,1,0,1,0,1,0
232475758,232376484,2490378,-0.00032501644,-0.00066032814,0.007044942,0.34906584,1.9489046e-07,1.9549806e-07,4.2813932e-07,2490378,0.13607839,0.046078358,-0.042634852,0.4,0.0005124308,0.0005944523,0.0005124308,396321,0.0,0.0,0.0,0.5,0.0025000002,0.0025000002,0.0025000002,1,0,1,0,1,0
233068405,232969160,2490378,-0.0003313983,-0.00072132994,0.0072943177,0.34906584,1.946073e-07,1.9516771e-07,4.2806735e-07,2490378,0.13595927,0.04559253,-0.0411342,0.4,0.0005124312,0.0005944154,0.0005124312,396321,0.0,0.0,0.0,0.5,0.0025000002,0.0025000002,0.0025000002,1,0,1,0,1,0
233671012,233571714,2490378,-0.00034724353,-0.00075803115,0.0075194957,0.34906584,1.9445716e-07,1.9497806e-07,4.2807224e-07,2490378,0.13588649,0.04529747,-0.04212976,0.4,0.0005124434,0.0005944306,0.0005124317,396321,0.0,0.0,0.0,0.5,0.0025000002,0.0025000002,0.0025000002,1,0,1,0,1,0
234066088,233966832,2490378,-0.0003445848,-0.00076624274,0.0076564844,0.34906584,1.9431405e-07,1.9481068e-07,4.2823987e-07,2490378,0.13588224,0.045152042,-0.04351379,0.4,0.00051246356,0.0005944559,0.0005124314,396321,0.0,0.0,0.0,0.5,0.0025000002,0.0025000002,0.0025000002,1,0,1,0,1,0
234283318,234184147,2490378,-0.00035346893,-0.0007693753,0.0077335336,0.34906584,1.9444471e-07,1.9492954e-07,4.2814943e-07,2490378,0.13588294,0.045085546,-0.0447127,0.4,0.00051247526,0.00059446995,0.0005124314,396321,0.0,0.0,0.0,0.5,0.0025000002,0.0025000002,0.0025000002,1,0,1,0,1,0
234609249,234510119,2490378,-0.000349851,-0.0007702478,0.007836041,0.34906584,1.955855e-07,1.9605798e-07,4.28396e-07,2490378,0.13587967,0.044985645,-0.045866963,0.4,0.00051249407,0.0005944902,0.0005124317,396321,0.0,0.0,0.0,0.5,0.0025000002,0.0025000002,0.0025000002,1,0,1,0,1,0
234866263,234766946,2490378,-0.00035972695,-0.00077037676,0.007937433,0.34906584,1.9411081e-07,1.9456047e-07,4.279467e-07,2490378,0.13590509,0.04489742,-0.047104117,0.4,0.0005124837,0.0005944834,0.0005124311,396321,0.0,0.0,0.0,0.5,0.0025000002,0.0025000002,0.0025000002,1,0,1,0,1,0
235053883,234954627,2490378,-0.0003709397,-0.0007544602,0.0079859635,0.34906584,1.939745e-07,1.94413e-07,4.2831348e-07,2490378,0.13597035,0.044811103,-0.048137657,0.4,0.00051247625,0.00059447624,0.0005124312,396321,0.0,0.0,0.0,0.5,0.0025000002,0.0025000002,0.0025000002,1,0,1,0,1,0
235261412,235162064,2490378,-0.00038275373,-0.00075900817,0.008074318,0.34906584,1.9397132e-07,1.9439777e-07,4.2814415e-07,2490378,0.13599233,0.044769276,-0.049702004,0.4,0.0005124571,0.00059445744,0.0005124311,396321,0.0,0.0,0.0,0.5,0.0025000002,0.0025000002,0.0025000002,1,0,1,0,1,0
235468748,235369501,2490378,-0.00039227764,-0.00075810216,0.008137659,0.34906584,1.9386091e-07,1.9427424e-07,4.287127e-07,2490378,0.13602355,0.04474076,-0.050959505,0.4,0.0005124314,0.0005944116,0.0005124314,396321,0.0,0.0,0.0,0.5,0.0025000002,0.0025000002,0.0025000002,1,0,1,0,1,0
235666334,235567061,2490378,-0.00039555272,-0.00073480536,0.00823576,0.34906584,1.9357854e-07,1.9397802e-07,4.284436e-07,2490378,0.13616146,0.044549655,-0.053736467,0.4,0.0005124304,0.00059432175,0.0005124304,396321,0.0,0.0,0.0,0.5,0.0025000002,0.0025000002,0.0025000002,1,0,1,0,1,0
235863910,235764619,2490378,-0.0003991261,-0.0007307407,0.008335474,0.34906584,1.9323952e-07,1.9362514e-07,4.2816959e-07,2490378,0.13619357,0.044460595,-0.055216793,0.4,0.0005124316,0.00059418596,0.0005124316,396321,0.0,0.0,0.0,0.5,0.0025000002,0.0025000002,0.0025000002,1,0,1,0,1,0
236762777,236663514,2490378,-0.00040451234,-0.00068067736,0.00863531,0.34906584,1.9340767e-07,1.9375159e-07,4.2812695e-07,2490378,0.13654242,0.043952446,-0.05442659,0.4,0.0005124396,0.0005936804,0.0005124334,396321,0.0,0.0,0.0,0.5,0.0025000002,0.0025000002,0.0025000002,1,0,1,0,1,0
237059251,236959852,2490378,-0.00039811205,-0.0006799739,0.008737863,0.34906584,1.9230971e-07,1.92636e-07,4.2807477e-07,2490378,0.1365221,0.04385455,-0.053201534,0.4,0.00051243167,0.00059349736,0.00051243167,396321,0.0,0.0,0.0,0.5,0.0025000002,0.0025000002,0.0025000002,1,0,1,0,1,0
237434398,237335215,2490378,-0.00039183017,-0.00067740964,0.008873875,0.34906584,1.9407464e-07,1.94391e-07,4.2807295e-07,2490378,0.13651375,0.043716922,-0.052146092,0.4,0.0005124474,0.000593439,0.00051243074,396321,0.0,0.0,0.0,0.5,0.0025000002,0.0025000002,0.0025000002,1,0,1,0,1,0
237671618,237572286,2490378,-0.00038093777,-0.00068577676,0.008952403,0.34906584,1.9249133e-07,1.9279103e-07,4.2815878e-07,2490378,0.13644858,0.043699987,-0.05069027,0.4,0.00051243085,0.0005933169,0.00051243085,396321,0.0,0.0,0.0,0.5,0.0025000002,0.0025000002,0.0025000002,1,0,1,0,1,0
237869114,237769845,2490378,-0.0003633428,-0.0006867418,0.009005624,0.34906584,1.9249745e-07,1.9278683e-07,4.2861626e-07,2490378,0.13638471,0.043650966,-0.049676333,0.4,0.0005124316,0.00059328077,0.0005124316,396321,0.0,0.0,0.0,0.5,0.0025000002,0.0025000002,0.0025000002,1,0,1,0,1,0
238066677,237967405,2490378,-0.00036012632,-0.0006870689,0.0090918075,0.34906584,1.9252255e-07,1.9280229e-07,4.2834233e-07,2490378,0.13638201,0.043593295,-0.048496168,0.4,0.00051243074,0.0005932522,0.00051243074,396321,0.0,0.0,0.0,0.5,0.0025000002,0.0025000002,0.0025000002,1,0,1,0,1,0
238590069,238490937,2490378,-0.000355762,-0.0006795172,0.009301861,0.34906584,1.9386368e-07,1.9412826e-07,4.2833673e-07,2490378,0.13640043,0.04340728,-0.047495127,0.4,0.00051244156,0.0005932297,0.0005124311,396321,0.0,0.0,0.0,0.5,0.0025000002,0.0025000002,0.0025000002,1,0,1,0,1,0
238669217,238569961,2490378,-0.0003573923,-0.0006767922,0.009330384,0.34906584,1.9272629e-07,1.9298439e-07,4.283742e-07,2490378,0.13641182,0.043385684,-0.04644463,0.4,0.00051243074,0.0005932107,0.00051243074,396321,0.0,0.0,0.0,0.5,0.0025000002,0.0025000002,0.0025000002,1,0,1,0,1,0
238906192,238807034,2490378,-0.00035969447,-0.0006812654,0.009419414,0.34906584,1.9315553e-07,1.9340791e-07,4.284986e-07,2490378,0.13642149,0.043340117,-0.04534215,0.4,0.00051243464,0.000593207,0.0005124289,396321,0.0,0.0,0.0,0.5,0.0025000002,0.0025000002,0.0025000002,1,0,1,0,1,0
239064364,238965080,2490378,-0.00035228624,-0.0006776664,0.009477153,0.34906584,1.928059e-07,1.9305297e-07,4.285825e-07,2490378,0.13641423,0.043298725,-0.04403543,0.4,0.0005124385,0.0005932048,0.0005124308,396321,0.0,0.0,0.0,0.5,0.0025000002,0.0025000002,0.0025000002,1,0,1,0,1,0
239271763,239172517,2490378,-0.00034212516,-0.0006862861,0.009562477,0.34906584,1.9292268e-07,1.931639e-07,4.2841455e-07,2490378,0.13639703,0.0432734,-0.042592105,0.4,0.00051244773,0.00059320754,0.00051243085,396321,0.0,0.0,0.0,0.5,0.0025000002,0.0025000002,0.0025000002,1,0,1,0,1,0
239469368,239370077,2490378,-0.0003344603,-0.00070087955,0.009619325,0.34906584,1.9294083e-07,1.9317689e-07,4.2888783e-07,2490378,0.13638146,0.043278653,-0.041406393,0.4,0.0005124584,0.000593213,0.00051243074,396321,0.0,0.0,0.0,0.5,0.0025000002,0.0025000002,0.0025000002,1,0,1,0,1,0
239834700,239735562,2490378,-0.00033737707,-0.0007064155,0.009763442,0.34906584,1.9463884e-07,1.9487018e-07,4.2880657e-07,2490378,0.13639656,0.043188427,-0.04027026,0.4,0.00051248615,0.000593235,0.0005124308,396321,0.0,0.0,0.0,0.5,0.0025000002,0.0025000002,0.0025000002,1,0,1,0,1,0
239864463,239765199,2490378,-0.00034265875,-0.00071680866,0.009791571,0.34906584,1.9298855e-07,1.9321618e-07,4.2835785e-07,2490378,0.13640027,0.043184947,-0.039029747,0.4,0.0005124825,0.0005932272,0.0005124276,396321,0.0,0.0,0.0,0.5,0.0025000002,0.0025000002,0.0025000002,1,0,1,0,1,0
240872049,240772750,2490378,-0.00036515674,-0.0007495686,0.010156601,0.34906584,1.9306856e-07,1.9328346e-07,4.2870252e-07,2490378,0.1364254,0.042905368,-0.038063046,0.4,0.0005125676,0.00059329247,0.00051243056,396321,0.0,0.0,0.0,0.5,0.0025000002,0.0025000002,0.0025000002,1,0,1,0,1,0
241859844,241760548,2490378,-0.00037098693,-0.0007114623,0.010523951,0.34906584,1.9298292e-07,1.9319502e-07,4.288188e-07,2490378,0.1364252,0.042699687,-0.03667722,0.4,0.0005126286,0.0005933251,0.0005124308,396321,0.0,0.0,0.0,0.5,0.0025000002,0.0025000002,0.0025000002,1,0,1,0,1,0
242867378,242768103,2490378,-0.00033793243,-0.0006627054,0.010878336,0.34906584,1.929664e-07,1.9317369e-07,4.2911495e-07,2490378,0.13650635,0.0425479,-0.036843475,0.4,0.0005126653,0.00059332506,0.0005124304,396321,0.0,0.0,0.0,0.5,0.0025000002,0.0025000002,0.0025000002,1,0,1,0,1,0
243272368,243173101,2490378,-0.00030769318,-0.00065974874,0.0110311685,0.34906584,1.9297657e-07,1.9317652e-07,4.2864303e-07,2490378,0.13658507,0.042450387,-0.035341952,0.4,0.00051267777,0.00059332466,0.0005124304,396321,0.0,0.0,0.0,0.5,0.0025000002,0.0025000002,0.0025000002,1,0,1,0,1,0
244279844,244180658,2490378,-0.00024988898,-0.0007269572,0.011330122,0.34906584,1.9297941e-07,1.9315131e-07,4.2890366e-07,2490378,0.13670169,0.04211779,-0.03499637,0.4,0.0005127293,0.0005933579,0.0005124282,396321,0.0,0.0,0.0,0.5,0.0025000002,0.0025000002,0.0025000002,1,0,1,0,1,0
245050384,244951140,2490378,-0.00023458392,-0.00078867935,0.0115352785,0.34906584,1.9264803e-07,1.9280799e-07,4.2908647e-07,2490378,0.13668759,0.041920647,-0.033670295,0.4,0.0005127915,0.00059341633,0.0005124299,396321,0.0,0.0,0.0,0.5,0.0025000002,0.0025000002,0.0025000002,1,0,1,0,1,0
246058014,245958696,2490378,-0.00031513363,-0.0008652131,0.011815636,0.34906584,1.9267694e-07,1.9283507e-07,4.2853108e-07,2490378,0.13664672,0.041686155,-0.033496503,0.4,0.0005128772,0.00059349963,0.0005124296,396321,0.0,0.0,0.0,0.5,0.0025000002,0.0025000002,0.0025000002,1,0,1,0,1,0
247065518,246966252,2490378,-0.00042152446,-0.0008500936,0.012064279,0.34906584,1.926948e-07,1.9285696e-07,4.2864716e-07,2490378,0.13670455,0.041497678,-0.033049565,0.4,0.00051296176,0.00059358275,0.0005124293,396321,0.0,0.0,0.0,0.5,0.0025000002,0.0025000002,0.0025000002,1,0,1,0,1,0
247648377,247549054,2490378,-0.0004531829,-0.00077846966,0.012197046,0.34906584,1.9264594e-07,1.9281929e-07,4.2835597e-07,2490378,0.1367537,0.041329727,-0.031767216,0.4,0.00051300775,0.0005936232,0.00051242916,396321,0.0,0.0,0.0,0.5,0.0025000002,0.0025000002,0.0025000002,1,0,1,0,1,0
248270677,248171369,2490378,-0.00042784587,-0.0007034164,0.012211716,0.34906584,1.9315752e-07,1.9335393e-07,4.3125192e-07,2490378,0.13659549,0.04129694,-0.03053415,0.4,0.0005130317,0.0005936133,0.00051242806,396321,0.0,0.0,0.0,0.5,0.0025000002,0.0025000002,0.0025000002,1,0,1,0,1,0
248665761,248566490,2490378,-0.00039196425,-0.00067228486,0.01220382,0.34906584,1.9336093e-07,1.9356786e-07,4.336645e-07,2490378,0.13644667,0.041385643,-0.029221246,0.4,0.0005130291,0.0005935725,0.0005124269,396321,0.0,0.0,0.0,0.5,0.0025000002,0.0025000002,0.0025000002,1,0,1,0,1,0
249465876,249366608,2490378,-0.000290747,-0.00064704934,0.012184494,0.34906584,1.9383013e-07,1.9401737e-07,4.3812545e-07,2490378,0.13617305,0.041782096,-0.02804254,0.4,0.00051301863,0.00059347163,0.0005124269,396321,0.0,0.0,0.0,0.5,0.0025000002,0.0025000002,0.0025000002,1,1,1,1,1,0
249663488,249564169,2490378,-0.0002688425,-0.00065972545,0.012179248,0.34906584,1.9388756e-07,1.9405984e-07,4.3910475e-07,2490378,0.13616584,0.041872658,-0.026845498,0.4,0.0005130201,0.00059345376,0.0005124259,396321,0.0,0.0,0.0,0.5,0.0025000002,0.0025000002,0.0025000002,1,1,1,1,1,0
249860978,249761729,2490378,-0.00024336252,-0.0006749321,0.012173341,0.34906584,1.939343e-07,1.9408974e-07,4.4037972e-07,2490378,0.13616057,0.041973844,-0.025738493,0.4,0.0005130251,0.0005934423,0.0005124259,396321,0.0,0.0,0.0,0.5,0.0025000002,0.0025000002,0.0025000002,1,1,1,1,1,0
250256145,250156849,2490378,-0.00018669375,-0.00073048804,0.012158447,0.34906584,1.9399944e-07,1.9411974e-07,4.426185e-07,2490378,0.13620573,0.04218739,-0.024137001,0.4,0.00051304203,0.00059343275,0.0005124259,396321,0.0,0.0,0.0,0.5,0.0025000002,0.0025000002,0.0025000002,1,1,1,1,1,0
251263676,251164407,2490378,-0.00013686884,-0.00088394963,0.012131743,0.34906584,1.9393329e-07,1.9400473e-07,4.477794e-07,2490378,0.13634089,0.042241056,-0.02440411,0.4,0.0005131131,0.0005934776,0.0005124238,396321,0.0,0.0,0.0,0.5,0.0025000002,0.0025000002,0.0025000002,1,1,1,1,1,0
251866278,251766966,2490378,1.0450253e-05,-0.00091378606,0.0120751085,0.34906584,1.9384586e-07,1.9385256e-07,4.5014716e-07,2490378,0.1366742,0.0421979,-0.025591185,0.4,0.0005131357,0.0005935071,0.00051242294,396321,0.0,0.0,0.0,0.5,0.0025000002,0.0025000002,0.0025000002,1,1,1,1,1,0
252261356,252162087,2490378,0.00017278657,-0.00097040005,0.011986594,0.34906584,1.9370296e-07,1.9362272e-07,4.5126416e-07,2490378,0.13715658,0.041817218,-0.02738101,0.4,0.00051310466,0.00059349416,0.0005124223,396321,0.0,0.0,0.0,0.5,0.0025000002,0.0025000002,0.0025000002,1,1,1,1,1,0
252676233,252576964,2490378,0.00024529648,-0.0010747698,0.011956133,0.34906584,1.9358714e-07,1.9347932e-07,4.5342355e-07,2490378,0.13728692,0.041149933,-0.028191386,0.4,0.00051302096,0.00059340865,0.00051242136,396321,0.0,0.0,0.0,0.5,0.0025000002,0.0025000002,0.0025000002,1,1,1,1,1,0
252972473,252873305,2490378,0.00023635043,-0.0011193188,0.011951403,0.34906584,1.9446962e-07,1.9437768e-07,4.5488372e-07,2490378,0.13713796,0.040919375,-0.029185737,0.4,0.00051297137,0.0005933457,0.0005124211,396321,0.0,0.0,0.0,0.5,0.0025000002,0.0025000002,0.0025000002,1,1,1,1,1,0
253476332,253377084,2490378,6.979552e-05,-0.0012946657,0.011838113,0.34906584,1.9313043e-07,1.9315681e-07,4.5537817e-07,2490378,0.13556452,0.040271375,-0.029745553,0.4,0.0005126897,0.00059296493,0.0005124212,396321,0.0,0.0,0.0,0.5,0.0025000002,0.0025000002,0.0025000002,1,1,1,1,1,0
253673935,253574644,2490378,-9.901993e-05,-0.0013337401,0.011676686,0.34906584,1.9298845e-07,1.930393e-07,4.5375614e-07,2490378,0.13425307,0.040668305,-0.029879302,0.4,0.00051259063,0.00059281354,0.00051242136,396321,0.0,0.0,0.0,0.5,0.0025000002,0.0025000002,0.0025000002,1,1,1,1,1,0
253871472,253772205,2490378,-0.00029990042,-0.0013401364,0.011427496,0.34906584,1.9291494e-07,1.9294444e-07,4.5118256e-07,2490378,0.13283771,0.041458048,-0.030575514,0.4,0.0005125035,0.0005926717,0.0005124212,396321,0.0,0.0,0.0,0.5,0.0025000002,0.0025000002,0.0025000002,1,1,1,1,1,0
254069006,253969765,2490378,-0.000532007,-0.0013255,0.011074613,0.34906584,1.9292082e-07,1.9286685e-07,4.467083e-07,2490378,0.13138872,0.042581245,-0.03209875,0.4,0.0005124325,0.00059254933,0.00051242136,396321,0.0,0.0,0.0,0.5,0.0025000002,0.0025000002,0.0025000002,1,1,1,1,1,0
254267272,254167326,2490378,-0.00053562806,-0.0013235741,0.011072759,0.34906584,1.9471321e-07,1.9465048e-07,4.4764045e-07,2490378,0.13137573,0.042595085,-0.03326379,0.4,0.0005124474,0.00059256336,0.0005124212,396321,0.0,0.0,0.0,0.5,0.0025000002,0.0025000002,0.0025000002,1,1,1,1,1,0
254552921,254453789,2490378,-0.00054876856,-0.0013222668,0.0110642025,0.34906584,1.9731249e-07,1.9724611e-07,4.493515e-07,2490378,0.13133645,0.04261863,-0.032195702,0.4,0.00051246886,0.000592582,0.00051242084,396321,0.0,0.0,0.0,0.5,0.0025000002,0.0025000002,0.0025000002,1,1,1,1,1,0
254879026,254779764,2490378,-0.00059789856,-0.0013004662,0.011011515,0.34906584,1.9983158e-07,1.9977257e-07,4.502023e-07,2490378,0.13118488,0.042862248,-0.033433147,0.4,0.00051248394,0.00059258763,0.0005124203,396321,0.0,0.0,0.0,0.5,0.0025000002,0.0025000002,0.0025000002,1,1,1,1,1,0
255264306,255165007,2490378,-0.00068629545,-0.0012422791,0.0108877495,0.34906584,2.0254855e-07,2.0249944e-07,4.5075822e-07,2490378,0.13106585,0.04339799,-0.034497704,0.4,0.00051249703,0.0005925731,0.0005124212,396321,0.0,0.0,0.0,0.5,0.0025000002,0.0025000002,0.0025000002,1,1,1,1,1,0
255462229,255362567,2490378,-0.000742227,-0.0011947355,0.010797373,0.34906584,2.0378651e-07,2.0374071e-07,4.5091176e-07,2490378,0.13107139,0.04377919,-0.035461336,0.4,0.00051250024,0.0005925513,0.0005124212,396321,0.0,0.0,0.0,0.5,0.0025000002,0.0025000002,0.0025000002,1,1,1,1,1,0
256044605,255945371,2490378,-0.0008749834,-0.0010610442,0.0105760135,0.34906584,2.077205e-07,2.0768607e-07,4.5121755e-07,2490378,0.13142599,0.04448901,-0.034795064,0.4,0.00051251624,0.0005924769,0.0005124212,396321,0.0,0.0,0.0,0.5,0.0025000002,0.0025000002,0.0025000002,1,1,1,1,1,0
256064508,255965127,2490378,-0.00095349114,-0.0005341163,0.010110468,0.34906584,2.0160691e-07,2.0197692e-07,4.4633606e-07,2490378,0.13446367,0.042552188,-0.035753306,0.4,0.0005124212,0.00059213955,0.0005124212,396321,0.0,0.0,0.0,0.5,0.0025000002,0.0025000002,0.0025000002,1,1,1,1,1,0
256262581,256162688,2490378,-0.00091274275,-0.00024726996,0.009878988,0.34906584,1.9877506e-07,1.9953374e-07,4.4446446e-07,2490378,0.1356448,0.040798422,-0.035775695,0.4,0.0005124212,0.0005917766,0.0005124212,396321,0.0,0.0,0.0,0.5,0.0025000002,0.0025000002,0.0025000002,1,1,1,1,1,0
256479321,256380005,2490378,-0.0007825622,-8.2785475e-05,0.009703469,0.34906584,1.970525e-07,1.9802611e-07,4.432553e-07,2490378,0.13545525,0.039137643,-0.03522348,0.4,0.0005124208,0.0005913369,0.0005124208,396321,0.0,0.0,0.0,0.5,0.0025000002,0.0025000002,0.0025000002,1,1,1,1,1,0
256657767,256557809,2490378,-0.00062066136,-1.2316599e-05,0.009516724,0.34906584,1.9566026e-07,1.966789e-07,4.4142743e-07,2490378,0.1343455,0.038106002,-0.035598177,0.4,0.0005124212,0.0005908227,0.0005124212,396321,0.0,0.0,0.0,0.5,0.0025000002,0.0025000002,0.0025000002,1,1,1,1,1,0
256864643,256765248,2490378,-0.0004481321,-2.0016707e-05,0.009281951,0.34906584,1.94941e-07,1.9587286e-07,4.3864335e-07,2490378,0.13245344,0.03776751,-0.03606573,0.4,0.0005124212,0.0005901883,0.0005124212,396321,0.0,0.0,0.0,0.5,0.0025000002,0.0025000002,0.0025000002,1,1,1,1,1,0
257062604,256962809,2490378,-0.00027818824,-5.305602e-05,0.009028549,0.34906584,1.9444118e-07,1.9521887e-07,4.3548204e-07,2490378,0.13015102,0.037736468,-0.03626855,0.4,0.0005124205,0.0005894493,0.0005124205,396321,0.0,0.0,0.0,0.5,0.0025000002,0.0025000002,0.0025000002,1,1,1,1,1,0
257269609,257170247,2490378,-0.000113651906,-0.00010405042,0.008767164,0.34906584,1.9426756e-07,1.9485468e-07,4.327811e-07,2490378,0.12747899,0.038017098,-0.035386123,0.4,0.0005124212,0.00058860285,0.0005124212,396321,0.0,0.0,0.0,0.5,0.0025000002,0.0025000002,0.0025000002,1,1,1,1,1,0
257477601,257377686,2490378,3.9659262e-05,-0.00016325609,0.008525152,0.34906584,1.9425745e-07,1.94642e-07,4.3029925e-07,2490378,0.12458765,0.038627464,-0.034804046,0.4,0.0005124212,0.0005876464,0.0005124212,396321,0.0,0.0,0.0,0.5,0.0025000002,0.0025000002,0.0025000002,1,1,1,1,1,0
257664821,257565369,2490378,0.00016046812,-0.00023784328,0.008340814,0.34906584,1.941711e-07,1.9438193e-07,4.287971e-07,2490378,0.12180056,0.039824564,-0.035346843,0.4,0.00051242084,0.00058661075,0.00051242084,396321,0.0,0.0,0.0,0.5,0.0025000002,0.0025000002,0.0025000002,1,1,1,1,1,0
257862750,257762929,2490378,0.00024365724,-0.0003131509,0.008231763,0.34906584,1.9423334e-07,1.9432913e-07,4.2888374e-07,2490378,0.119448386,0.041351598,-0.035681635,0.4,0.00051242154,0.0005855027,0.00051242154,396321,0.0,0.0,0.0,0.5,0.0025000002,0.0025000002,0.0025000002,1,1,1,1,1,0
258050009,257950612,2490378,0.0002897497,-0.00038184074,0.008175552,0.34906584,1.9425275e-07,1.9429955e-07,4.292479e-07,2490378,0.117768586,0.043051578,-0.03614697,0.4,0.0005124212,0.00058434973,0.0005124212,396321,0.0,0.0,0.0,0.5,0.0025000002,0.0025000002,0.0025000002,1,1,1,1,1,0
258257968,258158051,2490378,0.00027449697,-0.00047223837,0.0081302505,0.34906584,1.9440246e-07,1.9448201e-07,4.3012517e-07,2490378,0.11715881,0.04561665,-0.037051752,0.4,0.0005124212,0.0005831266,0.0005124212,396321,0.0,0.0,0.0,0.5,0.0025000002,0.0025000002,0.0025000002,1,1,1,1,1,0
258494611,258395124,2490378,0.00020787954,-0.00057546666,0.008046754,0.34906584,1.9474699e-07,1.9491836e-07,4.2965928e-07,2490378,0.1177251,0.04855515,-0.03753849,0.4,0.0005124212,0.0005818239,0.0005124212,396321,0.0,0.0,0.0,0.5,0.0025000002,0.0025000002,0.0025000002,1,1,1,1,1,0
258662873,258563051,2490378,0.00011919798,-0.000650029,0.007942273,0.34906584,1.945662e-07,1.9480854e-07,4.2872398e-07,2490378,0.11921123,0.05072288,-0.037905622,0.4,0.00051242067,0.0005805434,0.00051242067,396321,0.0,0.0,0.0,0.5,0.0025000002,0.0025000002,0.0025000002,1,1,1,1,1,0
258860044,258760612,2490378,-3.0081117e-06,-0.0007138379,0.0077948403,0.34906584,1.9471365e-07,1.9499954e-07,4.2762224e-07,2490378,0.121682785,0.052699517,-0.03996428,0.4,0.0005124203,0.00057923875,0.0005124203,396321,0.0,0.0,0.0,0.5,0.0025000002,0.0025000002,0.0025000002,1,1,1,1,1,0
259068032,258968050,2490378,-0.00013643346,-0.0007650806,0.0076300357,0.34906584,1.9498208e-07,1.9526266e-07,4.2619374e-07,2490378,0.1245837,0.054209605,-0.041297294,0.4,0.0005124212,0.00057792116,0.0005124212,396321,0.0,0.0,0.0,0.5,0.0025000002,0.0025000002,0.0025000002,1,1,1,1,1,0
259255148,259155733,2490378,-0.00023696624,-0.00080753065,0.0075145685,0.34906584,1.9515291e-07,1.9537967e-07,4.2522075e-07,2490378,0.12679434,0.055404875,-0.042576574,0.4,0.0005124212,0.0005766395,0.0005124212,396321,0.0,0.0,0.0,0.5,0.0025000002,0.0025000002,0.0025000002,1,1,1,1,1,0
259462996,259363172,2490378,-0.00030891184,-0.00084416807,0.007437672,0.34906584,1.9552246e-07,1.9566323e-07,4.251954e-07,2490378,0.12830557,0.056457452,-0.044094678,0.4,0.0005124212,0.00057539874,0.0005124212,396321,0.0,0.0,0.0,0.5,0.0025000002,0.0025000002,0.0025000002,1,1,1,1,1,0
259660162,259560733,2490378,-0.000363536,-0.0009056611,0.00736731,0.34906584,1.9579603e-07,1.958332e-07,4.2500443e-07,2490378,0.12932567,0.058030292,-0.044544376,0.4,0.0005124212,0.0005742375,0.0005124212,396321,0.0,0.0,0.0,0.5,0.0025000002,0.0025000002,0.0025000002,1,1,1,1,1,0
259858279,259758294,2490378,-0.00041974595,-0.00096254837,0.0073065087,0.34906584,1.9608953e-07,1.9602388e-07,4.2519068e-07,2490378,0.13043694,0.05938242,-0.044909377,0.4,0.00051242096,0.0005731568,0.00051242096,396321,0.0,0.0,0.0,0.5,0.0025000002,0.0025000002,0.0025000002,1,1,1,1,1,0
260055236,259955855,2490378,-0.00047121543,-0.0010119486,0.007264169,0.34906584,1.9636929e-07,1.9620423e-07,4.2601314e-07,2490378,0.1314279,0.060561668,-0.046110343,0.4,0.00051242067,0.0005721577,0.00051242067,396321,0.0,0.0,0.0,0.5,0.0025000002,0.0025000002,0.0025000002,1,1,1,1,1,0
260263085,260163294,2490378,-0.00050268555,-0.0010520128,0.007238814,0.34906584,1.967142e-07,1.9645044e-07,4.2681003e-07,2490378,0.13198921,0.061488904,-0.04710342,0.4,0.00051242067,0.00057124026,0.00051242067,396321,0.0,0.0,0.0,0.5,0.0025000002,0.0025000002,0.0025000002,1,1,1,1,1,0
260479965,260380611,2490378,-0.0005277695,-0.0010754974,0.007223374,0.34906584,1.9710713e-07,1.9675984e-07,4.278661e-07,2490378,0.13243157,0.062005598,-0.047944684,0.4,0.0005124205,0.0005704024,0.0005124205,396321,0.0,0.0,0.0,0.5,0.0025000002,0.0025000002,0.0025000002,1,1,1,1,1,0
260658287,260558415,2490378,-0.0005339499,-0.0011020871,0.007212018,0.34906584,1.9712981e-07,1.9672868e-07,4.288891e-07,2490378,0.13250363,0.0626125,-0.048855875,0.4,0.0005124212,0.0005696581,0.0005124212,396321,0.0,0.0,0.0,0.5,0.0025000002,0.0025000002,0.0025000002,1,1,1,1,1,0
260865219,260765855,2490378,-0.00049513736,-0.0011233528,0.007192045,0.34906584,1.9736807e-07,1.9695695e-07,4.2960676e-07,2490378,0.13179326,0.063166246,-0.049694832,0.4,0.00051242026,0.0005690004,0.00051242026,396321,0.0,0.0,0.0,0.5,0.0025000002,0.0025000002,0.0025000002,1,1,1,1,1,0
261053114,260953537,2490378,-0.0004252316,-0.0011552963,0.0071387966,0.34906584,1.9741267e-07,1.9704378e-07,4.2971843e-07,2490378,0.1306927,0.063880965,-0.049604684,0.4,0.0005124212,0.0005684355,0.0005124212,396321,0.0,0.0,0.0,0.5,0.0025000002,0.0025000002,0.0025000002,1,1,1,1,1,0
261270311,261170854,2490378,-0.0003335096,-0.0011974253,0.007042169,0.34906584,1.9769533e-07,1.9742266e-07,4.2904622e-07,2490378,0.1294391,0.06477967,-0.049531575,0.4,0.0005124212,0.0005679596,0.0005124212,396321,0.0,0.0,0.0,0.5,0.0025000002,0.0025000002,0.0025000002,1,1,1,1,1,0
261468347,261368415,2490378,-0.00022932794,-0.001251723,0.006915495,0.34906584,1.9774498e-07,1.97593e-07,4.2787943e-07,2490378,0.12818973,0.065725654,-0.04958287,0.4,0.0005124212,0.00056758086,0.0005124212,396321,0.0,0.0,0.0,0.5,0.0025000002,0.0025000002,0.0025000002,1,1,1,1,1,0
261665348,261565976,2490378,-0.00013192213,-0.001300706,0.0068002366,0.34906584,1.9780394e-07,1.9776678e-07,4.272111e-07,2490378,0.12721191,0.06647678,-0.049052376,0.4,0.0005124212,0.00056728994,0.0005124212,396321,0.0,0.0,0.0,0.5,0.0025000002,0.0025000002,0.0025000002,1,1,1,1,1,0
261912072,261812930,2490378,-4.4713554e-05,-0.0013393112,0.006709365,0.34906584,1.9836102e-07,1.9841457e-07,4.2691855e-07,2490378,0.12645957,0.067054816,-0.049449053,0.4,0.0005124227,0.00056707166,0.0005124184,396321,0.0,0.0,0.0,0.5,0.0025000002,0.0025000002,0.0025000002,1,1,1,1,1,0
262268376,262168538,2490378,0.00011337224,-0.001425696,0.00656925,0.34906584,1.980829e-07,1.9826251e-07,4.2720237e-07,2490378,0.12563989,0.067924775,-0.048541717,0.4,0.0005124203,0.00056683493,0.0005124203,396321,0.0,0.0,0.0,0.5,0.0025000002,0.0025000002,0.0025000002,1,1,1,1,1,0
263275337,263176099,2490378,0.0003721472,-0.0015636419,0.006415102,0.34906584,1.9839476e-07,1.9873139e-07,4.3082034e-07,2490378,0.12577774,0.068384476,-0.048739813,0.4,0.000512423,0.0005667236,0.00051242294,396321,0.0,0.0,0.0,0.5,0.0025000002,0.0025000002,0.0025000002,1,1,1,1,1,0
263660704,263561343,2490378,0.00042713515,-0.0016233808,0.006394005,0.34906584,1.9822537e-07,1.9859958e-07,4.3295285e-07,2490378,0.12625231,0.06811965,-0.047720805,0.4,0.0005124212,0.00056660903,0.0005124212,396321,0.0,0.0,0.0,0.5,0.0025000002,0.0025000002,0.0025000002,1,1,1,1,1,0
263927184,263828051,2490378,0.0004445559,-0.0016608903,0.0063858833,0.34906584,1.988633e-07,1.992585e-07,4.3464985e-07,2490378,0.12652124,0.067840934,-0.04645213,0.4,0.0005124268,0.0005665105,0.00051242084,396321,0.0,0.0,0.0,0.5,0.0025000002,0.0025000002,0.0025000002,1,1,1,1,1,0
263976575,263877441,2490378,0.00044452466,-0.0016608933,0.0063858903,0.34906584,1.9935106e-07,1.997453e-07,4.3484874e-07,2490378,0.12654026,0.06779113,-0.04524481,0.4,0.0005124314,0.00056651357,0.0005124212,396321,0.0,0.0,0.0,0.5,0.0025000002,0.0025000002,0.0025000002,1,1,1,1,1,0
264065629,263966344,2490378,0.0004521409,-0.0017593828,0.006368177,0.34906584,1.9816358e-07,1.9863995e-07,4.350406e-07,2490378,0.12699626,0.06695317,-0.04488164,0.4,0.0005124205,0.00056635845,0.0005124205,396321,0.0,0.0,0.0,0.5,0.0025000002,0.0025000002,0.0025000002,1,1,1,1,1,0
264193935,264094758,2490378,0.00045211933,-0.0017594029,0.0063681914,0.34906584,1.9943202e-07,1.9990604e-07,4.35726e-07,2490378,0.12701286,0.06690703,-0.043711443,0.4,0.0005124325,0.00056636694,0.00051242136,396321,0.0,0.0,0.0,0.5,0.0025000002,0.0025000002,0.0025000002,1,1,1,1,1,0
264263445,264163905,2490378,0.00038304727,-0.001864846,0.0062617008,0.34906584,1.9799272e-07,1.9861439e-07,4.3370073e-07,2490378,0.12685847,0.06564946,-0.04350171,0.4,0.00051242084,0.0005661587,0.00051242084,396321,0.0,0.0,0.0,0.5,0.0025000002,0.0025000002,0.0025000002,1,1,1,1,1,0
264411226,264312076,2490378,0.00038303144,-0.001864933,0.0062617315,0.34906584,1.9945614e-07,2.0007512e-07,4.345861e-07,2490378,0.12687379,0.06559277,-0.041993033,0.4,0.00051243365,0.0005661679,0.00051242067,396321,0.0,0.0,0.0,0.5,0.0025000002,0.0025000002,0.0025000002,1,1,1,1,1,0
264490528,264391100,2490378,0.0002534386,-0.002006888,0.005983894,0.34906584,1.9804025e-07,1.9878115e-07,4.290277e-07,2490378,0.12618862,0.063499525,-0.04230335,0.4,0.0005124212,0.0005658951,0.0005124212,396321,0.0,0.0,0.0,0.5,0.0025000002,0.0025000002,0.0025000002,1,1,1,1,1,0
264628578,264529393,2490378,0.00025343357,-0.0020070558,0.0059839548,0.34906584,1.994063e-07,2.0014447e-07,4.2984286e-07,2490378,0.12619416,0.06345038,-0.040924817,0.4,0.0005124334,0.0005659039,0.00051242113,396321,0.0,0.0,0.0,0.5,0.0025000002,0.0025000002,0.0025000002,1,1,1,1,1,0
264865684,264766466,2490378,0.00024351153,-0.0020135827,0.005974084,0.34906584,2.0141223e-07,2.0207762e-07,4.3118962e-07,2490378,0.12643743,0.06343732,-0.04236346,0.4,0.0005124212,0.000565915,0.0005124212,396321,0.0,0.0,0.0,0.5,0.0025000002,0.0025000002,0.0025000002,1,1,1,1,1,0
265013775,264914637,2490378,0.00024350657,-0.0020137925,0.005974141,0.34906584,2.0287588e-07,2.0353892e-07,4.3209133e-07,2490378,0.12643455,0.06340198,-0.04134047,0.4,0.0005124343,0.0005659247,0.0005124212,396321,0.0,0.0,0.0,0.5,0.0025000002,0.0025000002,0.0025000002,1,1,1,1,1,0
265063479,264964028,2490378,0.00022762142,-0.0020215423,0.0059522307,0.34906584,2.0308838e-07,2.0369538e-07,4.3220757e-07,2490378,0.12660468,0.06334552,-0.042714108,0.4,0.0005124205,0.0005659189,0.0005124205,396321,0.0,0.0,0.0,0.5,0.0025000002,0.0025000002,0.0025000002,1,1,1,1,1,0
265270700,265171467,2490378,0.00019998345,-0.0020348192,0.005905931,0.34906584,2.047649e-07,2.0529467e-07,4.3261065e-07,2490378,0.12672552,0.06317693,-0.04371753,0.4,0.0005124212,0.0005659141,0.0005124212,396321,0.0,0.0,0.0,0.5,0.0025000002,0.0025000002,0.0025000002,1,1,1,1,1,0
265329870,265230735,2490378,0.0001999741,-0.002035179,0.0059060086,0.34906584,2.0535035e-07,2.0587896e-07,4.329127e-07,2490378,0.12671092,0.06314075,-0.04263393,0.4,0.00051242625,0.0005659174,0.0005124212,396321,0.0,0.0,0.0,0.5,0.0025000002,0.0025000002,0.0025000002,1,1,1,1,1,0
265655840,265556712,2490378,0.00015653968,-0.0020542368,0.0058263633,0.34906584,2.0810239e-07,2.0853368e-07,4.3365512e-07,2490378,0.12646988,0.06281913,-0.041600782,0.4,0.00051243603,0.0005659056,0.0005124203,396321,0.0,0.0,0.0,0.5,0.0025000002,0.0025000002,0.0025000002,1,1,1,1,1,0
265665824,265566590,2490378,9.417652e-05,-0.0020823812,0.005700482,0.34906584,2.0761347e-07,2.079207e-07,4.3161188e-07,2490378,0.12578116,0.062359475,-0.040591072,0.4,0.0005124205,0.0005658522,0.0005124205,396321,0.0,0.0,0.0,0.5,0.0025000002,0.0025000002,0.0025000002,1,1,1,1,1,0
265922555,265823419,2490378,1.3802795e-05,-0.0021058463,0.0055227233,0.34906584,2.0947013e-07,2.0960626e-07,4.3006196e-07,2490378,0.12531514,0.061721537,-0.039357632,0.4,0.000512426,0.0005657936,0.0005124212,396321,0.0,0.0,0.0,0.5,0.0025000002,0.0025000002,0.0025000002,1,1,1,1,1,0
266060906,265961712,2490378,-8.719649e-05,-0.0021355024,0.0052825226,0.34906584,2.1004949e-07,2.0995523e-07,4.2709067e-07,2490378,0.12451192,0.060912777,-0.03930337,0.4,0.0005124212,0.0005656985,0.0005124212,396321,0.0,0.0,0.0,0.5,0.0025000002,0.0025000002,0.0025000002,1,1,1,1,1,0
266258825,266159274,2490378,-0.00020588172,-0.0021614656,0.004979769,0.34906584,2.1113966e-07,2.10731e-07,4.2315438e-07,2490378,0.12382468,0.059917696,-0.0403858,0.4,0.00051242026,0.00056557707,0.00051242026,396321,0.0,0.0,0.0,0.5,0.0025000002,0.0025000002,0.0025000002,1,1,1,1,1,0
266485829,266386469,2490378,-0.00034252045,-0.0022004526,0.004609548,0.34906584,2.1243521e-07,2.1158873e-07,4.1822378e-07,2490378,0.12293278,0.058578443,-0.04179509,0.4,0.00051242096,0.0005654207,0.00051242096,396321,0.0,0.0,0.0,0.5,0.0025000002,0.0025000002,0.0025000002,1,1,1,1,1,0
266663602,266564274,2490378,-0.0004889124,-0.002230275,0.004197705,0.34906584,2.1325809e-07,2.1186732e-07,4.125813e-07,2490378,0.12189566,0.057195242,-0.043009184,0.4,0.0005124212,0.0005652388,0.0005124212,396321,0.0,0.0,0.0,0.5,0.0025000002,0.0025000002,0.0025000002,1,1,1,1,1,0
266851114,266751958,2490378,-0.00049483817,-0.0022365125,0.004263935,0.34906584,2.1509847e-07,2.1370998e-07,4.1256277e-07,2490378,0.12171597,0.05728362,-0.041594133,0.4,0.00051242084,0.0005652473,0.0005124203,396321,0.0,0.0,0.0,0.5,0.0025000002,0.0025000002,0.0025000002,1,1,1,1,1,0
266861055,266761836,2490378,-0.0006478666,-0.00226082,0.003815232,0.34906584,2.1426887e-07,2.1220647e-07,4.0526237e-07,2490378,0.120992266,0.055774666,-0.044406343,0.4,0.0005124205,0.00056502596,0.0005124205,396321,0.0,0.0,0.0,0.5,0.0025000002,0.0025000002,0.0025000002,1,1,1,1,1,0
267059024,266959397,2490378,-0.00081042707,-0.002286664,0.0034016075,0.34906584,2.1529893e-07,2.1243375e-07,3.9785888e-07,2490378,0.12027943,0.05425785,-0.046834815,0.4,0.00051242113,0.0005647915,0.00051242113,396321,0.0,0.0,0.0,0.5,0.0025000002,0.0025000002,0.0025000002,1,1,1,1,1,0
267256180,267156958,2490378,-0.000971722,-0.0023142535,0.0029572586,0.34906584,2.1637084e-07,2.1256824e-07,3.9107778e-07,2490378,0.11931534,0.0526849,-0.04876226,0.4,0.0005124212,0.0005645383,0.0005124212,396321,0.0,0.0,0.0,0.5,0.0025000002,0.0025000002,0.0025000002,1,1,1,1,1,0
267374683,267275495,2490378,-0.0009770754,-0.0023182153,0.0029905026,0.34906584,2.1752074e-07,2.1373195e-07,3.9130293e-07,2490378,0.11911896,0.052725866,-0.04763181,0.4,0.0005124211,0.000564545,0.0005124211,396321,0.0,0.0,0.0,0.5,0.0025000002,0.0025000002,0.0025000002,1,1,1,1,1,0
267463662,267364398,2490378,-0.001134672,-0.002354583,0.0025347732,0.34906584,2.1755952e-07,2.126951e-07,3.8411932e-07,2490378,0.11801874,0.05107606,-0.049321577,0.4,0.00051242067,0.0005642623,0.00051242067,396321,0.0,0.0,0.0,0.5,0.0025000002,0.0025000002,0.0025000002,1,1,1,1,1,0
267591944,267492813,2490378,-0.0011408214,-0.0023586485,0.0025675232,0.34906584,2.1880207e-07,2.1395638e-07,3.8453032e-07,2490378,0.11779484,0.051120367,-0.048208695,0.4,0.00051242067,0.0005642704,0.00051242067,396321,0.0,0.0,0.0,0.5,0.0025000002,0.0025000002,0.0025000002,1,1,1,1,1,0
267661215,267561959,2490378,-0.0012894726,-0.0023845225,0.0021316845,0.34906584,2.1869916e-07,2.1267128e-07,3.7761873e-07,2490378,0.11751831,0.049474534,-0.052052863,0.4,0.0005124212,0.00056397566,0.0005124212,396321,0.0,0.0,0.0,0.5,0.0025000002,0.0025000002,0.0025000002,1,1,1,1,1,0
267809260,267710130,2490378,-0.0012963943,-0.0023885225,0.0021649702,0.34906584,2.2013383e-07,2.1412845e-07,3.783078e-07,2490378,0.11727689,0.04951573,-0.050957046,0.4,0.00051242113,0.00056398654,0.00051242113,396321,0.0,0.0,0.0,0.5,0.0025000002,0.0025000002,0.0025000002,1,1,1,1,1,0
267868908,267769399,2490378,-0.0014365036,-0.0024257484,0.0017406823,0.34906584,2.1998973e-07,2.126766e-07,3.7209338e-07,2490378,0.11672648,0.047880236,-0.05357524,0.4,0.0005124205,0.0005636785,0.0005124205,396321,0.0,0.0,0.0,0.5,0.0025000002,0.0025000002,0.0025000002,1,1,1,1,1,0
268026638,267927451,2490378,-0.0014480362,-0.0024305657,0.001791921,0.34906584,2.2150125e-07,2.1422998e-07,3.7260324e-07,2490378,0.11642871,0.04794887,-0.052490257,0.4,0.0005124177,0.0005636869,0.0005124177,396321,0.0,0.0,0.0,0.5,0.0025000002,0.0025000002,0.0025000002,1,1,1,1,1,0
268066211,267966960,2490378,-0.0015784913,-0.0024615936,0.0014000053,0.34906584,2.2121468e-07,2.1256376e-07,3.6679918e-07,2490378,0.11636971,0.046398483,-0.05643769,0.4,0.00051242113,0.00056337775,0.00051242113,396321,0.0,0.0,0.0,0.5,0.0025000002,0.0025000002,0.0025000002,1,1,1,1,1,0
268194519,268095375,2490378,-0.0015873732,-0.0024653396,0.0014344101,0.34906584,2.224459e-07,2.1382766e-07,3.6742875e-07,2490378,0.11608283,0.046445597,-0.055260412,0.4,0.0005124211,0.00056338747,0.0005124211,396321,0.0,0.0,0.0,0.5,0.0025000002,0.0025000002,0.0025000002,1,1,1,1,1,0
268263814,268164522,2490378,-0.001714422,-0.0024954523,0.0010923301,0.34906584,2.2247099e-07,2.1243869e-07,3.6220283e-07,2490378,0.11602068,0.04505371,-0.058914326,0.4,0.0005124203,0.00056307355,0.0005124203,396321,0.0,0.0,0.0,0.5,0.0025000002,0.0025000002,0.0025000002,1,1,1,1,1,0
268411874,268312693,2490378,-0.001723936,-0.0024988854,0.001125711,0.34906584,2.2389214e-07,2.138982e-07,3.6307617e-07,2490378,0.115729176,0.045108292,-0.057817467,0.4,0.0005124205,0.0005630852,0.0005124205,396321,0.0,0.0,0.0,0.5,0.0025000002,0.0025000002,0.0025000002,1,1,1,1,1,0
268461310,268362083,2490378,-0.0018401028,-0.0025301797,0.0008010629,0.34906584,2.2377107e-07,2.123118e-07,3.5855382e-07,2490378,0.115442246,0.043871757,-0.060454547,0.4,0.0005124211,0.0005627712,0.0005124211,396321,0.0,0.0,0.0,0.5,0.0025000002,0.0025000002,0.0025000002,1,1,1,1,1,0
268619267,268520132,2490378,-0.0018500228,-0.0025338195,0.00083281694,0.34906584,2.2528634e-07,2.1386914e-07,3.5957103e-07,2490378,0.11509094,0.043924503,-0.059096307,0.4,0.00051242113,0.0005627839,0.00051242113,396321,0.0,0.0,0.0,0.5,0.0025000002,0.0025000002,0.0025000002,1,1,1,1,1,0
268668897,268569523,2490378,-0.0019637567,-0.0025711618,0.0005603699,0.34906584,2.2515052e-07,2.122651e-07,3.5531306e-07,2490378,0.11488386,0.042770658,-0.062025853,0.4,0.0005124205,0.00056246395,0.0005124205,396321,0.0,0.0,0.0,0.5,0.0025000002,0.0025000002,0.0025000002,1,1,1,1,1,0
268787258,268688060,2490378,-0.0019745263,-0.0025744592,0.000592548,0.34906584,2.2627077e-07,2.1343276e-07,3.559732e-07,2490378,0.114533305,0.042830296,-0.060762733,0.4,0.0005124205,0.000562473,0.0005124205,396321,0.0,0.0,0.0,0.5,0.0025000002,0.0025000002,0.0025000002,1,1,1,1,1,0
268866400,268767084,2490378,-0.002082631,-0.0026055586,0.000352824,0.34906584,2.2643356e-07,2.1213873e-07,3.5259453e-07,2490378,0.11443963,0.04180676,-0.06377055,0.4,0.0005124212,0.00056215737,0.0005124212,396321,0.0,0.0,0.0,0.5,0.0025000002,0.0025000002,0.0025000002,1,1,1,1,1,0
269063840,268964646,2490378,-0.0021760142,-0.0026329625,0.00034363728,0.34906584,2.2772855e-07,2.1204964e-07,0.009999985,2490378,0.114306994,0.040912654,-0.066331886,0.4,0.0005124203,0.00056184956,0.0005124203,396321,0.0,0.0,0.0,0.5,0.0025000002,0.0025000002,0.0025000002,1,0,1,1,1,0
269093936,268994280,2490378,-0.002176015,-0.0026329635,0.00034363737,0.34906584,2.2802143e-07,2.1234251e-07,0.009999993,2490378,0.11430702,0.040912665,-0.06633191,0.4,0.0005124233,0.0005618526,0.0005124233,396321,0.016065009,-0.006330736,0.0078319935,0.5,0.0013372126,0.0015986352,0.0016666517,1,0,1,1,1,0
269162713,269063426,2490378,-0.002176071,-0.0026331132,0.00034361373,0.34906584,2.2870448e-07,2.1302438e-07,0.0100000035,2490378,0.114286885,0.040913757,-0.06622724,0.4,0.0005124212,0.0005618593,0.0005124212,396321,0.04285153,-0.009697079,0.026921447,0.5,0.0009731757,0.0013902643,0.0014984787,1,0,1,1,1,0
269261526,269162207,2490378,-0.0025433754,-0.0025310004,0.0069721076,0.34906584,2.2448684e-07,2.0484809e-07,0.0099974675,2490378,0.111184545,0.041986294,-0.068184845,0.4,0.0005124211,0.0005606384,0.0005124211,396321,0.04411722,-0.009623952,0.026211632,0.5,0.0009730284,0.0013902512,0.0014984586,1,0,1,1,1,0
269429309,269330134,2490378,-0.0025439258,-0.0025323497,0.006974131,0.34906584,2.2614543e-07,2.0650549e-07,0.009997473,2490378,0.11092286,0.042009432,-0.06684453,0.4,0.0005124212,0.00056065305,0.0005124212,396321,0.04412315,-0.0096258,0.026208943,0.5,0.0009729928,0.0013902412,0.0014984586,1,0,1,1,1,0
269459038,269359769,2490378,-0.0026755743,-0.0025373632,0.0055709765,0.34906584,2.2298953e-07,2.0103228e-07,0.009983483,2490378,0.10952604,0.041970085,-0.06559465,0.4,0.0005124203,0.00055980874,0.0005124203,396321,0.04478694,-0.009559021,0.02592052,0.5,0.00097288337,0.0013902327,0.0014984468,1,0,1,1,1,0
269528498,269428915,2490378,-0.0026760306,-0.002538258,0.005578472,0.34906584,2.236728e-07,2.0171521e-07,0.009983497,2490378,0.10929043,0.04199362,-0.064392835,0.4,0.0005124211,0.00055981544,0.0005124211,396321,0.04479106,-0.009560762,0.025918351,0.5,0.0009728657,0.0013902277,0.0014984468,1,0,1,1,1,0
269696100,269596842,2490378,-0.0027311677,-0.0025344074,0.0056355135,0.34906584,2.227553e-07,1.9942308e-07,0.009840797,2490378,0.10848193,0.041966673,-0.06302375,0.4,0.0005124212,0.0005591382,0.0005124212,396321,0.045112286,-0.009503003,0.02578624,0.5,0.0009726602,0.0013901968,0.0014984389,1,0,1,1,1,0
269863910,269764770,2490378,-0.0027313035,-0.0025352396,0.005788112,0.34906584,2.2441377e-07,2.010812e-07,0.009840771,2490378,0.10821266,0.042003516,-0.061637934,0.4,0.0005124205,0.0005591516,0.0005124205,396321,0.045115728,-0.009504508,0.025784155,0.5,0.0009726252,0.0013901868,0.0014984389,1,0,1,1,1,0
269873930,269774648,2490378,-0.002608653,-0.0025497752,0.017488671,0.34906584,2.215207e-07,1.9863812e-07,0.008582396,2490378,0.1099397,0.040952384,-0.06527215,0.4,0.00051242067,0.00055854226,0.00051242067,396321,0.045078784,-0.009284667,0.025941882,0.5,0.0009721478,0.0013900894,0.001498432,1,0,1,1,1,0
270061632,269962331,2490378,-0.0024571766,-0.0025570132,-0.020924155,0.34906584,2.1977182e-07,1.9945863e-07,0.006340816,2490378,0.1118024,0.039307483,-0.06726409,0.4,0.0005124212,0.0005580968,0.0005124212,396321,0.045787815,-0.008666684,0.02610221,0.5,0.0009714612,0.0013899037,0.0014984258,1,0,1,1,1,0
270259160,270159893,2490378,-0.00228807,-0.0025339369,-0.10234673,0.34906584,2.1849283e-07,2.0075439e-07,0.004613835,2490378,0.113790356,0.037408438,-0.067657225,0.4,0.0005124205,0.0005577543,0.0005124205,396321,0.04702419,-0.007748579,0.02626877,0.5,0.00097094267,0.001389739,0.0014984199,1,0,1,1,1,0
270436948,270337698,2490378,-0.0022877061,-0.002534101,-0.10228618,0.34906584,2.2024904e-07,2.0251089e-07,0.004613826,2490378,0.11368715,0.03742126,-0.06708119,0.4,0.00051242375,0.00055777025,0.00051242375,396321,0.08869503,-0.030387772,0.056846116,0.5,0.0006733952,0.0011670581,0.0013562028,1,0,1,1,1,0
270496331,270396967,2490378,-0.0021320814,-0.002500015,-0.20144887,0.34906584,2.1860363e-07,2.021937e-07,0.0036516385,2490378,0.11585703,0.035637025,-0.06465173,0.4,0.0005124205,0.0005575111,0.0005124205,396321,0.09126049,-0.029506322,0.056188684,0.5,0.0006726459,0.0011669889,0.0013561524,1,0,1,1,1,0
270516110,270416723,2490378,-0.002132022,-0.0025000297,-0.2014422,0.34906584,2.1879865e-07,2.0238892e-07,0.0036516371,2490378,0.115844116,0.03563854,-0.06457813,0.4,0.00051242067,0.000557513,0.00051242067,396321,0.111401744,-0.046003047,0.06393327,0.5,0.00053191534,0.0010186838,0.0013006757,1,0,1,1,1,0
270594998,270495748,2490378,-0.002131961,-0.0025000325,-0.20144022,0.34906584,2.1957874e-07,2.0316932e-07,0.003651634,2490378,0.11583301,0.035639834,-0.06451283,0.4,0.0005124228,0.0005575193,0.0005124228,396321,0.12538587,-0.05740109,0.07072772,0.5,0.00045582358,0.0009272956,0.0012736097,1,0,1,1,1,0
270664361,270564894,2490378,-0.002063058,-0.002500269,-0.24886668,0.34906584,2.1883031e-07,2.028338e-07,0.0032178469,2490378,0.11690208,0.03437162,-0.062220864,0.4,0.0005124208,0.0005572107,0.0005124208,396321,0.13460061,-0.06346234,0.07487212,0.5,0.0004074889,0.0008645445,0.0012557672,1,0,1,1,1,0
270743188,270643919,2490378,-0.0020629696,-0.002500296,-0.24885097,0.34906584,2.1961003e-07,2.0361423e-07,0.0032178438,2490378,0.1168835,0.034373548,-0.062118575,0.4,0.0005124212,0.000557217,0.0005124212,396321,0.13893245,-0.067975216,0.07830804,0.5,0.0003765796,0.00080425653,0.0012342039,1,0,1,1,1,0
270822188,270722943,2490378,-0.0020627195,-0.0025002428,-0.24886979,0.34906584,2.2039055e-07,2.0439515e-07,0.0032178466,2490378,0.116847105,0.034378465,-0.061886445,0.4,0.0005124247,0.00055722473,0.0005124247,396321,0.14318958,-0.0727717,0.08448271,0.5,0.00035437557,0.00075662695,0.0012029862,1,0,1,1,1,0
270871645,270772334,2490378,-0.0019445191,-0.0025555985,-0.26517472,0.34906584,2.1891071e-07,2.0359106e-07,0.0030986157,2490378,0.118958734,0.031217309,-0.06230145,0.4,0.0005124205,0.0005562167,0.0005124205,396321,0.14565426,-0.072723776,0.08397964,0.5,0.00035381533,0.00075652066,0.0012029414,1,0,1,1,1,0
270891410,270792090,2490378,-0.0019445193,-0.002555599,-0.26517475,0.34906584,2.1910596e-07,2.0378629e-07,0.0030986161,2490378,0.11895876,0.031217312,-0.06230146,0.4,0.0005124224,0.0005562186,0.0005124224,396321,0.14941512,-0.08154646,0.09305272,0.5,0.0003376023,0.0007127924,0.0011604977,1,0,1,1,1,0
270970394,270871115,2490378,-0.001944914,-0.0025556888,-0.26515076,0.34906584,2.1988551e-07,2.0456666e-07,0.003098605,2490378,0.11901768,0.031209234,-0.062670074,0.4,0.000512422,0.00055622484,0.000512422,396321,0.1542039,-0.08998548,0.09644651,0.5,0.00032483446,0.0006747048,0.0011038515,1,0,1,1,1,0
271049386,270950139,2490378,-0.0019448886,-0.002555679,-0.26515508,0.34906584,2.2066592e-07,2.053475e-07,0.0030985973,2490378,0.11901441,0.031209795,-0.06264694,0.4,0.00051242544,0.0005562325,0.00051242544,396321,0.15878071,-0.09988676,0.10182584,0.5,0.0003145247,0.00064086285,0.0010387033,1,0,1,1,1,0
271059305,270960017,2490378,-0.0017784226,-0.0026535464,-0.24005224,0.34906584,2.1719917e-07,2.0380959e-07,0.0029889892,2490378,0.12204375,0.026539724,-0.06334179,0.4,0.00051242113,0.00055410684,0.00051242113,396321,0.1608867,-0.1010811,0.10162436,0.5,0.00031410923,0.00064059556,0.0010386987,1,0,1,1,1,0
271119063,271019286,2490378,-0.001778108,-0.0026534097,-0.24009793,0.34906584,2.1778379e-07,2.0439462e-07,0.0029889732,2490378,0.12200347,0.026546149,-0.06306988,0.4,0.00051242125,0.00055411103,0.00051242125,396321,0.16467454,-0.11573692,0.11166783,0.5,0.0003049506,0.0006135925,0.0009805787,1,0,1,1,1,0
271197563,271098310,2490378,-0.0017784763,-0.0026535876,-0.24003792,0.34906584,2.185642e-07,2.0517545e-07,0.0029889618,2490378,0.12204507,0.026539257,-0.06336895,0.4,0.00051242375,0.0005541187,0.00051242375,396321,0.16965115,-0.12959501,0.118815884,0.5,0.0002973223,0.0005902257,0.00092979,1,0,1,1,1,0
271266734,271167457,2490378,-0.0015380142,-0.0028113641,-0.16720976,0.34906584,2.1330936e-07,2.0383634e-07,0.0026149326,2490378,0.12644808,0.019703101,-0.0646759,0.4,0.00051242067,0.0005508387,0.00051242067,396321,0.17124334,-0.13286304,0.11789751,0.5,0.00029713762,0.00058947236,0.00092972827,1,0,1,1,1,0
271276625,271177335,2490378,-0.0015380062,-0.0028113606,-0.16721101,0.34906584,2.1340642e-07,2.0393387e-07,0.0026149184,2490378,0.1264472,0.019703249,-0.06466953,0.4,0.0005124208,0.0005508395,0.0005124208,396321,0.17624296,-0.14487487,0.12431957,0.5,0.00028792248,0.00057300297,0.0008916186,1,0,1,1,1,0
271345770,271246482,2490378,-0.0015376857,-0.0028112165,-0.16725737,0.34906584,2.1408857e-07,2.0461658e-07,0.002614901,2490378,0.12641594,0.019708209,-0.06443423,0.4,0.000512422,0.000550845,0.000512422,396321,0.18146244,-0.15289763,0.12716252,0.5,0.00027972198,0.0005576391,0.00085712277,1,0,1,1,1,0
271424760,271325506,2490378,-0.0015373889,-0.0028110887,-0.16729651,0.34906584,2.148687e-07,2.0539736e-07,0.00261489,2490378,0.12639059,0.019712152,-0.0642299,0.4,0.00051242544,0.00055085274,0.00051242544,396321,0.18692668,-0.16059293,0.13179396,0.5,0.0002722516,0.0005425918,0.000824277,1,0,1,1,1,0
271464311,271365018,2490378,-0.0012940506,-0.002971705,-0.06946221,0.34906584,2.0843167e-07,2.0362216e-07,0.0018651881,2490378,0.13085394,0.01332047,-0.06678309,0.4,0.0005124212,0.00054763287,0.0005124212,396321,0.18780352,-0.16452445,0.1289583,0.5,0.00027219075,0.0005414209,0.0008236711,1,0,1,1,1,0
271504085,271404531,2490378,-0.0012938213,-0.0029716191,-0.06948497,0.34906584,2.0882085e-07,2.040121e-07,0.001865177,2490378,0.13083565,0.013322966,-0.06663732,0.4,0.00051242224,0.00054763554,0.00051242224,396321,0.19438511,-0.1688714,0.13473567,0.5,0.00026051202,0.0005294294,0.0007987413,1,0,1,1,1,0
271661842,271562583,2490378,-0.0011579833,-0.0030471268,-0.009425605,0.34906584,2.057228e-07,2.0397452e-07,0.0011772596,2490378,0.13364021,0.010493447,-0.067308456,0.4,0.0005124179,0.0005458455,0.0005124179,396321,0.19464634,-0.17081675,0.13286984,0.5,0.00026028545,0.00052867824,0.0007980491,1,0,1,1,1,0
271869283,271770020,2490378,-0.0011398081,-0.0030755822,0.008644385,0.34906584,2.0495867e-07,2.0501645e-07,0.0007259996,2490378,0.13381518,0.009803623,-0.06868983,0.4,0.0005124205,0.00054510235,0.0005124205,396321,0.19460016,-0.17145582,0.13227794,0.5,0.00026007052,0.00052819116,0.0007976237,1,0,1,1,1,0
272076790,271977459,2490378,-0.001161415,-0.0030866496,0.007466652,0.34906584,2.0491738e-07,2.0637552e-07,0.00042746295,2490378,0.1331282,0.009710722,-0.071764246,0.4,0.0005124212,0.0005448543,0.0005124212,396321,0.19461,-0.17150211,0.1322415,0.5,0.00025971557,0.0005278667,0.0007973546,1,0,1,1,1,0
272264402,272165143,2490378,-0.0011551247,-0.003071509,-0.004726615,0.34906584,2.0484251e-07,2.0772754e-07,0.0002666533,2490378,0.13340649,0.009869932,-0.07277508,0.4,0.0005124208,0.0005446886,0.0005124208,396321,0.19491497,-0.17108521,0.13257945,0.5,0.00025934278,0.00052768446,0.0007972085,1,0,1,1,1,0
272491637,272392339,2490378,-0.0011347733,-0.0030638226,-0.012808983,0.34906584,2.0495249e-07,2.0954579e-07,0.00017479355,2490378,0.13394296,0.009836712,-0.07581769,0.4,0.0005124205,0.0005444898,0.0005124205,396321,0.19523221,-0.1707993,0.13279928,0.5,0.00025895837,0.0005275715,0.00079712045,1,0,1,1,1,0
272659552,272560266,2490378,-0.0010771621,-0.0030380576,-0.021234754,0.34906584,2.0448736e-07,2.1084617e-07,0.00012724221,2490378,0.13549338,0.010024044,-0.07585293,0.4,0.0005124211,0.0005442693,0.0005124211,396321,0.19569173,-0.17039041,0.1330827,0.5,0.00025869187,0.0005275056,0.0007970717,1,0,1,1,1,0
272866974,272767706,2490378,-0.0010133563,-0.0030157678,-0.026306435,0.34906584,2.0433667e-07,2.1258157e-07,9.887072e-05,2490378,0.13705713,0.010328027,-0.07713721,0.4,0.00051242067,0.0005440267,0.00051242067,396321,0.19608867,-0.17008616,0.13327596,0.5,0.00025833902,0.0005274574,0.0007970299,1,0,1,1,1,0
273054607,272955389,2490378,-0.0010119217,-0.0030152893,-0.02628572,0.34906584,2.0618769e-07,2.1443539e-07,9.887205e-05,2490378,0.13699633,0.010327366,-0.076131724,0.4,0.0005124321,0.00054404396,0.0005124212,396321,0.19609618,-0.17008452,0.13327682,0.5,0.00025815007,0.00052745355,0.0007970159,1,0,1,1,1,0
273064593,272965267,2490378,-0.0009502469,-0.0029967541,-0.030649386,0.34906584,2.0392365e-07,2.1427147e-07,8.011391e-05,2490378,0.138381,0.010470013,-0.07822844,0.4,0.0005124212,0.00054382987,0.0005124212,396321,0.19649723,-0.16982324,0.1334321,0.5,0.00025808308,0.00052742066,0.0007970018,1,0,1,1,1,0
273262087,273162829,2490378,-0.00085648143,-0.0029709823,-0.03425211,0.34906584,2.0348271e-07,2.160092e-07,6.778931e-05,2490378,0.14047366,0.010826996,-0.078895144,0.4,0.0005124211,0.00054365996,0.0005124211,396321,0.19699,-0.16951734,0.13360032,0.5,0.0002577412,0.0005273896,0.00079697144,1,0,1,1,1,0
273459657,273360391,2490378,-0.0007652053,-0.0029491144,-0.036922175,0.34906584,2.0304383e-07,2.1777983e-07,5.941465e-05,2490378,0.14221025,0.011215051,-0.08056255,0.4,0.0005124205,0.0005435182,0.0005124205,396321,0.19744846,-0.16926086,0.13373104,0.5,0.00025750027,0.0005273656,0.00079695083,1,0,1,1,1,0
273647356,273548074,2490378,-0.00065914425,-0.0029265224,-0.039334584,0.34906584,2.0245785e-07,2.1948243e-07,5.3339092e-05,2490378,0.14418489,0.011557531,-0.08175037,0.4,0.0005124211,0.0005434319,0.0005124211,396321,0.19796143,-0.16899207,0.1338602,0.5,0.00025717044,0.000527343,0.00079692533,1,0,1,1,1,0
273854850,273755514,2490378,-0.0005569239,-0.0029082217,-0.041353468,0.34906584,2.0206306e-07,2.2138951e-07,4.891009e-05,2490378,0.14607427,0.011848626,-0.08219174,0.4,0.00051242084,0.00054337573,0.00051242084,396321,0.1984533,-0.16875683,0.13396865,0.5,0.00025684616,0.00052732346,0.0007969013,1,0,1,1,1,0
274062225,273962954,2490378,-0.0004496017,-0.0028945822,-0.04307708,0.34906584,2.0163016e-07,2.2327592e-07,4.5624987e-05,2490378,0.14781733,0.012033266,-0.08365424,0.4,0.0005124205,0.00054335437,0.0005124205,396321,0.1989609,-0.16854252,0.13406168,0.5,0.0002566152,0.0005273078,0.00079688494,1,0,1,1,1,0
274259785,274160515,2490378,-0.00033244625,-0.002882661,-0.044781227,0.34906584,2.0110507e-07,2.2500345e-07,4.3273925e-05,2490378,0.14973108,0.01211733,-0.08468799,0.4,0.00051242113,0.0005433604,0.00051242113,396321,0.19950512,-0.16832504,0.13415425,0.5,0.0002563005,0.00052729226,0.00079686276,1,0,1,1,1,0
274467132,274367955,2490378,-0.00033198198,-0.0028822056,-0.044761796,0.34906584,2.0315376e-07,2.2705214e-07,4.3275362e-05,2490378,0.14970317,0.012115317,-0.08368001,0.4,0.0005124382,0.00054337864,0.00051242096,396321,0.19950785,-0.16832414,0.13415504,0.5,0.0002560394,0.00052728713,0.0007968434,1,0,1,1,1,0
274477139,274377833,2490378,-0.00025630425,-0.0028722815,-0.04607388,0.34906584,2.0081846e-07,2.2685084e-07,4.153202e-05,2490378,0.15094727,0.01216733,-0.08373411,0.4,0.0005124211,0.00054336985,0.0005124211,396321,0.19987553,-0.16818757,0.13421217,0.5,0.0002559918,0.0005272786,0.00079684134,1,0,1,1,1,0
274664778,274565517,2490378,-0.00017116903,-0.002860336,-0.047626596,0.34906584,2.0032388e-07,2.2830332e-07,4.0248855e-05,2490378,0.15212919,0.0121829705,-0.08426869,0.4,0.0005124203,0.00054337026,0.0005124203,396321,0.20029287,-0.16803947,0.13427155,0.5,0.000255774,0.0005272681,0.000796827,1,0,1,1,1,0
274842465,274743322,2490378,-0.00017081723,-0.0028597987,-0.047605526,0.34906584,2.0208037e-07,2.300596e-07,4.0250085e-05,2490378,0.15210459,0.012181655,-0.083153866,0.4,0.00051243615,0.0005433868,0.00051242096,396321,0.20029505,-0.16803852,0.13427246,0.5,0.00025551917,0.00052726315,0.0007968081,1,0,1,1,1,0
274862335,274763078,2490378,-0.00010007942,-0.0028473034,-0.04891548,0.34906584,2.0003085e-07,2.2973475e-07,3.9293715e-05,2490378,0.15318108,0.012257442,-0.082605146,0.4,0.00051242113,0.0005433544,0.00051242113,396321,0.20063713,-0.16791719,0.13431999,0.5,0.00025547534,0.00052725733,0.0007968069,1,0,1,1,1,0
275059941,274960640,2490378,-2.7931854e-05,-0.0028438845,-0.049996264,0.34906584,1.9978204e-07,2.309366e-07,3.8589744e-05,2490378,0.15412238,0.012183728,-0.08317264,0.4,0.00051242067,0.00054328,0.00051242067,396321,0.2009769,-0.16781794,0.1343563,0.5,0.00025518032,0.0005272475,0.00079678727,1,0,1,1,1,0
275257466,275158201,2490378,4.8895225e-05,-0.00283608,-0.051382307,0.34906584,1.9955782e-07,2.3183931e-07,3.7965372e-05,2490378,0.15503451,0.011983544,-0.08398328,0.4,0.0005124212,0.00054309366,0.0005124212,396321,0.20135406,-0.16771348,0.13439345,0.5,0.000254966,0.00052724016,0.00079677405,1,0,1,1,1,0
275464944,275365641,2490378,0.00010988679,-0.0028252779,-0.05262889,0.34906584,1.9953761e-07,2.3285362e-07,3.728874e-05,2490378,0.15581007,0.01182456,-0.0831832,0.4,0.0005124211,0.0005429323,0.0005124211,396321,0.20166974,-0.16763194,0.13441996,0.5,0.00025467147,0.0005272322,0.0007967553,1,0,1,1,1,0
