timestamp,timestamp_sample,accel_device_id,gyro_device_id,delta_angle[0],delta_angle[1],delta_angle[2],delta_velocity[0],delta_velocity[1],delta_velocity[2],delta_angle_dt,delta_velocity_dt,delta_velocity_clipping,accel_calibration_count,gyro_calibration_count
217703446,217703278,4259850,4325386,8.467433e-06,3.230336e-05,-1.0454808e-05,-0.00044397014,-0.0016710638,-0.04769639,5000,4865,0,2,0
218203505,218203319,4259850,4325386,1.44101e-05,4.5457392e-07,-3.232239e-05,-0.00047965985,-0.001614831,-0.047666635,5000,4863,0,2,0
218703519,218703360,4259850,4325386,4.00332e-06,-3.90363e-06,-9.226128e-06,-0.00042704178,-0.0016646623,-0.047860317,5000,4863,0,2,0
219203561,219203401,4259850,4325386,1.5422067e-06,1.916354e-05,1.2878607e-05,-0.0006053434,-0.0020205125,-0.04763322,5000,4863,0,2,0
219703608,219703443,4259850,4325386,1.1239941e-05,2.5683676e-05,-3.6371635e-05,-0.0010055709,-0.0024693748,-0.04935129,5001,4862,0,2,0
220203646,220203484,4259850,4325386,-8.893636e-05,3.892806e-05,-4.7931568e-05,-0.00053545646,-0.004003305,-0.048000243,5001,4863,0,2,0
220703704,220703525,4259850,4325386,1.662232e-06,0.00015904359,1.0777808e-06,0.0012761359,-0.0030270894,-0.04925799,5000,4859,0,2,0
221203728,221203567,4259850,4325386,-5.975845e-05,5.9712336e-05,0.00011567408,-0.003549546,0.0013248659,-0.04920771,5000,4864,0,2,0
221703825,221703609,4259850,4325386,-2.2895535e-06,0.00032825884,0.00010874474,0.0011989146,0.0052677635,-0.061078977,5001,7295,0,2,0
222203819,222203654,4259850,4325386,-0.00024056119,1.3406188e-05,0.00047285252,0.003576436,-0.0054396684,-0.044187322,5004,4863,0,2,0
222703874,222703693,4259850,4325386,-0.0005427825,5.0075523e-05,0.0003313184,0.00044487874,-0.00180787,-0.04728144,5001,4863,0,2,0
223203911,223203735,4259850,4325386,-0.00058891636,-0.00017182193,-3.5568475e-05,-0.0016173808,-0.0032701236,-0.05395921,5000,4862,0,2,0
223704005,223703777,4259850,4325386,-5.9050817e-05,-7.994051e-05,-9.4290306e-05,-0.0063760416,-0.008683003,-0.059507735,5000,4863,0,2,0
224203983,224203819,4259850,4325386,0.00059933646,-0.0006534809,-0.000107718704,-0.0036665637,-0.011462017,-0.06055121,5000,4845,0,2,0
224704145,224703862,4259850,4325386,-0.00013354684,-4.0851643e-05,8.506185e-05,-0.00012258386,-0.002244894,-0.05302954,5000,4864,0,2,0
225204073,225203905,4259850,4325386,0.00063574256,0.00017604097,8.6438915e-05,0.0026905476,-0.00040390753,-0.040588215,5001,4863,0,2,0
225704117,225703947,4259850,4325386,-0.00034987155,0.00036898648,-9.988522e-05,-0.0011294862,-0.0026261697,-0.05120311,5000,4863,0,2,0
226204169,226203990,4259850,4325386,-0.0004739556,6.86563e-05,-1.7254555e-05,0.0012031324,0.0004954194,-0.052130233,5000,4863,0,2,0
226704202,226704033,4259850,4325386,-0.00012918033,-0.00015296094,5.8976922e-05,-0.0031082141,-0.0025106112,-0.053259034,5000,4862,0,2,0
227204239,227204076,4259850,4325386,0.00020282557,-7.8051715e-05,1.5447931e-05,-0.003721295,-0.0005040027,-0.060080234,5000,4861,0,2,0
227704290,227704119,4259850,4325386,5.7836845e-05,6.6525114e-05,0.00029553435,-0.0069339424,-0.00082199386,-0.05750705,5000,4867,0,2,0
228204323,228204163,4259850,4325386,0.00012770075,0.00054395763,0.00043865386,0.0035257037,-0.0018855999,-0.04521113,5001,4862,0,2,0
228704383,228704206,4259850,4325386,-4.13185e-06,-4.269471e-05,0.00038551065,0.0043383134,9.809245e-05,-0.061272755,5000,7293,0,2,0
229204411,229204250,4259850,4325386,2.666734e-05,0.00014112295,0.00013075002,0.00059151486,0.0012767534,-0.039031766,5001,4862,0,2,0
229704453,229704293,4259850,4325386,5.8188296e-05,-5.691073e-05,7.006195e-05,0.0063565504,-0.002013365,-0.042063948,5000,4861,0,2,0
230204535,230204337,4259850,4325386,0.00020014743,0.00023581137,1.9900528e-05,0.0014082905,0.00059965515,-0.04680636,5000,4866,0,2,0
230699544,230699381,4259850,4325386,4.3128097e-05,-0.00013836693,0.00012829357,-0.003391762,-0.0049079675,-0.05502612,5001,4861,0,2,0
231204589,231204425,4259850,4325386,-3.0022438e-05,-9.49543e-06,-7.156812e-06,5.2498588e-05,-0.00024679003,-0.0466475,5000,4862,0,2,0
231704648,231704469,4259850,4325386,-0.00021237026,0.00011127593,2.2611042e-05,-0.0011360619,0.0015418475,-0.042291753,5000,4861,0,2,0
232204678,232204513,4259850,4325386,-1.4549992e-05,-0.00018962694,2.1304534e-06,0.00094250584,0.0012709998,-0.045425173,5000,4861,0,2,0
232704719,232704558,4259850,4325386,0.00040129156,-0.00019677903,-0.00031062076,0.0013280796,-0.0011433433,-0.0430457,5001,4863,0,2,0
233204766,233204603,4259850,4325386,-3.0748535e-05,-7.863135e-05,-0.0003027309,0.0038358704,-0.00094715675,-0.03824548,5000,4862,0,2,0
233704831,233704646,4259850,4325386,-0.00013993355,2.323881e-05,-0.00018311599,-0.0068090474,0.0006307201,-0.07412046,4999,7293,0,2,0
234199852,234199691,4259850,4325386,0.0001257974,0.00017313579,-0.0001734,-0.0011801148,-0.0011686379,-0.049849756,5001,4862,0,2,0
234699898,234699736,4259850,4325386,0.000100152225,-1.8017756e-05,-9.589283e-05,-0.0036377804,0.003828949,-0.048054982,5001,4862,0,2,0
235204968,235204781,4259850,4325386,-0.00012937615,0.00022086904,-2.2198266e-05,-1.2356905e-05,-0.0025511272,-0.055050295,5001,4862,0,2,0
235704987,235704826,4259850,4325386,3.888275e-05,-0.00026121817,-0.00010761527,-0.000846707,-0.0011692012,-0.05703484,5000,4862,0,2,0
236205034,236204871,4259850,4325386,0.00046110785,0.00019695233,0.0001280701,-0.002430438,-0.007830878,-0.058263525,5000,4862,0,2,0
236705079,236704916,4259850,4325386,9.44084e-05,0.00023108938,0.00023579692,-0.00085916865,-0.008025751,-0.05945167,5000,4861,0,2,0
237205123,237204962,4259850,4325386,-0.00035910567,-5.7816567e-05,0.00024091886,0.0029095712,0.00081055594,-0.03643277,5001,4861,0,2,0
237700169,237700006,4259850,4325386,-0.00049231056,3.1039384e-05,0.00013181321,0.00023625985,-0.0043993555,-0.047571007,5000,4862,0,2,0
238200215,238200052,4259850,4325386,7.517847e-05,0.00029706667,-7.728217e-07,0.0018461818,-0.0031123369,-0.05444,5000,4863,0,2,0
238705261,238705098,4259850,4325386,-5.341578e-06,1.9640733e-05,0.00012025435,-0.0003517959,-0.0033355674,-0.047227383,5000,4863,0,2,0
239205317,239205144,4259850,4325386,-0.00029581093,0.00011393104,0.00010394964,-0.00028169603,-0.0020367536,-0.04517117,5001,4862,0,2,0
239705349,239705190,4259850,4325386,2.9413046e-05,1.6816275e-06,0.00021232376,-0.002743082,-0.004395497,-0.06195003,5001,4862,0,2,0
240205397,240205235,4259850,4325386,-0.00020217124,0.00019273508,0.00014260093,-0.002234445,-0.006875649,-0.052805036,5000,4862,0,2,0
240705442,240705282,4259850,4325386,0.000119459444,0.0001657204,0.00010543113,0.0019916068,-0.003990157,-0.033238914,5001,4862,0,2,0
241200489,241200327,4259850,4325386,0.00018956904,0.00012663635,9.093392e-05,0.0063782316,-0.0077496334,-0.040784936,5000,4862,0,2,0
241700533,241700373,4259850,4325386,6.1730716e-05,-0.00013082128,0.00017321306,-0.0021506173,-0.0013589833,-0.047711473,5000,4862,0,2,0
242205585,242205420,4259850,4325386,0.000112878864,-0.00022545068,9.7938384e-05,-0.005316945,0.004278686,-0.049990945,5000,4862,0,2,0
242705632,242705466,4259850,4325386,-5.0799532e-05,0.00027575018,-8.995506e-05,0.0023356606,-0.0040422743,-0.05576192,5000,4863,0,2,0
243205678,243205513,4259850,4325386,-5.3275675e-05,-3.4316683e-06,-0.000105186075,-0.00032778343,-0.0044886325,-0.052140817,5000,4862,0,2,0
243705727,243700559,4259850,4325386,-0.00020255607,-0.000112102025,-0.00010755872,0.0013133031,0.0019963218,-0.050438363,5001,5349,0,2,0
244205769,244205606,4259850,4325386,7.879279e-06,6.016089e-06,4.878833e-05,0.0063861394,-0.0031751557,-0.04238783,5000,4862,0,2,0
244700828,244700652,4259850,4325386,4.7371388e-05,-0.00027023614,9.9910954e-05,-0.0006081816,-0.0023332275,-0.04735464,5000,4863,0,2,0
245200892,245200699,4259850,4325386,-0.00036966807,0.00014795721,5.3391082e-05,0.003935429,-0.0076238243,-0.049362283,5001,4863,0,2,0
245700904,245700746,4259850,4325386,-0.00015753883,-0.00012399495,7.259633e-05,3.421648e-05,0.0030240824,-0.04303436,5001,4863,0,2,0
246201063,246200792,4259850,4325386,4.569232e-05,0.0003821263,-3.5685207e-05,-0.004523956,-0.0029749102,-0.05220504,5000,4863,0,2,0
246706002,246705840,4259850,4325386,-7.393588e-06,0.00015015091,3.4595032e-05,-0.004323817,6.733292e-05,-0.044932984,5001,4863,0,2,0
247206126,247205886,4259850,4325386,0.00014695316,0.00017551416,1.800147e-05,6.2643805e-05,-0.005089266,-0.049654156,5000,4863,0,2,0
247706096,247705933,4259850,4325386,0.00010784105,0.00015687245,7.531293e-05,0.00025334884,-0.0031142284,-0.042711467,5000,4863,0,2,0
248201148,248200980,4259850,4325386,-4.0912106e-05,0.00019475646,5.8339458e-05,0.005830146,-0.003812045,-0.042391144,5001,4862,0,2,0
248701192,248701027,4259850,4325386,0.00019516527,-1.0467657e-05,8.15581e-05,0.0069589154,-0.00048144997,-0.04069478,5001,4863,0,2,0
249201256,249201074,4259850,4325386,0.00014114582,-0.00023990808,0.00016199556,0.003988045,-0.0014834201,-0.034496754,5001,4862,0,2,0
249701297,249701121,4259850,4325386,0.00018079615,-0.00023291138,0.0002830623,-0.0041282563,0.0053025973,-0.04152031,5000,4866,0,2,0
250201339,250201168,4259850,4325386,0.00017597267,-0.00047150912,0.0002623769,0.000954252,-0.002152797,-0.042197064,5000,4861,0,2,0
250706374,250706215,4259850,4325386,7.916453e-06,-7.082669e-05,0.00020689923,-0.005081372,-0.0018528716,-0.05349548,5000,4862,0,2,0
251206434,251206263,4259850,4325386,0.00064899976,0.0037548142,0.00010460651,0.0034091072,-0.0026575658,-0.049731366,5001,4861,0,2,0
251701472,251701310,4259850,4325386,-0.0024497476,-0.0014697065,0.0004893926,-0.0040893257,-0.0012058485,-0.054612085,5001,4861,0,2,0
252201518,252201357,4259850,4325386,8.47459e-05,-0.001543168,0.00042909136,-0.004876419,-0.0040800828,-0.07680225,5000,7293,0,2,0
252701567,252701404,4259850,4325386,0.0035854536,0.0006177004,0.00032807945,-0.0013222783,0.0027391033,-0.0435672,5000,4860,0,2,0
253201628,253201452,4259850,4325386,-0.0032094931,-0.0023450055,-0.000116098716,-0.0026805676,-0.0030765405,-0.051531315,5001,4862,0,2,0
253701663,253701499,4259850,4325386,-0.0011630578,-0.0002495614,-0.0008240769,0.0005137765,-0.0006903944,-0.04860735,5000,4862,0,2,0
254206714,254206547,4259850,4325386,0.00033095735,0.007226476,-7.62926e-05,-0.0030729943,0.013284715,-0.03966886,5000,4861,0,2,0
254706754,254706595,4259850,4325386,0.00056759425,0.0012099653,-0.0006729676,-0.0048707686,-0.0011698772,-0.042088296,5001,4862,0,2,0
255201803,255201642,4259850,4325386,0.000247432,-0.00051823654,-0.0006734663,-0.0018603611,0.007115984,-0.053770456,5001,4865,0,2,0
255701850,255701690,4259850,4325386,0.0017491889,0.0011541576,-0.00060624356,0.003398176,0.006118264,-0.040018097,5001,4863,0,2,0
256201903,256201737,4259850,4325386,0.0017840136,0.0010466834,-0.0006722962,0.0065078717,0.01578314,-0.036826257,5000,4863,0,2,0
256701944,256701785,4259850,4325386,-0.0021389595,-0.0019736688,-0.0010528958,0.0044986987,-0.00033892866,-0.04748655,5000,4863,0,2,0
257201996,257201833,4259850,4325386,-4.5417168e-05,-0.001772654,-0.00076515204,0.00056734,0.017998727,-0.051653575,5000,4863,0,2,0
257702075,257701881,4259850,4325386,0.00075567287,-0.0017094515,-0.00068034127,0.001035403,0.007137196,-0.04050247,5001,4862,0,2,0
258207108,258206929,4259850,4325386,0.00082540954,1.7139035e-05,0.00016316627,-0.0010520844,0.0142817665,-0.06441434,5000,4863,0,2,0
258702140,258701977,4259850,4325386,4.357808e-06,0.00030373954,0.0002238295,-0.0025602072,0.007083023,-0.05514702,5000,4863,0,2,0
259202187,259202025,4259850,4325386,0.0008362227,0.0002535605,0.0006240535,-0.0013382998,0.011669313,-0.077351354,5000,7294,0,2,0
259702237,259702073,4259850,4325386,-0.0021433579,-0.0009649972,9.80111e-05,-0.008194704,0.0107202325,-0.041758977,5000,4864,0,2,0
260202287,260202122,4259850,4325386,-0.00012469197,0.0015496218,-2.510462e-05,-0.005584981,0.009088746,-0.048473656,4999,4862,0,2,0
260702332,260702170,4259850,4325386,0.0022931763,0.0013661843,0.0002244093,0.0019079128,0.0048084897,-0.041161876,5000,4863,0,2,0
261202382,261202219,4259850,4325386,-0.0014976385,-0.0022388094,0.0004393702,-0.0003419535,0.0063280454,-0.05446617,5001,4863,0,2,0
261702442,261702267,4259850,4325386,0.00015927534,-0.0024365257,0.00044031272,-0.0041994397,0.00031318484,-0.051792417,5000,4862,0,2,0
262202485,262202316,4259850,4325386,-0.00047309513,-0.0003969653,0.00041178364,-0.004886932,0.008470185,-0.04188431,5001,4863,0,2,0
262702532,262702364,4259850,4325386,0.00062702625,0.0016662116,0.0002294872,0.00078314065,0.0010439806,-0.054372925,5000,4862,0,2,0
263202582,263202413,4259850,4325386,0.00025410036,0.00030579345,0.00012295331,0.00427087,-0.007928289,-0.04968276,5000,5350,0,2,0
263702638,263702462,4259850,4325386,-0.00048529342,0.0002987622,0.00019533705,0.007020801,0.0009799895,-0.03713226,5001,4864,0,2,0
264202689,264202516,4259850,4325386,-0.00018457214,-0.00034405713,0.0004328608,0.03409883,0.016050057,-0.04944876,5006,4865,0,2,0
264702729,264702560,4259850,4325386,-0.00077597913,8.301089e-05,0.00016394079,0.03098145,8.2631086e-05,-0.042695872,5000,4863,0,2,0
265202795,265202609,4259850,4325386,0.00040946802,3.7216476e-05,-0.0009069231,0.034177583,-0.019107908,-0.031270746,5000,4862,0,2,0
265702825,265702658,4259850,4325386,-4.97782e-05,0.00073154544,-0.000872562,0.024333697,0.020626716,-0.0061046826,5001,4863,0,2,0
266202875,266202707,4259850,4325386,0.00018486868,0.000637454,1.8312254e-05,0.036482643,0.011101486,-0.06656283,5000,4862,0,2,0
266702925,266702756,4259850,4325386,-0.00036875418,0.00065948686,-0.00059908064,0.025157193,-0.0042523406,-0.07330619,5000,4862,0,2,0
267202977,267202806,4259850,4325386,-5.0052862e-05,-0.0012144818,1.9855937e-05,-0.010823961,0.0020858794,-0.079926506,5001,4862,0,2,0
267703139,267702855,4259850,4325386,0.0009930388,0.0002632767,0.00042885545,0.033011068,-0.013848297,-0.03655865,5000,7294,0,2,0
268203071,268202905,4259850,4325386,-6.77026e-05,-0.00062130095,-0.0002588614,0.018428104,-0.0014719613,-0.041874845,5001,4862,0,2,0
268703230,268702954,4259850,4325386,0.00039954728,0.00053812366,0.00036485493,0.0022285322,-0.009996869,-0.05033691,5000,4863,0,2,0
269203130,269203004,4259850,4325386,0.005262129,-0.0014295962,7.9855105e-05,-2.2186065e-05,0.0017035865,-0.05108674,5000,4863,0,2,0
269703323,269703054,4259850,4325386,0.003398835,0.0031125622,0.0016468209,0.00102043,-0.013437988,-0.079092465,5001,4863,0,2,0
270203229,270203103,4259850,4325386,-0.0037946575,0.0005179652,0.0027128006,-0.0026926321,-0.0013601797,-0.064871676,5000,4863,0,2,0
270703286,270703153,4259850,4325386,-0.0059892517,-0.0005451461,-0.0012622965,-0.0073767793,-0.0069922395,-0.03462484,5001,4863,0,2,0
271203348,271203203,4259850,4325386,-0.0013276138,0.00027275347,0.00017233576,0.0037409882,0.0056258724,-0.035304658,5001,4862,0,2,0
271703387,271703253,4259850,4325386,-0.0008935589,0.0006062638,-0.0014229916,-0.0012859575,0.005526943,-0.050578292,5001,4863,0,2,0
272203426,272203302,4259850,4325386,0.0014490966,0.00045589788,-0.00070711,-0.000771961,-0.013809834,-0.05273329,5000,4861,0,2,0
272703475,272703352,4259850,4325386,0.00016123222,0.0009259189,-0.000433395,0.0009979988,0.0064082793,-0.052383702,5000,4862,0,2,0
273203527,273203402,4259850,4325386,0.0011626439,0.0001461536,-0.0002619429,-0.0019752565,0.002203616,-0.049394596,5001,4861,0,2,0
273703577,273703452,4259850,4325386,0.00043971254,-6.9674e-05,-0.0002371808,-0.0038672455,0.005146482,-0.05207584,5001,4861,0,2,0
274203655,274203501,4259850,4325386,-0.0003736178,-0.00020827523,-0.00016946092,-0.0017717015,-0.00038541007,-0.05111778,5000,4862,0,2,0
274703686,274703551,4259850,4325386,0.0005940467,-0.00017468684,6.4427644e-05,0.0015424854,0.0074968836,-0.046254992,5000,4862,0,2,0
275203730,275203601,4259850,4325386,-0.00561888,-0.0006008257,2.6598987e-05,-0.0037917001,-0.00538267,-0.045634884,4998,4863,0,2,0
275703777,275703650,4259850,4325386,-0.006023331,0.0005194434,-0.0015734729,0.0005901581,0.0021134678,-0.04633239,5000,4862,0,2,0
276203843,276203700,4259850,4325386,-0.00021889897,0.0034705887,-0.0032345583,0.0060205082,-0.0066090976,-0.10995655,5001,4862,0,2,0
276703874,276703750,4259850,4325386,0.0004186671,0.0040880837,-0.0030503958,0.012794262,0.0028862408,-0.09141343,5001,4862,0,2,0
277203923,277203799,4259850,4325386,0.00053754833,0.0033798113,-0.0027816773,0.0014766438,-0.020243216,-0.10412148,5000,4861,0,2,0
277703974,277703848,4259850,4325386,-0.000905404,0.003168973,-0.0029121267,0.013804338,-0.013787911,-0.09223201,5000,4862,0,2,0
278204022,278203898,4259850,4325386,0.0011285645,0.0027764738,-0.0026495547,0.007689348,-0.022881161,-0.08659616,5000,4863,0,2,0
278704085,278703947,4259850,4325386,-0.00039842702,0.0026937046,-0.0023136325,0.014380636,-0.021377303,-0.13148826,5000,7293,0,2,0
279204122,279203997,4259850,4325386,0.0012437989,0.0027614438,-0.0029923439,0.013101825,-0.008720341,-0.061237965,5001,4862,0,2,0
279704169,279704046,4259850,4325386,0.005341651,-0.00022397749,-0.0003874587,-0.0035821067,-0.013670418,-0.038545985,5001,4862,0,2,0
280204219,280204095,4259850,4325386,0.0060983277,0.0008546871,-0.0005688401,-0.005668223,-0.0074002505,-0.04577955,5001,4863,0,2,0
280704267,280704144,4259850,4325386,0.0018624143,0.0022244416,0.0015999712,6.713141e-05,-0.003988244,-0.0630042,5001,4862,0,2,0
281204320,281204193,4259850,4325386,-0.0014137877,0.000665268,0.002171658,0.00028227028,-0.002946951,-0.10385229,5001,7293,0,2,0
281704368,281704241,4259850,4325386,-0.0006117976,0.00037083743,0.0003404729,-0.003496646,-0.014588031,-0.059210204,5000,4862,0,2,0
282204413,282204290,4259850,4325386,0.00036168477,0.0010831209,0.0017961309,0.0041152034,0.010170504,-0.05174505,5000,4863,0,2,0
282704464,282704339,4259850,4325386,-0.000973278,0.0010815269,0.0009866746,-0.0044216444,-0.009953618,-0.074189335,5001,5349,0,2,0
283199518,283199387,4259850,4325386,-6.8839254e-05,0.0011589059,0.0005831871,-0.0025729437,0.0018949257,-0.056940317,5001,4862,0,2,0
283704561,283704436,4259850,4325386,-7.4970216e-05,0.0006627191,0.0013003674,0.0012775359,0.004097692,-0.06996671,5001,7292,0,2,0
284204609,284204484,4259850,4325386,-0.0018744827,-4.77189e-05,0.00039390376,-0.003178273,-0.0022796157,-0.040395528,5000,4862,0,2,0
284704657,284704532,4259850,4325386,-0.0012060401,-0.00042098653,0.00035141283,-0.0058674132,-0.00019392885,-0.045268252,5000,4863,0,2,0
285204709,285204580,4259850,4325386,0.0010095475,-0.0002969294,0.00024777293,-0.0009988978,0.0081715705,-0.05034284,5000,4862,0,2,0
285704752,285704628,4259850,4325386,-0.00084068574,-0.00044259673,0.00012268026,-0.005549296,-0.013620693,-0.041540552,5000,4863,0,2,0
286204800,286204676,4259850,4325386,-0.0010650794,-0.00024915993,-0.00062845944,-0.0041781054,0.0035518818,-0.052652907,5001,4863,0,2,0
286699847,286699723,4259850,4325386,0.00010793292,-9.105185e-05,-0.00016853506,-0.002905611,-1.464566e-05,-0.052589927,5000,4862,0,2,0
287199900,287199771,4259850,4325386,0.0011612923,-0.00054152,0.00028440432,-0.0003411451,-0.012093951,-0.05112635,5001,4863,0,2,0
287704947,287704819,4259850,4325386,0.00047310878,6.7122426e-05,-0.00023031548,0.003315465,-0.0009661053,-0.04632917,5001,4862,0,2,0
288204990,288204866,4259850,4325386,-0.00024164365,0.0005003972,-0.00011508106,-0.0018593806,0.0034294855,-0.060888518,5000,4863,0,2,0
288705040,288704913,4259850,4325386,0.00018516814,0.00037183092,0.00013950796,0.0019659756,-0.004503169,-0.044450827,5000,4863,0,2,0
289205103,289204960,4259850,4325386,0.0012106792,0.00082241156,-7.640631e-05,0.001480236,0.0060145147,-0.055564348,5000,4861,0,2,0
289705134,289705007,4259850,4325386,5.3421194e-05,0.00027367848,-5.1856117e-05,-0.0016843522,-0.008816457,-0.042616222,5000,4861,0,2,0
290200314,290200053,4259850,4325386,0.00013534416,-0.00015730364,0.00053421216,-0.0032320553,-0.006521635,-0.04591677,5000,4862,0,2,0
290700234,290700100,4259850,4325386,-0.00031033423,-0.0008299804,0.0005093248,-0.0052467464,-0.009137448,-0.03740388,5001,4863,0,2,0
291200280,291200147,4259850,4325386,-0.0009061169,-0.00053176883,0.0004211974,0.0011389842,0.0063572656,-0.04598164,5001,4862,0,2,0
291705318,291705193,4259850,4325386,-0.00043402895,-0.0005265283,0.0005507283,0.004876455,0.007684201,-0.03821814,5000,4862,0,2,0
292205375,292205240,4259850,4325386,-2.0547254e-06,-0.00034141933,5.7953297e-05,0.0031269093,0.008230936,-0.05284665,5001,4867,0,2,0
292705411,292705286,4259850,4325386,-0.0004336602,0.000454725,-0.00029422352,-0.0012815136,0.0044932268,-0.058748443,5001,4861,0,2,0
293205464,293205332,4259850,4325386,-0.0007269428,0.0005366338,-3.956533e-05,-0.0011868096,-0.0046341927,-0.062460277,5001,4863,0,2,0
293700503,293700377,4259850,4325386,-0.00031144547,0.0005196385,-1.1648535e-05,-0.0035058158,-0.0067379354,-0.056640197,5000,4862,0,2,0
294200546,294200423,4259850,4325386,-0.00053933926,8.233271e-05,-0.00035346008,-0.0014790816,-0.008142864,-0.049660325,5001,4862,0,2,0
294700595,294700469,4259850,4325386,0.0003260598,-0.00011883429,-0.00025076035,-0.0015789876,0.0041349786,-0.03763128,5001,4862,0,2,0
295205642,295205514,4259850,4325386,0.0007062129,-0.0006444929,0.00037688063,-0.00078128895,-0.006426425,-0.04483842,5000,4864,0,2,0
295705684,295705560,4259850,4325386,-7.76461e-06,-0.00040569567,5.582307e-05,-0.00097002205,-0.0006637101,-0.04952524,5001,4862,0,2,0
296205730,296205605,4259850,4325386,0.0004289612,-0.00036244318,-3.9826296e-05,0.0019742565,-0.011536836,-0.046958867,4999,4861,0,2,0
296705773,296705650,4259850,4325386,0.00068549765,0.0005369791,-0.0002327036,-0.0016972279,-0.0048625143,-0.054228187,5000,4863,0,2,0
297200835,297200695,4259850,4325386,0.00022026701,0.00038088567,8.184489e-05,0.00062439236,0.005958381,-0.05671253,5001,4863,0,2,0
297700867,297700739,4259850,4325386,-0.0001067366,0.00026794488,0.00010125442,0.005308893,0.007230807,-0.039729405,5000,4862,0,2,0
298200905,298200784,4259850,4325386,-2.678341e-05,-0.00014465734,-0.00019174689,0.0024693208,0.006999182,-0.04107686,5000,4861,0,2,0
298700953,298700829,4259850,4325386,-0.00038534304,-0.0005901955,-0.00020463923,-0.005700587,-0.005862416,-0.046999928,5001,4862,0,2,0
299205996,299205874,4259850,4325386,-0.00030181112,-0.0002909953,-0.00012210336,0.0023354045,0.0072976844,-0.044207696,5001,4863,0,2,0
299706044,299705918,4259850,4325386,0.0008694233,-0.00019809463,0.00022968542,0.0042421157,-0.00014747975,-0.05128516,5001,4862,0,2,0
300206103,300205962,4259850,4325386,0.00048882375,0.00040547585,0.00045594233,-0.0035318977,-0.005733703,-0.053335994,5000,4862,0,2,0
300701145,300701005,4259850,4325386,0.0007283412,0.00049996894,0.00021910702,0.002184564,0.006249846,-0.044918414,5000,4862,0,2,0
301201177,301201049,4259850,4325386,0.0042746244,0.00028196548,-0.00018351246,0.001228792,-0.012867908,-0.04869705,5000,4863,0,2,0
301701219,301701093,4259850,4325386,0.003601313,0.0024327273,0.002209347,0.0030128614,-0.014482578,-0.069917016,5000,4862,0,2,0
302201262,302201137,4259850,4325386,0.0010278996,0.0035775085,0.00271994,0.00915229,-0.007715226,-0.09150783,5001,4862,0,2,0
302701307,302701180,4259850,4325386,-0.0015665118,0.0013043518,0.0018044179,-0.0014155337,0.006892956,-0.066749975,5000,4862,0,2,0
303206347,303206224,4259850,4325386,0.0010543381,0.0014625452,0.0013497006,-0.0018160742,0.0050188066,-0.06152113,5000,4862,0,2,0
303706397,303706268,4259850,4325386,-0.0033870125,-0.00020612722,0.0012113601,0.0018275415,0.007537222,-0.029442376,5001,4862,0,2,0
304201434,304201310,4259850,4325386,-0.0026938186,0.00046463005,0.0012715507,0.001207928,0.005962194,-0.04939043,5000,4863,0,2,0
304701478,304701353,4259850,4325386,-0.0012865647,0.00096350815,-7.403482e-05,-0.0019113503,0.009305719,-0.056056,5000,4862,0,2,0
305201519,305201396,4259850,4325386,0.0057386975,-8.9881374e-05,-8.9060966e-05,-0.0048828702,-0.004484665,-0.03502129,5000,4862,0,2,0
305701567,305701439,4259850,4325386,0.0043181586,0.00090646447,0.0013288258,-0.008429518,-0.011577353,-0.035517674,5001,4862,0,2,0
306201606,306201482,4259850,4325386,0.00017864598,0.0038996544,0.0022902095,0.015057259,0.0018524318,-0.08203298,5001,4862,0,2,0
306706653,306706525,4259850,4325386,-0.00021949352,0.003291456,0.0023487483,0.007150031,0.0015561533,-0.099552326,5001,4863,0,2,0
307206690,307206567,4259850,4325386,-0.0004415385,0.0027384548,0.0020859013,0.009833489,0.0072883638,-0.08100716,5001,4863,0,2,0
307701736,307701609,4259850,4325386,-0.0010942919,0.0018703969,0.0023880852,-0.003550398,-0.0056571974,-0.07549456,5001,4863,0,2,0
308201775,308201651,4259850,4325386,-0.00033537968,0.002598633,0.0017174882,-0.0024085122,-0.00024119858,-0.057109132,5001,4863,0,2,0
308701819,308701693,4259850,4325386,-0.0013537391,0.0019763971,0.0024919913,-0.003709322,-0.0030289455,-0.0494345,5001,4863,0,2,0
309201861,309201735,4259850,4325386,-0.0036677886,0.0003967635,0.0020194557,-0.0069304164,-0.00055939215,-0.025610788,5001,4863,0,2,0
309701904,309701776,4259850,4325386,-0.004491699,-8.908703e-05,0.00041611178,-0.0068156505,0.0002653075,-0.016522411,5000,4862,0,2,0
310201941,310201818,4259850,4325386,-0.0019623316,0.00013610812,-0.00083464367,-0.011206846,0.004074828,-0.057305858,5000,4862,0,2,0
310706984,310706860,4259850,4325386,-0.0010116246,0.0006960653,-0.0013674841,-0.008378175,-0.0028861747,-0.07084113,5000,4863,0,2,0
311202061,311201901,4259850,4325386,0.00020704458,0.00023744065,-0.0006243386,-0.009307461,-0.0016535108,-0.054869574,5000,4862,0,2,0
311702143,311701942,4259850,4325386,0.000540558,-9.485976e-05,-0.0006232122,-0.005445368,0.000103942955,-0.05206335,5000,4861,0,2,0
312202119,312201983,4259850,4325386,-0.00033590203,0.0001541372,-0.0010287332,-0.0075085717,-0.0023368064,-0.046900567,5000,4862,0,2,0
312702291,312702024,4259850,4325386,-6.235142e-05,6.797583e-05,-0.00074906164,-0.010464497,-0.00083589007,-0.06308787,5000,4862,0,2,0
313202193,313202065,4259850,4325386,0.0005388886,0.00022983049,-0.0005688675,-0.005521253,-0.0008121131,-0.035502724,5000,4862,0,2,0
313702239,313702106,4259850,4325386,0.00050542183,8.2592385e-05,6.799155e-05,-0.0066618393,0.0017430646,-0.041695356,5000,4862,0,2,0
314207275,314207147,4259850,4325386,0.00034814948,0.00013969041,-8.280862e-05,-0.00677557,-0.0006790572,-0.043829564,5000,4861,0,2,0
314702321,314702188,4259850,4325386,0.00018892015,4.6026475e-05,0.0003158608,-0.006877071,-0.0026092893,-0.05905191,5000,4861,0,2,0
315202354,315202229,4259850,4325386,0.0006728725,0.00021905963,0.00049977336,-0.0056739952,0.0031802754,-0.03942979,5001,4861,0,2,0
315702409,315702269,4259850,4325386,-0.00074474997,0.00014889393,2.6140442e-05,-0.0039394884,0.00057707593,-0.0472823,5001,4861,0,2,0
316202434,316202309,4259850,4325386,-0.0008525104,8.074332e-05,-0.00042977356,-0.0052577835,-0.0005088298,-0.039798643,5000,4861,0,2,0
316702471,316702350,4259850,4325386,0.00047927708,0.00027782528,0.00066309073,-0.005357984,0.00035587617,-0.050875075,4998,4861,0,2,0
317202517,317202390,4259850,4325386,-0.0002575552,-0.00011737344,0.0002813162,-0.0058579897,0.004570526,-0.038188137,5001,4861,0,2,0
317702556,317702430,4259850,4325386,0.0035815202,0.00010375577,-0.0006245681,-0.004381391,0.0019832528,-0.043718617,5000,4862,0,2,0
318202669,318202470,4259850,4325386,0.0032710086,0.00092563365,0.00033381273,-0.0065819756,-0.010481618,-0.076032385,5000,7293,0,2,0
318702642,318702516,4259850,4325386,-0.0031323384,0.00022454218,0.0041747317,-0.0042098262,-0.0011870023,-0.07491608,5006,4863,0,2,0
319202693,319202551,4259850,4325386,-0.0031491253,0.0015027362,0.0024393403,-0.007445826,0.0038044208,-0.062422168,5002,4862,0,2,0
319702715,319702590,4259850,4325386,-0.0047267727,0.0008895263,-0.0024907296,-0.007028433,0.0051846774,-0.04315435,5001,4862,0,2,0
320202754,320202630,4259850,4325386,-0.0038358197,0.0029671658,-0.002601756,-0.0027072255,0.004279029,-0.049954783,5001,4861,0,2,0
320702794,320702670,4259850,4325386,0.0033429244,0.0016333178,-0.002365213,0.005350807,-0.0037667374,-0.050520748,5001,4861,0,2,0
321202821,321202712,4259850,4325386,0.0038462265,0.0012494742,-0.0015617764,-0.0016855479,-0.006147627,-0.066216215,5003,4862,0,2,0
321702871,321702749,4259850,4325386,0.0035331848,9.130172e-05,0.00012150406,0.0051449635,-0.011188011,-0.05001003,5001,4862,0,2,0
322202913,322202789,4259850,4325386,0.0017738194,0.0006669881,0.0018259984,0.0019584757,0.0018862856,-0.059112277,5001,4861,0,2,0
322702951,322702828,4259850,4325386,-0.0002597024,0.00017189393,0.0015294916,0.0066521005,-0.0052905516,-0.050585434,5000,4862,0,2,0
323202992,323202868,4259850,4325386,-0.0021037622,0.00135321,0.000991516,0.0048680617,0.008286263,-0.07712212,5001,4862,0,2,0
323703033,323702907,4259850,4325386,0.0003458682,0.0015090001,-0.00019657779,0.00045828274,0.012299275,-0.06697227,5000,4862,0,2,0
324203085,324202947,4259850,4325386,-0.00053709757,3.947315e-05,-0.0005465261,-0.000597956,-0.008972486,-0.047665015,5001,4863,0,2,0
324703115,324702986,4259850,4325386,0.0006481218,-0.00043448395,0.00068830315,-0.0013896836,-0.0034749056,-0.04717037,5000,4862,0,2,0
325203147,325203025,4259850,4325386,5.596943e-05,-0.0008172471,3.615734e-05,-0.0021259943,-0.0035046001,-0.03984882,5000,4862,0,2,0
325703190,325703065,4259850,4325386,0.0006218956,-6.162115e-05,-0.00037089,-0.0011583735,-0.0046000094,-0.03919743,5001,4864,0,2,0
326203229,326203104,4259850,4325386,0.00023189849,0.0005613283,-1.33406265e-05,-0.0028601377,0.0054972484,-0.04452414,5001,4863,0,2,0
326703271,326703143,4259850,4325386,0.0010476726,-0.00052662287,-0.00030812706,0.0031139764,0.0021064805,-0.032591626,5000,4863,0,2,0
327203306,327203182,4259850,4325386,4.7961453e-06,-0.00041228527,-0.00018995722,0.0024396903,-0.0047298707,-0.04808355,5000,4862,0,2,0
327703380,327703222,4259850,4325386,7.5326743e-06,0.0009297512,0.00024620208,0.0057240855,0.006721469,-0.069246046,5001,7295,0,2,0
328203389,328203261,4259850,4325386,-0.0009560479,0.00036974926,-0.00024724845,0.0036393227,0.009289839,-0.054980524,5001,4863,0,2,0
328703421,328703300,4259850,4325386,0.0013966612,-0.0005910573,0.00045170813,0.0010065882,-0.0099217445,-0.059669875,5001,4862,0,2,0
329203463,329203339,4259850,4325386,-0.000812268,-1.7521217e-05,7.2755254e-05,0.0038532205,0.010965523,-0.05123289,5001,4862,0,2,0
329703501,329703378,4259850,4325386,0.00019810302,0.0004970374,0.00012248727,0.00013682613,0.0045699254,-0.04392311,5001,4862,0,2,0
330203541,330203417,4259850,4325386,0.00081160944,-0.00045816493,1.6575794e-05,0.00026778918,-0.006642072,-0.04656093,5000,4863,0,2,0
330703580,330703455,4259850,4325386,-0.00048430508,-0.0005292388,-1.1687623e-05,-0.00038635603,-0.00524338,-0.047148257,5000,4863,0,2,0
331203623,331203494,4259850,4325386,-0.00018787838,0.00063594163,3.099199e-05,-0.0034972085,0.0029172115,-0.058903575,5000,4862,0,2,0
331703660,331703533,4259850,4325386,-0.0006725675,-6.580151e-05,0.00025801518,-0.0027495858,-0.0039536627,-0.045293026,5000,4864,0,2,0
332203699,332203572,4259850,4325386,-0.0020664823,-0.00065046386,0.00016643353,-0.00017831387,0.0019517023,-0.030415798,5001,4864,0,2,0
332703737,332703610,4259850,4325386,0.0006446847,-0.00016622458,3.437652e-06,0.0032798673,0.00082029,-0.03795439,5000,4863,0,2,0
333203815,333203649,4259850,4325386,0.0008383179,0.00054537994,-0.00028889105,-0.001482724,-0.0032313233,-0.08370729,5000,7294,0,2,0
333703813,333703688,4259850,4325386,0.0010596481,-0.0004371948,0.00012648842,0.002181898,-0.006043928,-0.044344056,5000,4863,0,2,0
334203865,334203726,4259850,4325386,0.00019085953,-0.0004738731,1.6098678e-05,0.0042251423,-0.007115102,-0.044485766,5000,4863,0,2,0
334703892,334703765,4259850,4325386,-2.091064e-05,0.00066710764,3.5173583e-05,0.006999595,0.0075076055,-0.047593683,5000,4863,0,2,0
335203994,335203803,4259850,4325386,-0.000952899,0.0005070753,9.1971015e-05,0.003389713,-0.002481458,-0.054392587,5000,4863,0,2,0
335703966,335703842,4259850,4325386,-0.001350203,0.00024914107,0.0002058338,0.014008392,-0.0014113056,-0.048561398,5000,4863,0,2,0
336204124,336203880,4259850,4325386,-0.0003927076,-0.001278623,-0.00025531108,0.0057059987,-0.0072090332,-0.043790102,5000,4863,0,2,0
336704044,336703919,4259850,4325386,-0.0038363377,4.5879027e-05,-0.00030795234,0.008613884,-0.0035760934,-0.075400256,5001,7294,0,2,0
337204271,337203959,4259850,4325386,-0.0018768179,0.0007982156,-0.0011349402,0.006664015,0.0067349076,-0.060688827,5002,4863,0,2,0
337704120,337703996,4259850,4325386,0.00059578806,0.000525389,-0.0013836888,0.013056128,0.0004495961,-0.06875008,5001,4863,0,2,0
338204164,338204034,4259850,4325386,0.000670597,0.0005160281,-0.0008470917,0.010908371,-0.011398255,-0.063083425,5001,4862,0,2,0
338704197,338704072,4259850,4325386,-0.0027006108,0.0003876214,-0.0010501737,0.013136077,-0.007977157,-0.058926288,5000,4863,0,2,0
339204249,339204110,4259850,4325386,-0.000493418,0.0005475618,-0.0016094912,0.011436919,0.0008825045,-0.04810676,5000,4862,0,2,0
339704272,339704148,4259850,4325386,-0.0010145147,0.00050566916,-0.0011440173,0.0041052573,-0.011911575,-0.06096298,5000,4863,0,2,0
340204312,340204187,4259850,4325386,0.00052267185,0.00032771824,-0.0017836386,0.011582707,-0.00016202283,-0.070558466,5001,4863,0,2,0
340704350,340704225,4259850,4325386,-0.0005164073,0.00076751993,-0.00042040157,0.006656343,-0.005267381,-0.054624923,5001,4862,0,2,0
341204386,341204263,4259850,4325386,0.00018023621,0.0010757688,-0.0012858202,0.0044033434,0.0032759027,-0.05085965,5001,4862,0,2,0
341704426,341704301,4259850,4325386,-0.00041032318,0.0014420951,-0.0018468507,0.007562266,0.00085286,-0.058091927,5001,4863,0,2,0
342204463,342204339,4259850,4325386,0.0011268826,0.0011138835,-0.0009565823,0.004826483,-0.0029782664,-0.061609305,5001,4864,0,2,0
342699499,342699376,4259850,4325386,0.00021594483,0.00076729705,-0.0005671259,0.009849538,0.0054255296,-0.045780696,5000,4863,0,2,0
343204538,343204414,4259850,4325386,-0.0001681902,0.00083333626,-0.0011228521,0.0068887956,0.003554309,-0.043787666,5000,4862,0,2,0
343704589,343704452,4259850,4325386,0.0006596616,0.0011394449,-0.0013061594,0.003300434,-0.010483027,-0.057822987,5000,4862,0,2,0
344204615,344204490,4259850,4325386,0.0004050819,0.0009422572,-0.0012938145,0.0042180875,-0.009128462,-0.045081362,5000,4863,0,2,0
344704654,344704528,4259850,4325386,0.00048640263,0.000798978,-0.0010056362,0.005598419,-0.0076782415,-0.05288189,5001,4861,0,2,0
345204703,345204565,4259850,4325386,-0.0008299055,0.0009009996,-0.001125808,0.001299892,-0.0013099135,-0.054420702,5000,4862,0,2,0
345704729,345704603,4259850,4325386,-0.0007026886,0.00020153895,-0.001213968,0.0067296466,0.0038141632,-0.042753343,5000,4862,0,2,0
346199770,346199641,4259850,4325386,7.2946656e-05,-3.39035e-05,-0.000915132,0.007413651,-0.0019392282,-0.04721702,5001,4864,0,2,0
346704809,346704683,4259850,4325386,0.001989465,-0.00036267235,-0.0012576171,0.009768989,0.0057237586,-0.050113272,5005,4862,0,2,0
347204839,347204716,4259850,4325386,0.0011880406,-0.00012091604,-0.0005343294,0.005726866,0.0018915385,-0.050827883,5000,4863,0,2,0
347704846,347704753,4259850,4325386,-0.00013121618,-0.00015418079,-0.0012543837,0.0024248518,-0.015406744,-0.0539662,5000,4862,0,2,0
348204915,348204791,4259850,4325386,0.001101586,-0.00027457514,-0.0007965432,0.0081814565,-0.0026847622,-0.0467211,5001,4863,0,2,0
348704953,348704828,4259850,4325386,0.0009011334,0.00012437369,-0.001397978,0.0065519884,-0.0005241751,-0.04950847,5000,4863,0,2,0
349204990,349204865,4259850,4325386,0.0010814227,0.000105530766,-0.0011158702,0.0059438227,-0.00849467,-0.052013624,5000,4863,0,2,0
349700027,349699902,4259850,4325386,0.001098579,-0.0003302948,-0.0009888455,0.011483181,0.009258736,-0.05000751,5000,4863,0,2,0
350200068,350199939,4259850,4325386,-0.00048103614,0.00087573484,-0.0010336104,0.0022293627,-0.012244206,-0.053841937,5000,4863,0,2,0
350705103,350704977,4259850,4325386,-0.0004961472,0.0009688738,-0.0011063257,0.0044954875,0.0045736227,-0.052141838,5000,4863,0,2,0
351205138,351205014,4259850,4325386,-0.0011727823,0.0013568244,-0.0012852065,0.0036543598,0.004792654,-0.049827054,5000,4864,0,2,0
351705176,351705051,4259850,4325386,0.0006792169,0.00023097087,-0.0010267243,0.0071787983,0.0027397978,-0.04004863,5000,4863,0,2,0
352205212,352205088,4259850,4325386,-8.256426e-05,0.00022876359,-0.0012061995,0.007004695,0.006024976,-0.04528154,5000,4863,0,2,0
352705249,352705125,4259850,4325386,0.0005241594,-0.00014850187,-0.0012183303,-0.0030095188,-0.010175489,-0.050437827,5000,4864,0,2,0
353200285,353200162,4259850,4325386,0.0008711433,8.887823e-05,-0.0010700088,0.0021820632,-0.010888453,-0.04719194,5001,4863,0,2,0
353700320,353700198,4259850,4325386,-0.00019866588,0.0008604384,-0.0011656483,0.0009606785,0.00017551194,-0.064896286,5000,4862,0,2,0
354200360,354200235,4259850,4325386,-0.00037901348,0.001318426,-0.0013143928,0.0012585266,0.0016398437,-0.06609045,5000,4864,0,2,0
354705399,354705272,4259850,4325386,-0.00016242416,0.00079237693,-0.0011197188,-0.0015264483,-0.012883253,-0.058427617,5000,4863,0,2,0
355205441,355205309,4259850,4325386,-0.0011572336,0.0011570485,-0.0011442036,0.006147336,0.0038459678,-0.05003197,5000,4863,0,2,0
355705471,355705346,4259850,4325386,-3.129862e-05,0.0002285709,-0.0010391127,-0.0008363346,-0.00619567,-0.048175234,5001,4863,0,2,0
356205506,356205382,4259850,4325386,0.00016650945,0.000548072,-0.001346832,-0.0019923372,0.004462931,-0.055763166,5000,4865,0,2,0
356700542,356700418,4259850,4325386,0.0016842608,0.00052574964,-0.0010613488,-9.324897e-05,0.0019134529,-0.059192203,5000,4863,0,2,0
357200627,357200455,4259850,4325386,0.00016298832,0.00032524453,-0.0012513014,0.0037241506,0.0045662457,-0.055699844,5001,4863,0,2,0
357700653,357700491,4259850,4325386,0.00062930293,0.0001327344,-0.0016522352,0.002851507,-0.013080616,-0.05932393,5000,4863,0,2,0
358205659,358205528,4259850,4325386,-0.00031071948,0.0011416359,-0.0013554364,0.0017254113,-0.013406821,-0.06270303,5000,4863,0,2,0
358705714,358705564,4259850,4325386,-0.0008672487,0.0010387733,-0.0014771767,-0.00028362888,-0.012536726,-0.05057672,5000,4863,0,2,0
359205726,359205600,4259850,4325386,0.0011767193,0.00094772707,-0.0016750848,-0.0053128554,-0.007224796,-0.07002804,5000,4863,0,2,0
359705840,359705636,4259850,4325386,0.0018587118,0.0008459091,-0.0008252288,-0.002441796,-0.010075319,-0.040267993,5000,4862,0,2,0
360200800,360200672,4259850,4325386,0.00032754987,-0.00012512555,-0.0016901302,0.0027966322,-0.000245867,-0.034303617,5000,4863,0,2,0
360700841,360700708,4259850,4325386,0.0009029107,0.00074980734,-0.0013163284,-0.0010013405,-0.00011995991,-0.059578024,5000,4864,0,2,0
361200869,361200744,4259850,4325386,0.00027816536,0.001378158,-0.0009918916,0.006175753,0.0036412694,-0.06299701,5000,4863,0,2,0
361700914,361700780,4259850,4325386,0.00046924307,0.001224202,-0.0016477226,0.0056230444,0.00075567234,-0.048239037,5000,4863,0,2,0
362205941,362205816,4259850,4325386,-0.0002232278,0.0010302315,-0.0012403836,0.001662416,0.0029998587,-0.051133975,5000,4862,0,2,0
362705982,362705852,4259850,4325386,-1.5586887e-05,-0.00081267394,-0.00010841306,-0.0005705197,-0.005075844,-0.042907327,5000,4862,0,2,0
363206012,363205888,4259850,4325386,0.00050279615,0.00026625517,-0.00176467,-0.0016136783,-0.010492278,-0.040778887,5000,4863,0,2,0
363701047,363700923,4259850,4325386,-0.00075671903,0.0018115481,-0.0015498173,-0.00226118,-0.0073273154,-0.051684488,5000,4863,0,2,0
364201086,364200959,4259850,4325386,-0.00059767993,0.0006626122,-0.0012756799,0.00015771315,-0.011827708,-0.046412062,5000,4863,0,2,0
364701134,364700994,4259850,4325386,0.00068264507,0.00016619344,-0.0011391295,-0.0015656248,-0.0003980935,-0.065919764,5000,4865,0,2,0
365201155,365201030,4259850,4325386,-8.770787e-05,0.00017704596,-0.00083723734,-0.000509889,0.0022481126,-0.06019714,5000,4863,0,2,0
365706193,365706066,4259850,4325386,0.00014494795,0.00058161956,-0.0010450073,-0.00070713664,0.0032226902,-0.06853362,5000,4862,0,2,0
366206226,366206101,4259850,4325386,-0.00097418966,0.001494014,-0.0013705061,0.0004042825,-0.0032666437,-0.09856835,5000,7293,0,2,0
366706260,366706136,4259850,4325386,-0.0004086632,0.0007806931,-0.001282467,-0.0008011912,-0.0075992937,-0.058434017,5000,4861,0,2,0
367201296,367201172,4259850,4325386,-0.00019299159,0.0007500998,-0.0010116687,0.0033157174,0.005404921,-0.05015775,5001,4863,0,2,0
367701330,367701207,4259850,4325386,0.00013687921,9.075959e-05,-0.0009773042,0.0072838897,0.00021175966,-0.04518447,5001,4863,0,2,0
368201365,368201242,4259850,4325386,6.582199e-05,6.993951e-05,-0.0007236686,0.0021341236,0.0041566365,-0.055760354,5000,4862,0,2,0
368701405,368701277,4259850,4325386,-0.0004921121,-0.00016870828,-0.001596968,-0.0005944309,-0.004017543,-0.0616852,5000,4863,0,2,0
369201436,369201312,4259850,4325386,-0.00016871508,0.00057519507,-0.0015908551,0.00063089974,0.0030023688,-0.0742589,5000,4862,0,2,0
369706475,369706348,4259850,4325386,8.506142e-05,0.000379045,-0.0008627789,0.0008097103,0.0031104933,-0.06103522,5001,4863,0,2,0
370206505,370206383,4259850,4325386,-0.0008728144,0.0010042178,-0.00057609536,0.003739003,0.005574017,-0.053236015,5001,4863,0,2,0
370701543,370701417,4259850,4325386,-0.0019464794,0.0009831385,-0.001495065,-0.004761352,-0.005724499,-0.04602737,5000,4864,0,2,0
371201581,371201453,4259850,4325386,6.248063e-05,-0.00028602843,-0.0009859565,0.0027128719,-0.008992565,-0.045106333,5001,4863,0,2,0
371701630,371701487,4259850,4325386,0.0013888032,5.158786e-05,-0.0010732651,-0.00044914114,0.002365977,-0.05569073,5000,4864,0,2,0
372201650,372201522,4259850,4325386,0.000479946,8.953598e-05,-0.0008385243,0.0018714318,-0.008792565,-0.049297698,5001,4865,0,2,0
372701683,372701557,4259850,4325386,-0.00030274002,0.00073915935,-0.0007345693,-0.00016266787,-0.010875245,-0.086601645,5001,7295,0,2,0
373206721,373206592,4259850,4325386,-0.00044069765,0.00061491027,-0.0010179954,0.0002425531,-0.006676925,-0.041627333,5001,4864,0,2,0
373706748,373706626,4259850,4325386,0.00023353825,0.0008098944,-0.0011185886,-0.0002964314,0.0045476444,-0.05396184,5000,4863,0,2,0
374201786,374201661,4259850,4325386,0.0006763882,0.00022483259,-0.0010461954,-0.0021706873,-0.0050817756,-0.05691888,5001,4862,0,2,0
374701818,374701695,4259850,4325386,0.00044176195,-0.00037093394,-0.00093952497,-0.00091506325,-0.0106706275,-0.04713952,5000,4863,0,2,0
375201856,375201730,4259850,4325386,0.00020753595,0.0005388982,-0.0010426635,0.005376083,-0.0014201502,-0.047005277,5001,4864,0,2,0
375701888,375701764,4259850,4325386,-0.0007533886,0.0008708122,-0.0010381016,-0.00022227157,-0.011456554,-0.05475985,5000,4864,0,2,0
376201922,376201798,4259850,4325386,-0.0009756803,0.00074698194,-0.0012435449,-0.0030050382,-0.008907727,-0.0499997,5000,4862,0,2,0
376701955,376701833,4259850,4325386,-2.2061964e-05,0.0001582467,-0.0010962553,0.0020503458,0.0054417043,-0.052333746,5000,4863,0,2,0
377206964,377206868,4259850,4325386,0.0012074835,0.00013227094,-0.0010536273,-0.0010110592,-0.0028237184,-0.059373196,5001,4864,0,2,0
377702026,377701901,4259850,4325386,0.00034206608,8.2945786e-05,-0.0009893038,0.0015149512,-0.012343294,-0.0487877,5000,4863,0,2,0
378202063,378201935,4259850,4325386,-0.0002779603,0.0012239696,-0.001329038,-0.0021326586,-0.011215116,-0.060878,5000,4863,0,2,0
378702094,378701970,4259850,4325386,-0.00090102595,0.0012836235,-0.001115794,0.0032680691,0.0035973878,-0.05953578,5001,4863,0,2,0
379202147,379202004,4259850,4325386,-0.00031065458,4.8554957e-05,-0.0009827185,0.006503117,0.0020173735,-0.038363036,5001,4864,0,2,0
379702162,379702038,4259850,4325386,-0.000118269665,-0.0003741211,-0.0011126306,0.0014054867,-0.0090417955,-0.045040045,5000,4865,0,2,0
380202198,380202072,4259850,4325386,-0.0010355931,-0.00037746786,-0.0011470382,-0.0030190854,-0.009363781,-0.048685018,4998,4863,0,2,0
380707235,380707106,4259850,4325386,0.0012966283,0.00033776608,-0.0015433773,0.003533513,0.0055799256,-0.04731076,5000,4863,0,2,0
381202280,381202140,4259850,4325386,0.0006116756,0.00029448298,-0.00063582166,0.00758712,-0.0010004705,-0.050725248,5001,4864,0,2,0
381702301,381702173,4259850,4325386,-0.0008996508,0.0011220471,-0.0011644996,0.005479549,-0.0035152705,-0.040303256,5000,4864,0,2,0
382202418,382202207,4259850,4325386,0.0007743147,0.0007782078,-0.0014642522,0.009399943,-0.0053727585,-0.0794592,5000,7294,0,2,0
382702379,382702241,4259850,4325386,-0.00019042853,0.0005902025,-0.0013655053,-0.0009191834,-0.003968752,-0.05370447,5000,4863,0,2,0
383202477,383202275,4259850,4325386,0.0014213074,-0.00021026624,-0.0011022978,-0.0002077486,-0.010748228,-0.044532716,5001,4863,0,2,0
383702479,383702309,4259850,4325386,0.0062777814,0.000662425,-0.0018258608,-0.01334437,0.0074698557,-0.07171971,5001,4864,0,2,0
384202630,384202342,4259850,4325386,0.006603952,0.00037930792,-0.00017002065,0.007130416,-0.010459599,0.003985102,5000,4864,0,2,0
384702558,384702376,4259850,4325386,0.0060310387,0.0015820501,0.002678457,-0.01231839,-0.02301052,-0.05517194,5000,4865,0,2,0
385202756,385202409,4259850,4325386,-0.00026317485,0.0036198755,0.0030340916,0.00079066405,-0.0062671765,-0.10319642,5000,4863,0,2,0
385702624,385702443,4259850,4325386,-0.00014200534,0.0032582758,0.0028309033,-0.009020309,0.00806543,-0.052690223,5000,4864,0,2,0
386202690,386202477,4259850,4325386,0.0014939578,0.0034948078,0.0020751893,-0.026757276,-0.0007892063,-0.06726241,5001,4863,0,2,0
386702692,386702510,4259850,4325386,-0.0051392177,0.00089771947,0.003239341,-0.022672482,-0.019215146,-0.06714436,5000,4864,0,2,0
387202730,387202547,4259850,4325386,-0.003929116,0.00092943746,0.0007549529,-0.010431806,-0.012793783,-0.052184682,5004,4864,0,2,0
387702748,387702577,4259850,4325386,-0.0009602164,0.017141184,-0.00023688859,-0.007820154,0.008989828,-0.0703164,5001,4864,0,2,0
388202784,388202610,4259850,4325386,0.00091501203,-0.0020218303,5.1438445e-05,-0.003684635,-3.8174825e-05,-0.009953235,5000,4863,0,2,0
388702820,388702643,4259850,4325386,0.0037718674,-0.01952144,0.00015959234,-0.0038985398,0.00024253549,-0.07807435,4999,4863,0,2,0
389202839,389202677,4259850,4325386,-0.006413509,0.022120662,-0.0007960877,-0.025954377,0.02808477,-0.049298797,5001,4863,0,2,0
389702872,389702710,4259850,4325386,-0.00019153868,-0.016699504,0.0013312061,-0.018011706,0.0048838216,-0.08607466,5000,7296,0,2,0
390202915,390202743,4259850,4325386,0.0055104685,0.003593915,0.0012932464,0.0013695272,-0.0057524377,-0.060393404,5000,4863,0,2,0
390702935,390702776,4259850,4325386,-0.008425977,4.77401e-05,0.0017929798,-0.009477878,0.005592882,-0.052561022,5000,4864,0,2,0
391202971,391202810,4259850,4325386,0.009493951,-0.0048209704,0.00025138093,0.00042336414,0.014043467,-0.06207,5000,4864,0,2,0
391703005,391702843,4259850,4325386,-0.011847259,0.0036267734,0.000772745,0.0026996767,0.0095793065,-0.05736627,5000,4865,0,2,0
392203038,392202876,4259850,4325386,0.00890964,0.0005987726,0.00028138212,-0.0024490675,-0.0013882689,-0.073470145,5000,4864,0,2,0
392703071,392702909,4259850,4325386,-0.005977686,0.0017400874,-0.0011561626,-0.010420134,0.0046846876,-0.059084397,5000,4865,0,2,0
393203105,393202943,4259850,4325386,0.0012260374,-0.0005967016,-0.0028610453,-0.009230963,0.003938001,-0.061727535,5000,4864,0,2,0
393703156,393702976,4259850,4325386,-0.0030918387,-0.00022524473,-0.0025893904,-0.0020462035,0.007780381,-0.05065126,5001,4864,0,2,0
394203168,394203009,4259850,4325386,0.0027043568,0.00025382743,-0.002079372,-0.008212512,7.236735e-06,-0.050580252,5000,4863,0,2,0
394703205,394703043,4259850,4325386,-0.0004922904,0.00012529847,-0.0013958906,-0.005306792,0.005438977,-0.05155487,5001,4862,0,2,0
395203239,395203076,4259850,4325386,-0.0003632247,0.0007865558,-0.00078611856,-0.001879089,-0.0062748045,-0.06419687,5001,4862,0,2,0
395703271,395703109,4259850,4325386,0.00096843817,-0.00035076684,-9.53936e-05,4.515272e-05,-0.006438978,-0.038255457,5000,4863,0,2,0
396203302,396203142,4259850,4325386,-0.00036355935,9.229073e-05,-4.115718e-05,-0.006693207,0.0039995722,-0.046324216,5000,4864,0,2,0
396703337,396703176,4259850,4325386,-0.00057986693,0.0004019376,0.00022039362,-0.0023581,-0.0045029926,-0.03801105,5001,4863,0,2,0
397203368,397203209,4259850,4325386,0.00047046048,-0.0002001775,-3.4142766e-05,-0.011771865,-0.0011190538,-0.036847606,5000,4863,0,2,0
397703406,397703243,4259850,4325386,0.00017109446,-0.00043333584,7.594571e-05,-0.00020748076,0.010326248,-0.040892582,5001,4864,0,2,0
398203437,398203276,4259850,4325386,-0.00015800835,0.00029083586,-6.1624996e-05,0.0042843595,-0.005326099,-0.025579741,5000,4863,0,2,0
398703469,398703309,4259850,4325386,0.0001685659,-0.0003469987,-0.0001398287,-0.00622951,0.007266712,-0.04939273,5000,4863,0,2,0
399203516,399203343,4259850,4325386,-0.00071997446,0.00015231539,-0.00020828663,-0.00850925,0.0030469885,-0.067242414,5000,4864,0,2,0
399703537,399703376,4259850,4325386,0.00015594435,-0.0003770504,-0.00046058398,-0.0047121597,0.014604761,-0.03917707,5000,4862,0,2,0
400203570,400203410,4259850,4325386,0.0005961329,0.00020694248,-0.00022807634,-0.00901833,-0.009914355,-0.058235463,5000,4862,0,2,0
400703606,400703444,4259850,4325386,-0.000508971,-6.323392e-05,-0.0006342508,-0.008288262,0.008298525,-0.070205,5001,4863,0,2,0
401203643,401203477,4259850,4325386,0.00066161,0.0008635053,-6.8545734e-05,-0.0049692313,-0.01422648,-0.035729293,5000,4862,0,2,0
401703741,401703511,4259850,4325386,-0.00021428928,-0.0012434388,-0.00055226596,-0.0019028835,-0.008863735,-0.06284041,5000,7293,0,2,0
402203707,402203545,4259850,4325386,0.00084272376,0.0009073764,-8.2753875e-05,-0.010755125,0.008067101,-0.0527873,5000,4862,0,2,0
402703741,402703579,4259850,4325386,-0.001145475,-0.0008497218,-0.00022676075,-0.0030588391,0.013118253,-0.04224772,5001,4863,0,2,0
403203778,403203613,4259850,4325386,0.0009311205,0.00059829117,-4.001432e-05,0.007055707,-0.007662728,-0.035564736,5001,4863,0,2,0
403703843,403703647,4259850,4325386,-0.0013480131,-0.00037758556,-0.00029929721,-0.006636327,-0.00019252079,-0.0466113,5001,4863,0,2,0
404203857,404203680,4259850,4325386,0.00089043065,0.0005340729,-2.3268554e-05,-3.1437696e-05,0.0054955874,-0.047649205,5000,4864,0,2,0
404703889,404703714,4259850,4325386,-0.00052624627,-0.00063856086,0.00016334667,-0.0008015843,-0.008844,-0.053577308,5000,4863,0,2,0
405203911,405203748,4259850,4325386,-0.00060454116,-7.822651e-05,-7.0634735e-05,-0.006341067,0.0074982997,-0.047333784,5000,4864,0,2,0
405703947,405703782,4259850,4325386,0.0007855727,0.00015103674,0.00011988967,-0.007807373,0.012441128,-0.049692895,5000,4863,0,2,0
406203995,406203817,4259850,4325386,-0.0007178698,0.0016166682,-0.00023168739,-0.014014224,0.015331076,-0.06435518,5001,4864,0,2,0
406703949,406703851,4259850,4325386,0.0007594824,-0.0011215707,-0.00014623777,0.0040386557,-0.0058261207,-0.04483154,4999,4863,0,2,0
407204047,407203885,4259850,4325386,0.00074310176,0.0010319552,0.00038130386,-0.0059273606,0.002984448,-0.073707126,5000,7294,0,2,0
407704096,407703920,4259850,4325386,-0.00040148862,-0.0009795164,0.00064264017,-0.005691161,0.012343903,-0.056958724,5001,4863,0,2,0
408204113,408203954,4259850,4325386,0.00034080917,-0.00030625326,0.00073899154,-0.004742618,0.015308371,-0.04287273,5000,4863,0,2,0
408704213,408703988,4259850,4325386,0.0002617812,-0.0018137887,0.0008166772,-0.0066081984,0.016081108,-0.048488714,5000,4864,0,2,0
409204191,409204023,4259850,4325386,0.00072983286,0.0040032603,0.0005230509,-0.0020719697,-0.002049136,-0.04399766,5000,4863,0,2,0
409704327,409704058,4259850,4325386,-0.0016720798,-0.0028182415,5.5814555e-05,-0.0044330196,0.013803611,-0.051748507,4997,4863,0,2,0
410204271,410204093,4259850,4325386,-0.002274572,0.00047356356,-0.00041111148,0.00027479106,-0.009933498,-0.036304235,5001,4863,0,2,0
410704450,410704127,4259850,4325386,0.0021733965,-0.00029251733,-0.00012752527,-0.0008917338,0.0046514487,-0.040725227,5000,4863,0,2,0
411204322,411204162,4259850,4325386,0.0017840002,0.0008214683,-0.0006123539,-0.0071804915,-0.0025941478,-0.044289686,5000,4865,0,2,0
411704368,411704197,4259850,4325386,-1.0135597e-05,-0.001717377,-0.00048629678,0.00057887286,-0.0092270905,-0.047837693,5000,4863,0,2,0
412204403,412204233,4259850,4325386,7.909016e-05,-0.00078720896,-9.6743126e-05,-0.012682204,0.007338501,-0.044724237,5001,4863,0,2,0
412699438,412699267,4259850,4325386,0.00023346032,0.0009127015,0.00014434822,0.00037502794,-0.000645802,-0.040594023,5000,4864,0,2,0
413204462,413204303,4259850,4325386,-0.00061396946,0.0007331726,0.00031672124,0.0017847538,-0.004228822,-0.04553018,5000,4862,0,2,0
413704509,413704338,4259850,4325386,0.00058752496,-0.00028752795,0.00068732246,-0.0041946145,0.012584895,-0.050566845,5000,4863,0,2,0
414204535,414204374,4259850,4325386,0.00032006987,-0.00023824842,0.00070311216,-0.009943522,-0.004723709,-0.05921729,5000,4863,0,2,0
414704588,414704410,4259850,4325386,-0.0012150307,0.0024447336,0.00048272064,-0.008796969,0.0062995334,-0.04695796,5001,4862,0,2,0
415204608,415204445,4259850,4325386,-0.0017520649,-0.00038548,-0.00018984832,-0.0006079186,0.0003144861,-0.05100837,5000,4864,0,2,0
415704645,415704481,4259850,4325386,0.0009556193,-0.0010732872,-0.00018357315,-0.0063127573,0.002220928,-0.05791979,5000,4863,0,2,0
416199681,416199516,4259850,4325386,0.0005902306,-0.0021351355,-0.00058050477,-0.0039125807,-0.0021269054,-0.034746695,5000,4863,0,2,0
416704723,416704553,4259850,4325386,0.002666328,-1.9504592e-05,-0.0004716094,-0.0035870518,0.004233218,-0.036733445,5001,4862,0,2,0
417204749,417204589,4259850,4325386,0.0004070842,0.0004553997,-6.1672814e-05,0.0019499675,0.006167288,-0.050773583,5001,4867,0,2,0
417704785,417704625,4259850,4325386,-0.0005871767,-0.0006912955,0.0006753414,-0.0002487074,-0.0017082939,-0.05345762,5000,4862,0,2,0
418204885,418204661,4259850,4325386,-0.00037337767,0.00027544165,0.0006543549,-0.004896261,-0.0031301526,-0.07764005,5000,7294,0,2,0
418704860,418704698,4259850,4325386,-0.00017819116,-0.0006004904,0.0006154638,-0.0033883369,-0.0064966297,-0.05875294,5001,4865,0,2,0
419204895,419204734,4259850,4325386,0.00020953648,0.000838739,0.0005348452,-0.004357038,-0.006710385,-0.057842728,5000,4864,0,2,0
419699930,419699770,4259850,4325386,-0.00025642017,0.000629535,0.00029521127,-0.0043836134,0.0038774814,-0.046645496,5000,4865,0,2,0
420199968,420199807,4259850,4325386,5.939258e-05,-0.00047155208,0.0002669615,-0.008298959,0.0007432211,-0.056031894,5000,4862,0,2,0
420705006,420704844,4259850,4325386,-2.4432416e-05,-0.000130559,0.00017790882,-0.004034125,0.007578789,-0.044199564,5000,4863,0,2,0
421205041,421204881,4259850,4325386,7.332086e-05,0.0002454371,0.00019376913,-0.011742411,0.015046852,-0.055460885,5000,4863,0,2,0
421705081,421704918,4259850,4325386,-0.00016880085,-0.00028223646,7.0444534e-05,-0.0004916528,-0.0038775029,-0.049628187,5000,4863,0,2,0
422205119,422204955,4259850,4325386,-6.8683155e-05,-0.00041973626,-6.820878e-06,-0.0016317774,-0.000366028,-0.04599188,5000,4863,0,2,0
422705221,422704993,4259850,4325386,-0.0001927565,0.00034490775,-5.1671886e-05,0.0022944843,0.0020181953,-0.06553712,5001,7295,0,2,0
423200189,423200030,4259850,4325386,4.2920296e-05,-1.0769631e-05,-0.00010260839,-0.0054928516,0.00050989084,-0.044786338,5001,4863,0,2,0
423700263,423700069,4259850,4325386,-0.0001775278,9.035146e-06,-0.0002763816,0.004385304,0.00084451394,-0.036348462,5002,4864,0,2,0
424205270,424205105,4259850,4325386,-0.00027254617,-0.00020540332,-0.00010969683,0.0021106831,0.0034982134,-0.040372714,5000,4865,0,2,0
424705303,424705143,4259850,4325386,0.000433859,0.00016926146,0.00012727808,0.0046996577,-0.00026732957,-0.04656008,5001,4864,0,2,0
425205342,425205180,4259850,4325386,0.00020205558,6.576593e-05,9.884388e-05,-0.00621607,0.0032902376,-0.048171155,5000,4864,0,2,0
425705377,425705218,4259850,4325386,-0.00088090135,0.00029022296,1.7364362e-05,-0.0038347242,0.0023130546,-0.04799813,5000,4863,0,2,0
426205426,426205256,4259850,4325386,0.00064462953,-0.00015903327,-1.2761828e-05,0.0025132562,0.004787359,-0.04003858,5000,4864,0,2,0
426700454,426700294,4259850,4325386,-0.00018710011,-8.0157486e-05,-1.5675692e-05,-0.0055880332,0.0049619977,-0.051988468,5000,4864,0,2,0
427200507,427200332,4259850,4325386,-0.00034051194,-4.710989e-05,-6.9866887e-06,0.0042408966,-0.0018399575,-0.044203047,5000,4863,0,2,0
427700529,427700371,4259850,4325386,-0.00027261642,0.00021774547,-8.778647e-05,0.0030502586,-0.012430789,-0.034356683,5000,4863,0,2,0
428205574,428205410,4259850,4325386,-4.4427652e-05,8.9639485e-05,-0.00012751635,-0.004909764,0.0061165523,-0.05137016,5000,4860,0,2,0
428705608,428705449,4259850,4325386,0.0003768165,-2.3042458e-05,-2.8761062e-05,-0.004835318,-0.008002465,-0.044928707,5001,4863,0,2,0
429205650,429205487,4259850,4325386,0.00014220446,-0.00015928938,3.2794327e-05,-0.0044543683,0.0013062009,-0.04279786,5000,4863,0,2,0
429705709,429705526,4259850,4325386,-0.00045030657,0.00019019346,-6.9812515e-05,-0.0017497414,-0.0010011761,-0.058301803,5000,4863,0,2,0
430200735,430200565,4259850,4325386,0.0007245153,6.2868705e-05,-2.7756116e-05,-0.00041154624,-0.00024392892,-0.048391175,5000,4864,0,2,0
430700783,430700604,4259850,4325386,-0.00081578403,-0.0004882219,-0.00011637042,-0.00380173,0.0047784187,-0.045369066,5000,4863,0,2,0
431200816,431200643,4259850,4325386,-0.0006563681,-1.8341584e-06,-0.00020760833,-0.009055634,0.00474167,-0.053504262,5000,4862,0,2,0
431705845,431705683,4259850,4325386,0.000941838,0.00018551985,-3.386397e-05,0.0029449468,0.0024031887,-0.04202321,5000,4863,0,2,0
432205887,432205723,4259850,4325386,0.00052739255,-5.8123143e-05,-3.5144105e-05,-0.0033033537,0.0025737432,-0.047155343,5001,4863,0,2,0
432705923,432705762,4259850,4325386,-0.00043466038,-0.00030621953,1.6618857e-05,0.0019091582,0.0026993728,-0.03833919,5000,4863,0,2,0
433205979,433205802,4259850,4325386,-0.0006022405,0.0005110197,-0.00013719057,-0.0054975357,-0.002895027,-0.051527787,5000,4863,0,2,0
433701017,433700842,4259850,4325386,0.00032981543,-0.00061256683,-0.00019038456,-0.00097441365,0.010691566,-0.046291415,5001,4864,0,2,0
434201184,434200882,4259850,4325386,0.0002912171,-0.00013911522,-5.7287263e-05,-0.0033056822,0.0022690238,-0.044816613,5001,4864,0,2,0
434701085,434700922,4259850,4325386,-0.00021189498,-0.00010360738,-3.27538e-05,0.00021745324,0.0035899524,-0.06814697,5001,7296,0,2,0
435201132,435200962,4259850,4325386,-7.916664e-05,9.112883e-05,4.7346908e-05,-0.0015652739,0.0028214138,-0.042620108,5000,4864,0,2,0
435706165,435706003,4259850,4325386,-0.00012976014,-0.00013765802,-0.00011310448,-0.0002203506,-0.0063038156,-0.05187779,5000,4864,0,2,0
436206372,436206044,4259850,4325386,0.0003268393,-0.0004056558,7.924602e-05,-0.00045796228,0.0047185477,-0.046537887,5001,4863,0,2,0
436706243,436706084,4259850,4325386,-0.0003132156,0.00014760919,0.0002262204,-0.00032728902,-0.0143856155,-0.04724521,5000,4864,0,2,0
437201220,437201125,4259850,4325386,0.00017599636,0.00051169016,0.00010960062,0.00040460442,-0.0016803545,-0.049248356,5001,4863,0,2,0
437701330,437701166,4259850,4325386,0.00025791553,-0.00020826097,0.00020721089,-0.0015372221,-0.00354254,-0.05606029,5001,4864,0,2,0
438201379,438201207,4259850,4325386,-0.00034985904,-0.00023352982,-9.962858e-05,-0.00038174746,0.005151758,-0.03727038,5000,4864,0,2,0
438701408,438701248,4259850,4325386,0.0004362198,-4.0241033e-05,1.51434315e-05,-0.012073328,-0.0073930626,-0.05806865,5000,4864,0,2,0
439201451,439201290,4259850,4325386,-0.00015926918,-4.408591e-05,-9.4439865e-06,-0.0005940146,-0.0035924702,-0.05535664,5001,4864,0,2,0
439706491,439706331,4259850,4325386,6.0705126e-05,-0.00012492544,-0.00012699694,-0.009365825,-5.4864777e-05,-0.058097366,5000,4862,0,2,0
440206548,440206373,4259850,4325386,0.00010922408,-0.0001629114,0.00013642771,-0.001692046,0.011406852,-0.044339593,5000,4862,0,2,0
440701577,440701415,4259850,4325386,0.00031032655,-5.706184e-05,5.63902e-06,-0.0051504774,0.003784332,-0.04931627,5001,4862,0,2,0
