timestamp,timestamp_sample,gps_hvel[0],gps_hvel[1],gps_vvel,gps_hpos[0],gps_hpos[1],gps_vpos,ev_hvel[0],ev_hvel[1],ev_vvel,ev_hpos[0],ev_hpos[1],ev_vpos,rng_vpos,baro_vpos,aux_hvel[0],aux_hvel[1],aux_vvel,flow[0],flow[1],heading,mag_field[0],mag_field[1],mag_field[2],drag[0],drag[1],airspeed,beta,hagl,hagl_rate
217787135,217688052,-0.015944278,0.000110345194,0.020676207,-0.00045204163,-0.039770186,0.0,0.0,0.0,0.0,0.0,0.0,0.0,0.0,0.37803745,0.0,0.0,nan,0.0,0.0,-0.14503682,0.0,0.0,0.0,0.0,0.0,0.0,0.0,0.0,0.0
218281233,218181945,-0.012502581,0.0080174375,-0.04437709,0.008969307,-0.042174518,0.0,0.0,0.0,0.0,0.0,0.0,0.0,0.0,0.29365063,0.0,0.0,nan,0.0,0.0,-0.12817991,0.0,0.0,0.0,0.0,0.0,0.0,0.0,0.0,0.0
218784829,218685715,0.0008163601,0.0023596822,-0.05801504,0.0010890961,-0.040533423,0.0,0.0,0.0,0.0,0.0,0.0,0.0,0.0,0.19721508,0.0,0.0,nan,0.0,0.0,-0.10888958,0.0,0.0,0.0,0.0,0.0,0.0,0.0,0.0,0.0
219289087,219189486,0.013205197,0.02919947,-0.037637785,-0.011178017,-0.03591013,0.0,0.0,0.0,0.0,0.0,0.0,0.0,0.0,0.27195072,0.0,0.0,nan,0.0,0.0,-0.12178671,0.0,0.0,0.0,0.0,0.0,0.0,0.0,0.0,0.0
219782523,219683379,0.02410435,0.07599465,-0.06868618,-0.02038765,-0.029289842,0.0,0.0,0.0,0.0,0.0,0.0,0.0,0.0,0.6267576,0.0,0.0,nan,0.0,0.0,0.012108207,0.0,0.0,0.0,0.0,0.0,0.0,0.0,0.0,0.0
220286336,220187151,0.054411516,0.020348167,-0.0037405938,-0.026124,-0.030365467,0.0,0.0,0.0,0.0,0.0,0.0,0.0,0.0,0.07012081,0.0,0.0,nan,0.0,0.0,0.0217067,0.0,0.0,0.0,0.0,0.0,0.0,0.0,0.0,0.0
220780133,220681044,0.033287484,-0.02133188,0.0046987534,-0.029912949,-0.03360629,0.0,0.0,0.0,0.0,0.0,0.0,0.0,0.0,-0.0,0.0,0.0,nan,0.0,0.0,0.16808438,0.0,0.0,0.0,0.0,0.0,0.0,0.0,0.0,0.0
221284283,221184816,0.00416586,-0.02286525,0.038078837,-0.02365017,-0.040748596,0.0,0.0,0.0,0.0,0.0,0.0,0.0,0.0,0.38900852,0.0,0.0,nan,0.0,0.0,0.20307803,0.0,0.0,0.0,0.0,0.0,0.0,0.0,0.0,0.0
221787676,221688587,0.0056584347,-0.020038305,-0.0122783035,-0.028524399,-0.04253602,0.0,0.0,0.0,0.0,0.0,0.0,0.0,0.0,0.3618164,0.0,0.0,nan,0.0,0.0,0.3046354,0.0,0.0,0.0,0.0,0.0,0.0,0.0,0.0,0.0
222281634,222182481,0.058126308,0.012047185,-0.026395045,-0.022187233,-0.032505393,0.0,0.0,0.0,0.0,0.0,0.0,0.0,0.0,0.2685566,0.0,0.0,nan,0.0,0.0,0.40393364,0.0,0.0,0.0,0.0,0.0,0.0,0.0,0.0,0.0
222785345,222686255,0.019931505,-0.023779212,-0.057710923,-0.03929615,-0.031244934,0.0,0.0,0.0,0.0,0.0,0.0,0.0,0.0,0.5213995,0.0,0.0,nan,0.0,0.0,0.49331474,0.0,0.0,0.0,0.0,0.0,0.0,0.0,0.0,0.0
223289411,223190025,0.0582695,0.028375119,-0.036978945,-0.040784836,-0.023008108,0.0,0.0,0.0,0.0,0.0,0.0,0.0,0.0,0.7116604,0.0,0.0,nan,0.0,0.0,0.58618426,0.0,0.0,0.0,0.0,0.0,0.0,0.0,0.0,0.0
223783007,223683921,-0.07968448,-0.0027311742,-0.14289574,-0.04598713,-0.035378516,0.0,0.0,0.0,0.0,0.0,0.0,0.0,0.0,0.4644842,0.0,0.0,nan,0.0,0.0,0.46018827,0.0,0.0,0.0,0.0,0.0,0.0,0.0,0.0,0.0
224286797,224187692,0.055021726,0.016790032,-0.05230391,-0.041810036,-0.035748333,0.0,0.0,0.0,0.0,0.0,0.0,0.0,0.0,-0.0,0.0,0.0,nan,0.0,0.0,0.5092102,0.0,0.0,0.0,0.0,0.0,0.0,0.0,0.0,0.0
224780729,224681587,0.1462027,0.11624718,0.057439715,-0.023115158,-0.034828544,0.0,0.0,0.0,0.0,0.0,0.0,0.0,0.0,0.26417542,0.0,0.0,nan,0.0,0.0,0.4916345,0.0,0.0,0.0,0.0,0.0,0.0,0.0,0.0,0.0
225284532,225185359,0.067478105,0.04130418,-0.055274725,-0.032530785,-0.036052912,0.0,0.0,0.0,0.0,0.0,0.0,0.0,0.0,0.29187202,0.0,0.0,nan,0.0,0.0,0.4888779,0.0,0.0,0.0,0.0,0.0,0.0,0.0,0.0,0.0
225788300,225689132,0.008731782,0.094746836,-0.027668417,-0.035805702,-0.033681035,0.0,0.0,0.0,0.0,0.0,0.0,0.0,0.0,-0.0,0.0,0.0,nan,0.0,0.0,0.47632504,0.0,0.0,0.0,0.0,0.0,0.0,0.0,0.0,0.0
226282213,226183027,0.073972985,-0.04231155,-0.018095195,-0.02301693,-0.040349126,0.0,0.0,0.0,0.0,0.0,0.0,0.0,0.0,-0.0,0.0,0.0,nan,0.0,0.0,0.4653852,0.0,0.0,0.0,0.0,0.0,0.0,0.0,0.0,0.0
226785929,226686801,0.086342975,-0.016666695,-0.034136593,-0.03001213,-0.02417624,0.0,0.0,0.0,0.0,0.0,0.0,0.0,0.0,-0.0,0.0,0.0,nan,0.0,0.0,0.45622534,0.0,0.0,0.0,0.0,0.0,0.0,0.0,0.0,0.0
227279853,227180696,0.121340826,0.037846945,0.017141938,-0.02031517,-0.023095667,0.0,0.0,0.0,0.0,0.0,0.0,0.0,0.0,-0.0,0.0,0.0,nan,0.0,0.0,0.43972218,0.0,0.0,0.0,0.0,0.0,0.0,0.0,0.0,0.0
227783585,227684470,-0.015970368,-0.049455408,-0.050702572,-0.038718224,-0.018692613,0.0,0.0,0.0,0.0,0.0,0.0,0.0,0.0,0.12476444,0.0,0.0,nan,0.0,0.0,0.4299382,0.0,0.0,0.0,0.0,0.0,0.0,0.0,0.0,0.0
228287374,228188243,-0.011335276,-0.17864564,-0.015948057,-0.04706955,-0.054390132,0.0,0.0,0.0,0.0,0.0,0.0,0.0,0.0,0.37365627,0.0,0.0,nan,0.0,0.0,0.4337651,0.0,0.0,0.0,0.0,0.0,0.0,0.0,0.0,0.0
228781254,228682139,0.040245816,0.09513307,0.039589047,-0.04378414,-0.027063012,0.0,0.0,0.0,0.0,0.0,0.0,0.0,0.0,0.9686804,0.0,0.0,nan,0.0,0.0,0.45445,0.0,0.0,0.0,0.0,0.0,0.0,0.0,0.0,0.0
229285033,229185913,-0.02704665,-0.031107534,0.10489297,-0.06622219,-0.040074468,0.0,0.0,0.0,0.0,0.0,0.0,0.0,0.0,-0.0,0.0,0.0,nan,0.0,0.0,0.44544387,0.0,0.0,0.0,0.0,0.0,0.0,0.0,0.0,0.0
229788778,229689687,0.0004339218,0.12652914,0.005913019,-0.066729546,-0.008310318,0.0,0.0,0.0,0.0,0.0,0.0,0.0,0.0,-0.0,0.0,0.0,nan,0.0,0.0,0.44728315,0.0,0.0,0.0,0.0,0.0,0.0,0.0,0.0,0.0
230282675,230183583,-0.074391425,0.16865239,-0.026253045,-0.0880537,0.002907157,0.0,0.0,0.0,0.0,0.0,0.0,0.0,0.0,-0.0,0.0,0.0,nan,0.0,0.0,0.4230343,0.0,0.0,0.0,0.0,0.0,0.0,0.0,0.0,0.0
230786494,230687357,-0.09572883,-0.053048797,-0.07081586,-0.08703041,-0.015319526,0.0,0.0,0.0,0.0,0.0,0.0,0.0,0.0,0.5914812,0.0,0.0,nan,0.0,0.0,0.40690982,0.0,0.0,0.0,0.0,0.0,0.0,0.0,0.0,0.0
231280350,231181254,0.13977778,0.063698575,0.07548308,-0.071538925,-0.010363638,0.0,0.0,0.0,0.0,0.0,0.0,0.0,0.0,-0.0,0.0,0.0,nan,0.0,0.0,0.39903128,0.0,0.0,0.0,0.0,0.0,0.0,0.0,0.0,0.0
231784122,231685028,-0.092468046,0.08272169,-0.03383541,-0.08254337,-0.0076473355,0.0,0.0,0.0,0.0,0.0,0.0,0.0,0.0,-0.0,0.0,0.0,nan,0.0,0.0,0.36972916,0.0,0.0,0.0,0.0,0.0,0.0,0.0,0.0,0.0
232287894,232188803,0.004429534,0.093552515,0.032984734,-0.08672047,0.011273861,0.0,0.0,0.0,0.0,0.0,0.0,0.0,0.0,-0.0,0.0,0.0,nan,0.0,0.0,0.39444315,0.0,0.0,0.0,0.0,0.0,0.0,0.0,0.0,0.0
232781787,232682700,0.111535214,0.09621077,0.018730998,-0.07552338,0.013743639,0.0,0.0,0.0,0.0,0.0,0.0,0.0,0.0,-0.0,0.0,0.0,nan,0.0,0.0,0.3632235,0.0,0.0,0.0,0.0,0.0,0.0,0.0,0.0,0.0
233285619,233186475,0.004836455,0.11794871,0.041818857,-0.06337929,0.024140716,0.0,0.0,0.0,0.0,0.0,0.0,0.0,0.0,-0.0,0.0,0.0,nan,0.0,0.0,0.3271665,0.0,0.0,0.0,0.0,0.0,0.0,0.0,0.0,0.0
233789339,233690250,0.15897295,0.07959712,-0.06346601,-0.05902672,0.021045238,0.0,0.0,0.0,0.0,0.0,0.0,0.0,0.0,-0.4059143,0.0,0.0,nan,0.0,0.0,0.29483533,0.0,0.0,0.0,0.0,0.0,0.0,0.0,0.0,0.0
234283303,234184147,0.07309021,-0.010818705,-0.08119321,-0.04892826,0.006201327,0.0,0.0,0.0,0.0,0.0,0.0,0.0,0.0,-1.5031853,0.0,0.0,nan,0.0,0.0,0.28479373,0.0,0.0,0.0,0.0,0.0,0.0,0.0,0.0,0.0
234787053,234687922,0.009070542,0.00049792975,-0.079337776,-0.057110786,0.009696186,0.0,0.0,0.0,0.0,0.0,0.0,0.0,0.0,-0.29845238,0.0,0.0,nan,0.0,0.0,0.28618008,0.0,0.0,0.0,0.0,0.0,0.0,0.0,0.0,0.0
235280906,235181820,0.093771875,-0.011873074,-0.19607991,-0.05597496,-0.0039587617,0.0,0.0,0.0,0.0,0.0,0.0,0.0,0.0,0.42314434,0.0,0.0,nan,0.0,0.0,0.35226873,0.0,0.0,0.0,0.0,0.0,0.0,0.0,0.0,0.0
235784710,235685596,-0.06924299,-0.12858555,-0.34572566,-0.052845955,-0.028425694,0.0,0.0,0.0,0.0,0.0,0.0,0.0,0.0,-0.045942307,0.0,0.0,nan,0.0,0.0,0.37291577,0.0,0.0,0.0,0.0,0.0,0.0,0.0,0.0,0.0
236288457,236189372,0.0063418,-0.020202342,0.04536462,-0.035562515,-0.030760527,0.0,0.0,0.0,0.0,0.0,0.0,0.0,0.0,0.92971706,0.0,0.0,nan,0.0,0.0,0.2706496,0.0,0.0,0.0,0.0,0.0,0.0,0.0,0.0,0.0
236782367,236683270,-0.08509588,-0.089029126,0.042750835,-0.05447769,-0.039339185,0.0,0.0,0.0,0.0,0.0,0.0,0.0,0.0,-0.056702614,0.0,0.0,nan,0.0,0.0,0.28930193,0.0,0.0,0.0,0.0,0.0,0.0,0.0,0.0,0.0
237286211,237187046,-0.033644065,0.031668495,0.108196974,-0.054101944,-0.029659092,0.0,0.0,0.0,0.0,0.0,0.0,0.0,0.0,0.29353428,0.0,0.0,nan,0.0,0.0,0.30245602,0.0,0.0,0.0,0.0,0.0,0.0,0.0,0.0,0.0
237780054,237680944,-0.01165569,0.08120155,0.10378599,-0.04374981,-0.016784012,0.0,0.0,0.0,0.0,0.0,0.0,0.0,0.0,0.2144928,0.0,0.0,nan,0.0,0.0,0.29996926,0.0,0.0,0.0,0.0,0.0,0.0,0.0,0.0,0.0
238283806,238184720,0.013175592,0.0062131435,0.07313633,-0.04661846,-0.014286816,0.0,0.0,0.0,0.0,0.0,0.0,0.0,0.0,-0.7208023,0.0,0.0,nan,0.0,0.0,0.34052375,0.0,0.0,0.0,0.0,0.0,0.0,0.0,0.0,0.0
238787601,238688497,0.002687484,-0.020640077,0.18043137,-0.04464531,-0.011341989,0.0,0.0,0.0,0.0,0.0,0.0,0.0,0.0,-0.8971586,0.0,0.0,nan,0.0,0.0,0.32199478,0.0,0.0,0.0,0.0,0.0,0.0,0.0,0.0,0.0
239281496,239182395,-0.0018068925,0.10083847,0.22212505,-0.050551414,0.013557196,0.0,0.0,0.0,0.0,0.0,0.0,0.0,0.0,0.6946192,0.0,0.0,nan,0.0,0.0,0.31420422,0.0,0.0,0.0,0.0,0.0,0.0,0.0,0.0,0.0
239785697,239686172,0.0601554,0.023164228,0.10637379,-0.036973953,0.016036034,0.0,0.0,0.0,0.0,0.0,0.0,0.0,0.0,0.22777271,0.0,0.0,nan,0.0,0.0,0.31117934,0.0,0.0,0.0,0.0,0.0,0.0,0.0,0.0,0.0
240289089,240189949,0.0628103,0.05595022,0.04432106,-0.039683342,0.028809369,0.0,0.0,0.0,0.0,0.0,0.0,0.0,0.0,0.41586208,0.0,0.0,nan,0.0,0.0,0.31210583,0.0,0.0,0.0,0.0,0.0,0.0,0.0,0.0,0.0
240783036,240683851,0.012778762,-0.001015,-0.007771015,-0.037617683,0.019359231,0.0,0.0,0.0,0.0,0.0,0.0,0.0,0.0,0.11759472,0.0,0.0,nan,0.0,0.0,0.31413752,0.0,0.0,0.0,0.0,0.0,0.0,0.0,0.0,0.0
241286796,241187625,0.04770593,-0.010172702,0.12582064,-0.030892372,0.010507047,0.0,0.0,0.0,0.0,0.0,0.0,0.0,0.0,-0.90071774,0.0,0.0,nan,0.0,0.0,0.31830442,0.0,0.0,0.0,0.0,0.0,0.0,0.0,0.0,0.0
241781103,241681524,-0.087821946,-0.07440944,0.06790781,-0.05432415,-0.013479352,0.0,0.0,0.0,0.0,0.0,0.0,0.0,0.0,-0.3970728,0.0,0.0,nan,0.0,0.0,0.31304908,0.0,0.0,0.0,0.0,0.0,0.0,0.0,0.0,0.0
242284398,242185302,-0.01607797,-0.019437622,0.03797269,-0.06373119,-0.018021882,0.0,0.0,0.0,0.0,0.0,0.0,0.0,0.0,-1.3450594,0.0,0.0,nan,0.0,0.0,0.31427634,0.0,0.0,0.0,0.0,0.0,0.0,0.0,0.0,0.0
242788267,242689081,-0.12663408,-0.021868784,0.031785488,-0.087350845,-0.020984292,0.0,0.0,0.0,0.0,0.0,0.0,0.0,0.0,-0.99226665,0.0,0.0,nan,0.0,0.0,0.29643512,0.0,0.0,0.0,0.0,0.0,0.0,0.0,0.0,0.0
243282102,243182979,-0.03686159,0.11556196,0.08978701,-0.09211254,-0.006879449,0.0,0.0,0.0,0.0,0.0,0.0,0.0,0.0,0.53909206,0.0,0.0,nan,0.0,0.0,0.2783783,0.0,0.0,0.0,0.0,0.0,0.0,0.0,0.0,0.0
243786265,243686756,0.012962595,0.139078,-0.004444599,-0.08635712,0.014830589,0.0,0.0,0.0,0.0,0.0,0.0,0.0,0.0,-1.3331175,0.0,0.0,nan,0.0,0.0,0.25508893,0.0,0.0,0.0,0.0,0.0,0.0,0.0,0.0,0.0
244289624,244190534,0.04507313,0.10473043,0.067712784,-0.07117081,0.019686341,0.0,0.0,0.0,0.0,0.0,0.0,0.0,0.0,2.4668303,0.0,0.0,nan,0.0,0.0,0.2324568,0.0,0.0,0.0,0.0,0.0,0.0,0.0,0.0,0.0
244783625,244684434,0.03444402,0.09967234,0.09442425,-0.058015823,0.025088668,0.0,0.0,0.0,0.0,0.0,0.0,0.0,0.0,-0.8377161,0.0,0.0,nan,0.0,0.0,0.23267585,0.0,0.0,0.0,0.0,0.0,0.0,0.0,0.0,0.0
245287356,245188212,0.18663716,0.03421489,0.14762378,-0.032705307,0.02742058,0.0,0.0,0.0,0.0,0.0,0.0,0.0,0.0,-2.6643763,0.0,0.0,nan,0.0,0.0,0.22157109,0.0,0.0,0.0,0.0,0.0,0.0,0.0,0.0,0.0
245781472,245682112,0.1849024,-0.030200183,0.117037535,-0.021211624,0.01852113,0.0,0.0,0.0,0.0,0.0,0.0,0.0,0.0,-0.57635593,0.0,0.0,nan,0.0,0.0,0.2345255,0.0,0.0,0.0,0.0,0.0,0.0,0.0,0.0,0.0
246284978,246185890,0.14414336,-0.06462112,0.037036657,-0.005261421,0.0078936815,0.0,0.0,0.0,0.0,0.0,0.0,0.0,0.0,-1.2445307,0.0,0.0,nan,0.0,0.0,0.23255509,0.0,0.0,0.0,0.0,0.0,0.0,0.0,0.0,0.0
246788809,246689668,0.081550755,-0.11659962,0.010726213,-0.0046482086,-0.0019292831,0.0,0.0,0.0,0.0,0.0,0.0,0.0,0.0,0.19263363,0.0,0.0,nan,0.0,0.0,0.19262916,0.0,0.0,0.0,0.0,0.0,0.0,0.0,0.0,0.0
247282666,247183568,-0.06620777,-0.20474842,-0.010732651,-0.027135849,-0.03605008,0.0,0.0,0.0,0.0,0.0,0.0,0.0,0.0,-0.61407566,0.0,0.0,nan,0.0,0.0,0.23206139,0.0,0.0,0.0,0.0,0.0,0.0,0.0,0.0,0.0
247786611,247687347,-0.070176244,-0.11448133,0.18432212,-0.031245232,-0.040537536,0.0,0.0,0.0,0.0,0.0,0.0,0.0,0.0,-0.4737482,0.0,0.0,nan,0.0,0.0,0.16567141,0.0,0.0,0.0,0.0,0.0,0.0,0.0,0.0,0.0
248280424,248181251,-0.18584087,0.0060341656,0.11396015,-0.052039146,-0.041468382,0.0,0.0,0.0,0.0,0.0,0.0,0.0,0.0,0.07705212,0.0,0.0,nan,0.0,0.0,0.0,0.0,0.0,0.0,0.0,0.0,0.0,0.0,0.0,0.0
248784152,248685026,-0.19610094,0.04755844,0.09890604,-0.06787586,-0.035993636,0.0,0.0,0.0,0.0,0.0,0.0,0.0,0.0,-0.40835667,0.0,0.0,nan,0.0,0.0,0.0,0.0,0.0,0.0,0.0,0.0,0.0,0.0,0.0,0.0
249287958,249188804,-0.17045875,0.13153572,0.07553482,-0.0782032,-0.016513646,0.0,0.0,0.0,0.0,0.0,0.0,0.0,0.0,-0.6353731,0.0,0.0,nan,0.0,0.0,0.0,0.0,0.0,0.0,0.0,0.0,0.0,0.0,0.0,0.0
249781917,249682705,-0.036824852,0.18354146,0.23934603,-0.05916977,-0.0043070316,0.0,0.0,0.0,0.0,0.0,0.0,0.0,0.0,0.10033703,0.0,0.0,nan,0.0,0.0,0.0,0.0,0.0,0.0,0.0,0.0,0.0,0.0,0.0,0.0
250285574,250186484,0.05055712,0.33102328,0.20399362,-0.057017326,0.048987925,0.0,0.0,0.0,0.0,0.0,0.0,0.0,0.0,-0.49428654,0.0,0.0,nan,0.0,0.0,0.0,0.0,0.0,0.0,0.0,0.0,0.0,0.0,0.0,0.0
250789352,250690262,0.016613856,0.26573807,0.010427535,-0.058846474,0.06402424,0.0,0.0,0.0,0.0,0.0,0.0,0.0,0.0,-0.59792423,0.0,0.0,nan,0.0,0.0,0.0,0.0,0.0,0.0,0.0,0.0,0.0,0.0,0.0,0.0
251283253,251184163,0.17075472,0.09462057,-0.009858817,-0.021195412,0.05285284,0.0,0.0,0.0,0.0,0.0,0.0,0.0,0.0,-0.43942738,0.0,0.0,nan,0.0,0.0,0.0,0.0,0.0,0.0,0.0,0.0,0.0,0.0,0.0,0.0
251787030,251687942,-0.1775158,0.25084627,-0.08941609,-0.039759636,0.07023366,0.0,0.0,0.0,0.0,0.0,0.0,0.0,0.0,-0.8580408,0.0,0.0,nan,0.0,0.0,0.0,0.0,0.0,0.0,0.0,0.0,0.0,0.0,0.0,0.0
252280928,252181843,-0.22822404,0.5417081,-0.11107257,-0.0771265,0.12006733,0.0,0.0,0.0,0.0,0.0,0.0,0.0,0.0,0.29056835,0.0,0.0,nan,0.0,0.0,0.0,0.0,0.0,0.0,0.0,0.0,0.0,0.0,0.0,0.0
252784734,252685622,0.24246818,0.31325024,-0.04808803,-0.053533554,0.10688129,0.0,0.0,0.0,0.0,0.0,0.0,0.0,0.0,-0.63670063,0.0,0.0,nan,0.0,0.0,0.0,0.0,0.0,0.0,0.0,0.0,0.0,0.0,0.0,0.0
253288576,253189401,0.47335923,0.081326924,-0.012650743,0.020275116,0.06560367,0.0,0.0,0.0,0.0,0.0,0.0,0.0,0.0,1.9336538,0.0,0.0,nan,0.0,0.0,0.0,0.0,0.0,0.0,0.0,0.0,0.0,0.0,0.0,0.0
253782397,253683303,1.0356293,-0.65341884,0.07793331,0.12026024,-0.0412423,0.0,0.0,0.0,0.0,0.0,0.0,0.0,0.0,-0.2687807,0.0,0.0,nan,0.0,0.0,0.0,0.0,0.0,0.0,0.0,0.0,0.0,0.0,0.0,0.0
254286166,254187082,1.1167868,-1.657789,-0.1718038,0.216609,-0.27660632,0.0,0.0,0.0,0.0,0.0,0.0,0.0,0.0,1.0616331,0.0,0.0,nan,0.0,0.0,0.0,0.0,0.0,0.0,0.0,0.0,0.0,0.0,0.0,0.0
254789945,254690861,0.49949884,-2.4005902,-0.12537205,0.493371,-1.0429958,0.0,0.0,0.0,0.0,0.0,0.0,0.0,0.0,0.15302181,0.0,0.0,nan,0.0,0.0,0.0,0.0,0.0,0.0,0.0,0.0,0.0,0.0,0.0,0.0
255283902,255184763,-0.38185954,-2.7306075,-0.14055334,0.4428339,-2.3073432,0.0,0.0,0.0,0.0,0.0,0.0,0.0,0.0,-0.913476,0.0,0.0,nan,0.0,0.0,0.0,0.0,0.0,0.0,0.0,0.0,0.0,0.0,0.0,0.0
255787633,255688542,-0.8579285,-2.4013972,-0.004480131,0.1541233,-2.8999195,0.0,0.0,0.0,0.0,0.0,0.0,0.0,0.0,0.6246481,0.0,0.0,nan,0.0,0.0,0.0,0.0,0.0,0.0,0.0,0.0,0.0,0.0,0.0,0.0
256281528,256182444,-1.1735046,-0.68618846,-0.05949463,-0.067985535,-2.4179993,0.0,0.0,0.0,0.0,0.0,0.0,0.0,0.0,0.11602688,0.0,0.0,nan,0.0,0.0,0.0,0.0,0.0,0.0,0.0,0.0,0.0,0.0,0.0,0.0
256785310,256686224,-1.062681,0.5162253,-0.14138836,0.13837433,-1.7973448,0.0,0.0,0.0,0.0,0.0,0.0,0.0,0.0,0.33006954,0.0,0.0,nan,0.0,0.0,0.0,0.0,0.0,0.0,0.0,0.0,0.0,0.0,0.0,0.0
257289137,257190003,-0.6535259,1.1638952,-0.058172703,0.2054882,-1.3495464,0.0,0.0,0.0,0.0,0.0,0.0,0.0,0.0,0.84782696,0.0,0.0,nan,0.0,0.0,0.0,0.0,0.0,0.0,0.0,0.0,0.0,0.0,0.0,0.0
257783035,257683905,-0.29847348,1.1204116,-0.1584723,0.19565582,-1.1375291,0.0,0.0,0.0,0.0,0.0,0.0,0.0,0.0,-0.2586527,0.0,0.0,nan,0.0,0.0,0.0,0.0,0.0,0.0,0.0,0.0,0.0,0.0,0.0,0.0
258286775,258187685,0.5656658,0.45133728,-0.17363487,0.20804214,-0.9346755,0.0,0.0,0.0,0.0,0.0,0.0,0.0,0.0,0.019019127,0.0,0.0,nan,0.0,0.0,0.0,0.0,0.0,0.0,0.0,0.0,0.0,0.0,0.0,0.0
258780678,258681587,0.8471739,-0.08862334,0.036899254,0.22112274,-0.8465716,0.0,0.0,0.0,0.0,0.0,0.0,0.0,0.0,-0.08495426,0.0,0.0,nan,0.0,0.0,0.0,0.0,0.0,0.0,0.0,0.0,0.0,0.0,0.0,0.0
259284456,259185367,0.7218983,-0.3884132,-0.073693946,0.23330116,-0.73210204,0.0,0.0,0.0,0.0,0.0,0.0,0.0,0.0,0.41211224,0.0,0.0,nan,0.0,0.0,0.0,0.0,0.0,0.0,0.0,0.0,0.0,0.0,0.0,0.0
259788264,259689147,0.6215229,-0.037593186,-0.0139577575,0.2546692,-0.6160401,0.0,0.0,0.0,0.0,0.0,0.0,0.0,0.0,0.07704067,0.0,0.0,nan,0.0,0.0,0.0,0.0,0.0,0.0,0.0,0.0,0.0,0.0,0.0,0.0
260282602,260183050,0.38449156,-0.0037110448,-0.11998325,0.23207474,-0.5107262,0.0,0.0,0.0,0.0,0.0,0.0,0.0,0.0,-0.052758217,0.0,0.0,nan,0.0,0.0,0.0,0.0,0.0,0.0,0.0,0.0,0.0,0.0,0.0,0.0
260785943,260686830,0.19524288,0.09737384,-0.17040075,0.19019318,-0.4391843,0.0,0.0,0.0,0.0,0.0,0.0,0.0,0.0,0.3986082,0.0,0.0,nan,0.0,0.0,0.0,0.0,0.0,0.0,0.0,0.0,0.0,0.0,0.0,0.0
261289713,261190611,-0.04867813,0.77928627,0.01579833,0.12517166,-0.2532866,0.0,0.0,0.0,0.0,0.0,0.0,0.0,0.0,-1.368432,0.0,0.0,nan,0.0,0.0,0.0,0.0,0.0,0.0,0.0,0.0,0.0,0.0,0.0,0.0
261783598,261684513,-0.001135394,0.83780557,0.08889837,0.118349075,-0.14359224,0.0,0.0,0.0,0.0,0.0,0.0,0.0,0.0,0.35052776,0.0,0.0,nan,0.0,0.0,0.0,0.0,0.0,0.0,0.0,0.0,0.0,0.0,0.0,0.0
262287892,262188294,-0.00444375,0.69061494,0.16050738,0.11356354,-0.030672312,0.0,0.0,0.0,0.0,0.0,0.0,0.0,0.0,0.34057903,0.0,0.0,nan,0.0,0.0,0.0,0.0,0.0,0.0,0.0,0.0,0.0,0.0,0.0,0.0
262781311,262682196,0.033518404,0.5003648,-0.030533237,0.100502014,0.01386869,0.0,0.0,0.0,0.0,0.0,0.0,0.0,0.0,-0.5411043,0.0,0.0,nan,0.0,0.0,0.0,0.0,0.0,0.0,0.0,0.0,0.0,0.0,0.0,0.0
263285175,263185977,0.026007295,0.28771034,-0.014391147,0.07771492,0.045437813,0.0,0.0,0.0,0.0,0.0,0.0,0.0,0.0,-0.33993244,0.0,0.0,nan,0.0,0.0,0.0,0.0,0.0,0.0,0.0,0.0,0.0,0.0,0.0,0.0
263788862,263689759,0.10637978,0.25294086,0.09899558,0.087654114,0.065532446,0.0,0.0,0.0,0.0,0.0,0.0,0.0,0.0,-0.31330585,0.0,0.0,nan,0.0,0.0,0.0,0.0,0.0,0.0,0.0,0.0,0.0,0.0,0.0,0.0
264283186,264183661,0.9275865,-0.049236298,-0.011108197,0.18425179,0.046903014,0.0,0.0,0.0,0.0,0.0,0.0,0.0,0.0,0.194808,0.0,0.0,nan,0.0,0.0,0.0,0.0,0.0,0.0,0.0,0.0,0.0,0.0,0.0,0.0
264786528,264687442,1.6098012,-0.6901643,-0.114658475,0.31692886,-0.024516582,0.0,0.0,0.0,0.0,0.0,0.0,0.0,0.0,0.72425365,0.0,0.0,nan,0.0,0.0,0.0,0.0,0.0,0.0,0.0,0.0,0.0,0.0,0.0,0.0
265290461,265191223,2.606569,-1.8433814,-0.15245074,1.4966774,-0.69682264,0.0,0.0,0.0,0.0,0.0,0.0,0.0,0.0,3.5537062,0.0,0.0,nan,0.0,0.0,0.0,0.0,0.0,0.0,0.0,0.0,0.0,0.0,0.0,0.0
265784261,265685126,2.9987118,-2.3727455,0.1466665,2.3268356,-1.4255519,0.0,0.0,0.0,0.0,0.0,0.0,0.0,0.0,1.750392,0.0,0.0,nan,0.0,0.0,0.0,0.0,0.0,0.0,0.0,0.0,0.0,0.0,0.0,0.0
266288411,266188908,3.3370938,-3.2933598,-0.19711322,3.378271,-2.5368252,0.0,0.0,0.0,0.0,0.0,0.0,0.0,0.0,1.5148916,0.0,0.0,nan,0.0,0.0,0.0,0.0,0.0,0.0,0.0,0.0,0.0,0.0,0.0,0.0
266781941,266682811,3.3772955,-3.4686437,-0.17189628,3.9161873,-3.0878801,0.0,0.0,0.0,0.0,0.0,0.0,0.0,0.0,1.2400312,0.0,0.0,nan,0.0,0.0,0.25968626,0.0,0.0,0.0,0.0,0.0,0.0,0.0,0.0,0.0
267285784,267186593,3.1202235,-3.4565477,-0.28897446,4.1784096,-3.6189785,0.0,0.0,0.0,0.0,0.0,0.0,0.0,0.0,1.8693571,0.0,0.0,nan,0.0,0.0,0.22968766,0.0,0.0,0.0,0.0,0.0,0.0,0.0,0.0,0.0
267789466,267690375,2.70152,-3.112958,-0.47810513,4.164032,-3.5651436,0.0,0.0,0.0,0.0,0.0,0.0,0.0,0.0,2.6409216,0.0,0.0,nan,0.0,0.0,0.25266722,0.0,0.0,0.0,0.0,0.0,0.0,0.0,0.0,0.0
268283499,268184278,2.1416626,-2.5148773,-0.4539966,3.764862,-3.2099228,0.0,0.0,0.0,0.0,0.0,0.0,0.0,0.0,2.1785917,0.0,0.0,nan,0.0,0.0,0.27887973,0.0,0.0,0.0,0.0,0.0,0.0,0.0,0.0,0.0
268787243,268688060,1.7122393,-2.0883741,-0.28520954,3.4608154,-2.8322487,0.0,0.0,0.0,0.0,0.0,0.0,0.0,0.0,4.0708723,0.0,0.0,nan,0.0,0.0,0.30157235,0.0,0.0,0.0,0.0,0.0,0.0,0.0,0.0,0.0
269281085,269181963,0.64250755,-1.4859018,-0.34983718,2.6300201,-2.4829712,0.0,0.0,0.0,0.0,0.0,0.0,0.0,0.0,-0.49048328,0.0,0.0,nan,0.0,0.0,5.9604645e-08,-0.21315539,0.098902434,-0.31355053,0.0,0.0,0.54875565,0.15888025,0.0,0.0
269784920,269685745,0.10871887,-0.27136612,0.006731719,1.6801796,-1.2771835,0.0,0.0,0.0,0.0,0.0,0.0,0.0,0.0,2.2523909,0.0,0.0,nan,0.0,0.0,5.9604645e-08,-0.44504791,0.21999791,-0.4687934,0.0,0.0,0.41748333,0.08428175,0.0,0.0
270288870,270189528,-0.39173532,1.1233044,0.06027043,1.3227501,-0.8327179,0.0,0.0,0.0,0.0,0.0,0.0,0.0,0.0,0.64046,0.0,0.0,nan,0.0,0.0,5.9604645e-08,-0.26618746,0.113789506,-0.26201594,0.0,0.0,1.2209625,0.0571367,0.0,0.0
270782559,270683431,0.22551799,0.77004814,0.43911615,1.244339,-0.6568146,0.0,0.0,0.0,0.0,0.0,0.0,0.0,0.0,1.3403692,0.0,0.0,nan,0.0,0.0,5.9604645e-08,-0.045430534,-0.0057841986,-0.047355592,0.0,0.0,2.075017,-0.17862846,0.0,0.0
271286339,271187213,0.51440823,1.1539841,0.06615329,0.9761963,-0.3097763,0.0,0.0,0.0,0.0,0.0,0.0,0.0,0.0,0.038531303,0.0,0.0,nan,0.0,0.0,5.9604645e-08,-0.15292989,0.014371127,-0.12451869,0.0,0.0,1.8607721,-0.15133029,0.0,0.0
271790167,271690995,0.116422474,0.90540504,8.702278e-05,0.7634201,-0.2778473,0.0,0.0,0.0,0.0,0.0,0.0,0.0,0.0,0.49701977,0.0,0.0,nan,0.0,0.0,5.9604645e-08,-0.17500459,0.02155158,-0.13414657,0.0,0.0,0.6143646,0.00954505,0.0,0.0
272284074,272184899,-0.24072593,-0.27931213,-0.26797307,0.5692711,-0.29113007,0.0,0.0,0.0,0.0,0.0,0.0,0.0,0.0,0.67182064,0.0,0.0,nan,0.0,0.0,5.9604645e-08,-0.21497475,0.03048569,-0.14843524,0.0,0.0,1.4231749,0.15469345,0.0,0.0
272787876,272688681,-0.52689886,-0.22912216,-0.1827923,0.4229889,-0.3500824,0.0,0.0,0.0,0.0,0.0,0.0,0.0,0.0,2.1126738,0.0,0.0,nan,0.0,0.0,5.9604645e-08,-0.24450833,0.055870235,-0.14039952,0.0,0.0,0.8883829,0.06505759,0.0,0.0
273281702,273182585,-0.6765053,-0.041906357,-0.21119857,0.2895279,-0.13763428,0.0,0.0,0.0,0.0,0.0,0.0,0.0,0.0,1.7004385,0.0,0.0,nan,0.0,0.0,5.9604645e-08,-0.26794556,0.07091397,-0.14956832,0.0,0.0,-0.0176754,0.0066378135,0.0,0.0
273785499,273686367,-0.72194934,0.046453476,-0.35060537,0.16080475,-0.31744385,0.0,0.0,0.0,0.0,0.0,0.0,0.0,0.0,-1.0769243,0.0,0.0,nan,0.0,0.0,5.9604645e-08,-0.31388393,0.082452774,-0.20660001,0.0,0.0,0.3096218,-0.052899268,0.0,0.0
274289338,274190150,-0.772933,0.10040665,-0.2556132,0.097164154,0.050338745,0.0,0.0,0.0,0.0,0.0,0.0,0.0,0.0,0.17894268,0.0,0.0,nan,0.0,0.0,5.9604645e-08,-0.31074372,0.08167249,-0.19859713,0.0,0.0,0.19564342,-0.087826975,0.0,0.0
274783192,274684054,-0.6205807,-0.057855606,-0.1875658,0.07501221,0.17416382,0.0,0.0,0.0,0.0,0.0,0.0,0.0,0.0,0.21132565,0.0,0.0,nan,0.0,0.0,5.9604645e-08,-0.3377977,0.091169,-0.21306205,0.0,0.0,0.037652016,-0.1207256,0.0,0.0
275287011,275187836,-0.59062004,-0.07736015,-0.17914066,-0.003112793,0.07243347,0.0,0.0,0.0,0.0,0.0,0.0,0.0,0.0,1.1713629,0.0,0.0,nan,0.0,0.0,5.9604645e-08,-0.30034631,0.06162113,-0.19825041,0.0,0.0,0.41848564,-0.19533417,0.0,0.0
275790746,275691618,-0.081659794,-0.09490967,0.018447697,0.010955811,0.18930054,0.0,0.0,0.0,0.0,0.0,0.0,0.0,0.0,0.10893154,0.0,0.0,nan,0.0,0.0,5.9604645e-08,-0.45717955,0.029720843,-0.28263837,0.0,0.0,1.2965794,-0.2453856,0.0,0.0
276284656,276185522,0.8854332,0.06622124,-0.5772455,-0.0907135,-0.1169281,0.0,0.0,0.0,0.0,0.0,0.0,0.0,0.0,0.5618048,0.0,0.0,nan,0.0,0.0,5.9604645e-08,-0.60331094,0.005736947,-0.41383666,0.0,0.0,1.7065849,-0.22282733,0.0,0.0
276788466,276689307,0.82746696,-0.31158638,-0.6278559,0.042274475,0.003921509,0.0,0.0,0.0,0.0,0.0,0.0,0.0,0.0,-0.60924625,0.0,0.0,nan,0.0,0.0,5.9604645e-08,-0.6061157,-0.06185007,-0.44465798,0.0,0.0,4.0576963,-0.11449049,0.0,0.0
277282360,277183208,0.52568245,-0.10760832,0.021470904,-0.055099487,-0.14112854,0.0,0.0,0.0,0.0,0.0,0.0,0.0,0.0,3.4768362,0.0,0.0,nan,0.0,0.0,5.9604645e-08,-0.58669686,-0.113250256,-0.4963585,0.0,0.0,3.5288315,-0.0842396,0.0,0.0
277786105,277686990,0.63715744,-0.4186983,0.42378116,0.1089859,-0.25782776,0.0,0.0,0.0,0.0,0.0,0.0,0.0,0.0,0.21945477,0.0,0.0,nan,0.0,0.0,5.9604645e-08,-0.55108756,-0.15713793,-0.5325299,0.0,0.0,6.2258844,-0.07699218,0.0,0.0
278289910,278190772,0.37141705,-0.69253254,0.88113534,-0.023117065,-0.2066803,0.0,0.0,0.0,0.0,0.0,0.0,0.0,0.0,1.7149649,0.0,0.0,nan,0.0,0.0,5.9604645e-08,-0.48691955,-0.17445794,-0.5382871,0.0,0.0,8.531055,-0.056744196,0.0,0.0
278783776,278684676,-0.015363693,-0.6229172,1.0833704,0.02268982,-0.3045044,0.0,0.0,0.0,0.0,0.0,0.0,0.0,0.0,0.50002956,0.0,0.0,nan,0.0,0.0,5.9604645e-08,-0.405006,-0.19354185,-0.51507074,0.0,0.0,10.183477,-0.058120206,0.0,0.0
279287569,279188457,0.256729,-0.70038605,1.1081635,0.11444855,-0.41566467,0.0,0.0,0.0,0.0,0.0,0.0,0.0,0.0,-0.74514866,0.0,0.0,nan,0.0,0.0,5.9604645e-08,-0.3329695,-0.18675643,-0.480047,0.0,0.0,11.4695215,-0.0215452,0.0,0.0
279781508,279682361,0.5000906,-0.5759907,1.2788556,0.14539337,-0.3852234,0.0,0.0,0.0,0.0,0.0,0.0,0.0,0.0,1.6571684,0.0,0.0,nan,0.0,0.0,5.9604645e-08,-0.1305008,-0.20254049,-0.2675256,0.0,0.0,12.687816,0.0120941745,0.0,0.0
280285261,280186143,0.55934477,-0.8053093,0.73985195,0.1667633,-0.5375366,0.0,0.0,0.0,0.0,0.0,0.0,0.0,0.0,0.5124769,0.0,0.0,nan,0.0,0.0,5.9604645e-08,-0.062174857,-0.052141562,-0.12675893,0.0,0.0,11.953569,-0.13198802,0.0,0.0
280789647,280689924,0.70022726,-0.68237114,0.29211402,0.22283936,-0.45646667,0.0,0.0,0.0,0.0,0.0,0.0,0.0,0.0,-0.65202045,0.0,0.0,nan,0.0,0.0,5.9604645e-08,-0.12986606,0.06457803,-0.13158071,0.0,0.0,10.638807,-0.070662476,0.0,0.0
281282986,281183827,0.9990525,0.61361885,-0.2734722,0.28009033,-0.6361084,0.0,0.0,0.0,0.0,0.0,0.0,0.0,0.0,0.08113766,0.0,0.0,nan,0.0,0.0,5.9604645e-08,-0.16486087,0.044582695,-0.08833343,0.0,0.0,10.567983,-0.24142428,0.0,0.0
281786717,281687609,0.15207572,1.344511,-0.27133775,0.30808258,-0.33691406,0.0,0.0,0.0,0.0,0.0,0.0,0.0,0.0,0.5978422,0.0,0.0,nan,0.0,0.0,5.9604645e-08,-0.12604016,0.01133576,-0.044452786,0.0,0.0,8.140724,-0.26945525,0.0,0.0
282290691,282191390,-0.40687752,1.356533,-0.13123363,0.25128174,0.06626129,0.0,0.0,0.0,0.0,0.0,0.0,0.0,0.0,1.9772062,0.0,0.0,nan,0.0,0.0,5.9604645e-08,-0.12791651,-0.0013281107,-0.10944986,0.0,0.0,6.840843,-0.28806585,0.0,0.0
282784728,282685293,-0.48867464,1.3858967,-0.32717118,0.26355743,-0.068862915,0.0,0.0,0.0,0.0,0.0,0.0,0.0,0.0,1.9014044,0.0,0.0,nan,0.0,0.0,5.9604645e-08,-0.072820604,-0.03637074,-0.047395945,0.0,0.0,7.2173185,-0.34692797,0.0,0.0
283288171,283189074,-1.0154905,1.0669594,-0.097617686,0.15660095,0.19054413,0.0,0.0,0.0,0.0,0.0,0.0,0.0,0.0,1.0000525,0.0,0.0,nan,0.0,0.0,5.9604645e-08,-0.039679766,-0.06516348,-0.044380307,0.0,0.0,6.6907063,-0.35721466,0.0,0.0
283782231,283682977,-0.9034443,0.7664814,0.071644366,0.20401764,0.16123962,0.0,0.0,0.0,0.0,0.0,0.0,0.0,0.0,1.8934889,0.0,0.0,nan,0.0,0.0,5.9604645e-08,-0.03767115,-0.06261186,-0.031303108,0.0,0.0,6.6907063,-0.35586864,0.0,0.0
284285913,284186758,-0.852232,0.44390678,0.11135712,0.20872498,0.1420517,0.0,0.0,0.0,0.0,0.0,0.0,0.0,0.0,-2.478444,0.0,0.0,nan,0.0,0.0,5.9604645e-08,-0.0070896745,-0.08330254,-0.0013979077,0.0,0.0,6.6907063,-0.3886297,0.0,0.0
284790051,284690539,-0.7817278,0.23152828,-0.24864502,0.13394165,0.26047516,0.0,0.0,0.0,0.0,0.0,0.0,0.0,0.0,1.2038565,0.0,0.0,nan,0.0,0.0,5.9604645e-08,-0.0101418495,-0.078291796,-0.014348805,0.0,0.0,6.6907063,-0.37917322,0.0,0.0
285283565,285184441,-0.65121174,0.016508102,0.25233832,0.17964172,0.29964066,0.0,0.0,0.0,0.0,0.0,0.0,0.0,0.0,-2.0256777,0.0,0.0,nan,0.0,0.0,5.9604645e-08,-0.0035557747,-0.06791245,0.019420505,0.0,0.0,6.6907063,-0.41185763,0.0,0.0
285787417,285688221,-0.5971794,-0.17121696,0.012220144,0.21505737,0.17567062,0.0,0.0,0.0,0.0,0.0,0.0,0.0,0.0,-0.5752802,0.0,0.0,nan,0.0,0.0,5.9604645e-08,-0.0132187605,-0.050279215,-0.003187716,0.0,0.0,6.6907063,-0.4041722,0.0,0.0
286291273,286192002,-0.33332062,-0.33854008,-0.016636759,0.11665344,0.22780609,0.0,0.0,0.0,0.0,0.0,0.0,0.0,0.0,3.2144117,0.0,0.0,nan,0.0,0.0,5.9604645e-08,-0.01707381,-0.04622469,-0.035814703,0.0,0.0,6.6907063,-0.41950244,0.0,0.0
286785357,286685904,-0.28222942,-0.44094658,0.02494651,0.05760193,0.25766373,0.0,0.0,0.0,0.0,0.0,0.0,0.0,0.0,-0.4498186,0.0,0.0,nan,0.0,0.0,5.9604645e-08,-0.008930564,-0.035967402,-0.04856652,0.0,0.0,6.6907063,-0.3578115,0.0,0.0
287288860,287189684,-0.15358734,-0.47326183,-0.04632646,0.23905945,0.09731293,0.0,0.0,0.0,0.0,0.0,0.0,0.0,0.0,0.8688688,0.0,0.0,nan,0.0,0.0,5.9604645e-08,-0.004481137,-0.034320436,-0.027943313,0.0,0.0,6.6907063,-0.38273844,0.0,0.0
287782800,287683586,-0.020697594,-0.4692335,0.123613596,0.19155884,0.22117424,0.0,0.0,0.0,0.0,0.0,0.0,0.0,0.0,0.5157118,0.0,0.0,nan,0.0,0.0,5.9604645e-08,-0.0057073236,-0.032024022,-0.016785204,0.0,0.0,6.6907063,-0.37830362,0.0,0.0
288286466,288187368,0.0005426407,-0.4082737,0.051169544,0.12054443,0.31482887,0.0,0.0,0.0,0.0,0.0,0.0,0.0,0.0,0.836154,0.0,0.0,nan,0.0,0.0,5.9604645e-08,-0.011528015,-0.034130543,-0.026435256,0.0,0.0,6.6907063,-0.3563988,0.0,0.0
288790642,288691145,0.10166931,-0.3564043,0.13823056,0.19436646,0.2541504,0.0,0.0,0.0,0.0,0.0,0.0,0.0,0.0,0.9219122,0.0,0.0,nan,0.0,0.0,0.04043269,-0.011849046,-0.03476937,-0.052989185,0.0,0.0,6.6907063,-0.3645319,0.0,0.0
289284181,289185047,0.13037395,-0.39103413,0.44566798,0.1666565,0.3743416,0.0,0.0,0.0,0.0,0.0,0.0,0.0,0.0,-2.7608957,0.0,0.0,nan,0.0,0.0,0.057557702,-0.011849046,-0.03476937,-0.052989185,0.0,0.0,6.6907063,-0.36527175,0.0,0.0
289788000,289688826,0.18039703,-0.33545208,0.33881766,0.38008118,0.13202667,0.0,0.0,0.0,0.0,0.0,0.0,0.0,0.0,0.6594267,0.0,0.0,nan,0.0,0.0,0.038016498,-0.011849046,-0.03476937,-0.052989185,0.0,0.0,6.6907063,-0.35624412,0.0,0.0
290281994,290182727,0.18856525,-0.33064556,0.23092231,0.32495117,0.26717186,0.0,0.0,0.0,0.0,0.0,0.0,0.0,0.0,-2.0800524,0.0,0.0,nan,0.0,0.0,0.06484896,-0.011849046,-0.03476937,-0.052989185,0.0,0.0,6.6907063,-0.35896856,0.0,0.0
290785721,290686506,0.12786484,-0.19393635,0.060142785,0.25532532,0.3134308,0.0,0.0,0.0,0.0,0.0,0.0,0.0,0.0,0.97136974,0.0,0.0,nan,0.0,0.0,0.05559671,-0.011849046,-0.03476937,-0.052989185,0.0,0.0,6.6907063,-0.40649027,0.0,0.0
291289405,291190285,-0.032896042,-0.10630798,0.22269791,0.28790283,0.21021271,0.0,0.0,0.0,0.0,0.0,0.0,0.0,0.0,-0.3765726,0.0,0.0,nan,0.0,0.0,0.055164814,-0.011849046,-0.03476937,-0.052989185,0.0,0.0,6.6907063,-0.42013794,0.0,0.0
291783273,291684185,-0.06871033,-0.096385956,0.046037257,0.3188324,0.14767456,0.0,0.0,0.0,0.0,0.0,0.0,0.0,0.0,4.0230513,0.0,0.0,nan,0.0,0.0,0.078541815,-0.011849046,-0.03476937,-0.052989185,0.0,0.0,6.6907063,-0.47360462,0.0,0.0
292287076,292187964,0.033272743,-0.16251278,0.055901855,0.1984253,0.19373703,0.0,0.0,0.0,0.0,0.0,0.0,0.0,0.0,0.6913328,0.0,0.0,nan,0.0,0.0,0.08029181,-0.011849046,-0.03476937,-0.052989185,0.0,0.0,6.6907063,-0.5007401,0.0,0.0
292790945,292691745,0.105153084,-0.010136604,0.082961425,0.35733032,0.03723526,0.0,0.0,0.0,0.0,0.0,0.0,0.0,0.0,-1.3902025,0.0,0.0,nan,0.0,0.0,0.10455567,-0.011849046,-0.03476937,-0.052989185,0.0,0.0,6.6907063,-0.4703017,0.0,0.0
293284782,293185643,-0.030457497,-0.026586533,-0.0012008846,0.20803833,0.12985611,0.0,0.0,0.0,0.0,0.0,0.0,0.0,0.0,0.83095837,0.0,0.0,nan,0.0,0.0,0.073310494,-0.011849046,-0.03476937,-0.052989185,0.0,0.0,6.6907063,-0.4453539,0.0,0.0
293778664,293679542,-0.021248817,-0.16355515,0.21751545,0.11143494,0.15442276,0.0,0.0,0.0,0.0,0.0,0.0,0.0,0.0,0.84276867,0.0,0.0,nan,0.0,0.0,0.09720707,-0.011849046,-0.03476937,-0.052989185,0.0,0.0,6.6907063,-0.44420952,0.0,0.0
294282413,294183320,0.013175011,-0.029821396,-0.101618975,0.10630798,0.10167694,0.0,0.0,0.0,0.0,0.0,0.0,0.0,0.0,0.5918188,0.0,0.0,nan,0.0,0.0,0.074576855,-0.011849046,-0.03476937,-0.052989185,0.0,0.0,6.6907063,-0.4538164,0.0,0.0
294786249,294687098,0.01181221,-0.09389305,0.08951843,0.010574341,0.1635971,0.0,0.0,0.0,0.0,0.0,0.0,0.0,0.0,-0.23750019,0.0,0.0,nan,0.0,0.0,0.12412864,-0.011849046,-0.03476937,-0.052989185,0.0,0.0,6.6907063,-0.41109043,0.0,0.0
295280134,295180998,0.22469902,-0.1014967,0.101527914,0.061431885,0.060012817,0.0,0.0,0.0,0.0,0.0,0.0,0.0,0.0,3.9810362,0.0,0.0,nan,0.0,0.0,0.13494498,-0.011849046,-0.03476937,-0.052989185,0.0,0.0,6.6907063,-0.4276304,0.0,0.0
295783939,295684775,0.17637539,-0.13283539,-0.02910959,-0.010406494,0.09259796,0.0,0.0,0.0,0.0,0.0,0.0,0.0,0.0,-2.0550127,0.0,0.0,nan,0.0,0.0,0.09252608,-0.011849046,-0.03476937,-0.052989185,0.0,0.0,6.6907063,-0.45957804,0.0,0.0
296287644,296188552,0.25188923,-0.035286903,-0.18869576,0.158844,-0.09484863,0.0,0.0,0.0,0.0,0.0,0.0,0.0,0.0,-0.24254322,0.0,0.0,nan,0.0,0.0,0.110935,-0.011849046,-0.03476937,-0.052989185,0.0,0.0,6.6907063,-0.46718514,0.0,0.0
296781542,296682451,0.2747326,-0.026830673,0.053353913,0.07763672,-0.021186829,0.0,0.0,0.0,0.0,0.0,0.0,0.0,0.0,-0.69365406,0.0,0.0,nan,0.0,0.0,0.144166,-0.011849046,-0.03476937,-0.052989185,0.0,0.0,6.6907063,-0.44541186,0.0,0.0
297285317,297186228,0.13401508,-0.03150654,0.13100317,0.103393555,-0.1048584,0.0,0.0,0.0,0.0,0.0,0.0,0.0,0.0,-1.6498537,0.0,0.0,nan,0.0,0.0,0.12611553,-0.011849046,-0.03476937,-0.052989185,0.0,0.0,6.6907063,-0.44924667,0.0,0.0
297779298,297680127,0.1574688,0.012181282,0.20514712,0.010406494,-0.05228424,0.0,0.0,0.0,0.0,0.0,0.0,0.0,0.0,1.7225142,0.0,0.0,nan,0.0,0.0,0.11337361,-0.011849046,-0.03476937,-0.052989185,0.0,0.0,6.6907063,-0.45084116,0.0,0.0
298282993,298183903,0.046182632,0.07631302,0.1772025,0.017852783,-0.11746979,0.0,0.0,0.0,0.0,0.0,0.0,0.0,0.0,-0.19305515,0.0,0.0,nan,0.0,0.0,0.14644209,-0.011849046,-0.03476937,-0.052989185,0.0,0.0,6.6907063,-0.45317218,0.0,0.0
298786772,298687680,0.062145233,0.035274506,-0.04009463,0.07009888,-0.18572998,0.0,0.0,0.0,0.0,0.0,0.0,0.0,0.0,1.4468107,0.0,0.0,nan,0.0,0.0,0.15686059,-0.011849046,-0.03476937,-0.052989185,0.0,0.0,6.6907063,-0.44284123,0.0,0.0
299280668,299181578,0.12606812,0.062016487,0.12121329,-0.059295654,-0.12958527,0.0,0.0,0.0,0.0,0.0,0.0,0.0,0.0,-1.31215,0.0,0.0,nan,0.0,0.0,0.0,-0.011849046,-0.03476937,-0.052989185,0.0,0.0,6.6907063,-0.42912334,0.0,0.0
299784442,299685354,0.16907692,-0.054727554,0.16237411,-0.27474976,0.027877808,0.0,0.0,0.0,0.0,0.0,0.0,0.0,0.0,-0.14177418,0.0,0.0,nan,0.0,0.0,0.0,-0.011849046,-0.03476937,-0.052989185,0.0,0.0,6.6907063,-0.4263655,0.0,0.0
300288213,300189130,0.064061165,-0.0056438446,0.0032853186,-0.12734985,-0.16394043,0.0,0.0,0.0,0.0,0.0,0.0,0.0,0.0,-0.0782938,0.0,0.0,nan,0.0,0.0,0.0,-0.011849046,-0.03476937,-0.052989185,0.0,0.0,6.6907063,-0.46615458,0.0,0.0
300782119,300683028,0.13738441,0.087890625,0.15760954,0.067596436,-0.31843567,0.0,0.0,0.0,0.0,0.0,0.0,0.0,0.0,1.2891722,0.0,0.0,nan,0.0,0.0,0.0,-0.011849046,-0.03476937,-0.052989185,0.0,0.0,6.6907063,-0.49690777,0.0,0.0
301285896,301186803,-0.011650085,0.09776974,0.076627776,-0.21188354,-0.13819885,0.0,0.0,0.0,0.0,0.0,0.0,0.0,0.0,-0.17954731,0.0,0.0,nan,0.0,0.0,0.0,-0.011849046,-0.03476937,-0.052989185,0.0,0.0,6.6907063,-0.4658524,0.0,0.0
301779809,301680701,-0.026576042,0.63561344,0.032181233,-0.13851929,-0.15733337,0.0,0.0,0.0,0.0,0.0,0.0,0.0,0.0,-1.2816248,0.0,0.0,nan,0.0,0.0,0.0,-0.09332061,-0.011678785,-0.016008079,0.0,0.0,6.6907063,-0.3117167,0.0,0.0
302283566,302184476,-1.287035,1.3919365,-0.08521676,-0.38711548,-0.06488037,0.0,0.0,0.0,0.0,0.0,0.0,0.0,0.0,0.7925596,0.0,0.0,nan,0.0,0.0,0.0,-0.1921621,0.024215735,-0.05474192,0.0,0.0,6.6907063,-0.36349526,0.0,0.0
302787341,302688251,-1.9363947,0.9781586,0.015314579,-0.6503601,0.13667297,0.0,0.0,0.0,0.0,0.0,0.0,0.0,0.0,0.69059277,0.0,0.0,nan,0.0,0.0,0.0,-0.11887938,-0.01913803,0.014951944,0.0,0.0,6.6907063,-0.40926093,0.0,0.0
303281270,303182148,-1.9992332,0.20208979,0.32535553,-1.3634949,0.40386963,0.0,0.0,0.0,0.0,0.0,0.0,0.0,0.0,1.3371992,0.0,0.0,nan,0.0,0.0,0.0,-0.049533725,-0.03559445,0.11380172,0.0,0.0,6.6907063,-0.39332226,0.0,0.0
303785045,303685923,-0.8781576,-0.09236717,0.20291802,-0.46044922,0.25674438,0.0,0.0,0.0,0.0,0.0,0.0,0.0,0.0,-0.36545277,0.0,0.0,nan,0.0,0.0,0.0,0.020347059,-0.044362538,0.07971877,0.0,0.0,6.6907063,-0.25243068,0.0,0.0
304279125,304179820,-0.5178795,-0.00020313263,-0.38398924,-0.19189453,0.24282837,0.0,0.0,0.0,0.0,0.0,0.0,0.0,0.0,-4.40915,0.0,0.0,nan,0.0,0.0,0.0,0.035582215,-0.009895936,0.17992836,0.0,0.0,6.6907063,-0.23889832,0.0,0.0
304782721,304683594,-0.29302216,-0.20457458,-0.07166183,0.026306152,0.36351013,0.0,0.0,0.0,0.0,0.0,0.0,0.0,0.0,-2.3074846,0.0,0.0,nan,0.0,0.0,0.0,0.030140817,-0.027044892,0.016412139,0.0,0.0,6.6907063,-0.22935726,0.0,0.0
305286821,305187368,-0.025745392,-0.37636185,0.1526931,-0.04840088,0.22337341,0.0,0.0,0.0,0.0,0.0,0.0,0.0,0.0,-0.73431873,0.0,0.0,nan,0.0,0.0,0.0,0.16038346,-0.058674052,0.17778885,0.0,0.0,6.6907063,-0.1824301,0.0,0.0
305780391,305681265,-0.2960453,-0.33129978,0.22472852,-0.22558594,-0.013320923,0.0,0.0,0.0,0.0,0.0,0.0,0.0,0.0,-2.0857897,0.0,0.0,nan,0.0,0.0,0.0,0.39489046,-0.05122686,0.44397908,0.0,0.0,6.6907063,-0.06804508,0.0,0.0
306284238,306185039,-0.8344307,0.5033436,-0.28238845,-0.20028687,0.08351898,0.0,0.0,0.0,0.0,0.0,0.0,0.0,0.0,2.2616262,0.0,0.0,nan,0.0,0.0,0.0,-0.1014573,0.05087094,-0.07418752,0.0,0.0,6.6907063,0.027547713,0.0,0.0
306787938,306688812,-0.8289881,-0.063877106,-0.43209898,-0.16915894,-0.06770325,0.0,0.0,0.0,0.0,0.0,0.0,0.0,0.0,1.9592772,0.0,0.0,nan,0.0,0.0,0.0,-0.07421848,0.020817224,-0.027997434,0.0,0.0,6.6907063,0.090196125,0.0,0.0
307282235,307182708,-0.56575155,-0.35949898,-0.15998146,-0.15588379,-0.041778564,0.0,0.0,0.0,0.0,0.0,0.0,0.0,0.0,0.32581615,0.0,0.0,nan,0.0,0.0,0.0,-0.03502071,0.00986365,0.025801003,0.0,0.0,6.6907063,0.17601709,0.0,0.0
307785576,307686482,-0.18739796,-0.45023346,0.2795557,-0.058898926,-0.15076447,0.0,0.0,0.0,0.0,0.0,0.0,0.0,0.0,4.8144026,0.0,0.0,nan,0.0,0.0,0.0,0.116344795,-0.08069557,0.24510926,0.0,0.0,6.6907063,0.21844852,0.0,0.0
308279567,308180377,-0.105047226,-0.5035496,0.6621973,-0.028625488,-0.12386322,0.0,0.0,0.0,0.0,0.0,0.0,0.0,0.0,-0.8697138,0.0,0.0,nan,0.0,0.0,0.0,0.26776153,-0.12583159,0.3841735,0.0,0.0,6.6907063,0.2282262,0.0,0.0
308783293,308684150,-0.044282913,-0.25557613,0.75933135,0.13327026,-0.14373016,0.0,0.0,0.0,0.0,0.0,0.0,0.0,0.0,0.68329906,0.0,0.0,nan,0.0,0.0,0.0,0.31192863,-0.13908945,0.44998488,0.0,0.0,6.6907063,0.20406988,0.0,0.0
309287345,309187923,0.09949303,-0.37589097,0.30840576,0.12887573,-0.13368988,0.0,0.0,0.0,0.0,0.0,0.0,0.0,0.0,-0.8387346,0.0,0.0,nan,0.0,0.0,0.0,0.3820524,-0.17869486,0.50494915,0.0,0.0,6.6907063,0.14012003,0.0,0.0
309780932,309681818,0.110075,0.0047557354,0.28588796,0.25787354,-0.12819672,0.0,0.0,0.0,0.0,0.0,0.0,0.0,0.0,-1.2717333,0.0,0.0,nan,0.0,0.0,0.0,0.37275264,-0.18877956,0.48147047,0.0,0.0,6.6907063,0.16183239,0.0,0.0
310284822,310185591,0.007505417,0.22868179,0.47640634,0.22369385,-0.12453461,0.0,0.0,0.0,0.0,0.0,0.0,0.0,0.0,-1.2210703,0.0,0.0,nan,0.0,0.0,0.0,0.36736482,-0.18304612,0.4636024,0.0,0.0,6.6907063,0.18988767,0.0,0.0
310788482,310689364,0.113695145,0.29175287,0.47073865,0.19329834,-0.11656189,0.0,0.0,0.0,0.0,0.0,0.0,0.0,0.0,-1.6188936,0.0,0.0,nan,0.0,0.0,0.0,0.36863154,-0.19180225,0.43709004,0.0,0.0,6.6907063,0.26217607,0.0,0.0
311282769,311183258,0.34930038,-0.08627665,0.41589665,0.18762207,-0.103782654,0.0,0.0,0.0,0.0,0.0,0.0,0.0,0.0,-1.2384043,0.0,0.0,nan,0.0,0.0,0.0,0.37673196,-0.19555819,0.44424456,0.0,0.0,6.6907063,0.31835604,0.0,0.0
311786218,311687031,0.2820778,-0.025097609,0.23664284,0.29052734,-0.08597565,0.0,0.0,0.0,0.0,0.0,0.0,0.0,0.0,-0.9279566,0.0,0.0,nan,0.0,0.0,0.0,0.3879661,-0.19734487,0.44095173,0.0,0.0,6.6907063,0.29627523,0.0,0.0
312280044,312180925,0.23105621,-0.14843035,0.18146801,0.25512695,-0.070495605,0.0,0.0,0.0,0.0,0.0,0.0,0.0,0.0,-0.7557764,0.0,0.0,nan,0.0,0.0,0.0,0.39255348,-0.20299152,0.44985425,0.0,0.0,6.6907063,0.32714945,0.0,0.0
312783809,312684697,0.050570488,-0.1970315,0.024143696,0.16323853,-0.07485199,0.0,0.0,0.0,0.0,0.0,0.0,0.0,0.0,-0.5471983,0.0,0.0,nan,0.0,0.0,0.0,0.4059263,-0.20267317,0.44954526,0.0,0.0,6.6907063,0.35918713,0.0,0.0
313287644,313188469,0.26771355,-0.250906,0.48475528,0.28704834,-0.14604187,0.0,0.0,0.0,0.0,0.0,0.0,0.0,0.0,-0.67504025,0.0,0.0,nan,0.0,0.0,0.0,0.40935695,-0.20321968,0.4481579,0.0,0.0,6.6907063,0.40380317,0.0,0.0
313781458,313682362,-0.0114860535,-0.11368036,0.22949743,0.18130493,-0.1363678,0.0,0.0,0.0,0.0,0.0,0.0,0.0,0.0,-0.40614033,0.0,0.0,nan,0.0,0.0,0.0,0.40756404,-0.20230797,0.45638752,0.0,0.0,6.6907063,0.40917978,0.0,0.0
314285283,314186134,-0.047579765,-0.22162485,0.31961894,0.111328125,-0.14556885,0.0,0.0,0.0,0.0,0.0,0.0,0.0,0.0,-0.018362999,0.0,0.0,nan,0.0,0.0,0.0,0.41067135,-0.19992661,0.45814246,0.0,0.0,6.6907063,0.3973846,0.0,0.0
314779124,314680027,-0.07768822,-0.17584991,0.06833601,0.15966797,-0.1802597,0.0,0.0,0.0,0.0,0.0,0.0,0.0,0.0,-0.018397331,0.0,0.0,nan,0.0,0.0,0.0,0.40868634,-0.20313108,0.44764918,0.0,0.0,6.6907063,0.39167577,0.0,0.0
315282992,315183799,-0.10982418,-0.15591002,0.063280106,0.23873901,-0.23478317,0.0,0.0,0.0,0.0,0.0,0.0,0.0,0.0,0.15904713,0.0,0.0,nan,0.0,0.0,0.0,0.40617433,-0.19937986,0.47318074,0.0,0.0,6.6907063,0.33016905,0.0,0.0
315786668,315687575,-0.049863815,-0.16543198,-0.028801203,0.15185547,-0.20442963,0.0,0.0,0.0,0.0,0.0,0.0,0.0,0.0,0.20951366,0.0,0.0,nan,0.0,0.0,0.0,0.40131283,-0.19681829,0.4803403,0.0,0.0,6.6907063,0.30110705,0.0,0.0
316280557,316181463,-0.1885109,-0.01575613,0.15864491,0.072021484,-0.19721222,0.0,0.0,0.0,0.0,0.0,0.0,0.0,0.0,0.52162266,0.0,0.0,nan,0.0,0.0,0.0,0.3904465,-0.19646885,0.49696767,0.0,0.0,6.6907063,0.32472283,0.0,0.0
316784329,316685234,-0.17546368,0.091864586,0.09957671,0.1277771,-0.21840668,0.0,0.0,0.0,0.0,0.0,0.0,0.0,0.0,0.26404667,0.0,0.0,nan,0.0,0.0,-0.5126095,0.40119603,-0.20162567,0.47591862,0.0,0.0,6.6907063,0.32017136,0.0,0.0
317288190,317189005,-0.02940464,-0.15274191,0.07537103,0.059570312,-0.18224335,0.0,0.0,0.0,0.0,0.0,0.0,0.0,0.0,0.5737505,0.0,0.0,nan,0.0,0.0,-0.46992445,0.40119603,-0.20162567,0.47591862,0.0,0.0,6.6907063,0.24134018,0.0,0.0
317782098,317682898,-0.08033943,-0.0066976547,0.07011914,0.12651062,-0.19755173,0.0,0.0,0.0,0.0,0.0,0.0,0.0,0.0,0.58230114,0.0,0.0,nan,0.0,0.0,-0.4879074,0.40119603,-0.20162567,0.47591862,0.0,0.0,6.6907063,0.22956954,0.0,0.0
318285782,318186668,-0.26116276,-0.15102434,0.14586973,0.062210083,-0.18021393,0.0,0.0,0.0,0.0,0.0,0.0,0.0,0.0,0.2716999,0.0,0.0,nan,0.0,0.0,-0.6881118,0.40355992,-0.17185116,0.49586833,0.0,0.0,6.6907063,0.36073193,0.0,0.0
318779772,318680561,-0.15027046,-0.2392652,-0.21912646,0.14237976,-0.18284225,0.0,0.0,0.0,0.0,0.0,0.0,0.0,0.0,0.85474205,0.0,0.0,nan,0.0,0.0,-0.6881118,0.3956613,-0.1633787,0.49246088,0.0,0.0,6.6907063,0.27251908,0.0,0.0
319283437,319184331,0.014761925,-0.053840715,-0.088551044,0.107284546,-0.2111969,0.0,0.0,0.0,0.0,0.0,0.0,0.0,0.0,0.803442,0.0,0.0,nan,0.0,0.0,-0.6881118,0.3775142,-0.16321948,0.4870904,0.0,0.0,6.6907063,-0.015015416,0.0,0.0
319787221,319688102,0.36876583,0.55662453,0.092622995,0.083343506,-0.17797089,0.0,0.0,0.0,0.0,0.0,0.0,0.0,0.0,0.9899473,0.0,0.0,nan,0.0,0.0,-0.6881118,0.36837927,-0.15043452,0.4714041,0.0,0.0,6.6907063,-0.062406056,0.0,0.0
320281089,320181994,-0.11249924,0.7540888,-0.035841465,0.026916504,-0.16880035,0.0,0.0,0.0,0.0,0.0,0.0,0.0,0.0,1.4598446,0.0,0.0,nan,0.0,0.0,-0.6881118,0.31954503,-0.14097822,0.40183118,0.0,0.0,6.6907063,0.08150074,0.0,0.0
320784855,320685764,0.011208534,1.0036554,0.13558912,-0.03829956,-0.093990326,0.0,0.0,0.0,0.0,0.0,0.0,0.0,0.0,1.6606102,0.0,0.0,nan,0.0,0.0,-0.6881118,0.052476957,-0.016692013,0.04635346,0.0,0.0,6.6907063,0.12193858,0.0,0.0
321288650,321189534,-0.10685253,0.36388206,-0.08599639,0.074920654,-0.11959839,0.0,0.0,0.0,0.0,0.0,0.0,0.0,0.0,-1.7991457,0.0,0.0,nan,0.0,0.0,-0.6881118,0.11918673,-0.09606463,0.05479622,0.0,0.0,6.6907063,0.29835466,0.0,0.0
321782556,321683426,-0.32849312,0.03676033,-0.45093787,0.10446167,-0.18101883,0.0,0.0,0.0,0.0,0.0,0.0,0.0,0.0,6.253524,0.0,0.0,nan,0.0,0.0,-0.6881118,0.06922348,-0.09346755,0.013892949,0.0,0.0,6.6907063,0.3623006,0.0,0.0
322286291,322187196,-0.3345251,-0.17707443,-0.30590284,0.028686523,-0.1551609,0.0,0.0,0.0,0.0,0.0,0.0,0.0,0.0,2.8655787,0.0,0.0,nan,0.0,0.0,-0.6881118,0.012224682,-0.033849716,-0.067091286,0.0,0.0,6.6907063,0.28548083,0.0,0.0
322780213,322681088,-0.32889557,-0.3326311,-0.38190985,0.084243774,-0.21083069,0.0,0.0,0.0,0.0,0.0,0.0,0.0,0.0,0.35686588,0.0,0.0,nan,0.0,0.0,-0.6881118,-0.058877587,-0.007523529,-0.05685401,0.0,0.0,6.6907063,0.16561528,0.0,0.0
323284024,323184858,-0.08058548,-0.2812729,-0.39034477,0.0783844,-0.18606567,0.0,0.0,0.0,0.0,0.0,0.0,0.0,0.0,-1.31565,0.0,0.0,nan,0.0,0.0,-0.6881118,-0.06318072,0.028438449,-0.020488083,0.0,0.0,6.6907063,0.11848253,0.0,0.0
323787724,323688628,0.30577087,-0.024335861,0.031300873,0.033996582,-0.12648773,0.0,0.0,0.0,0.0,0.0,0.0,0.0,0.0,3.0834665,0.0,0.0,nan,0.0,0.0,-0.6881118,-0.007630408,0.010297015,-0.0015100241,0.0,0.0,6.6907063,0.10267897,0.0,0.0
324281649,324182523,0.13530922,0.05027485,-0.30133563,0.15023804,-0.1688509,0.0,0.0,0.0,0.0,0.0,0.0,0.0,0.0,1.3132296,0.0,0.0,nan,0.0,0.0,-0.6881118,0.041672453,0.013594642,0.060902715,0.0,0.0,6.6907063,0.17803237,0.0,0.0
324785382,324686289,0.17777634,0.09673214,-0.14769095,0.08479309,-0.122392654,0.0,0.0,0.0,0.0,0.0,0.0,0.0,0.0,-0.9256525,0.0,0.0,nan,0.0,0.0,-0.6881118,0.046395652,-0.001578927,0.05015856,0.0,0.0,6.6907063,0.15277453,0.0,0.0
325279414,325180180,0.048851013,0.018698692,-0.3333578,0.051254272,-0.10323429,0.0,0.0,0.0,0.0,0.0,0.0,0.0,0.0,-1.799943,0.0,0.0,nan,0.0,0.0,-0.6881118,0.06840217,0.0022127926,0.08178687,0.0,0.0,6.6907063,0.11726179,0.0,0.0
325783041,325683950,0.10128403,0.048360825,-0.08091302,0.29325867,-0.20315242,0.0,0.0,0.0,0.0,0.0,0.0,0.0,0.0,-0.8513708,0.0,0.0,nan,0.0,0.0,-0.6881118,0.06470701,-0.012821555,0.048694074,0.0,0.0,6.6907063,0.15755956,0.0,0.0
326286816,326187719,0.09610176,0.16200781,0.05678591,0.10699463,-0.11193538,0.0,0.0,0.0,0.0,0.0,0.0,0.0,0.0,-3.0321112,0.0,0.0,nan,0.0,0.0,-0.6881118,0.035806254,-0.00017210841,0.0081653,0.0,0.0,6.6907063,0.16299218,0.0,0.0
326780840,326681611,0.012663841,0.24656534,-0.04423505,0.038406372,-0.06870127,0.0,0.0,0.0,0.0,0.0,0.0,0.0,0.0,-1.8435392,0.0,0.0,nan,0.0,0.0,-0.6881118,0.015376583,0.014618993,0.01893711,0.0,0.0,6.6907063,0.15659279,0.0,0.0
327284499,327185380,0.048586845,0.13036346,-0.08848718,0.0071029663,-0.054751873,0.0,0.0,0.0,0.0,0.0,0.0,0.0,0.0,-4.803283,0.0,0.0,nan,0.0,0.0,-0.6881118,0.012555279,0.0044599473,-0.016432643,0.0,0.0,6.6907063,0.1875848,0.0,0.0
327788275,327689149,0.045601845,0.15259552,-0.09793532,0.10272217,-0.0686779,0.0,0.0,0.0,0.0,0.0,0.0,0.0,0.0,0.7391405,0.0,0.0,nan,0.0,0.0,0.057767868,-0.034673385,0.012607992,0.032424748,0.0,0.0,6.6907063,0.17487925,0.0,0.0
328282164,328183040,-0.077549934,0.037470818,-0.18140933,0.35656738,-0.17205429,0.0,0.0,0.0,0.0,0.0,0.0,0.0,0.0,-0.9482374,0.0,0.0,nan,0.0,0.0,0.10538316,-0.034673385,0.012607992,0.032424748,0.0,0.0,6.6907063,0.17405234,0.0,0.0
328786055,328686809,0.04108429,0.03151226,-0.39997867,0.13288116,-0.05975151,0.0,0.0,0.0,0.0,0.0,0.0,0.0,0.0,0.8164377,0.0,0.0,nan,0.0,0.0,0.11928415,-0.034673385,0.012607992,0.032424748,0.0,0.0,6.6907063,0.1532428,0.0,0.0
329279788,329180701,-0.007188797,-0.027801514,-0.19694245,0.097343445,-0.03949356,0.0,0.0,0.0,0.0,0.0,0.0,0.0,0.0,1.4174776,0.0,0.0,nan,0.0,0.0,0.0785625,-0.034673385,0.012607992,0.032424748,0.0,0.0,6.6907063,0.13501157,0.0,0.0
329784080,329684469,0.07175064,0.015965939,-0.0199126,0.18048096,-0.076374054,0.0,0.0,0.0,0.0,0.0,0.0,0.0,0.0,-3.0515413,0.0,0.0,nan,0.0,0.0,0.014358044,-0.034673385,0.012607992,0.032424748,0.0,0.0,6.6907063,0.15395625,0.0,0.0
330287327,330188238,0.028265953,-0.023638725,-0.12499568,0.16043854,-0.059822083,0.0,0.0,0.0,0.0,0.0,0.0,0.0,0.0,1.9481363,0.0,0.0,nan,0.0,0.0,0.0040245056,-0.034673385,0.012607992,0.032424748,0.0,0.0,6.6907063,0.13166925,0.0,0.0
330781327,330682129,-0.008729935,0.041486263,-0.15035105,0.25972366,-0.097595215,0.0,0.0,0.0,0.0,0.0,0.0,0.0,0.0,-0.8183794,0.0,0.0,nan,0.0,0.0,-0.015671492,-0.034673385,0.012607992,0.032424748,0.0,0.0,6.6907063,0.11006333,0.0,0.0
331285002,331185898,-0.04084587,0.01817894,-0.047920853,0.02123642,-0.008548737,0.0,0.0,0.0,0.0,0.0,0.0,0.0,0.0,3.802991,0.0,0.0,nan,0.0,0.0,-0.031992674,-0.034673385,0.012607992,0.032424748,0.0,0.0,6.6907063,0.113995954,0.0,0.0
331789139,331689667,0.10583973,-0.10297489,0.13150005,0.12023163,-0.061618805,0.0,0.0,0.0,0.0,0.0,0.0,0.0,0.0,-0.9789772,0.0,0.0,nan,0.0,0.0,-0.061656237,-0.034673385,0.012607992,0.032424748,0.0,0.0,6.6907063,0.10968842,0.0,0.0
332282666,332183558,0.063593864,-0.026547909,0.044853307,0.06910896,-0.034397125,0.0,0.0,0.0,0.0,0.0,0.0,0.0,0.0,3.6865244,0.0,0.0,nan,0.0,0.0,-0.062636614,-0.034673385,0.012607992,0.032424748,0.0,0.0,6.6907063,0.09183001,0.0,0.0
332786528,332687326,0.04189396,0.087521076,-0.12357271,0.15391159,-0.069767,0.0,0.0,0.0,0.0,0.0,0.0,0.0,0.0,-2.014718,0.0,0.0,nan,0.0,0.0,-0.032080412,-0.034673385,0.012607992,0.032424748,0.0,0.0,6.6907063,0.06650748,0.0,0.0
333280337,333181221,-0.11301899,0.029911995,-0.020704687,0.11876583,-0.055648804,0.0,0.0,0.0,0.0,0.0,0.0,0.0,0.0,-1.6412268,0.0,0.0,nan,0.0,0.0,-0.02939248,-0.034673385,0.012607992,0.032424748,0.0,0.0,6.6907063,0.087552585,0.0,0.0
333784373,333684985,0.010951042,0.022728443,0.055214703,0.18845797,-0.083847046,0.0,0.0,0.0,0.0,0.0,0.0,0.0,0.0,-2.6124754,0.0,0.0,nan,0.0,0.0,0.03949523,-0.034673385,0.012607992,0.032424748,0.0,0.0,6.6907063,0.08450264,0.0,0.0
334287871,334188754,-0.042411804,-0.09972048,-0.04578656,0.15426683,-0.074970245,0.0,0.0,0.0,0.0,0.0,0.0,0.0,0.0,-0.30098248,0.0,0.0,nan,0.0,0.0,0.06028366,-0.034673385,0.012607992,0.032424748,0.0,0.0,6.6907063,0.07771808,0.0,0.0
334781770,334682644,-0.093860626,-0.006696701,0.07884604,0.23050451,-0.11520386,0.0,0.0,0.0,0.0,0.0,0.0,0.0,0.0,-3.3456607,0.0,0.0,nan,0.0,0.0,0.102342844,-0.034673385,0.012607992,0.032424748,0.0,0.0,6.6907063,0.08187296,0.0,0.0
335285553,335186413,-0.0989151,-0.19370317,0.12594086,0.19336128,-0.118442535,0.0,0.0,0.0,0.0,0.0,0.0,0.0,0.0,1.0070486,0.0,0.0,nan,0.0,0.0,0.0,-0.034673385,0.012607992,0.032424748,0.0,0.0,6.6907063,0.08606581,0.0,0.0
335779513,335680303,-0.1885395,-0.011701107,-0.27329496,0.110572815,-0.065834045,0.0,0.0,0.0,0.0,0.0,0.0,0.0,0.0,-0.03090763,0.0,0.0,nan,0.0,0.0,0.0,-0.034673385,0.012607992,0.032424748,0.0,0.0,6.6907063,0.064711496,0.0,0.0
336283194,336184073,0.01206398,-0.117627144,0.035492897,0.06718826,-0.05618286,0.0,0.0,0.0,0.0,0.0,0.0,0.0,0.0,-2.0152445,0.0,0.0,nan,0.0,0.0,0.0,-0.034673385,0.012607992,0.032424748,0.0,0.0,6.6907063,0.058977,0.0,0.0
336786951,336687840,0.060756683,-0.2716236,-0.010309994,0.21632385,-0.12019348,0.0,0.0,0.0,0.0,0.0,0.0,0.0,0.0,0.2513647,0.0,0.0,nan,0.0,0.0,0.0,-0.034673385,0.012607992,0.032424748,0.0,0.0,6.6907063,0.08612587,0.0,0.0
337280822,337181730,-0.03630638,0.14877892,-0.044192135,0.31438446,-0.15528107,0.0,0.0,0.0,0.0,0.0,0.0,0.0,0.0,-2.2376356,0.0,0.0,nan,0.0,0.0,0.0,-0.3171797,0.15581302,-0.3672613,0.0,0.0,6.6907063,0.051457364,0.0,0.0
337784639,337685498,-0.016658783,0.32953644,-0.24269348,0.2429924,-0.039978027,0.0,0.0,0.0,0.0,0.0,0.0,0.0,0.0,-0.87308025,0.0,0.0,nan,0.0,0.0,0.0,-0.38458356,0.18004838,-0.44988492,0.0,0.0,6.6907063,0.072400644,0.0,0.0
338288400,338189271,-0.0813694,0.33111286,-0.108751774,0.19934845,0.048439026,0.0,0.0,0.0,0.0,0.0,0.0,0.0,0.0,0.8606405,0.0,0.0,nan,0.0,0.0,0.0,-0.37261295,0.16357163,-0.4510733,0.0,0.0,6.6907063,0.08718481,0.0,0.0
338782280,338683156,-0.34020805,0.07967758,0.09154916,0.37014008,-0.1536026,0.0,0.0,0.0,0.0,0.0,0.0,0.0,0.0,3.5542984,0.0,0.0,nan,0.0,0.0,0.0,-0.36817768,0.15444916,-0.47575617,0.0,0.0,6.6907063,0.06632862,0.0,0.0
339286050,339186924,-0.01608944,0.231184,-0.23562765,0.18198395,0.07847595,0.0,0.0,0.0,0.0,0.0,0.0,0.0,0.0,-0.7859001,0.0,0.0,nan,0.0,0.0,0.0,-0.3381468,0.13954669,-0.48208052,0.0,0.0,6.6907063,0.11225513,0.0,0.0
339779910,339680814,-0.0012817383,0.2617855,-0.18498588,0.12399292,0.18415833,0.0,0.0,0.0,0.0,0.0,0.0,0.0,0.0,-3.277793,0.0,0.0,nan,0.0,0.0,0.0,-0.30942765,0.12547898,-0.4691287,0.0,0.0,6.6907063,0.13108787,0.0,0.0
340283677,340184582,0.21072721,0.058200836,-0.27115178,0.13098145,0.19716644,0.0,0.0,0.0,0.0,0.0,0.0,0.0,0.0,1.4902172,0.0,0.0,nan,0.0,0.0,0.0,-0.2823823,0.11401659,-0.4633926,0.0,0.0,6.6907063,0.11569102,0.0,0.0
340787458,340688350,-0.10942793,0.09096718,0.41429305,0.06803131,0.32174683,0.0,0.0,0.0,0.0,0.0,0.0,0.0,0.0,-1.1752348,0.0,0.0,nan,0.0,0.0,0.0,-0.26409894,0.10583776,-0.47047073,0.0,0.0,6.6907063,0.13397032,0.0,0.0
341281335,341182240,-0.007254958,0.20185852,0.041802406,0.061546326,-0.0018005371,0.0,0.0,0.0,0.0,0.0,0.0,0.0,0.0,3.1701097,0.0,0.0,nan,0.0,0.0,0.0,-0.26405454,0.12030637,-0.47557396,0.0,0.0,6.6907063,0.07095556,0.0,0.0
341785107,341686008,0.09954776,0.14525604,-0.040274143,0.039993286,0.17536926,0.0,0.0,0.0,0.0,0.0,0.0,0.0,0.0,-0.3898077,0.0,0.0,nan,0.0,0.0,0.0,-0.23727113,0.13187194,-0.47231722,0.0,0.0,6.6907063,0.08503561,0.0,0.0
342289008,342189776,0.10257125,0.23964691,0.052767515,0.041679382,0.25491333,0.0,0.0,0.0,0.0,0.0,0.0,0.0,0.0,-1.601861,0.0,0.0,nan,0.0,0.0,0.0,-0.21072617,0.12506258,-0.44038203,0.0,0.0,6.6907063,0.077945486,0.0,0.0
342782820,342683665,0.044538498,0.18820763,0.11254501,-0.019760132,0.15757751,0.0,0.0,0.0,0.0,0.0,0.0,0.0,0.0,-3.0424967,0.0,0.0,nan,0.0,0.0,0.0,-0.19570345,0.10673773,-0.44610363,0.0,0.0,6.6907063,0.0099610295,0.0,0.0
343286524,343187433,-0.056102753,0.15685081,0.1955185,-0.08245087,0.24815369,0.0,0.0,0.0,0.0,0.0,0.0,0.0,0.0,-0.38267422,0.0,0.0,nan,0.0,0.0,0.0,-0.18029469,0.10411173,-0.4574359,0.0,0.0,6.6907063,-0.047344647,0.0,0.0
343780412,343681323,0.25668907,0.07765007,0.126356,-0.05252838,0.37210083,0.0,0.0,0.0,0.0,0.0,0.0,0.0,0.0,1.726737,0.0,0.0,nan,0.0,0.0,0.0,-0.17583281,0.13038969,-0.4539197,0.0,0.0,6.6907063,-0.05663118,0.0,0.0
344284221,344185090,0.14185905,0.09326458,0.19823384,-0.036239624,0.4717102,0.0,0.0,0.0,0.0,0.0,0.0,0.0,0.0,-1.9454584,0.0,0.0,nan,0.0,0.0,0.0,-0.15837616,0.12650484,-0.43973935,0.0,0.0,6.6907063,-0.07139692,0.0,0.0
344788003,344688857,0.17407799,0.026812553,0.17075038,-0.10961914,0.4038391,0.0,0.0,0.0,0.0,0.0,0.0,0.0,0.0,-1.4639196,0.0,0.0,nan,0.0,0.0,0.0,-0.13538861,0.1370216,-0.44481128,0.0,0.0,6.6907063,-0.08189922,0.0,0.0
345281838,345182747,-0.11540699,-0.023756027,0.17519283,-0.13650894,0.42694092,0.0,0.0,0.0,0.0,0.0,0.0,0.0,0.0,2.137393,0.0,0.0,nan,0.0,0.0,0.0,-0.12081468,0.14828682,-0.41656005,0.0,0.0,6.6907063,-0.10346491,0.0,0.0
345785611,345686514,-0.10325813,-0.068870544,0.17518044,-0.24752426,0.3592682,0.0,0.0,0.0,0.0,0.0,0.0,0.0,0.0,-1.3051634,0.0,0.0,nan,0.0,0.0,0.0,-0.12135327,0.16578779,-0.40594518,0.0,0.0,6.6907063,-0.12561235,0.0,0.0
346279493,346180404,0.22711754,-0.03230524,0.16857266,-0.19078445,0.3690338,0.0,0.0,0.0,0.0,0.0,0.0,0.0,0.0,-0.4114828,0.0,0.0,nan,0.0,0.0,0.0,-0.11084044,0.18043047,-0.40960813,0.0,0.0,6.6907063,-0.128205,0.0,0.0
346783276,346684171,0.042337418,-0.330225,-0.097932816,-0.29867554,0.2969513,0.0,0.0,0.0,0.0,0.0,0.0,0.0,0.0,-3.360505,0.0,0.0,nan,0.0,0.0,0.0,-0.10052377,0.19930655,-0.381639,0.0,0.0,6.6907063,-0.14103805,0.0,0.0
347287027,347187938,0.091976166,-0.042204738,0.3029549,-0.07177544,0.3309784,0.0,0.0,0.0,0.0,0.0,0.0,0.0,0.0,-0.33276463,0.0,0.0,nan,0.0,0.0,0.0,-0.10458392,0.21206021,-0.36226773,0.0,0.0,6.6907063,-0.15392321,0.0,0.0
347780948,347681827,0.3799801,0.02079779,0.19760394,-0.31682396,0.30744934,0.0,0.0,0.0,0.0,0.0,0.0,0.0,0.0,-2.000764,0.0,0.0,nan,0.0,0.0,0.0,-0.10495412,0.22055346,-0.36483806,0.0,0.0,6.6907063,-0.18153815,0.0,0.0
348284735,348185594,-0.021463394,-0.17954731,0.07520819,-0.31455946,0.23789978,0.0,0.0,0.0,0.0,0.0,0.0,0.0,0.0,-2.5302858,0.0,0.0,nan,0.0,0.0,0.0,-0.099910915,0.24047072,-0.35866642,0.0,0.0,6.6907063,-0.18000516,0.0,0.0
348788534,348689361,0.26478386,-0.10360551,0.14891529,-0.210165,0.21565247,0.0,0.0,0.0,0.0,0.0,0.0,0.0,0.0,-1.0023546,0.0,0.0,nan,0.0,0.0,0.0,-0.10897976,0.2598558,-0.35769522,0.0,0.0,6.6907063,-0.17765923,0.0,0.0
349282340,349183250,0.28334045,-0.02633667,0.11631131,-0.30404568,0.19151306,0.0,0.0,0.0,0.0,0.0,0.0,0.0,0.0,0.1982603,0.0,0.0,nan,0.0,0.0,0.0,-0.11623436,0.27473146,-0.34180915,0.0,0.0,6.6907063,-0.16448207,0.0,0.0
349786138,349687017,0.13846397,-0.15133381,0.028938293,-0.19221878,0.114151,0.0,0.0,0.0,0.0,0.0,0.0,0.0,0.0,-1.7631731,0.0,0.0,nan,0.0,0.0,0.0,-0.13599163,0.29721746,-0.31960613,0.0,0.0,6.6907063,-0.16561888,0.0,0.0
350280342,350180906,0.3499565,-0.12856293,0.20709705,-0.21697617,0.16793823,0.0,0.0,0.0,0.0,0.0,0.0,0.0,0.0,-0.27538013,0.0,0.0,nan,0.0,0.0,0.0,-0.066586435,0.28469858,-0.24072671,0.0,0.0,6.6907063,-0.15550292,0.0,0.0
350783762,350684673,0.24578857,-0.038018227,0.24991977,-0.118047714,0.13496399,0.0,0.0,0.0,0.0,0.0,0.0,0.0,0.0,-1.1591616,0.0,0.0,nan,0.0,0.0,0.0,-0.043445826,0.2888753,-0.19908112,0.0,0.0,6.6907063,-0.16183104,0.0,0.0
351287709,351188439,0.3236313,-0.117853165,0.30891955,-0.026634216,0.075531006,0.0,0.0,0.0,0.0,0.0,0.0,0.0,0.0,-0.4052019,0.0,0.0,nan,0.0,0.0,0.0,-0.025463104,0.29150838,-0.13266563,0.0,0.0,6.6907063,-0.15925147,0.0,0.0
351781417,351682328,0.15413761,-0.09080315,0.14232635,-0.14020538,0.27952576,0.0,0.0,0.0,0.0,0.0,0.0,0.0,0.0,-3.905305,0.0,0.0,nan,0.0,0.0,0.0,-0.024328947,0.28389642,-0.16606468,0.0,0.0,6.6907063,-0.15259111,0.0,0.0
352285734,352186095,0.18187141,-0.05370903,0.2582571,-0.00308609,0.20698547,0.0,0.0,0.0,0.0,0.0,0.0,0.0,0.0,-0.43540668,0.0,0.0,nan,0.0,0.0,0.0,-0.03341478,0.28935233,-0.14783001,0.0,0.0,6.6907063,-0.1469555,0.0,0.0
352789021,352689861,-0.08222389,-0.025812149,-0.06479466,0.13437653,-0.047531128,0.0,0.0,0.0,0.0,0.0,0.0,0.0,0.0,-0.03104496,0.0,0.0,nan,0.0,0.0,0.0,-0.03763789,0.28774816,-0.13635099,0.0,0.0,6.6907063,-0.12651755,0.0,0.0
353282939,353183749,-0.057627916,-0.06335068,-0.008751959,0.2019844,-0.07286072,0.0,0.0,0.0,0.0,0.0,0.0,0.0,0.0,0.41757107,0.0,0.0,nan,0.0,0.0,0.0,-0.05950579,0.29793853,-0.11964047,0.0,0.0,6.6907063,-0.10668668,0.0,0.0
353786643,353687516,0.14141679,0.08086777,0.10559785,0.21251297,0.22718811,0.0,0.0,0.0,0.0,0.0,0.0,0.0,0.0,0.3478918,0.0,0.0,nan,0.0,0.0,0.0,-0.07554832,0.29532504,-0.12069178,0.0,0.0,6.6907063,-0.10022542,0.0,0.0
354280827,354181404,0.025194883,-0.05529785,-0.051620387,0.25201797,0.27801514,0.0,0.0,0.0,0.0,0.0,0.0,0.0,0.0,3.0174208,0.0,0.0,nan,0.0,0.0,0.0,-0.07794127,0.29421544,-0.09729189,0.0,0.0,6.6907063,-0.08354712,0.0,0.0
354784262,354685170,-0.041056156,-0.12841225,0.15047902,0.26966858,0.17262268,0.0,0.0,0.0,0.0,0.0,0.0,0.0,0.0,-0.7380991,0.0,0.0,nan,0.0,0.0,0.0,-0.089642465,0.29559708,-0.08217186,0.0,0.0,6.6907063,-0.052670643,0.0,0.0
355288148,355188936,-0.14354229,-0.075717926,0.19717926,0.24827576,0.076538086,0.0,0.0,0.0,0.0,0.0,0.0,0.0,0.0,-2.3930254,0.0,0.0,nan,0.0,0.0,0.0,-0.098653555,0.2760089,-0.07906109,0.0,0.0,6.6907063,-0.04328109,0.0,0.0
355781954,355682825,-0.073949814,0.12589455,-0.018924236,0.22554779,-0.023620605,0.0,0.0,0.0,0.0,0.0,0.0,0.0,0.0,-4.2173853,0.0,0.0,nan,0.0,0.0,0.0,-0.121295094,0.2744347,-0.06854993,0.0,0.0,6.6907063,-0.026270095,0.0,0.0
356286092,356186590,0.0011281967,-0.011846542,0.15969515,0.31782532,0.0639267,0.0,0.0,0.0,0.0,0.0,0.0,0.0,0.0,-1.988244,0.0,0.0,nan,0.0,0.0,0.0,-0.13545059,0.2683012,-0.08685833,0.0,0.0,6.6907063,-0.028371815,0.0,0.0
356779575,356680479,-0.3252554,0.01831913,-0.058672428,0.2574501,-0.03302765,0.0,0.0,0.0,0.0,0.0,0.0,0.0,0.0,2.9072218,0.0,0.0,nan,0.0,0.0,0.0,-0.149481,0.27021492,-0.07913232,0.0,0.0,6.6907063,-0.013669341,0.0,0.0
357283446,357184244,-0.090218544,-0.10896206,0.29579425,0.37355995,0.0526886,0.0,0.0,0.0,0.0,0.0,0.0,0.0,0.0,-1.4113741,0.0,0.0,nan,0.0,0.0,0.0,-0.16546501,0.24238637,-0.13653135,0.0,0.0,6.6907063,-0.020720057,0.0,0.0
357787127,357688010,-0.15472603,0.0058965683,0.09927232,0.30575943,-0.029319763,0.0,0.0,0.0,0.0,0.0,0.0,0.0,0.0,2.3466635,0.0,0.0,nan,0.0,0.0,0.0,-0.20558745,0.22134548,-0.16296369,0.0,0.0,6.6907063,0.023130346,0.0,0.0
358281177,358181898,-0.12200546,0.04178524,0.081642866,0.3264389,-0.033943176,0.0,0.0,0.0,0.0,0.0,0.0,0.0,0.0,-0.9485483,0.0,0.0,nan,0.0,0.0,0.0,-0.18937233,0.20409201,-0.17162949,0.0,0.0,6.6907063,0.07222239,0.0,0.0
358784820,358685664,-0.1248188,-0.03447771,0.16944286,0.29743195,0.014762878,0.0,0.0,0.0,0.0,0.0,0.0,0.0,0.0,-1.4576006,0.0,0.0,nan,0.0,0.0,0.0,-0.17721143,0.18068203,-0.13998991,0.0,0.0,6.6907063,0.10217171,0.0,0.0
359288575,359189429,-0.06267738,0.34002876,-0.2898206,0.27518225,0.0071105957,0.0,0.0,0.0,0.0,0.0,0.0,0.0,0.0,2.3929968,0.0,0.0,nan,0.0,0.0,0.0,-0.18825473,0.15144673,-0.20512891,0.0,0.0,6.6907063,0.13707416,0.0,0.0
