timestamp,last_instance_change,instance_changed_count,accel_device_id,baro_device_id,gyro_device_id,mag_device_id,combined_test_ratio[0],combined_test_ratio[1],combined_test_ratio[2],combined_test_ratio[3],combined_test_ratio[4],combined_test_ratio[5],combined_test_ratio[6],combined_test_ratio[7],combined_test_ratio[8],relative_test_ratio[0],relative_test_ratio[1],relative_test_ratio[2],relative_test_ratio[3],relative_test_ratio[4],relative_test_ratio[5],relative_test_ratio[6],relative_test_ratio[7],relative_test_ratio[8],accumulated_gyro_error[0],accumulated_gyro_error[1],accumulated_gyro_error[2],accumulated_gyro_error[3],accumulated_accel_error[0],accumulated_accel_error[1],accumulated_accel_error[2],accumulated_accel_error[3],primary_instance,instances_available,healthy[0],healthy[1],healthy[2],healthy[3],healthy[4],healthy[5],healthy[6],healthy[7],healthy[8],gyro_fault_detected,accel_fault_detected
217318720,12478544,3,4259850,4028193,4325386,396321,0.027953805,0.015991269,0.019247837,0.016006595,nan,nan,nan,nan,nan,0.0,1.0,1.0,1.0,nan,nan,nan,nan,nan,0.0,0.0,nan,nan,0.0,0.0,nan,nan,0,4,1,1,1,1,0,0,0,0,0,0,0
218318730,12478544,3,4259850,4028193,4325386,396321,0.014671774,0.013413509,0.013645237,0.013432484,nan,nan,nan,nan,nan,0.0,1.0,1.0,1.0,nan,nan,nan,nan,nan,0.0,0.0,nan,nan,0.0,0.0,nan,nan,0,4,1,1,1,1,0,0,0,0,0,0,0
219318800,12478544,3,4259850,4028193,4325386,396321,0.016434098,0.015442714,0.016392075,0.015444772,nan,nan,nan,nan,nan,0.0,1.0,1.0,1.0,nan,nan,nan,nan,nan,0.0,0.0,nan,nan,0.0,0.0,nan,nan,0,4,1,1,1,1,0,0,0,0,0,0,0
220318920,12478544,3,4259850,4028193,4325386,396321,0.025502162,0.02450979,0.02548695,0.024507895,nan,nan,nan,nan,nan,0.0,1.0,1.0,1.0,nan,nan,nan,nan,nan,0.0,0.0,nan,nan,0.0,0.0,nan,nan,0,4,1,1,1,1,0,0,0,0,0,0,0
221318972,12478544,3,4259850,4028193,4325386,396321,0.02310343,0.022090927,0.023172345,0.022088004,nan,nan,nan,nan,nan,0.0,1.0,1.0,1.0,nan,nan,nan,nan,nan,0.0,0.0,nan,nan,0.0,0.0,nan,nan,0,4,1,1,1,1,0,0,0,0,0,0,0
222319071,12478544,3,4259850,4028193,4325386,396321,0.016294615,0.021436308,0.016478462,0.021624515,nan,nan,nan,nan,nan,0.0,1.0,1.0,1.0,nan,nan,nan,nan,nan,0.0,0.0,nan,nan,0.0,0.0,nan,nan,0,4,1,1,1,1,0,0,0,0,0,0,0
223319212,12478544,3,4259850,4028193,4325386,396321,0.0640657,0.062669076,0.064207144,0.06267103,nan,nan,nan,nan,nan,0.0,1.0,1.0,1.0,nan,nan,nan,nan,nan,0.0,0.0,nan,nan,0.0,0.0,nan,nan,0,4,1,1,1,1,0,0,0,0,0,0,0
224319308,12478544,3,4259850,4028193,4325386,396321,0.015841264,0.021430142,0.023555517,0.021104615,nan,nan,nan,nan,nan,0.0,1.0,1.0,1.0,nan,nan,nan,nan,nan,0.0,0.0,nan,nan,0.0,0.0,nan,nan,0,4,1,1,1,1,0,0,0,0,0,0,0
225319317,12478544,3,4259850,4028193,4325386,396321,0.016709384,0.024828775,0.014427789,0.018698579,nan,nan,nan,nan,nan,0.0,1.0,1.0,1.0,nan,nan,nan,nan,nan,0.0,0.0,nan,nan,0.0,0.0,nan,nan,0,4,1,1,1,1,0,0,0,0,0,0,0
226319415,12478544,3,4259850,4028193,4325386,396321,0.03659897,0.027334718,0.041141972,0.021917636,nan,nan,nan,nan,nan,0.0,1.0,1.0,1.0,nan,nan,nan,nan,nan,0.0,0.0,nan,nan,0.0,0.0,nan,nan,0,4,1,1,1,1,0,0,0,0,0,0,0
227319553,12478544,3,4259850,4028193,4325386,396321,0.035814244,0.040606037,0.036949575,0.041893877,nan,nan,nan,nan,nan,0.0,1.0,1.0,1.0,nan,nan,nan,nan,nan,0.0,0.0,nan,nan,0.0,0.0,nan,nan,0,4,1,1,1,1,0,0,0,0,0,0,0
228319746,12478544,3,4259850,4028193,4325386,396321,0.07377429,0.0619076,0.07791663,0.063549966,nan,nan,nan,nan,nan,0.0,1.0,1.0,1.0,nan,nan,nan,nan,nan,0.0,0.0,nan,nan,0.0,0.0,nan,nan,0,4,1,1,1,1,0,0,0,0,0,0,0
229329756,12478544,3,4259850,4028193,4325386,396321,0.031262662,0.029422324,0.031217718,0.029424446,nan,nan,nan,nan,nan,0.0,1.0,1.0,1.0,nan,nan,nan,nan,nan,0.0,0.0,nan,nan,0.0,0.0,nan,nan,0,4,1,1,1,1,0,0,0,0,0,0,0
230329882,12478544,3,4259850,4028193,4325386,396321,0.056716833,0.062353518,0.050012648,0.055837736,nan,nan,nan,nan,nan,0.0,1.0,1.0,1.0,nan,nan,nan,nan,nan,0.0,0.0,nan,nan,0.0,0.0,nan,nan,0,4,1,1,1,1,0,0,0,0,0,0,0
231330002,12478544,3,4259850,4028193,4325386,396321,0.050594293,0.05156939,0.053507898,0.05340141,nan,nan,nan,nan,nan,0.0,1.0,1.0,1.0,nan,nan,nan,nan,nan,0.0,0.0,nan,nan,0.0,0.0,nan,nan,0,4,1,1,1,1,0,0,0,0,0,0,0
232340016,12478544,3,4259850,4028193,4325386,396321,0.03835012,0.038624145,0.030499008,0.027757347,nan,nan,nan,nan,nan,0.0,1.0,1.0,1.0,nan,nan,nan,nan,nan,0.0,0.0,nan,nan,0.0,0.0,nan,nan,0,4,1,1,1,1,0,0,0,0,0,0,0
233340171,12478544,3,4259850,4028193,4325386,396321,0.046335254,0.043952405,0.046204623,0.04086453,nan,nan,nan,nan,nan,0.0,1.0,1.0,1.0,nan,nan,nan,nan,nan,0.0,0.0,nan,nan,0.0,0.0,nan,nan,0,4,1,1,1,1,0,0,0,0,0,0,0
234340248,12478544,3,4259850,4028193,4325386,396321,0.028215285,0.02827197,0.0252251,0.023847584,nan,nan,nan,nan,nan,0.0,1.0,1.0,1.0,nan,nan,nan,nan,nan,0.0,0.0,nan,nan,0.0,0.0,nan,nan,0,4,1,1,1,1,0,0,0,0,0,0,0
235350323,12478544,3,4259850,4028193,4325386,396321,0.049314834,0.04832846,0.054207154,0.049532473,nan,nan,nan,nan,nan,0.0,1.0,1.0,1.0,nan,nan,nan,nan,nan,0.0,0.0,nan,nan,0.0,0.0,nan,nan,0,4,1,1,1,1,0,0,0,0,0,0,0
236350366,12478544,3,4259850,4028193,4325386,396321,0.009728998,0.01360854,0.012921521,0.017307475,nan,nan,nan,nan,nan,0.0,1.0,1.0,1.0,nan,nan,nan,nan,nan,0.0,0.0,nan,nan,0.0,0.0,nan,nan,0,4,1,1,1,1,0,0,0,0,0,0,0
237350464,12478544,3,4259850,4028193,4325386,396321,0.02771394,0.029206546,0.024482084,0.028677505,nan,nan,nan,nan,nan,0.0,1.0,1.0,1.0,nan,nan,nan,nan,nan,0.0,0.0,nan,nan,0.0,0.0,nan,nan,0,4,1,1,1,1,0,0,0,0,0,0,0
238350546,12478544,3,4259850,4028193,4325386,396321,0.023699388,0.020845944,0.021660598,0.019987412,nan,nan,nan,nan,nan,0.0,1.0,1.0,1.0,nan,nan,nan,nan,nan,0.0,0.0,nan,nan,0.0,0.0,nan,nan,0,4,1,1,1,1,0,0,0,0,0,0,0
239350632,12478544,3,4259850,4028193,4325386,396321,0.056267206,0.05664539,0.05686503,0.056667484,nan,nan,nan,nan,nan,0.0,1.0,1.0,1.0,nan,nan,nan,nan,nan,0.0,0.0,nan,nan,0.0,0.0,nan,nan,0,4,1,1,1,1,0,0,0,0,0,0,0
240350705,12478544,3,4259850,4028193,4325386,396321,0.03939532,0.037858315,0.03876692,0.037829615,nan,nan,nan,nan,nan,0.0,1.0,1.0,1.0,nan,nan,nan,nan,nan,0.0,0.0,nan,nan,0.0,0.0,nan,nan,0,4,1,1,1,1,0,0,0,0,0,0,0
241350884,12478544,3,4259850,4028193,4325386,396321,0.06310512,0.04482396,0.04585689,0.044856235,nan,nan,nan,nan,nan,0.0,1.0,1.0,1.0,nan,nan,nan,nan,nan,0.0,0.0,nan,nan,0.0,0.0,nan,nan,0,4,1,1,1,1,0,0,0,0,0,0,0
242351029,12478544,3,4259850,4028193,4325386,396321,0.049612965,0.050174326,0.050483633,0.050140426,nan,nan,nan,nan,nan,0.0,1.0,1.0,1.0,nan,nan,nan,nan,nan,0.0,0.0,nan,nan,0.0,0.0,nan,nan,0,4,1,1,1,1,0,0,0,0,0,0,0
243361018,12478544,3,4259850,4028193,4325386,396321,0.042027492,0.11292149,0.113157764,0.11295908,nan,nan,nan,nan,nan,0.0,1.0,1.0,1.0,nan,nan,nan,nan,nan,0.0,0.0,nan,nan,0.0,0.0,nan,nan,0,4,1,1,1,1,0,0,0,0,0,0,0
244361032,12478544,3,4259850,4028193,4325386,396321,0.033797864,0.040968947,0.022857172,0.028705293,nan,nan,nan,nan,nan,0.0,1.0,1.0,1.0,nan,nan,nan,nan,nan,0.0,0.0,nan,nan,0.0,0.0,nan,nan,0,4,1,1,1,1,0,0,0,0,0,0,0
245361216,12478544,3,4259850,4028193,4325386,396321,0.050726518,0.06261796,0.03833114,0.037287295,nan,nan,nan,nan,nan,0.0,1.0,1.0,1.0,nan,nan,nan,nan,nan,0.0,0.0,nan,nan,0.0,0.0,nan,nan,0,4,1,1,1,1,0,0,0,0,0,0,0
246371235,12478544,3,4259850,4028193,4325386,396321,0.16067843,0.16192679,0.16185227,0.16196361,nan,nan,nan,nan,nan,0.0,1.0,1.0,1.0,nan,nan,nan,nan,nan,0.0,0.0,nan,nan,0.0,0.0,nan,nan,0,4,1,1,1,1,0,0,0,0,0,0,0
247371356,12478544,3,4259850,4028193,4325386,396321,0.07020641,0.06875822,0.0383728,0.032001637,nan,nan,nan,nan,nan,0.0,1.0,1.0,1.0,nan,nan,nan,nan,nan,0.0,0.0,nan,nan,0.0,0.0,nan,nan,0,4,1,1,1,1,0,0,0,0,0,0,0
248371390,12478544,3,4259850,4028193,4325386,396321,0.062313166,0.06463917,0.041389916,0.041390613,nan,nan,nan,nan,nan,0.0,1.0,1.0,1.0,nan,nan,nan,nan,nan,0.0,0.0,nan,nan,0.0,0.0,nan,nan,0,4,1,1,1,1,0,0,0,0,0,0,0
249371579,12478544,3,4259850,4028193,4325386,396321,0.059680324,0.062738836,0.02407961,0.021676915,nan,nan,nan,nan,nan,0.0,1.0,1.0,1.0,nan,nan,nan,nan,nan,0.0,0.0,nan,nan,0.0,0.0,nan,nan,0,4,1,1,1,1,0,0,0,0,0,0,0
250381594,12478544,3,4259850,4028193,4325386,396321,0.10066134,0.11121736,0.051709,0.05797349,nan,nan,nan,nan,nan,0.0,1.0,1.0,1.0,nan,nan,nan,nan,nan,0.0,0.0,nan,nan,0.0,0.0,nan,nan,0,4,1,1,1,1,0,0,0,0,0,0,0
251381741,12478544,3,4259850,4028193,4325386,396321,0.048706595,0.05990543,0.017512694,0.017949183,nan,nan,nan,nan,nan,0.0,1.0,1.0,1.0,nan,nan,nan,nan,nan,0.0,0.0,nan,nan,0.0,0.0,nan,nan,0,4,1,1,1,1,0,0,0,0,0,0,0
252381850,12478544,3,4259850,4028193,4325386,396321,0.160958,0.18445052,0.04785134,0.05837627,nan,nan,nan,nan,nan,0.0,1.0,1.0,1.0,nan,nan,nan,nan,nan,0.0,0.0,nan,nan,0.0,0.0,nan,nan,0,4,1,1,1,1,0,0,0,0,0,0,0
253381866,12478544,3,4259850,4028193,4325386,396321,0.13556917,0.1567463,0.06529185,0.062204696,nan,nan,nan,nan,nan,0.0,1.0,1.0,1.0,nan,nan,nan,nan,nan,0.0,0.0,nan,nan,0.0,0.0,nan,nan,0,4,1,1,1,1,0,0,0,0,0,0,0
253672105,12478544,3,4259850,4028193,4325386,396321,0.3130447,0.2930443,0.110274054,0.121474534,nan,nan,nan,nan,nan,0.0,1.0,0.79722935,1.0,nan,nan,nan,nan,nan,0.0,0.0,nan,nan,0.0,0.0,nan,nan,0,4,1,1,1,1,0,0,0,0,0,0,0
253872117,12478544,3,4259850,4028193,4325386,396321,0.3261049,0.348921,0.111965165,0.14196618,nan,nan,nan,nan,nan,0.0,1.0,0.5830896,1.0,nan,nan,nan,nan,nan,0.0,0.0,nan,nan,0.0,0.0,nan,nan,0,4,1,1,1,1,0,0,0,0,0,0,0
253881956,12478544,3,4259850,4028193,4325386,396321,0.3261049,0.348921,0.111965165,0.13192922,nan,nan,nan,nan,nan,0.0,1.0,0.36894983,1.0,nan,nan,nan,nan,nan,0.0,0.0,nan,nan,0.0,0.0,nan,nan,0,4,1,1,1,1,0,0,0,0,0,0,0
253891964,12478544,3,4259850,4028193,4325386,396321,0.3261049,0.348921,0.111965165,0.13192922,nan,nan,nan,nan,nan,0.0,1.0,0.15481009,1.0,nan,nan,nan,nan,nan,0.0,0.0,nan,nan,0.0,0.0,nan,nan,0,4,1,1,1,1,0,0,0,0,0,0,0
253901921,12478544,3,4259850,4028193,4325386,396321,0.3261049,0.348921,0.111965165,0.13192922,nan,nan,nan,nan,nan,0.0,1.0,-0.05932966,1.0,nan,nan,nan,nan,nan,0.0,0.0,nan,nan,0.0,0.0,nan,nan,0,4,1,1,1,1,0,0,0,0,0,0,0
253911974,12478544,3,4259850,4028193,4325386,396321,0.3261049,0.348921,0.111965165,0.13192922,nan,nan,nan,nan,nan,0.0,1.0,-0.2734694,1.0,nan,nan,nan,nan,nan,0.0,0.0,nan,nan,0.0,0.0,nan,nan,0,4,1,1,1,1,0,0,0,0,0,0,0
253921959,12478544,3,4259850,4028193,4325386,396321,0.3261049,0.348921,0.111965165,0.13192922,nan,nan,nan,nan,nan,0.0,1.0,-0.48760915,1.0,nan,nan,nan,nan,nan,0.0,0.0,nan,nan,0.0,0.0,nan,nan,0,4,1,1,1,1,0,0,0,0,0,0,0
253931980,253931924,4,4259850,4028193,4325386,396809,0.3261049,0.348921,0.111965165,0.13192922,nan,nan,nan,nan,nan,0.0,0.0,0.0,0.0,nan,nan,nan,nan,nan,0.0,0.0,nan,nan,0.0,0.0,nan,nan,2,4,1,1,1,1,0,0,0,0,0,0,0
254937040,253931924,4,4259850,4028193,4325386,396809,0.6829141,0.9867774,0.18242761,0.209834,nan,nan,nan,nan,nan,1.0,1.0,0.0,1.0,nan,nan,nan,nan,nan,0.0,0.0,nan,nan,0.0,0.0,nan,nan,2,4,1,1,1,1,0,0,0,0,0,0,0
255937194,253931924,4,4259850,4028193,4325386,396809,0.6453627,0.90776783,0.13791963,0.13483134,nan,nan,nan,nan,nan,1.0,1.0,0.0,1.0,nan,nan,nan,nan,nan,0.0,0.0,nan,nan,0.0,0.0,nan,nan,2,4,1,1,1,1,0,0,0,0,0,0,0
256937224,253931924,4,4259850,4028193,4325386,396809,0.37103543,0.45991924,0.11489749,0.124028996,nan,nan,nan,nan,nan,1.0,1.0,0.0,1.0,nan,nan,nan,nan,nan,0.0,0.0,nan,nan,0.0,0.0,nan,nan,2,4,1,1,1,1,0,0,0,0,0,0,0
257937346,253931924,4,4259850,4028193,4325386,396809,0.32644102,0.40907633,0.10990262,0.13276425,nan,nan,nan,nan,nan,1.0,1.0,0.0,1.0,nan,nan,nan,nan,nan,0.0,0.0,nan,nan,0.0,0.0,nan,nan,2,4,1,1,1,1,0,0,0,0,0,0,0
258937453,253931924,4,4259850,4028193,4325386,396809,0.29972517,0.3884261,0.071511455,0.08402788,nan,nan,nan,nan,nan,1.0,1.0,0.0,1.0,nan,nan,nan,nan,nan,0.0,0.0,nan,nan,0.0,0.0,nan,nan,2,4,1,1,1,1,0,0,0,0,0,0,0
259937523,253931924,4,4259850,4028193,4325386,396809,0.18519476,0.2527581,0.028606357,0.032448847,nan,nan,nan,nan,nan,1.0,1.0,0.0,1.0,nan,nan,nan,nan,nan,0.0,0.0,nan,nan,0.0,0.0,nan,nan,2,4,1,1,1,1,0,0,0,0,0,0,0
260937660,253931924,4,4259850,4028193,4325386,396809,0.11742586,0.15661074,0.078054175,0.064850256,nan,nan,nan,nan,nan,1.0,1.0,0.0,1.0,nan,nan,nan,nan,nan,0.0,0.0,nan,nan,0.0,0.0,nan,nan,2,4,1,1,1,1,0,0,0,0,0,0,0
261937707,253931924,4,4259850,4028193,4325386,396809,0.17715637,0.24248172,0.042435948,0.04146975,nan,nan,nan,nan,nan,1.0,1.0,0.0,1.0,nan,nan,nan,nan,nan,0.0,0.0,nan,nan,0.0,0.0,nan,nan,2,4,1,1,1,1,0,0,0,0,0,0,0
262937880,253931924,4,4259850,4028193,4325386,396809,0.105843484,0.14461584,0.015524284,0.02007029,nan,nan,nan,nan,nan,1.0,1.0,0.0,1.0,nan,nan,nan,nan,nan,0.0,0.0,nan,nan,0.0,0.0,nan,nan,2,4,1,1,1,1,0,0,0,0,0,0,0
263937998,253931924,4,4259850,4028193,4325386,396809,0.114185296,0.115298316,0.112469554,0.11344468,nan,nan,nan,nan,nan,1.0,1.0,0.0,1.0,nan,nan,nan,nan,nan,0.0,0.0,nan,nan,0.0,0.0,nan,nan,2,4,1,1,1,1,0,0,0,0,0,0,0
263977949,253931924,4,4259850,4028193,4325386,396809,0.114185296,0.37485284,0.37200052,0.37294963,nan,nan,nan,nan,nan,0.74218476,1.0,0.0,1.0,nan,nan,nan,nan,nan,0.0,0.0,nan,nan,0.0,0.0,nan,nan,2,4,1,1,1,1,0,0,0,0,0,0,0
264978006,253931924,4,4259850,4028193,4325386,396809,0.5258241,0.6835361,0.14166924,0.13800417,nan,nan,nan,nan,nan,1.0,1.0,0.0,1.0,nan,nan,nan,nan,nan,0.0,0.0,nan,nan,0.0,0.0,nan,nan,2,4,1,1,1,1,0,0,0,0,0,0,0
265978141,253931924,4,4259850,4028193,4325386,396809,0.9241705,1.2242885,0.118062004,0.11529878,nan,nan,nan,nan,nan,1.0,1.0,0.0,1.0,nan,nan,nan,nan,nan,0.0,0.0,nan,nan,0.0,0.0,nan,nan,2,4,1,1,1,1,0,0,0,0,0,0,0
266978436,253931924,4,4259850,4028193,4325386,396809,1.1894822,1.4141974,0.094357364,0.075162016,nan,nan,nan,nan,nan,1.0,1.0,0.0,1.0,nan,nan,nan,nan,nan,0.0,0.0,nan,nan,0.0,0.0,nan,nan,2,4,1,1,1,1,0,0,0,0,0,0,0
267988344,253931924,4,4259850,4028193,4325386,396809,1.0515229,1.1991234,0.099648,0.09250065,nan,nan,nan,nan,nan,1.0,1.0,0.0,1.0,nan,nan,nan,nan,nan,0.0,0.0,nan,nan,0.0,0.0,nan,nan,2,4,1,1,1,1,0,0,0,0,0,0,0
268988428,253931924,4,4259850,4028193,4325386,396809,0.763585,0.8676466,0.13672498,0.12898064,nan,nan,nan,nan,nan,1.0,1.0,0.0,1.0,nan,nan,nan,nan,nan,0.0,0.0,nan,nan,0.0,0.0,nan,nan,2,4,1,1,1,1,0,0,0,0,0,0,0
269988538,253931924,4,4259850,4028193,4325386,396809,0.3741133,0.38511834,0.3836145,0.40418884,nan,nan,nan,nan,nan,1.0,1.0,0.0,1.0,nan,nan,nan,nan,nan,0.0,0.0,nan,nan,0.0,0.0,nan,nan,2,4,1,1,1,1,0,0,0,0,0,0,0
270988583,253931924,4,4259850,4028193,4325386,396809,0.36775813,0.42121607,0.042202834,0.086051434,nan,nan,nan,nan,nan,1.0,1.0,0.0,1.0,nan,nan,nan,nan,nan,0.0,0.0,nan,nan,0.0,0.0,nan,nan,2,4,1,1,1,1,0,0,0,0,0,0,0
271988827,253931924,4,4259850,4028193,4325386,396809,0.13899893,0.15219085,0.15156582,0.17374386,nan,nan,nan,nan,nan,1.0,1.0,0.0,1.0,nan,nan,nan,nan,nan,0.0,0.0,nan,nan,0.0,0.0,nan,nan,2,4,1,1,1,1,0,0,0,0,0,0,0
272988871,253931924,4,4259850,4028193,4325386,396809,0.16972046,0.20273805,0.13129471,0.12638336,nan,nan,nan,nan,nan,1.0,1.0,0.0,1.0,nan,nan,nan,nan,nan,0.0,0.0,nan,nan,0.0,0.0,nan,nan,2,4,1,1,1,1,0,0,0,0,0,0,0
273988917,253931924,4,4259850,4028193,4325386,396809,0.20334738,0.23176198,0.048589155,0.044772096,nan,nan,nan,nan,nan,1.0,1.0,0.0,1.0,nan,nan,nan,nan,nan,0.0,0.0,nan,nan,0.0,0.0,nan,nan,2,4,1,1,1,1,0,0,0,0,0,0,0
274988989,253931924,4,4259850,4028193,4325386,396809,0.15661336,0.18529212,0.06844477,0.0671996,nan,nan,nan,nan,nan,1.0,1.0,0.0,1.0,nan,nan,nan,nan,nan,0.0,0.0,nan,nan,0.0,0.0,nan,nan,2,4,1,1,1,1,0,0,0,0,0,0,0
275989147,253931924,4,4259850,4028193,4325386,396809,0.09437402,0.12400187,0.09361917,0.10934426,nan,nan,nan,nan,nan,1.0,1.0,0.0,1.0,nan,nan,nan,nan,nan,0.0,0.0,nan,nan,0.0,0.0,nan,nan,2,4,1,1,1,1,0,0,0,0,0,0,0
276989311,253931924,4,4259850,4028193,4325386,396809,0.18589763,0.18714902,0.27839988,0.27706906,nan,nan,nan,nan,nan,1.0,1.0,0.0,1.0,nan,nan,nan,nan,nan,0.0,0.0,nan,nan,0.0,0.0,nan,nan,2,4,1,1,1,1,0,0,0,0,0,0,0
277999250,253931924,4,4259850,4028193,4325386,396809,0.24779485,0.24674906,0.20400035,0.19808322,nan,nan,nan,nan,nan,1.0,1.0,0.0,1.0,nan,nan,nan,nan,nan,0.0,0.0,nan,nan,0.0,0.0,nan,nan,2,4,1,1,1,1,0,0,0,0,0,0,0
278999343,253931924,4,4259850,4028193,4325386,396809,0.20712657,0.22757001,0.06541158,0.05173878,nan,nan,nan,nan,nan,1.0,1.0,0.0,1.0,nan,nan,nan,nan,nan,0.0,0.0,nan,nan,0.0,0.0,nan,nan,2,4,1,1,1,1,0,0,0,0,0,0,0
279999441,253931924,4,4259850,4028193,4325386,396809,0.28535947,0.3116613,0.22182432,0.2625289,nan,nan,nan,nan,nan,1.0,1.0,0.0,1.0,nan,nan,nan,nan,nan,0.0,0.0,nan,nan,0.0,0.0,nan,nan,2,4,1,1,1,1,0,0,0,0,0,0,0
280999642,253931924,4,4259850,4028193,4325386,396809,0.33413613,0.3239462,0.37302062,0.40830824,nan,nan,nan,nan,nan,1.0,1.0,0.0,1.0,nan,nan,nan,nan,nan,0.0,0.0,nan,nan,0.0,0.0,nan,nan,2,4,1,1,1,1,0,0,0,0,0,0,0
281999866,253931924,4,4259850,4028193,4325386,396809,0.40555176,0.4109617,0.20249346,0.1717121,nan,nan,nan,nan,nan,1.0,1.0,0.0,1.0,nan,nan,nan,nan,nan,0.0,0.0,nan,nan,0.0,0.0,nan,nan,2,4,1,1,1,1,0,0,0,0,0,0,0
283009736,253931924,4,4259850,4028193,4325386,396809,0.5175793,0.52152693,0.34370005,0.29170656,nan,nan,nan,nan,nan,1.0,1.0,0.0,1.0,nan,nan,nan,nan,nan,0.0,0.0,nan,nan,0.0,0.0,nan,nan,2,4,1,1,1,1,0,0,0,0,0,0,0
284009976,253931924,4,4259850,4028193,4325386,396809,0.2602587,0.29637706,0.21020609,0.2265633,nan,nan,nan,nan,nan,1.0,1.0,0.0,1.0,nan,nan,nan,nan,nan,0.0,0.0,nan,nan,0.0,0.0,nan,nan,2,4,1,1,1,1,0,0,0,0,0,0,0
285019930,253931924,4,4259850,4028193,4325386,396809,0.24635841,0.27608803,0.2361874,0.24798389,nan,nan,nan,nan,nan,1.0,1.0,0.0,1.0,nan,nan,nan,nan,nan,0.0,0.0,nan,nan,0.0,0.0,nan,nan,2,4,1,1,1,1,0,0,0,0,0,0,0
286020060,253931924,4,4259850,4028193,4325386,396809,0.1433411,0.15624648,0.15167172,0.15576129,nan,nan,nan,nan,nan,1.0,1.0,0.0,1.0,nan,nan,nan,nan,nan,0.0,0.0,nan,nan,0.0,0.0,nan,nan,2,4,1,1,1,1,0,0,0,0,0,0,0
287020123,253931924,4,4259850,4028193,4325386,396809,0.16654126,0.16640873,0.14321843,0.13714576,nan,nan,nan,nan,nan,1.0,1.0,0.0,1.0,nan,nan,nan,nan,nan,0.0,0.0,nan,nan,0.0,0.0,nan,nan,2,4,1,1,1,1,0,0,0,0,0,0,0
288020275,253931924,4,4259850,4028193,4325386,396809,0.1793501,0.16830702,0.11018053,0.1077504,nan,nan,nan,nan,nan,1.0,1.0,0.0,1.0,nan,nan,nan,nan,nan,0.0,0.0,nan,nan,0.0,0.0,nan,nan,2,4,1,1,1,1,0,0,0,0,0,0,0
289020358,253931924,4,4259850,4028193,4325386,396809,0.13174534,0.13312145,0.073855706,0.072785206,nan,nan,nan,nan,nan,1.0,1.0,0.0,1.0,nan,nan,nan,nan,nan,0.0,0.0,nan,nan,0.0,0.0,nan,nan,2,4,1,1,1,1,0,0,0,0,0,0,0
290020423,253931924,4,4259850,4028193,4325386,396809,0.14677571,0.14366594,0.08307092,0.07423845,nan,nan,nan,nan,nan,1.0,1.0,0.0,1.0,nan,nan,nan,nan,nan,0.0,0.0,nan,nan,0.0,0.0,nan,nan,2,4,1,1,1,1,0,0,0,0,0,0,0
291020493,253931924,4,4259850,4028193,4325386,396809,0.14055836,0.13571367,0.08833668,0.09960832,nan,nan,nan,nan,nan,1.0,1.0,0.0,1.0,nan,nan,nan,nan,nan,0.0,0.0,nan,nan,0.0,0.0,nan,nan,2,4,1,1,1,1,0,0,0,0,0,0,0
292020586,253931924,4,4259850,4028193,4325386,396809,0.15675311,0.16464904,0.15016843,0.156261,nan,nan,nan,nan,nan,1.0,1.0,0.0,1.0,nan,nan,nan,nan,nan,0.0,0.0,nan,nan,0.0,0.0,nan,nan,2,4,1,1,1,1,0,0,0,0,0,0,0
293020749,253931924,4,4259850,4028193,4325386,396809,0.09335858,0.09293213,0.07360303,0.065132216,nan,nan,nan,nan,nan,1.0,1.0,0.0,1.0,nan,nan,nan,nan,nan,0.0,0.0,nan,nan,0.0,0.0,nan,nan,2,4,1,1,1,1,0,0,0,0,0,0,0
294020923,253931924,4,4259850,4028193,4325386,396809,0.058500253,0.06314007,0.07086618,0.064815536,nan,nan,nan,nan,nan,1.0,1.0,0.0,1.0,nan,nan,nan,nan,nan,0.0,0.0,nan,nan,0.0,0.0,nan,nan,2,4,1,1,1,1,0,0,0,0,0,0,0
295021044,253931924,4,4259850,4028193,4325386,396809,0.10426155,0.10517239,0.10337061,0.1106966,nan,nan,nan,nan,nan,1.0,1.0,0.0,1.0,nan,nan,nan,nan,nan,0.0,0.0,nan,nan,0.0,0.0,nan,nan,2,4,1,1,1,1,0,0,0,0,0,0,0
296031037,253931924,4,4259850,4028193,4325386,396809,0.0721419,0.07752021,0.053165074,0.044051826,nan,nan,nan,nan,nan,1.0,1.0,0.0,1.0,nan,nan,nan,nan,nan,0.0,0.0,nan,nan,0.0,0.0,nan,nan,2,4,1,1,1,1,0,0,0,0,0,0,0
297031231,253931924,4,4259850,4028193,4325386,396809,0.091384426,0.094306454,0.08854205,0.09079668,nan,nan,nan,nan,nan,1.0,1.0,0.0,1.0,nan,nan,nan,nan,nan,0.0,0.0,nan,nan,0.0,0.0,nan,nan,2,4,1,1,1,1,0,0,0,0,0,0,0
298041253,253931924,4,4259850,4028193,4325386,396809,0.06758555,0.07207607,0.04451073,0.054297,nan,nan,nan,nan,nan,1.0,1.0,0.0,1.0,nan,nan,nan,nan,nan,0.0,0.0,nan,nan,0.0,0.0,nan,nan,2,4,1,1,1,1,0,0,0,0,0,0,0
299041368,253931924,4,4259850,4028193,4325386,396809,0.2400682,0.23837017,0.24188814,0.24066475,nan,nan,nan,nan,nan,1.0,1.0,0.0,1.0,nan,nan,nan,nan,nan,0.0,0.0,nan,nan,0.0,0.0,nan,nan,2,4,1,1,1,1,0,0,0,0,0,0,0
300051416,253931924,4,4259850,4028193,4325386,396809,0.067193896,0.06578715,0.06043452,0.059928972,nan,nan,nan,nan,nan,1.0,1.0,0.0,1.0,nan,nan,nan,nan,nan,0.0,0.0,nan,nan,0.0,0.0,nan,nan,2,4,1,1,1,1,0,0,0,0,0,0,0
301051621,253931924,4,4259850,4028193,4325386,396809,0.038688794,0.03866919,0.046716496,0.048080564,nan,nan,nan,nan,nan,1.0,1.0,0.0,1.0,nan,nan,nan,nan,nan,0.0,0.0,nan,nan,0.0,0.0,nan,nan,2,4,1,1,1,1,0,0,0,0,0,0,0
302061698,253931924,4,4259850,4028193,4325386,396809,0.3831504,0.36811697,0.38291624,0.3114671,nan,nan,nan,nan,nan,1.0,1.0,0.0,1.0,nan,nan,nan,nan,nan,0.0,0.0,nan,nan,0.0,0.0,nan,nan,2,4,1,1,1,1,0,0,0,0,0,0,0
303061818,253931924,4,4259850,4028193,4325386,396809,0.38205072,0.59624225,0.16904166,0.17558306,nan,nan,nan,nan,nan,1.0,1.0,0.0,1.0,nan,nan,nan,nan,nan,0.0,0.0,nan,nan,0.0,0.0,nan,nan,2,4,1,1,1,1,0,0,0,0,0,0,0
304062000,253931924,4,4259850,4028193,4325386,396809,0.1153436,0.19426037,0.17207447,0.16035834,nan,nan,nan,nan,nan,1.0,1.0,0.0,1.0,nan,nan,nan,nan,nan,0.0,0.0,nan,nan,0.0,0.0,nan,nan,2,4,1,1,1,1,0,0,0,0,0,0,0
305072063,253931924,4,4259850,4028193,4325386,396809,0.111111775,0.10101513,0.10573989,0.12990166,nan,nan,nan,nan,nan,1.0,1.0,0.0,1.0,nan,nan,nan,nan,nan,0.0,0.0,nan,nan,0.0,0.0,nan,nan,2,4,1,1,1,1,0,0,0,0,0,0,0
306081902,253931924,4,4259850,4028193,4325386,396809,0.0644378,0.04498692,0.1037654,0.08507159,nan,nan,nan,nan,nan,1.0,1.0,0.0,1.0,nan,nan,nan,nan,nan,0.0,0.0,nan,nan,0.0,0.0,nan,nan,2,4,1,1,1,1,0,0,0,0,0,0,0
306492225,253931924,4,4259850,4028193,4325386,396809,0.25839585,0.28180242,0.46051696,0.29140136,nan,nan,nan,nan,nan,0.79787886,1.0,0.0,1.0,nan,nan,nan,nan,nan,0.0,0.0,nan,nan,0.0,0.0,nan,nan,2,4,1,1,1,1,0,0,0,0,0,0,0
307502007,253931924,4,4259850,4028193,4325386,396809,0.14564636,0.13530684,0.15047929,0.15020867,nan,nan,nan,nan,nan,1.0,1.0,0.0,1.0,nan,nan,nan,nan,nan,0.0,0.0,nan,nan,0.0,0.0,nan,nan,2,4,1,1,1,1,0,0,0,0,0,0,0
308502055,253931924,4,4259850,4028193,4325386,396809,0.25181147,0.26106352,0.17951146,0.18780012,nan,nan,nan,nan,nan,1.0,1.0,0.0,1.0,nan,nan,nan,nan,nan,0.0,0.0,nan,nan,0.0,0.0,nan,nan,2,4,1,1,1,1,0,0,0,0,0,0,0
309502197,253931924,4,4259850,4028193,4325386,396809,0.10496404,0.09701812,0.105790906,0.09835288,nan,nan,nan,nan,nan,1.0,1.0,0.0,1.0,nan,nan,nan,nan,nan,0.0,0.0,nan,nan,0.0,0.0,nan,nan,2,4,1,1,1,1,0,0,0,0,0,0,0
310502234,253931924,4,4259850,4028193,4325386,396809,0.09432722,0.115042254,0.15474422,0.15948422,nan,nan,nan,nan,nan,1.0,1.0,0.0,1.0,nan,nan,nan,nan,nan,0.0,0.0,nan,nan,0.0,0.0,nan,nan,2,4,1,1,1,1,0,0,0,0,0,0,0
311502550,253931924,4,4259850,4028193,4325386,396809,0.066868976,0.09189833,0.11834097,0.1106214,nan,nan,nan,nan,nan,1.0,1.0,0.0,1.0,nan,nan,nan,nan,nan,0.0,0.0,nan,nan,0.0,0.0,nan,nan,2,4,1,1,1,1,0,0,0,0,0,0,0
312512441,253931924,4,4259850,4028193,4325386,396809,0.0373461,0.054331712,0.06719507,0.031184245,nan,nan,nan,nan,nan,1.0,1.0,0.0,1.0,nan,nan,nan,nan,nan,0.0,0.0,nan,nan,0.0,0.0,nan,nan,2,4,1,1,1,1,0,0,0,0,0,0,0
313512506,253931924,4,4259850,4028193,4325386,396809,0.10844714,0.09109132,0.07401893,0.09088719,nan,nan,nan,nan,nan,1.0,1.0,0.0,1.0,nan,nan,nan,nan,nan,0.0,0.0,nan,nan,0.0,0.0,nan,nan,2,4,1,1,1,1,0,0,0,0,0,0,0
314512646,253931924,4,4259850,4028193,4325386,396809,0.080253676,0.06975502,0.07825787,0.088858,nan,nan,nan,nan,nan,1.0,1.0,0.0,1.0,nan,nan,nan,nan,nan,0.0,0.0,nan,nan,0.0,0.0,nan,nan,2,4,1,1,1,1,0,0,0,0,0,0,0
315512785,253931924,4,4259850,4028193,4325386,396809,0.06863581,0.06588447,0.07424827,0.09420973,nan,nan,nan,nan,nan,1.0,1.0,0.0,1.0,nan,nan,nan,nan,nan,0.0,0.0,nan,nan,0.0,0.0,nan,nan,2,4,1,1,1,1,0,0,0,0,0,0,0
316512795,253931924,4,4259850,4028193,4325386,396809,0.11117515,0.09038174,0.10003689,0.089671254,nan,nan,nan,nan,nan,1.0,1.0,0.0,1.0,nan,nan,nan,nan,nan,0.0,0.0,nan,nan,0.0,0.0,nan,nan,2,4,1,1,1,1,0,0,0,0,0,0,0
317512856,253931924,4,4259850,4028193,4325386,396809,0.09329026,0.07720314,0.08356291,0.088449314,nan,nan,nan,nan,nan,1.0,1.0,0.0,1.0,nan,nan,nan,nan,nan,0.0,0.0,nan,nan,0.0,0.0,nan,nan,2,4,1,1,1,1,0,0,0,0,0,0,0
318512914,253931924,4,4259850,4028193,4325386,396809,0.12969697,0.12289417,0.13485906,0.14957228,nan,nan,nan,nan,nan,1.0,1.0,0.0,1.0,nan,nan,nan,nan,nan,0.0,0.0,nan,nan,0.0,0.0,nan,nan,2,4,1,1,1,1,0,0,0,0,0,0,0
319512985,253931924,4,4259850,4028193,4325386,396809,0.065335885,0.07074766,0.087536015,0.08639598,nan,nan,nan,nan,nan,1.0,1.0,0.0,1.0,nan,nan,nan,nan,nan,0.0,0.0,nan,nan,0.0,0.0,nan,nan,2,4,1,1,1,1,0,0,0,0,0,0,0
320513034,253931924,4,4259850,4028193,4325386,396809,0.2698302,0.29253265,0.23619291,0.2654547,nan,nan,nan,nan,nan,1.0,1.0,0.0,1.0,nan,nan,nan,nan,nan,0.0,0.0,nan,nan,0.0,0.0,nan,nan,2,4,1,1,1,1,0,0,0,0,0,0,0
321513356,253931924,4,4259850,4028193,4325386,396809,0.11170595,0.110486485,0.11968683,0.12635793,nan,nan,nan,nan,nan,1.0,1.0,0.0,1.0,nan,nan,nan,nan,nan,0.0,0.0,nan,nan,0.0,0.0,nan,nan,2,4,1,1,1,1,0,0,0,0,0,0,0
322523228,253931924,4,4259850,4028193,4325386,396809,0.2464142,0.24755289,0.24472599,0.24620403,nan,nan,nan,nan,nan,1.0,1.0,0.0,1.0,nan,nan,nan,nan,nan,0.0,0.0,nan,nan,0.0,0.0,nan,nan,2,4,1,1,1,1,0,0,0,0,0,0,0
323473349,253931924,4,4259850,4028193,4325386,396809,0.11502081,0.114621975,0.3240099,0.113084875,nan,nan,nan,nan,nan,0.7910109,0.7906121,0.0,0.789075,nan,nan,nan,nan,nan,0.0,0.0,nan,nan,0.0,0.0,nan,nan,2,4,1,1,1,1,0,0,0,0,0,0,0
323583300,253931924,4,4259850,4028193,4325386,396809,0.060031723,0.3998732,0.39809144,0.39833075,nan,nan,nan,nan,nan,0.46413034,0.8430584,0.0,0.864246,nan,nan,nan,nan,nan,0.0,0.0,nan,nan,0.0,0.0,nan,nan,2,4,1,1,1,1,0,0,0,0,0,0,0
324233356,253931924,4,4259850,4028193,4325386,396809,0.06925365,0.3493593,0.3491892,0.34773725,nan,nan,nan,nan,nan,0.65589094,1.0,0.0,1.0,nan,nan,nan,nan,nan,0.0,0.0,nan,nan,0.0,0.0,nan,nan,2,4,1,1,1,1,0,0,0,0,0,0,0
325233396,253931924,4,4259850,4028193,4325386,396809,0.17289422,0.16969061,0.17112152,0.16810042,nan,nan,nan,nan,nan,1.0,1.0,0.0,1.0,nan,nan,nan,nan,nan,0.0,0.0,nan,nan,0.0,0.0,nan,nan,2,4,1,1,1,1,0,0,0,0,0,0,0
326233502,253931924,4,4259850,4028193,4325386,396809,0.22631408,0.22982018,0.22790523,0.2312958,nan,nan,nan,nan,nan,1.0,1.0,0.0,1.0,nan,nan,nan,nan,nan,0.0,0.0,nan,nan,0.0,0.0,nan,nan,2,4,1,1,1,1,0,0,0,0,0,0,0
326833596,253931924,4,4259850,4028193,4325386,396809,0.10102586,0.33285278,0.33552152,0.3314144,nan,nan,nan,nan,nan,0.76550436,1.0,0.0,1.0,nan,nan,nan,nan,nan,0.0,0.0,nan,nan,0.0,0.0,nan,nan,2,4,1,1,1,1,0,0,0,0,0,0,0
327833614,253931924,4,4259850,4028193,4325386,396809,0.21381167,0.20970505,0.21268865,0.20833129,nan,nan,nan,nan,nan,1.0,1.0,0.0,1.0,nan,nan,nan,nan,nan,0.0,0.0,nan,nan,0.0,0.0,nan,nan,2,4,1,1,1,1,0,0,0,0,0,0,0
328033652,253931924,4,4259850,4028193,4325386,396809,0.045280937,0.041875124,0.28067484,0.042761177,nan,nan,nan,nan,nan,0.7646061,0.7612003,0.0,0.76208633,nan,nan,nan,nan,nan,0.0,0.0,nan,nan,0.0,0.0,nan,nan,2,4,1,1,1,1,0,0,0,0,0,0,0
329033739,253931924,4,4259850,4028193,4325386,396809,0.036500566,0.05170089,0.031359546,0.052952494,nan,nan,nan,nan,nan,1.0,1.0,0.0,1.0,nan,nan,nan,nan,nan,0.0,0.0,nan,nan,0.0,0.0,nan,nan,2,4,1,1,1,1,0,0,0,0,0,0,0
329123762,253931924,4,4259850,4028193,4325386,396809,0.09413396,0.2965683,0.3002555,0.29535586,nan,nan,nan,nan,nan,0.79387844,1.0,0.0,1.0,nan,nan,nan,nan,nan,0.0,0.0,nan,nan,0.0,0.0,nan,nan,2,4,1,1,1,1,0,0,0,0,0,0,0
330123826,253931924,4,4259850,4028193,4325386,396809,0.17739356,0.18182035,0.17786223,0.18296176,nan,nan,nan,nan,nan,1.0,1.0,0.0,1.0,nan,nan,nan,nan,nan,0.0,0.0,nan,nan,0.0,0.0,nan,nan,2,4,1,1,1,1,0,0,0,0,0,0,0
331123887,253931924,4,4259850,4028193,4325386,396809,0.25109026,0.24692662,0.25057405,0.24588178,nan,nan,nan,nan,nan,1.0,1.0,0.0,1.0,nan,nan,nan,nan,nan,0.0,0.0,nan,nan,0.0,0.0,nan,nan,2,4,1,1,1,1,0,0,0,0,0,0,0
332123950,253931924,4,4259850,4028193,4325386,396809,0.05215933,0.056341294,0.052906822,0.057279233,nan,nan,nan,nan,nan,1.0,1.0,0.0,1.0,nan,nan,nan,nan,nan,0.0,0.0,nan,nan,0.0,0.0,nan,nan,2,4,1,1,1,1,0,0,0,0,0,0,0
333124025,253931924,4,4259850,4028193,4325386,396809,0.063648626,0.055367384,0.04740876,0.04468119,nan,nan,nan,nan,nan,1.0,1.0,0.0,1.0,nan,nan,nan,nan,nan,0.0,0.0,nan,nan,0.0,0.0,nan,nan,2,4,1,1,1,1,0,0,0,0,0,0,0
334124100,253931924,4,4259850,4028193,4325386,396809,0.064165875,0.06107253,0.054538216,0.057493713,nan,nan,nan,nan,nan,1.0,1.0,0.0,1.0,nan,nan,nan,nan,nan,0.0,0.0,nan,nan,0.0,0.0,nan,nan,2,4,1,1,1,1,0,0,0,0,0,0,0
334534182,253931924,4,4259850,4028193,4325386,396809,0.043908983,0.04559493,0.25234583,0.042835485,nan,nan,nan,nan,nan,0.79156315,0.79324913,0.0,0.7904897,nan,nan,nan,nan,nan,0.0,0.0,nan,nan,0.0,0.0,nan,nan,2,4,1,1,1,1,0,0,0,0,0,0,0
334644197,253931924,4,4259850,4028193,4325386,396809,0.043908983,0.2880594,0.29100648,0.28743124,nan,nan,nan,nan,nan,0.5828892,1.0,0.0,1.0,nan,nan,nan,nan,nan,0.0,0.0,nan,nan,0.0,0.0,nan,nan,2,4,1,1,1,1,0,0,0,0,0,0,0
335294204,253931924,4,4259850,4028193,4325386,396809,0.06107112,0.08048889,0.29685554,0.06315968,nan,nan,nan,nan,nan,0.7642156,0.78363335,0.0,0.76630414,nan,nan,nan,nan,nan,0.0,0.0,nan,nan,0.0,0.0,nan,nan,2,4,1,1,1,1,0,0,0,0,0,0,0
336294281,253931924,4,4259850,4028193,4325386,396809,0.11128337,0.11444517,0.111859195,0.11499294,nan,nan,nan,nan,nan,1.0,1.0,0.0,1.0,nan,nan,nan,nan,nan,0.0,0.0,nan,nan,0.0,0.0,nan,nan,2,4,1,1,1,1,0,0,0,0,0,0,0
337294364,253931924,4,4259850,4028193,4325386,396809,0.09436949,0.07854429,0.10782272,0.097021505,nan,nan,nan,nan,nan,1.0,1.0,0.0,1.0,nan,nan,nan,nan,nan,0.0,0.0,nan,nan,0.0,0.0,nan,nan,2,4,1,1,1,1,0,0,0,0,0,0,0
338294425,253931924,4,4259850,4028193,4325386,396809,0.12765458,0.12396397,0.14031133,0.12313737,nan,nan,nan,nan,nan,1.0,1.0,0.0,1.0,nan,nan,nan,nan,nan,0.0,0.0,nan,nan,0.0,0.0,nan,nan,2,4,1,1,1,1,0,0,0,0,0,0,0
339294516,253931924,4,4259850,4028193,4325386,396809,0.08627175,0.090388894,0.14563474,0.13576937,nan,nan,nan,nan,nan,1.0,1.0,0.0,1.0,nan,nan,nan,nan,nan,0.0,0.0,nan,nan,0.0,0.0,nan,nan,2,4,1,1,1,1,0,0,0,0,0,0,0
340294593,253931924,4,4259850,4028193,4325386,396809,0.088610366,0.085328326,0.18093733,0.17688955,nan,nan,nan,nan,nan,1.0,1.0,0.0,1.0,nan,nan,nan,nan,nan,0.0,0.0,nan,nan,0.0,0.0,nan,nan,2,4,1,1,1,1,0,0,0,0,0,0,0
341294655,253931924,4,4259850,4028193,4325386,396809,0.1860322,0.18002899,0.18751232,0.18294315,nan,nan,nan,nan,nan,1.0,1.0,0.0,1.0,nan,nan,nan,nan,nan,0.0,0.0,nan,nan,0.0,0.0,nan,nan,2,4,1,1,1,1,0,0,0,0,0,0,0
342294752,253931924,4,4259850,4028193,4325386,396809,0.087163955,0.099295735,0.08391584,0.087018065,nan,nan,nan,nan,nan,1.0,1.0,0.0,1.0,nan,nan,nan,nan,nan,0.0,0.0,nan,nan,0.0,0.0,nan,nan,2,4,1,1,1,1,0,0,0,0,0,0,0
343294799,253931924,4,4259850,4028193,4325386,396809,0.06512667,0.07401769,0.083092585,0.07085234,nan,nan,nan,nan,nan,1.0,1.0,0.0,1.0,nan,nan,nan,nan,nan,0.0,0.0,nan,nan,0.0,0.0,nan,nan,2,4,1,1,1,1,0,0,0,0,0,0,0
344295023,253931924,4,4259850,4028193,4325386,396809,0.10857745,0.11047688,0.10332158,0.10575616,nan,nan,nan,nan,nan,1.0,1.0,0.0,1.0,nan,nan,nan,nan,nan,0.0,0.0,nan,nan,0.0,0.0,nan,nan,2,4,1,1,1,1,0,0,0,0,0,0,0
345295051,253931924,4,4259850,4028193,4325386,396809,0.12362603,0.12137731,0.12739325,0.12602034,nan,nan,nan,nan,nan,1.0,1.0,0.0,1.0,nan,nan,nan,nan,nan,0.0,0.0,nan,nan,0.0,0.0,nan,nan,2,4,1,1,1,1,0,0,0,0,0,0,0
346295141,253931924,4,4259850,4028193,4325386,396809,0.10412504,0.10963152,0.09410499,0.111770615,nan,nan,nan,nan,nan,1.0,1.0,0.0,1.0,nan,nan,nan,nan,nan,0.0,0.0,nan,nan,0.0,0.0,nan,nan,2,4,1,1,1,1,0,0,0,0,0,0,0
347305085,253931924,4,4259850,4028193,4325386,396809,0.09362753,0.100067854,0.09027773,0.09646377,nan,nan,nan,nan,nan,1.0,1.0,0.0,1.0,nan,nan,nan,nan,nan,0.0,0.0,nan,nan,0.0,0.0,nan,nan,2,4,1,1,1,1,0,0,0,0,0,0,0
348305201,253931924,4,4259850,4028193,4325386,396809,0.14341244,0.115563124,0.1192147,0.118487164,nan,nan,nan,nan,nan,1.0,1.0,0.0,1.0,nan,nan,nan,nan,nan,0.0,0.0,nan,nan,0.0,0.0,nan,nan,2,4,1,1,1,1,0,0,0,0,0,0,0
349305243,253931924,4,4259850,4028193,4325386,396809,0.13131216,0.1212703,0.11755742,0.1270028,nan,nan,nan,nan,nan,1.0,1.0,0.0,1.0,nan,nan,nan,nan,nan,0.0,0.0,nan,nan,0.0,0.0,nan,nan,2,4,1,1,1,1,0,0,0,0,0,0,0
350305339,253931924,4,4259850,4028193,4325386,396809,0.13884446,0.13333294,0.13007136,0.14676088,nan,nan,nan,nan,nan,1.0,1.0,0.0,1.0,nan,nan,nan,nan,nan,0.0,0.0,nan,nan,0.0,0.0,nan,nan,2,4,1,1,1,1,0,0,0,0,0,0,0
351305399,253931924,4,4259850,4028193,4325386,396809,0.108981565,0.11021259,0.1266603,0.12805438,nan,nan,nan,nan,nan,1.0,1.0,0.0,1.0,nan,nan,nan,nan,nan,0.0,0.0,nan,nan,0.0,0.0,nan,nan,2,4,1,1,1,1,0,0,0,0,0,0,0
352305494,253931924,4,4259850,4028193,4325386,396809,0.07541023,0.07959482,0.08365346,0.095535874,nan,nan,nan,nan,nan,1.0,1.0,0.0,1.0,nan,nan,nan,nan,nan,0.0,0.0,nan,nan,0.0,0.0,nan,nan,2,4,1,1,1,1,0,0,0,0,0,0,0
353305561,253931924,4,4259850,4028193,4325386,396809,0.13635714,0.13712816,0.13495877,0.13634063,nan,nan,nan,nan,nan,1.0,1.0,0.0,1.0,nan,nan,nan,nan,nan,0.0,0.0,nan,nan,0.0,0.0,nan,nan,2,4,1,1,1,1,0,0,0,0,0,0,0
354305752,253931924,4,4259850,4028193,4325386,396809,0.1717673,0.17134821,0.17298111,0.171935,nan,nan,nan,nan,nan,1.0,1.0,0.0,1.0,nan,nan,nan,nan,nan,0.0,0.0,nan,nan,0.0,0.0,nan,nan,2,4,1,1,1,1,0,0,0,0,0,0,0
355315720,253931924,4,4259850,4028193,4325386,396809,0.07887722,0.071952924,0.07078723,0.068331495,nan,nan,nan,nan,nan,1.0,1.0,0.0,1.0,nan,nan,nan,nan,nan,0.0,0.0,nan,nan,0.0,0.0,nan,nan,2,4,1,1,1,1,0,0,0,0,0,0,0
355355717,253931924,4,4259850,4028193,4325386,396809,0.3193517,0.071952924,0.318242,0.068331495,nan,nan,nan,nan,nan,1.0,0.7537109,0.0,0.75008947,nan,nan,nan,nan,nan,0.0,0.0,nan,nan,0.0,0.0,nan,nan,2,4,1,1,1,1,0,0,0,0,0,0,0
356355771,253931924,4,4259850,4028193,4325386,396809,0.05532754,0.06850834,0.05876083,0.06734774,nan,nan,nan,nan,nan,1.0,1.0,0.0,1.0,nan,nan,nan,nan,nan,0.0,0.0,nan,nan,0.0,0.0,nan,nan,2,4,1,1,1,1,0,0,0,0,0,0,0
357355839,253931924,4,4259850,4028193,4325386,396809,0.088035464,0.10365099,0.09032842,0.10212448,nan,nan,nan,nan,nan,1.0,1.0,0.0,1.0,nan,nan,nan,nan,nan,0.0,0.0,nan,nan,0.0,0.0,nan,nan,2,4,1,1,1,1,0,0,0,0,0,0,0
358355960,253931924,4,4259850,4028193,4325386,396809,0.13311748,0.13177353,0.13158038,0.13134743,nan,nan,nan,nan,nan,1.0,1.0,0.0,1.0,nan,nan,nan,nan,nan,0.0,0.0,nan,nan,0.0,0.0,nan,nan,2,4,1,1,1,1,0,0,0,0,0,0,0
359356063,253931924,4,4259850,4028193,4325386,396809,0.13428421,0.13688359,0.16320728,0.1299609,nan,nan,nan,nan,nan,1.0,1.0,0.0,1.0,nan,nan,nan,nan,nan,0.0,0.0,nan,nan,0.0,0.0,nan,nan,2,4,1,1,1,1,0,0,0,0,0,0,0
360356230,253931924,4,4259850,4028193,4325386,396809,0.19575003,0.1937847,0.19520165,0.19435498,nan,nan,nan,nan,nan,1.0,1.0,0.0,1.0,nan,nan,nan,nan,nan,0.0,0.0,nan,nan,0.0,0.0,nan,nan,2,4,1,1,1,1,0,0,0,0,0,0,0
361366125,253931924,4,4259850,4028193,4325386,396809,0.08127923,0.06873391,0.06961261,0.07137185,nan,nan,nan,nan,nan,1.0,1.0,0.0,1.0,nan,nan,nan,nan,nan,0.0,0.0,nan,nan,0.0,0.0,nan,nan,2,4,1,1,1,1,0,0,0,0,0,0,0
362366206,253931924,4,4259850,4028193,4325386,396809,0.11018926,0.110723674,0.097232014,0.11118477,nan,nan,nan,nan,nan,1.0,1.0,0.0,1.0,nan,nan,nan,nan,nan,0.0,0.0,nan,nan,0.0,0.0,nan,nan,2,4,1,1,1,1,0,0,0,0,0,0,0
363366269,253931924,4,4259850,4028193,4325386,396809,0.058766928,0.05602861,0.058542226,0.05700469,nan,nan,nan,nan,nan,1.0,1.0,0.0,1.0,nan,nan,nan,nan,nan,0.0,0.0,nan,nan,0.0,0.0,nan,nan,2,4,1,1,1,1,0,0,0,0,0,0,0
363386311,253931924,4,4259850,4028193,4325386,396809,0.2601458,0.05602861,0.2600006,0.05700469,nan,nan,nan,nan,nan,1.0,0.796028,0.0,0.7970041,nan,nan,nan,nan,nan,0.0,0.0,nan,nan,0.0,0.0,nan,nan,2,4,1,1,1,1,0,0,0,0,0,0,0
364386478,253931924,4,4259850,4028193,4325386,396809,0.21131107,0.21430264,0.21145903,0.21341918,nan,nan,nan,nan,nan,1.0,1.0,0.0,1.0,nan,nan,nan,nan,nan,0.0,0.0,nan,nan,0.0,0.0,nan,nan,2,4,1,1,1,1,0,0,0,0,0,0,0
364786397,253931924,4,4259850,4028193,4325386,396809,0.04118929,0.0397235,0.25123525,0.037865616,nan,nan,nan,nan,nan,0.78995407,0.78848827,0.0,0.7866304,nan,nan,nan,nan,nan,0.0,0.0,nan,nan,0.0,0.0,nan,nan,2,4,1,1,1,1,0,0,0,0,0,0,0
364896420,253931924,4,4259850,4028193,4325386,396809,0.056209445,0.056860738,0.25506958,0.054977745,nan,nan,nan,nan,nan,0.7916653,0.78848827,0.0,0.58653855,nan,nan,nan,nan,nan,0.0,0.0,nan,nan,0.0,0.0,nan,nan,2,4,1,1,1,1,0,0,0,0,0,0,0
365896459,253931924,4,4259850,4028193,4325386,396809,0.08504212,0.07065914,0.07558641,0.073548995,nan,nan,nan,nan,nan,1.0,1.0,0.0,1.0,nan,nan,nan,nan,nan,0.0,0.0,nan,nan,0.0,0.0,nan,nan,2,4,1,1,1,1,0,0,0,0,0,0,0
366896569,253931924,4,4259850,4028193,4325386,396809,0.054666437,0.045825318,0.042615503,0.044932406,nan,nan,nan,nan,nan,1.0,1.0,0.0,1.0,nan,nan,nan,nan,nan,0.0,0.0,nan,nan,0.0,0.0,nan,nan,2,4,1,1,1,1,0,0,0,0,0,0,0
367896768,253931924,4,4259850,4028193,4325386,396809,0.100728914,0.09760522,0.10107051,0.09855234,nan,nan,nan,nan,nan,1.0,1.0,0.0,1.0,nan,nan,nan,nan,nan,0.0,0.0,nan,nan,0.0,0.0,nan,nan,2,4,1,1,1,1,0,0,0,0,0,0,0
368906736,253931924,4,4259850,4028193,4325386,396809,0.07299529,0.06397706,0.06167762,0.06509538,nan,nan,nan,nan,nan,1.0,1.0,0.0,1.0,nan,nan,nan,nan,nan,0.0,0.0,nan,nan,0.0,0.0,nan,nan,2,4,1,1,1,1,0,0,0,0,0,0,0
369906772,253931924,4,4259850,4028193,4325386,396809,0.089481294,0.0884279,0.098512925,0.09465349,nan,nan,nan,nan,nan,1.0,1.0,0.0,1.0,nan,nan,nan,nan,nan,0.0,0.0,nan,nan,0.0,0.0,nan,nan,2,4,1,1,1,1,0,0,0,0,0,0,0
370906804,253931924,4,4259850,4028193,4325386,396809,0.2613249,0.25909626,0.26277298,0.2608807,nan,nan,nan,nan,nan,1.0,1.0,0.0,1.0,nan,nan,nan,nan,nan,0.0,0.0,nan,nan,0.0,0.0,nan,nan,2,4,1,1,1,1,0,0,0,0,0,0,0
371326954,253931924,4,4259850,4028193,4325386,396809,0.083074346,0.0814734,0.27526248,0.0748633,nan,nan,nan,nan,nan,1.0,1.0,0.0,0.79960084,nan,nan,nan,nan,nan,0.0,0.0,nan,nan,0.0,0.0,nan,nan,2,4,1,1,1,1,0,0,0,0,0,0,0
371546948,253931924,4,4259850,4028193,4325386,396809,0.27679282,0.067685835,0.27830353,0.06330073,nan,nan,nan,nan,nan,1.0,0.78938234,0.0,0.76072085,nan,nan,nan,nan,nan,0.0,0.0,nan,nan,0.0,0.0,nan,nan,2,4,1,1,1,1,0,0,0,0,0,0,0
372557031,253931924,4,4259850,4028193,4325386,396809,0.058994427,0.056967016,0.060702,0.06600823,nan,nan,nan,nan,nan,1.0,1.0,0.0,1.0,nan,nan,nan,nan,nan,0.0,0.0,nan,nan,0.0,0.0,nan,nan,2,4,1,1,1,1,0,0,0,0,0,0,0
373147038,253931924,4,4259850,4028193,4325386,396809,0.2585647,0.04813829,0.2605969,0.04428321,nan,nan,nan,nan,nan,1.0,0.7875414,0.0,0.7836863,nan,nan,nan,nan,nan,0.0,0.0,nan,nan,0.0,0.0,nan,nan,2,4,1,1,1,1,0,0,0,0,0,0,0
374147077,253931924,4,4259850,4028193,4325386,396809,0.13831957,0.1368139,0.14060284,0.13940474,nan,nan,nan,nan,nan,1.0,1.0,0.0,1.0,nan,nan,nan,nan,nan,0.0,0.0,nan,nan,0.0,0.0,nan,nan,2,4,1,1,1,1,0,0,0,0,0,0,0
375147367,253931924,4,4259850,4028193,4325386,396809,0.21493109,0.21597303,0.21267132,0.21333182,nan,nan,nan,nan,nan,1.0,1.0,0.0,1.0,nan,nan,nan,nan,nan,0.0,0.0,nan,nan,0.0,0.0,nan,nan,2,4,1,1,1,1,0,0,0,0,0,0,0
376157201,253931924,4,4259850,4028193,4325386,396809,0.07672741,0.076799974,0.04143548,0.04817699,nan,nan,nan,nan,nan,1.0,1.0,0.0,1.0,nan,nan,nan,nan,nan,0.0,0.0,nan,nan,0.0,0.0,nan,nan,2,4,1,1,1,1,0,0,0,0,0,0,0
376307250,253931924,4,4259850,4028193,4325386,396809,0.27532345,0.07358439,0.27319127,0.05314713,nan,nan,nan,nan,nan,1.0,1.0,0.0,0.77995586,nan,nan,nan,nan,nan,0.0,0.0,nan,nan,0.0,0.0,nan,nan,2,4,1,1,1,1,0,0,0,0,0,0,0
377307446,253931924,4,4259850,4028193,4325386,396809,0.25737184,0.25743997,0.25479743,0.25493234,nan,nan,nan,nan,nan,1.0,1.0,0.0,1.0,nan,nan,nan,nan,nan,0.0,0.0,nan,nan,0.0,0.0,nan,nan,2,4,1,1,1,1,0,0,0,0,0,0,0
378317333,253931924,4,4259850,4028193,4325386,396809,0.07388968,0.07404953,0.07636255,0.076529294,nan,nan,nan,nan,nan,1.0,1.0,0.0,1.0,nan,nan,nan,nan,nan,0.0,0.0,nan,nan,0.0,0.0,nan,nan,2,4,1,1,1,1,0,0,0,0,0,0,0
379317372,253931924,4,4259850,4028193,4325386,396809,0.0651343,0.061686438,0.046764325,0.04730845,nan,nan,nan,nan,nan,1.0,1.0,0.0,1.0,nan,nan,nan,nan,nan,0.0,0.0,nan,nan,0.0,0.0,nan,nan,2,4,1,1,1,1,0,0,0,0,0,0,0
379977494,253931924,4,4259850,4028193,4325386,396809,0.06464485,0.05023856,0.26004055,0.03319355,nan,nan,nan,nan,nan,1.0,0.790198,0.0,0.773153,nan,nan,nan,nan,nan,0.0,0.0,nan,nan,0.0,0.0,nan,nan,2,4,1,1,1,1,0,0,0,0,0,0,0
380977529,253931924,4,4259850,4028193,4325386,396809,0.07721611,0.075504854,0.070435666,0.07059476,nan,nan,nan,nan,nan,1.0,1.0,0.0,1.0,nan,nan,nan,nan,nan,0.0,0.0,nan,nan,0.0,0.0,nan,nan,2,4,1,1,1,1,0,0,0,0,0,0,0
381977605,253931924,4,4259850,4028193,4325386,396809,0.097677894,0.098473646,0.09944699,0.10038831,nan,nan,nan,nan,nan,1.0,1.0,0.0,1.0,nan,nan,nan,nan,nan,0.0,0.0,nan,nan,0.0,0.0,nan,nan,2,4,1,1,1,1,0,0,0,0,0,0,0
382977674,253931924,4,4259850,4028193,4325386,396809,0.09043765,0.09044005,0.09535427,0.08824384,nan,nan,nan,nan,nan,1.0,1.0,0.0,1.0,nan,nan,nan,nan,nan,0.0,0.0,nan,nan,0.0,0.0,nan,nan,2,4,1,1,1,1,0,0,0,0,0,0,0
383977822,253931924,4,4259850,4028193,4325386,396809,0.4354544,0.43718943,0.11288926,0.110387295,nan,nan,nan,nan,nan,1.0,1.0,0.0,1.0,nan,nan,nan,nan,nan,0.0,0.0,nan,nan,0.0,0.0,nan,nan,2,4,1,1,1,1,0,0,0,0,0,0,0
384977866,253931924,4,4259850,4028193,4325386,396809,0.7462235,0.8267522,0.2964727,0.2830276,nan,nan,nan,nan,nan,1.0,1.0,0.0,1.0,nan,nan,nan,nan,nan,0.0,0.0,nan,nan,0.0,0.0,nan,nan,2,4,1,1,1,1,0,0,0,0,0,0,0
385978080,253931924,4,4259850,4028193,4325386,396809,1.5437775,1.6931161,0.16275536,0.11699,nan,nan,nan,nan,nan,1.0,1.0,0.0,1.0,nan,nan,nan,nan,nan,0.0,0.0,nan,nan,0.0,0.0,nan,nan,2,4,1,1,1,1,0,0,0,0,0,0,0
386988011,253931924,4,4259850,4028193,4325386,396809,3.7975807,4.4392147,0.10768161,0.107673846,nan,nan,nan,nan,nan,1.0,1.0,0.0,1.0,nan,nan,nan,nan,nan,0.0,0.0,nan,nan,0.0,0.0,nan,nan,2,4,1,1,1,1,0,0,0,0,0,0,0
387988028,253931924,4,4259850,4028193,4325386,396809,4.622938,5.56392,0.32042277,0.34705007,nan,nan,nan,nan,nan,1.0,1.0,0.0,1.0,nan,nan,nan,nan,nan,0.0,0.0,nan,nan,0.0,0.0,nan,nan,2,4,1,1,1,1,0,0,0,0,0,0,0
388988119,253931924,4,4259850,4028193,4325386,396809,4.5457726,5.428729,0.12419684,0.09250219,nan,nan,nan,nan,nan,1.0,1.0,0.0,1.0,nan,nan,nan,nan,nan,0.0,0.0,nan,nan,0.0,0.0,nan,nan,2,4,1,1,1,1,0,0,0,0,0,0,0
389988173,253931924,4,4259850,4028193,4325386,396809,4.7884297,5.9966335,0.24742049,0.27877748,nan,nan,nan,nan,nan,1.0,1.0,0.0,1.0,nan,nan,nan,nan,nan,0.0,0.0,nan,nan,0.0,0.0,nan,nan,2,4,1,1,1,1,0,0,0,0,0,0,0
390988270,253931924,4,4259850,4028193,4325386,396809,5.138486,6.524913,0.07566763,0.055502884,nan,nan,nan,nan,nan,1.0,1.0,0.0,1.0,nan,nan,nan,nan,nan,0.0,0.0,nan,nan,0.0,0.0,nan,nan,2,4,1,1,1,1,0,0,0,0,0,0,0
391988279,253931924,4,4259850,4028193,4325386,396809,5.14143,6.5355215,0.059600897,0.08202524,nan,nan,nan,nan,nan,1.0,1.0,0.0,1.0,nan,nan,nan,nan,nan,0.0,0.0,nan,nan,0.0,0.0,nan,nan,2,4,1,1,1,1,0,0,0,0,0,0,0
392988388,253931924,4,4259850,4028193,4325386,396809,5.313829,0.082733706,0.06287698,0.04446676,nan,nan,nan,nan,nan,1.0,1.0,0.0,1.0,nan,nan,nan,nan,nan,0.0,0.0,nan,nan,0.0,0.0,nan,nan,2,4,1,1,1,1,0,0,0,0,0,0,0
393988408,253931924,4,4259850,4028193,4325386,396809,0.081367135,0.096511066,0.07167743,0.092303894,nan,nan,nan,nan,nan,1.0,1.0,0.0,1.0,nan,nan,nan,nan,nan,0.0,0.0,nan,nan,0.0,0.0,nan,nan,2,4,1,1,1,1,0,0,0,0,0,0,0
394988503,253931924,4,4259850,4028193,4325386,396809,0.081290014,0.07677608,0.08044128,0.10319127,nan,nan,nan,nan,nan,1.0,1.0,0.0,1.0,nan,nan,nan,nan,nan,0.0,0.0,nan,nan,0.0,0.0,nan,nan,2,4,1,1,1,1,0,0,0,0,0,0,0
395988689,253931924,4,4259850,4028193,4325386,396809,0.05113622,0.05312361,0.052863266,0.07226352,nan,nan,nan,nan,nan,1.0,1.0,0.0,1.0,nan,nan,nan,nan,nan,0.0,0.0,nan,nan,0.0,0.0,nan,nan,2,4,1,1,1,1,0,0,0,0,0,0,0
396998691,253931924,4,4259850,4028193,4325386,396809,0.05172196,0.06233553,0.077602446,0.06149517,nan,nan,nan,nan,nan,1.0,1.0,0.0,1.0,nan,nan,nan,nan,nan,0.0,0.0,nan,nan,0.0,0.0,nan,nan,2,4,1,1,1,1,0,0,0,0,0,0,0
397998758,253931924,4,4259850,4028193,4325386,396809,0.08305168,0.094772615,0.11072804,0.10712122,nan,nan,nan,nan,nan,1.0,1.0,0.0,1.0,nan,nan,nan,nan,nan,0.0,0.0,nan,nan,0.0,0.0,nan,nan,2,4,1,1,1,1,0,0,0,0,0,0,0
398998871,253931924,4,4259850,4028193,4325386,396809,0.07172101,0.058452047,0.088490516,0.08269372,nan,nan,nan,nan,nan,1.0,1.0,0.0,1.0,nan,nan,nan,nan,nan,0.0,0.0,nan,nan,0.0,0.0,nan,nan,2,4,1,1,1,1,0,0,0,0,0,0,0
400008840,253931924,4,4259850,4028193,4325386,396809,0.048731703,0.054950025,0.07921011,0.07687785,nan,nan,nan,nan,nan,1.0,1.0,0.0,1.0,nan,nan,nan,nan,nan,0.0,0.0,nan,nan,0.0,0.0,nan,nan,2,4,1,1,1,1,0,0,0,0,0,0,0
401008868,253931924,4,4259850,4028193,4325386,396809,0.0720145,0.08456917,0.06284752,0.06534873,nan,nan,nan,nan,nan,1.0,1.0,0.0,1.0,nan,nan,nan,nan,nan,0.0,0.0,nan,nan,0.0,0.0,nan,nan,2,4,1,1,1,1,0,0,0,0,0,0,0
402008944,253931924,4,4259850,4028193,4325386,396809,0.043491267,0.055520486,0.044486716,0.04924395,nan,nan,nan,nan,nan,1.0,1.0,0.0,1.0,nan,nan,nan,nan,nan,0.0,0.0,nan,nan,0.0,0.0,nan,nan,2,4,1,1,1,1,0,0,0,0,0,0,0
403009066,253931924,4,4259850,4028193,4325386,396809,0.049617924,0.07980925,0.053261694,0.05140753,nan,nan,nan,nan,nan,1.0,1.0,0.0,1.0,nan,nan,nan,nan,nan,0.0,0.0,nan,nan,0.0,0.0,nan,nan,2,4,1,1,1,1,0,0,0,0,0,0,0
404009076,253931924,4,4259850,4028193,4325386,396809,0.04615224,0.06237519,0.025207236,0.026016632,nan,nan,nan,nan,nan,1.0,1.0,0.0,1.0,nan,nan,nan,nan,nan,0.0,0.0,nan,nan,0.0,0.0,nan,nan,2,4,1,1,1,1,0,0,0,0,0,0,0
405009140,253931924,4,4259850,4028193,4325386,396809,0.036411963,0.059877306,0.030065162,0.032520376,nan,nan,nan,nan,nan,1.0,1.0,0.0,1.0,nan,nan,nan,nan,nan,0.0,0.0,nan,nan,0.0,0.0,nan,nan,2,4,1,1,1,1,0,0,0,0,0,0,0
406009245,253931924,4,4259850,4028193,4325386,396809,0.03986863,0.048492543,0.03614772,0.03270942,nan,nan,nan,nan,nan,1.0,1.0,0.0,1.0,nan,nan,nan,nan,nan,0.0,0.0,nan,nan,0.0,0.0,nan,nan,2,4,1,1,1,1,0,0,0,0,0,0,0
407009303,253931924,4,4259850,4028193,4325386,396809,0.109556295,0.08987209,0.07908717,0.06789856,nan,nan,nan,nan,nan,1.0,1.0,0.0,1.0,nan,nan,nan,nan,nan,0.0,0.0,nan,nan,0.0,0.0,nan,nan,2,4,1,1,1,1,0,0,0,0,0,0,0
408009536,253931924,4,4259850,4028193,4325386,396809,0.138634,0.06829271,0.0522402,0.041240476,nan,nan,nan,nan,nan,1.0,1.0,0.0,1.0,nan,nan,nan,nan,nan,0.0,0.0,nan,nan,0.0,0.0,nan,nan,2,4,1,1,1,1,0,0,0,0,0,0,0
409019442,253931924,4,4259850,4028193,4325386,396809,0.105959356,0.049464986,0.039015528,0.03748571,nan,nan,nan,nan,nan,1.0,1.0,0.0,1.0,nan,nan,nan,nan,nan,0.0,0.0,nan,nan,0.0,0.0,nan,nan,2,4,1,1,1,1,0,0,0,0,0,0,0
410019492,253931924,4,4259850,4028193,4325386,396809,0.13602956,0.068330914,0.07978873,0.06476545,nan,nan,nan,nan,nan,1.0,1.0,0.0,1.0,nan,nan,nan,nan,nan,0.0,0.0,nan,nan,0.0,0.0,nan,nan,2,4,1,1,1,1,0,0,0,0,0,0,0
411019585,253931924,4,4259850,4028193,4325386,396809,0.20130464,0.101658165,0.06784022,0.061197568,nan,nan,nan,nan,nan,1.0,1.0,0.0,1.0,nan,nan,nan,nan,nan,0.0,0.0,nan,nan,0.0,0.0,nan,nan,2,4,1,1,1,1,0,0,0,0,0,0,0
412019630,253931924,4,4259850,4028193,4325386,396809,0.1390225,0.12105662,0.0831854,0.09234792,nan,nan,nan,nan,nan,1.0,1.0,0.0,1.0,nan,nan,nan,nan,nan,0.0,0.0,nan,nan,0.0,0.0,nan,nan,2,4,1,1,1,1,0,0,0,0,0,0,0
413019854,253931924,4,4259850,4028193,4325386,396809,0.140875,0.081470184,0.045993537,0.05410243,nan,nan,nan,nan,nan,1.0,1.0,0.0,1.0,nan,nan,nan,nan,nan,0.0,0.0,nan,nan,0.0,0.0,nan,nan,2,4,1,1,1,1,0,0,0,0,0,0,0
414029769,253931924,4,4259850,4028193,4325386,396809,0.16038372,0.0861478,0.021449704,0.018185731,nan,nan,nan,nan,nan,1.0,1.0,0.0,1.0,nan,nan,nan,nan,nan,0.0,0.0,nan,nan,0.0,0.0,nan,nan,2,4,1,1,1,1,0,0,0,0,0,0,0
415029887,253931924,4,4259850,4028193,4325386,396809,0.13874406,0.062536635,0.025103243,0.035349187,nan,nan,nan,nan,nan,1.0,1.0,0.0,1.0,nan,nan,nan,nan,nan,0.0,0.0,nan,nan,0.0,0.0,nan,nan,2,4,1,1,1,1,0,0,0,0,0,0,0
416029924,253931924,4,4259850,4028193,4325386,396809,0.055893797,0.063208796,0.07300424,0.08558752,nan,nan,nan,nan,nan,1.0,1.0,0.0,1.0,nan,nan,nan,nan,nan,0.0,0.0,nan,nan,0.0,0.0,nan,nan,2,4,1,1,1,1,0,0,0,0,0,0,0
417030054,253931924,4,4259850,4028193,4325386,396809,0.11483063,0.098587215,0.07172296,0.07306494,nan,nan,nan,nan,nan,1.0,1.0,0.0,1.0,nan,nan,nan,nan,nan,0.0,0.0,nan,nan,0.0,0.0,nan,nan,2,4,1,1,1,1,0,0,0,0,0,0,0
418030078,253931924,4,4259850,4028193,4325386,396809,0.1385618,0.06679429,0.04151369,0.04621011,nan,nan,nan,nan,nan,1.0,1.0,0.0,1.0,nan,nan,nan,nan,nan,0.0,0.0,nan,nan,0.0,0.0,nan,nan,2,4,1,1,1,1,0,0,0,0,0,0,0
419030146,253931924,4,4259850,4028193,4325386,396809,0.1600576,0.07659929,0.032914907,0.03815886,nan,nan,nan,nan,nan,1.0,1.0,0.0,1.0,nan,nan,nan,nan,nan,0.0,0.0,nan,nan,0.0,0.0,nan,nan,2,4,1,1,1,1,0,0,0,0,0,0,0
420030207,253931924,4,4259850,4028193,4325386,396809,0.09421963,0.042456813,0.03165814,0.037949234,nan,nan,nan,nan,nan,1.0,1.0,0.0,1.0,nan,nan,nan,nan,nan,0.0,0.0,nan,nan,0.0,0.0,nan,nan,2,4,1,1,1,1,0,0,0,0,0,0,0
421030288,253931924,4,4259850,4028193,4325386,396809,0.07926277,0.05080694,0.03935992,0.039785024,nan,nan,nan,nan,nan,1.0,1.0,0.0,1.0,nan,nan,nan,nan,nan,0.0,0.0,nan,nan,0.0,0.0,nan,nan,2,4,1,1,1,1,0,0,0,0,0,0,0
422030355,253931924,4,4259850,4028193,4325386,396809,0.07865713,0.066764034,0.0674712,0.06289116,nan,nan,nan,nan,nan,1.0,1.0,0.0,1.0,nan,nan,nan,nan,nan,0.0,0.0,nan,nan,0.0,0.0,nan,nan,2,4,1,1,1,1,0,0,0,0,0,0,0
423030492,253931924,4,4259850,4028193,4325386,396809,0.036136784,0.026417451,0.02420587,0.018293578,nan,nan,nan,nan,nan,1.0,1.0,0.0,1.0,nan,nan,nan,nan,nan,0.0,0.0,nan,nan,0.0,0.0,nan,nan,2,4,1,1,1,1,0,0,0,0,0,0,0
424030511,253931924,4,4259850,4028193,4325386,396809,0.05798231,0.06445961,0.058989212,0.06212166,nan,nan,nan,nan,nan,1.0,1.0,0.0,1.0,nan,nan,nan,nan,nan,0.0,0.0,nan,nan,0.0,0.0,nan,nan,2,4,1,1,1,1,0,0,0,0,0,0,0
425030624,253931924,4,4259850,4028193,4325386,396809,0.058194526,0.075617276,0.08327861,0.07607091,nan,nan,nan,nan,nan,1.0,1.0,0.0,1.0,nan,nan,nan,nan,nan,0.0,0.0,nan,nan,0.0,0.0,nan,nan,2,4,1,1,1,1,0,0,0,0,0,0,0
426030649,253931924,4,4259850,4028193,4325386,396809,0.07044064,0.08080046,0.090033546,0.08185227,nan,nan,nan,nan,nan,1.0,1.0,0.0,1.0,nan,nan,nan,nan,nan,0.0,0.0,nan,nan,0.0,0.0,nan,nan,2,4,1,1,1,1,0,0,0,0,0,0,0
427030731,253931924,4,4259850,4028193,4325386,396809,0.04157439,0.045520388,0.051075622,0.045038693,nan,nan,nan,nan,nan,1.0,1.0,0.0,1.0,nan,nan,nan,nan,nan,0.0,0.0,nan,nan,0.0,0.0,nan,nan,2,4,1,1,1,1,0,0,0,0,0,0,0
428030875,253931924,4,4259850,4028193,4325386,396809,0.04460419,0.049322277,0.056218818,0.049148723,nan,nan,nan,nan,nan,1.0,1.0,0.0,1.0,nan,nan,nan,nan,nan,0.0,0.0,nan,nan,0.0,0.0,nan,nan,2,4,1,1,1,1,0,0,0,0,0,0,0
429030890,253931924,4,4259850,4028193,4325386,396809,0.03285661,0.034477443,0.033840332,0.034438524,nan,nan,nan,nan,nan,1.0,1.0,0.0,1.0,nan,nan,nan,nan,nan,0.0,0.0,nan,nan,0.0,0.0,nan,nan,2,4,1,1,1,1,0,0,0,0,0,0,0
430031026,253931924,4,4259850,4028193,4325386,396809,0.060991865,0.05853838,0.055809595,0.05794286,nan,nan,nan,nan,nan,1.0,1.0,0.0,1.0,nan,nan,nan,nan,nan,0.0,0.0,nan,nan,0.0,0.0,nan,nan,2,4,1,1,1,1,0,0,0,0,0,0,0
431031063,253931924,4,4259850,4028193,4325386,396809,0.064246505,0.06299971,0.062425967,0.06309395,nan,nan,nan,nan,nan,1.0,1.0,0.0,1.0,nan,nan,nan,nan,nan,0.0,0.0,nan,nan,0.0,0.0,nan,nan,2,4,1,1,1,1,0,0,0,0,0,0,0
432031264,253931924,4,4259850,4028193,4325386,396809,0.04283176,0.04124218,0.04256488,0.04109141,nan,nan,nan,nan,nan,1.0,1.0,0.0,1.0,nan,nan,nan,nan,nan,0.0,0.0,nan,nan,0.0,0.0,nan,nan,2,4,1,1,1,1,0,0,0,0,0,0,0
433041260,253931924,4,4259850,4028193,4325386,396809,0.042945832,0.043843552,0.04426554,0.043257557,nan,nan,nan,nan,nan,1.0,1.0,0.0,1.0,nan,nan,nan,nan,nan,0.0,0.0,nan,nan,0.0,0.0,nan,nan,2,4,1,1,1,1,0,0,0,0,0,0,0
434041332,253931924,4,4259850,4028193,4325386,396809,0.069791116,0.06804814,0.036258876,0.06795088,nan,nan,nan,nan,nan,1.0,1.0,0.0,1.0,nan,nan,nan,nan,nan,0.0,0.0,nan,nan,0.0,0.0,nan,nan,2,4,1,1,1,1,0,0,0,0,0,0,0
435041436,253931924,4,4259850,4028193,4325386,396809,0.025133565,0.026930742,0.025781961,0.026698641,nan,nan,nan,nan,nan,1.0,1.0,0.0,1.0,nan,nan,nan,nan,nan,0.0,0.0,nan,nan,0.0,0.0,nan,nan,2,4,1,1,1,1,0,0,0,0,0,0,0
436041529,253931924,4,4259850,4028193,4325386,396809,0.037232548,0.043764327,0.055670228,0.04392513,nan,nan,nan,nan,nan,1.0,1.0,0.0,1.0,nan,nan,nan,nan,nan,0.0,0.0,nan,nan,0.0,0.0,nan,nan,2,4,1,1,1,1,0,0,0,0,0,0,0
437041571,253931924,4,4259850,4028193,4325386,396809,0.045550004,0.04296254,0.043000467,0.041153803,nan,nan,nan,nan,nan,1.0,1.0,0.0,1.0,nan,nan,nan,nan,nan,0.0,0.0,nan,nan,0.0,0.0,nan,nan,2,4,1,1,1,1,0,0,0,0,0,0,0
438041683,253931924,4,4259850,4028193,4325386,396809,0.04034344,0.039831944,0.041692078,0.03971151,nan,nan,nan,nan,nan,1.0,1.0,0.0,1.0,nan,nan,nan,nan,nan,0.0,0.0,nan,nan,0.0,0.0,nan,nan,2,4,1,1,1,1,0,0,0,0,0,0,0
439041752,253931924,4,4259850,4028193,4325386,396809,0.034716837,0.0349002,0.034876563,0.034882545,nan,nan,nan,nan,nan,1.0,1.0,0.0,1.0,nan,nan,nan,nan,nan,0.0,0.0,nan,nan,0.0,0.0,nan,nan,2,4,1,1,1,1,0,0,0,0,0,0,0
440041910,253931924,4,4259850,4028193,4325386,396809,0.029706456,0.026973523,0.029014878,0.027032966,nan,nan,nan,nan,nan,1.0,1.0,0.0,1.0,nan,nan,nan,nan,nan,0.0,0.0,nan,nan,0.0,0.0,nan,nan,2,4,1,1,1,1,0,0,0,0,0,0,0
441051865,253931924,4,4259850,4028193,4325386,396809,0.106248096,0.11308871,0.1095333,0.11508722,nan,nan,nan,nan,nan,1.0,1.0,0.0,1.0,nan,nan,nan,nan,nan,0.0,0.0,nan,nan,0.0,0.0,nan,nan,2,4,1,1,1,1,0,0,0,0,0,0,0
442052138,253931924,4,4259850,4028193,4325386,396809,0.037470028,0.07633062,0.05728911,0.07625512,nan,nan,nan,nan,nan,1.0,1.0,0.0,1.0,nan,nan,nan,nan,nan,0.0,0.0,nan,nan,0.0,0.0,nan,nan,2,4,1,1,1,1,0,0,0,0,0,0,0
443052234,253931924,4,4259850,4028193,4325386,396809,0.057180915,0.027995996,0.045835525,0.025067791,nan,nan,nan,nan,nan,1.0,1.0,0.0,1.0,nan,nan,nan,nan,nan,0.0,0.0,nan,nan,0.0,0.0,nan,nan,2,4,1,1,1,1,0,0,0,0,0,0,0
444062306,253931924,4,4259850,4028193,4325386,396809,0.044590216,0.043179348,0.042564366,0.042941663,nan,nan,nan,nan,nan,1.0,1.0,0.0,1.0,nan,nan,nan,nan,nan,0.0,0.0,nan,nan,0.0,0.0,nan,nan,2,4,1,1,1,1,0,0,0,0,0,0,0
445072321,253931924,4,4259850,4028193,4325386,396809,0.046807878,0.04171282,0.04028488,0.038448535,nan,nan,nan,nan,nan,1.0,1.0,0.0,1.0,nan,nan,nan,nan,nan,0.0,0.0,nan,nan,0.0,0.0,nan,nan,2,4,1,1,1,1,0,0,0,0,0,0,0
446082305,253931924,4,4259850,4028193,4325386,396809,0.043014176,0.04078391,0.041269016,0.04212925,nan,nan,nan,nan,nan,1.0,1.0,0.0,1.0,nan,nan,nan,nan,nan,0.0,0.0,nan,nan,0.0,0.0,nan,nan,2,4,1,1,1,1,0,0,0,0,0,0,0
447082428,253931924,4,4259850,4028193,4325386,396809,0.031684127,0.02856396,0.030143818,0.028507417,nan,nan,nan,nan,nan,1.0,1.0,0.0,1.0,nan,nan,nan,nan,nan,0.0,0.0,nan,nan,0.0,0.0,nan,nan,2,4,1,1,1,1,0,0,0,0,0,0,0
448082473,253931924,4,4259850,4028193,4325386,396809,0.022152966,0.021222347,0.025680263,0.020679757,nan,nan,nan,nan,nan,1.0,1.0,0.0,1.0,nan,nan,nan,nan,nan,0.0,0.0,nan,nan,0.0,0.0,nan,nan,2,4,1,1,1,1,0,0,0,0,0,0,0
449082544,253931924,4,4259850,4028193,4325386,396809,0.018798806,0.01846272,0.018651752,0.018086392,nan,nan,nan,nan,nan,1.0,1.0,0.0,1.0,nan,nan,nan,nan,nan,0.0,0.0,nan,nan,0.0,0.0,nan,nan,2,4,1,1,1,1,0,0,0,0,0,0,0
450082649,253931924,4,4259850,4028193,4325386,396809,0.037401352,0.046029765,0.03942868,0.044286743,nan,nan,nan,nan,nan,1.0,1.0,0.0,1.0,nan,nan,nan,nan,nan,0.0,0.0,nan,nan,0.0,0.0,nan,nan,2,4,1,1,1,1,0,0,0,0,0,0,0
451082769,253931924,4,4259850,4028193,4325386,396809,0.03647146,0.026678134,0.026426014,0.02690624,nan,nan,nan,nan,nan,1.0,1.0,0.0,1.0,nan,nan,nan,nan,nan,0.0,0.0,nan,nan,0.0,0.0,nan,nan,2,4,1,1,1,1,0,0,0,0,0,0,0
452082994,253931924,4,4259850,4028193,4325386,396809,0.042245902,0.029431589,0.034012757,0.029419206,nan,nan,nan,nan,nan,1.0,1.0,0.0,1.0,nan,nan,nan,nan,nan,0.0,0.0,nan,nan,0.0,0.0,nan,nan,2,4,1,1,1,1,0,0,0,0,0,0,0
453083008,253931924,4,4259850,4028193,4325386,396809,0.022628278,0.023142556,0.02309709,0.022223638,nan,nan,nan,nan,nan,1.0,1.0,0.0,1.0,nan,nan,nan,nan,nan,0.0,0.0,nan,nan,0.0,0.0,nan,nan,2,4,1,1,1,1,0,0,0,0,0,0,0
454083153,253931924,4,4259850,4028193,4325386,396809,0.02447193,0.029246168,0.024612889,0.032054506,nan,nan,nan,nan,nan,1.0,1.0,0.0,1.0,nan,nan,nan,nan,nan,0.0,0.0,nan,nan,0.0,0.0,nan,nan,2,4,1,1,1,1,0,0,0,0,0,0,0
455093197,253931924,4,4259850,4028193,4325386,396809,0.06523892,0.0646631,0.03432674,0.06459784,nan,nan,nan,nan,nan,1.0,1.0,0.0,1.0,nan,nan,nan,nan,nan,0.0,0.0,nan,nan,0.0,0.0,nan,nan,2,4,1,1,1,1,0,0,0,0,0,0,0
456093326,253931924,4,4259850,4028193,4325386,396809,0.052155957,0.05138356,0.05198636,0.0513242,nan,nan,nan,nan,nan,1.0,1.0,0.0,1.0,nan,nan,nan,nan,nan,0.0,0.0,nan,nan,0.0,0.0,nan,nan,2,4,1,1,1,1,0,0,0,0,0,0,0
457098522,253931924,4,4259850,4028193,4325386,396809,0.030929837,0.028954992,0.03218482,0.028426586,nan,nan,nan,nan,nan,1.0,1.0,0.0,1.0,nan,nan,nan,nan,nan,0.0,0.0,nan,nan,0.0,0.0,nan,nan,2,4,1,1,1,1,0,0,0,0,0,0,0
458103507,253931924,4,4259850,4028193,4325386,396809,0.0443465,0.044697795,0.0446514,0.044669036,nan,nan,nan,nan,nan,1.0,1.0,0.0,1.0,nan,nan,nan,nan,nan,0.0,0.0,nan,nan,0.0,0.0,nan,nan,2,4,1,1,1,1,0,0,0,0,0,0,0
459103690,253931924,4,4259850,4028193,4325386,396809,0.03427367,0.029520676,0.031571947,0.029032074,nan,nan,nan,nan,nan,1.0,1.0,0.0,1.0,nan,nan,nan,nan,nan,0.0,0.0,nan,nan,0.0,0.0,nan,nan,2,4,1,1,1,1,0,0,0,0,0,0,0
460113672,253931924,4,4259850,4028193,4325386,396809,0.06275283,0.06007382,0.060325492,0.060073603,nan,nan,nan,nan,nan,1.0,1.0,0.0,1.0,nan,nan,nan,nan,nan,0.0,0.0,nan,nan,0.0,0.0,nan,nan,2,4,1,1,1,1,0,0,0,0,0,0,0
461113837,253931924,4,4259850,4028193,4325386,396809,0.03597178,0.036010496,0.036056265,0.03601981,nan,nan,nan,nan,nan,1.0,1.0,0.0,1.0,nan,nan,nan,nan,nan,0.0,0.0,nan,nan,0.0,0.0,nan,nan,2,4,1,1,1,1,0,0,0,0,0,0,0
462123867,253931924,4,4259850,4028193,4325386,396809,0.024954677,0.01821627,0.022749245,0.01810271,nan,nan,nan,nan,nan,1.0,1.0,0.0,1.0,nan,nan,nan,nan,nan,0.0,0.0,nan,nan,0.0,0.0,nan,nan,2,4,1,1,1,1,0,0,0,0,0,0,0
463124056,253931924,4,4259850,4028193,4325386,396809,0.028764281,0.024096688,0.025461085,0.024112232,nan,nan,nan,nan,nan,1.0,1.0,0.0,1.0,nan,nan,nan,nan,nan,0.0,0.0,nan,nan,0.0,0.0,nan,nan,2,4,1,1,1,1,0,0,0,0,0,0,0
464134010,253931924,4,4259850,4028193,4325386,396809,0.020609759,0.021497255,0.021272589,0.019250195,nan,nan,nan,nan,nan,1.0,1.0,0.0,1.0,nan,nan,nan,nan,nan,0.0,0.0,nan,nan,0.0,0.0,nan,nan,2,4,1,1,1,1,0,0,0,0,0,0,0
465134198,253931924,4,4259850,4028193,4325386,396809,0.024601718,0.030197017,0.020499397,0.030982401,nan,nan,nan,nan,nan,1.0,1.0,0.0,1.0,nan,nan,nan,nan,nan,0.0,0.0,nan,nan,0.0,0.0,nan,nan,2,4,1,1,1,1,0,0,0,0,0,0,0
466134228,253931924,4,4259850,4028193,4325386,396809,0.031602606,0.032173354,0.03135843,0.032205954,nan,nan,nan,nan,nan,1.0,1.0,0.0,1.0,nan,nan,nan,nan,nan,0.0,0.0,nan,nan,0.0,0.0,nan,nan,2,4,1,1,1,1,0,0,0,0,0,0,0
467134324,253931924,4,4259850,4028193,4325386,396809,0.008715602,0.017423762,0.008954677,0.015759837,nan,nan,nan,nan,nan,1.0,1.0,0.0,1.0,nan,nan,nan,nan,nan,0.0,0.0,nan,nan,0.0,0.0,nan,nan,2,4,1,1,1,1,0,0,0,0,0,0,0
468134420,253931924,4,4259850,4028193,4325386,396809,0.019711252,0.020454576,0.020204987,0.020516206,nan,nan,nan,nan,nan,1.0,1.0,0.0,1.0,nan,nan,nan,nan,nan,0.0,0.0,nan,nan,0.0,0.0,nan,nan,2,4,1,1,1,1,0,0,0,0,0,0,0
469134516,253931924,4,4259850,4028193,4325386,396809,0.024508301,0.02330718,0.023785245,0.023379747,nan,nan,nan,nan,nan,1.0,1.0,0.0,1.0,nan,nan,nan,nan,nan,0.0,0.0,nan,nan,0.0,0.0,nan,nan,2,4,1,1,1,1,0,0,0,0,0,0,0
470134599,253931924,4,4259850,4028193,4325386,396809,0.02422055,0.026697315,0.024853373,0.025118016,nan,nan,nan,nan,nan,1.0,1.0,0.0,1.0,nan,nan,nan,nan,nan,0.0,0.0,nan,nan,0.0,0.0,nan,nan,2,4,1,1,1,1,0,0,0,0,0,0,0
471134805,253931924,4,4259850,4028193,4325386,396809,0.01535949,0.016788352,0.00991506,0.01682086,nan,nan,nan,nan,nan,1.0,1.0,0.0,1.0,nan,nan,nan,nan,nan,0.0,0.0,nan,nan,0.0,0.0,nan,nan,2,4,1,1,1,1,0,0,0,0,0,0,0
472144797,253931924,4,4259850,4028193,4325386,396809,0.02510607,0.030947171,0.023659615,0.030549608,nan,nan,nan,nan,nan,1.0,1.0,0.0,1.0,nan,nan,nan,nan,nan,0.0,0.0,nan,nan,0.0,0.0,nan,nan,2,4,1,1,1,1,0,0,0,0,0,0,0
