timestamp,timestamp_sample,yaw_composite,yaw_variance,yaw[0],yaw[1],yaw[2],yaw[3],yaw[4],innov_vn[0],innov_vn[1],innov_vn[2],innov_vn[3],innov_vn[4],innov_ve[0],innov_ve[1],innov_ve[2],innov_ve[3],innov_ve[4],weight[0],weight[1],weight[2],weight[3],weight[4]
219073898,218973382,3.0079389,3.7977512,-2.5132742,-1.2566371,0.0,1.2566371,2.5132742,0.0,0.0,0.0,0.0,0.0,0.0,0.0,0.0,0.0,0.0,0.2,0.2,0.2,0.2,0.2
219264088,219163398,3.0105486,3.8003786,-2.5132945,-1.2566574,-2.015997e-05,1.2566171,2.5132542,0.0,0.0,0.0,0.0,0.0,0.0,0.0,0.0,0.0,0.0,0.2,0.2,0.2,0.2,0.2
220264178,220163480,2.7280576,3.5972707,-2.511572,-1.2549146,0.0019207246,1.2586601,2.5151622,0.012910621,0.0132220555,-0.013428284,-0.030206714,-0.013928963,0.01736221,0.04548376,0.054468594,0.031899363,0.008968804,0.20004386,0.19994178,0.1999202,0.20000885,0.20008531
221264223,221163564,-0.04660389,3.5534852,-2.5064144,-1.2496741,0.0066264584,1.262952,2.519733,0.004217148,0.0056614466,-0.023855105,-0.04354273,-0.026199982,-0.065260574,-0.033750337,-0.022642426,-0.04727632,-0.07361854,0.19986533,0.20006225,0.20017336,0.20004469,0.19985443
222264271,222163647,1.04232,3.6133573,-2.4747763,-1.217603,0.039067436,1.2951896,2.5514746,0.052521817,0.06513697,0.008941048,-0.038400304,-0.011500873,-0.018320724,0.0448899,0.07640137,0.03272275,-0.025826756,0.19977666,0.19984715,0.20012903,0.2002324,0.20001468
223264363,223163732,0.8743056,3.7757883,-2.413121,-1.1551473,0.10123544,1.3563797,2.6123476,0.06783333,-0.001934492,-0.039350133,0.007172535,0.07340489,0.056147724,0.07288456,0.0117373895,-0.042734034,-0.015368722,0.19935614,0.19971065,0.20046566,0.20057683,0.19989069
224264238,224163816,1.4241123,3.3634508,-2.453198,-1.1647784,0.10424896,1.3368737,2.5664895,0.34906977,0.26551163,0.035097815,-0.02015248,0.16826561,-0.021709815,0.19603898,0.17963247,-0.03966041,-0.16361263,0.1895304,0.18811087,0.20296495,0.21401878,0.205375
225264504,225163901,1.3672422,3.1936984,-2.4656184,-1.1508745,0.12468365,1.3359686,2.5457172,0.1862607,0.32407695,0.15119128,-0.07455057,-0.059798226,-0.35082948,-0.12771685,0.06218286,-0.037198268,-0.28269416,0.17993386,0.17899875,0.20666371,0.22607659,0.20832713
226264591,226163987,1.180107,2.964306,-2.4873934,-1.1335281,0.13814487,1.3102286,2.498425,0.24889109,0.3530776,0.18543032,0.0023201406,0.026643649,-0.24514645,-0.034639645,0.11282911,0.012362994,-0.19785145,0.16186717,0.16838153,0.21847977,0.24514636,0.20612517
227254466,227154072,1.1588802,2.8944952,-2.4897828,-1.1238104,0.14776379,1.3074201,2.4892786,-0.0757206,-0.07713147,-0.003932573,0.037515543,0.0004526265,-0.16202053,-0.24305344,-0.26344657,-0.20668855,-0.14547825,0.15646839,0.16485228,0.22186948,0.25123113,0.20557874
228264731,228164159,1.3124847,2.7957315,-2.4532332,-1.0703678,0.21375683,1.3671414,2.5323777,-0.26548335,-0.3640908,-0.26525435,-0.13098642,-0.120881036,0.13141185,-0.0014118738,-0.12123791,-0.074417345,0.0689436,0.1537322,0.15715544,0.21871366,0.25853407,0.21186474
229264815,229164248,1.488762,2.7045143,-2.39513,-0.9953313,0.30423453,1.4527068,2.5995407,-0.09738867,-0.2693967,-0.25704437,-0.11041736,-0.01291661,0.21008703,0.1571377,-0.011330355,-0.052750085,0.06423598,0.15128334,0.14870293,0.2142753,0.26622105,0.21951742
230254761,230154333,1.5878309,2.6017013,-2.394075,-0.9746182,0.34131503,1.4825013,2.6087217,-0.023400396,-0.22097836,-0.28185612,-0.15296401,-0.0062556863,0.17411259,0.1990408,0.022704773,-0.080814816,-0.008431703,0.1476669,0.13924715,0.20987485,0.2755195,0.22769167
231254877,231154420,1.6345774,2.4946713,-2.3955612,-0.95700413,0.37061843,1.501931,2.610812,0.39866766,0.2934515,0.012932524,-0.030489787,0.16786776,-0.028592013,0.25508064,0.20912834,-0.035702057,-0.17775163,0.14285706,0.13114919,0.20770694,0.28487754,0.23340933
232265003,232164510,1.6276206,2.2118816,-2.419827,-0.92843837,0.41501945,1.5107411,2.581186,0.4049193,0.3607166,0.11956464,0.051566407,0.1869099,0.035148427,0.29352036,0.29153693,0.10013348,-0.046431094,0.12571664,0.113044456,0.20929816,0.31171027,0.24023049
233265146,233164598,1.6389936,2.1170006,-2.4816928,-0.9735301,0.38893706,1.4783661,2.530194,0.16810362,0.33029753,0.18279347,0.0089570135,-0.015663266,-0.10867122,0.07600271,0.24723613,0.1809814,0.0013044327,0.12282464,0.104282096,0.20258793,0.3206045,0.24970078
234255092,234154689,1.5785289,1.9880456,-2.5324292,-0.9981043,0.36723298,1.4385066,2.4749603,-0.20381866,0.13318016,0.11668689,-0.12653257,-0.30430663,-0.39321077,-0.33351874,-0.020457767,0.053380087,-0.11706517,0.11426759,0.097077064,0.2045037,0.3335576,0.25059405
235255222,235154776,1.4794973,1.8104368,-2.557066,-0.981819,0.37143192,1.4096992,2.429607,-0.29779673,-0.029441189,0.049079336,-0.09966408,-0.2803086,-0.35540015,-0.41477358,-0.18329974,-0.058204755,-0.12147952,0.09862819,0.089477226,0.21574223,0.35389847,0.24225394
236265502,236164867,1.4784056,1.7425698,-2.5643265,-0.97224474,0.3834615,1.4112794,2.421732,-0.23818263,-0.2735392,-0.1261625,-0.049420893,-0.08969599,0.09343529,-0.07903958,-0.12479727,-0.030568473,0.082199946,0.09409726,0.08507997,0.2159927,0.3618333,0.24299674
237265386,237164958,1.5355121,1.6853732,-2.5275924,-0.92049444,0.44032308,1.4609526,2.4616013,0.12823187,-0.06794938,-0.12069717,-0.014559255,0.11222843,0.16462305,0.20751834,0.040034022,-0.04639913,-0.0030982196,0.091083966,0.080847904,0.21405625,0.36832336,0.24568845
238255507,238155048,1.5631697,1.6402853,-2.503349,-0.8844641,0.47733158,1.491248,2.4850073,0.20101537,0.085394464,-0.056372285,-0.032907188,0.08451721,0.0004934557,0.15428028,0.0649583,-0.062348016,-0.11001947,0.088083275,0.078056976,0.21423273,0.37366083,0.24596614
239265776,239165140,1.5762511,1.6286428,-2.484105,-0.86238354,0.497874,1.5094448,2.5022311,0.07133917,0.010364022,-0.08790422,-0.08392603,-0.013146019,-0.014663063,0.093951136,0.048855633,-0.034392472,-0.0752583,0.08702521,0.07768465,0.21528055,0.37503207,0.2449775
240265796,240165232,1.6137553,1.5998893,-2.4530191,-0.8237892,0.5383028,1.5458928,2.5338206,0.10100107,0.13701613,0.03464551,-0.02253934,-0.0023898333,-0.12024973,0.00091298297,0.04003398,-0.021482356,-0.101480626,0.08526191,0.075685404,0.21477799,0.37853336,0.24574134
241255741,241155323,1.6300836,1.5722777,-2.429431,-0.79266167,0.56762576,1.5698625,2.5544481,-0.07947283,0.051330622,0.018035237,-0.07331855,-0.13055111,-0.20893002,-0.16079322,-0.045139216,-0.035261527,-0.105320945,0.08289987,0.074339345,0.21630378,0.38210273,0.24435426
242255947,242155415,1.6178949,1.5465524,-2.4171782,-0.77271503,0.58085024,1.5760747,2.5592306,-0.088524416,-0.044215504,-0.042139113,-0.06807275,-0.09267643,-0.073431745,-0.07275803,-0.034876414,-0.022300258,-0.036926236,0.07980095,0.07382085,0.22050394,0.38569865,0.24017563
243266120,243165509,1.6327772,1.5356381,-2.4218683,-0.774623,0.5841099,1.5795913,2.559415,0.06915654,-0.10859612,-0.16330695,-0.07470364,0.04070311,0.1308632,0.18252434,0.033752445,-0.0481505,-0.019602228,0.08000432,0.07237371,0.21767232,0.38681808,0.2431316
244266167,244165602,1.6053585,1.4055235,-2.4534664,-0.7677616,0.5910407,1.5637653,2.5227916,0.2784004,0.08413551,-0.066067964,-0.002799347,0.15368895,0.16821876,0.336337,0.18012087,0.031188682,-0.0006030053,0.070567034,0.06439806,0.21934265,0.4041589,0.24153337
245256098,245155694,1.6266017,1.341078,-2.451099,-0.7459675,0.6177578,1.5802047,2.527297,0.17587821,0.29422036,0.10789011,-0.018417343,-0.013621479,-0.23247184,-0.005559044,0.101047866,0.006082101,-0.14964633,0.066752695,0.05981436,0.2172023,0.41280127,0.24342936
246256354,246155788,1.6388918,1.236084,-2.451563,-0.7112242,0.65402037,1.5969925,2.525535,-0.09581036,0.20657381,0.14911222,-0.033947058,-0.16850352,-0.33808112,-0.26234162,-0.010724574,0.024515405,-0.10068999,0.059544258,0.05321004,0.21684614,0.42773813,0.24266137
247266504,247165883,1.6215991,1.1295269,-2.4728417,-0.6925522,0.66993374,1.5903028,2.4997957,-0.387406,-0.15675823,-0.0076718777,-0.08471319,-0.24969362,-0.19875972,-0.3811356,-0.19390053,-0.042870626,-0.013065785,0.05168108,0.046915796,0.21822852,0.444044,0.23913059
248256416,248155976,1.6170812,0.99777395,-2.506752,-0.66912496,0.6954498,1.5872364,2.4679558,-0.38952723,-0.5314247,-0.26171598,-0.115489215,-0.13029322,0.27284005,-0.06294321,-0.16995533,-0.03344538,0.16428399,0.042827573,0.03834093,0.21539144,0.46563905,0.23780099
249256484,249156069,1.644583,0.8477193,-2.5303645,-0.61535877,0.7547367,1.610527,2.4527054,0.19276363,-0.29318893,-0.26578707,-0.032645375,0.18715325,0.56845707,0.56261176,0.18492326,0.09146729,0.2055802,0.033389196,0.02854621,0.20814388,0.49225113,0.23766963
250256838,250156164,1.6670792,0.69669443,-2.5336857,-0.52334046,0.83642787,1.6458243,2.447015,0.58229214,0.17255339,-0.112250194,-0.0059028417,0.25323585,0.18380396,0.60831547,0.2697436,0.011001885,-0.08857447,0.023085102,0.020271683,0.20648251,0.5227197,0.22744104
251266826,251166259,1.7307242,0.5890238,-2.53793,-0.44247356,0.92551327,1.6992655,2.4605467,0.3986619,0.52127147,0.08805364,-0.050044566,0.005407661,-0.24014528,0.34102607,0.36570057,0.14456059,-0.10844387,0.017267384,0.013726505,0.19354185,0.5468082,0.22865608
252256917,252156353,1.7454515,0.32691008,-2.6135278,-0.1693277,1.1266533,1.7541022,2.3849185,1.7762424,0.23739833,-0.22648442,0.18500245,0.8517269,0.60347855,1.7002913,0.5145533,-0.042571604,-0.22076744,0.0029342873,0.0031239658,0.18894379,0.6301649,0.17483309
253256918,253156448,1.8039355,0.23707215,-2.6970186,-0.025075646,1.2672592,1.798308,2.3352504,0.40604693,0.91298807,0.19204926,-0.009031892,-0.07248348,-0.73057675,0.31999242,0.35954487,0.12701294,-0.20811301,0.000798342,0.00066069874,0.15745233,0.6749849,0.1661037
254257117,254156542,1.5871058,0.09457588,2.939322,0.27285376,1.2831519,1.5984786,1.9130988,-3.3598752,1.248192,0.5510162,-0.22106856,-1.1550442,-0.8076539,-2.6504977,-0.1288513,0.37788677,0.5386615,0.00015946288,0.00015946288,0.13569145,0.7643233,0.09966638
255257347,255156638,1.389365,0.03491797,2.2400653,0.5843193,1.2625594,1.3970041,1.522016,-2.6582427,-0.06294179,-0.3047371,-0.43647838,-0.61928797,1.7942064,-2.4411592,-0.4367832,-0.06999886,0.3828225,0.00014839605,0.00014839605,0.1130296,0.8263608,0.060312804
256257276,256156733,1.2696328,0.02646525,1.9434298,0.58545333,1.1840128,1.2735503,1.3426076,-0.85713863,-1.0598927,-0.8932302,-0.8240979,-0.7460618,0.8379168,-0.9555446,-0.47432715,-0.4290821,-0.25074613,0.00016371891,0.00016371891,0.096391924,0.8350733,0.06820735
257257393,257156829,1.1700675,0.020761058,1.7327613,0.54302216,1.0989852,1.1722268,1.2255898,0.9422848,-0.85063183,-0.391961,-0.2556759,-0.11782496,-0.33225393,0.706987,-0.23740435,-0.38363576,-0.38481092,0.00016465312,0.00014366122,0.08783322,0.8318783,0.079980195
258257708,258156925,1.0774851,0.017031426,1.5503627,0.5092186,1.0163584,1.079318,1.1256189,0.11544374,0.058634758,-0.08435866,-0.06698838,-0.02830711,0.39320862,0.7168671,0.40471852,0.32646465,0.34638476,0.00013634084,0.00013634084,0.086426586,0.83515006,0.078150705
259257894,259157021,1.0963538,0.01624079,1.5602586,0.54891276,1.0393223,1.0984586,1.1440763,-1.4302106,0.5578263,-0.40307975,-0.5168792,-0.5904013,0.45834345,-0.18899208,0.2800159,0.27619678,0.32474488,0.00014631437,0.00015068256,0.09009566,0.8386881,0.07091927
260258047,260157118,1.1158073,0.015530141,1.5692737,0.59994394,1.0663971,1.118227,1.1601937,-0.86990434,0.26676786,-0.31190693,-0.36889136,-0.40154493,0.12672973,-0.15914947,0.04093206,0.027831674,0.059020936,0.00013987906,0.00019799707,0.09892622,0.83535606,0.06537981
261257863,261157214,1.1492717,0.015356111,1.5966735,0.63816446,1.1025916,1.1518937,1.1908255,-0.50433326,-0.315786,-0.5440944,-0.54901403,-0.54105806,-0.5420451,0.16842592,-0.2117302,-0.27000132,-0.28335813,0.0001483303,0.00025186068,0.10267149,0.8327375,0.06419078
262257938,262157311,1.2290304,0.0144917965,1.6618031,0.74325854,1.1866893,1.2315401,1.2689371,0.4044213,0.14335652,0.15113443,0.168255,0.1916776,-0.3743196,0.31539774,-0.095214665,-0.14405116,-0.15788984,0.00013719792,0.00025870427,0.10686398,0.82998765,0.06275242
263258004,263157409,1.2822447,0.014169777,1.6973823,0.80176353,1.2414452,1.2848299,1.3195136,0.2450314,0.27805424,0.19233385,0.19333084,0.20032112,-0.20866498,0.18806572,-0.03276805,-0.06198705,-0.068447165,0.00013726909,0.00022924916,0.10801354,0.82957757,0.06204236
264258390,264157506,1.3188409,0.014145171,1.7303959,0.8394461,1.2777427,1.3213412,1.3562415,0.053551912,0.8733184,0.45086813,0.41171384,0.38300413,0.4745155,0.53618616,0.575321,0.5643304,0.5674207,0.00015307614,0.00018333574,0.10670785,0.8306207,0.062335033
265258207,265157604,1.3418012,0.009869981,1.6326487,0.96166396,1.3117629,1.3438511,1.3680851,-1.7492236,1.755965,0.06573558,-0.107168436,-0.24776363,0.41003132,-0.5340543,0.25101805,0.2868681,0.3201294,0.00014662008,0.00014662008,0.10835268,0.83195025,0.059403885
266258526,266157703,1.1957855,0.0054337396,1.3459547,0.96836364,1.1805304,1.1971407,1.2084649,-1.6471148,1.1064086,-0.3277018,-0.45023417,-0.5457032,0.4471798,-0.8952832,-0.102036476,-0.051589012,-0.008781433,0.0001493088,0.0001493088,0.117464304,0.8285776,0.053659488
267258581,267157801,1.1148238,0.0033132776,1.1867462,0.98634946,1.1074892,1.1156102,1.120268,-1.6134558,0.0013384819,-0.9206004,-0.9838791,-1.0315623,-0.41945362,-1.4890537,-0.97052956,-0.93231964,-0.90152264,0.0002145191,0.0002145191,0.124301285,0.8247099,0.050559826
268258552,268157900,1.1342793,0.0025080857,1.1647472,1.0595938,1.1309955,1.1347144,1.1358753,-1.7494712,-0.92438555,-1.4571047,-1.4837799,-1.5028424,-1.5066662,-2.0838013,-1.8742533,-1.8557673,-1.8406324,0.00051552634,0.00051552634,0.12636812,0.8226372,0.049963664
269258653,269158000,1.1381464,0.0022570752,1.1489594,1.0992185,1.1371552,1.1383759,1.1388801,-2.0027523,-1.6952991,-1.9384098,-1.9437184,-1.9463286,-2.974247,-3.2447042,-3.210518,-3.2031708,-3.1957054,0.0036519207,0.0036519207,0.12358487,0.81805253,0.05105872
270258584,270158099,1.5842717,0.002178522,1.5816214,1.5698109,1.5860043,1.5848324,1.5838588,-3.3068633,-3.1885061,-3.3264694,-3.322268,-3.317453,-3.4679108,-3.5298357,-3.708291,-3.69876,-3.6753159,0.03487494,0.03487494,0.108883336,0.76742464,0.053942025
271258914,271158198,1.4633154,0.0016304522,1.4626124,1.4621652,1.4658167,1.4636052,1.4624925,-1.6558728,-1.6733518,-1.7086425,-1.699059,-1.6891961,-2.482873,-2.7364979,-2.7985191,-2.7667007,-2.724966,0.27057552,0.063397236,0.05974119,0.5505293,0.055756778
272258783,272158298,1.2261697,0.0015209228,1.2264595,1.2260854,1.2279421,1.2256398,1.224488,-1.2451688,-1.2753669,-1.2924763,-1.2851243,-1.2765474,-2.683464,-2.905285,-2.8986034,-2.8774586,-2.852665,0.60568404,0.033023983,0.026816403,0.29707643,0.037399072
273259262,273158397,1.1217471,0.0015877882,1.1215392,1.1256158,1.1255128,1.1228384,1.1212579,-1.7560439,-1.7807381,-1.7918531,-1.7893835,-1.7839987,-3.573676,-3.7499561,-3.7222805,-3.7107449,-3.6980076,0.857761,0.009132654,0.0085833585,0.10855995,0.015963055
274259213,274158497,1.0816572,0.0016711634,1.0810952,1.091166,1.0923499,1.089165,1.085943,-2.2352793,-2.2417986,-2.2552152,-2.256572,-2.2541919,-3.6569843,-3.7882233,-3.7653923,-3.7575254,-3.748889,0.93261266,0.009226179,0.009226179,0.03970898,0.009226179
275259266,275158596,1.095691,0.0017437674,1.0952133,1.1093009,1.1086602,1.105225,1.101755,-2.265409,-2.2551737,-2.271913,-2.2755964,-2.27535,-3.5582008,-3.6611624,-3.6449614,-3.6376371,-3.6294813,0.95569974,0.008620992,0.00870356,0.018077651,0.0088979965
276259194,276158696,0.72020566,0.0017417814,0.7174763,0.7359259,0.7316333,0.7281897,0.72510785,-1.5767956,-1.4883604,-1.5364361,-1.55443,-1.5626755,-5.0199785,-5.008337,-5.002635,-5.014477,-5.0275364,0.78572345,0.053569123,0.053569123,0.053569123,0.053569123
277259303,277158794,0.027921798,0.03304372,-3.0366204,-0.4545035,-0.02196242,0.08714347,0.53001773,-5.0091467,-6.44205,-0.52557373,1.351963,5.8078423,15.128395,0.018021584,-0.31433487,0.3309896,4.535047,0.0002861013,0.0002861013,0.54212636,0.45701537,0.0002861013
278259758,278158893,-0.8663748,0.006025285,2.3765533,-0.975627,-0.87370795,-0.85592794,-0.8855838,1.2340927,-3.1379251,-0.30099487,0.17620659,2.6628437,35.339504,-1.5481539,-0.63025,-0.7227316,-1.3975525,0.00020071537,0.00020071537,0.5846161,0.41478175,0.00020071537
279259645,279158992,-1.6329201,0.0032657085,1.6057565,-1.6810175,-1.6337572,-1.6312928,-1.7213215,26.416115,-1.7281437,-0.33084488,-0.19178152,-0.08808184,50.82867,-1.3516445,-1.1078568,-1.2108345,-0.74403954,0.00021823817,0.00021823817,0.63712114,0.36216623,0.0002761819
280259724,280159090,-1.9136091,0.003023311,1.3177836,-1.948085,-1.9128422,-1.9148937,-1.9903852,44.974888,-0.421875,0.32959604,0.372272,0.60536385,48.29226,-1.4256706,-1.4490051,-1.486826,-0.6922512,0.00024348237,0.00024348237,0.6730166,0.32561278,0.00088360603
281259844,281159188,-1.6051989,0.004407413,1.643915,-1.6339877,-1.6037223,-1.6077038,-1.6809032,37.318497,0.69195795,1.2440343,1.2508998,1.2709045,50.533028,-1.8894463,-1.7755432,-1.806284,-1.5502567,0.0003999406,0.00041660314,0.6969085,0.29930902,0.0029659758
282259822,282159286,-1.3188498,0.0033957332,1.9955149,-1.3441464,-1.3177081,-1.3215188,-1.394151,17.26175,0.091171265,0.45670986,0.4567647,0.40567017,47.850567,-2.0250187,-1.7393723,-1.7930222,-2.176941,0.00029937597,0.00029937597,0.7385859,0.25960252,0.0012128613
283260069,283159383,-1.0279974,0.00312709,2.3430774,-1.0512854,-1.0272489,-1.0301013,-1.0968708,7.3910027,-0.029751778,0.21829128,0.22644043,0.28137875,41.79716,-1.9887447,-1.6687889,-1.7209587,-2.3012352,0.00027451784,0.00027451784,0.76774704,0.23142949,0.00027451784
284259963,284159480,-0.82671005,0.003189107,2.6110377,-0.84791183,-0.82627493,-0.82785803,-0.88554883,1.7528667,-0.27248192,-0.120871544,-0.10826683,0.034668922,34.542282,-2.040947,-1.7632389,-1.798069,-2.321642,0.00029115225,0.00029115225,0.79289085,0.20623581,0.00029115225
285260213,285159576,-0.7327531,0.00361392,2.7622237,-0.7526684,-0.7324748,-0.73315585,-0.7842408,0.047769547,-0.54352665,-0.44416904,-0.43261623,-0.28066444,29.163425,-2.1738873,-1.9629364,-1.9830303,-2.3618603,0.0003514903,0.0003514903,0.8061431,0.19280241,0.0003514903
286260326,286159672,-0.71373767,0.0033938745,2.8193452,-0.7330031,-0.71357155,-0.713688,-0.7607397,0.48139954,-0.37592602,-0.29830265,-0.28909492,-0.17910004,26.499615,-2.02909,-1.8794966,-1.8910017,-2.1404638,0.00032231715,0.00032231715,0.8133871,0.18564592,0.00032231715
287260257,287159767,-0.74190223,0.003695231,2.816014,-0.7608084,-0.74177897,-0.7415376,-0.78618187,0.8005676,-0.34328938,-0.27393818,-0.2665329,-0.20857048,24.777035,-2.1148863,-2.0106459,-2.0177317,-2.1795702,0.00035680833,0.00035680833,0.81779057,0.181139,0.00035680833
288260509,288159862,-0.75875056,0.0035849176,2.823238,-0.7777958,-0.7586706,-0.75819904,-0.80238307,0.7214899,-0.121655464,-0.059708595,-0.05361271,-0.03233242,23.117794,-2.027277,-1.9505272,-1.9551411,-2.0705051,0.0003351511,0.0003351511,0.8208209,0.1781737,0.0003351511
289260481,289159956,-0.74742454,0.0034540386,2.8594065,-0.7664561,-0.74737835,-0.7467406,-0.79040533,0.33201313,-0.048261642,0.006623268,0.011537552,0.0015983582,21.143085,-1.9038401,-1.8495283,-1.8524046,-1.9326601,0.0003100788,0.0003100788,0.8231531,0.17591682,0.0003100788
290260765,290160050,-0.742401,0.0031740505,2.8776844,-0.7612921,-0.7423861,-0.741685,-0.7847636,0.2558136,0.021808624,0.070147514,0.07435322,0.05579281,19.707407,-1.6370983,-1.5945091,-1.5966625,-1.658701,0.0002602049,0.00029960144,0.82423675,0.17491885,0.00028455845
291260816,291160143,-0.6463338,0.0030055305,2.990852,-0.6652799,-0.64634407,-0.6455779,-0.6885335,-0.4397192,0.07637501,0.10151291,0.104291916,0.115468025,15.77546,-1.3937769,-1.3520794,-1.3532162,-1.4220219,0.0002257365,0.00026511887,0.8251591,0.17409591,0.0002542074
292260899,292160236,-0.5390151,0.0029349632,3.112504,-0.5579499,-0.53904605,-0.5382183,-0.58078414,-0.95279217,0.08181286,0.0861187,0.08757782,0.1285305,11.420792,-1.206523,-1.165657,-1.1660128,-1.2393379,0.00020432119,0.00023871016,0.82550013,0.17384706,0.00020972852
293260829,293160328,-0.561698,0.0028943238,3.1056232,-0.5804776,-0.56174517,-0.56086224,-0.60272694,-1.3392811,0.1785326,0.17647648,0.17729568,0.21935844,8.142191,-0.9939594,-0.9549656,-0.9547539,-1.0281973,0.00018769696,0.00021815982,0.8255897,0.17380756,0.00019692579
294261140,294160419,-0.5441145,0.0029259087,3.1406002,-0.562792,-0.5441701,-0.54324675,-0.58465534,-1.2489882,0.21117306,0.2131958,0.21397495,0.2373085,6.230574,-0.87401676,-0.8425789,-0.8422394,-0.9018259,0.0001812269,0.00020381567,0.82556933,0.1738615,0.00018415367
295261154,295160510,-0.56334287,0.0030961428,3.1314874,-0.5819405,-0.5633953,-0.5624431,-0.6035478,-0.8938341,0.13970947,0.1441145,0.14484692,0.15585041,4.5748253,-1.0455523,-1.0234928,-1.0232725,-1.0643749,0.00019376335,0.0001942268,0.8255004,0.17391779,0.00019376335
296261389,296160601,-0.5281307,0.003066856,-3.1093223,-0.5466599,-0.5281982,-0.52721137,-0.5681494,-0.6705694,0.21431541,0.21917629,0.2198124,0.22454739,3.6071053,-0.7312021,-0.7140236,-0.71380997,-0.74594975,0.00017567692,0.0001891376,0.8255377,0.1739146,0.0001829347
297261320,297160691,-0.5429104,0.0031429126,-3.1207645,-0.5615072,-0.542978,-0.5419984,-0.58296394,-0.57311726,0.2506876,0.25495052,0.2554636,0.25758648,2.6362314,-0.6284008,-0.614089,-0.6138401,-0.6410713,0.00017279873,0.00018582004,0.82554674,0.1739191,0.00017545086
298261497,298160780,-0.5327891,0.00319422,-3.1075149,-0.55138844,-0.5328613,-0.5318748,-0.5728141,-0.51929855,0.25305176,0.25512886,0.25545216,0.2594576,1.8031349,-0.47194576,-0.45930672,-0.459013,-0.4836607,0.00016607439,0.00018386147,0.82555753,0.17392157,0.00017098761
299261535,299160870,-0.54996824,0.0032685301,-3.1222947,-0.568487,-0.5500461,-0.54903686,-0.5898449,-0.2895832,0.21615791,0.21637535,0.21653461,0.22248936,1.1696396,-0.40222645,-0.3931074,-0.3929062,-0.41062832,0.00016263839,0.00018248848,0.82555336,0.17393363,0.00016792952
300261738,300160958,-0.52753633,0.003345181,-3.1005619,-0.54613435,-0.5276135,-0.52662015,-0.567515,-0.0044698715,0.25348377,0.25578785,0.25602436,0.2557602,1.1212234,-0.31751442,-0.31258774,-0.31252956,-0.32156467,0.00015906658,0.00018175588,0.82556057,0.17393227,0.00016624118
301261673,301161046,-0.51023924,0.0034096416,-3.0835059,-0.5288583,-0.5103197,-0.509324,-0.5502493,-0.0745039,0.24301624,0.23945713,0.23933983,0.2507267,0.33537865,-0.118572235,-0.11203194,-0.11183548,-0.12503242,0.00015374474,0.00018120809,0.8255617,0.17393835,0.00016489992
302261711,302161134,0.026700562,0.003957107,-2.4809673,0.010148186,0.026744617,0.027550554,-0.009236128,-1.1409626,-0.87891006,-1.0241413,-1.0320129,-0.7091198,-14.988026,1.3609052,1.4112525,1.4136808,1.3001986,0.00028437198,0.00028437198,0.8262518,0.17289513,0.00028437198
303261810,303161220,0.51839465,0.002589354,-1.8270386,0.5083815,0.51852256,0.51886135,0.49602,8.051641,-1.150528,-1.3175077,-1.3239841,-0.94578934,-28.99746,0.2555709,0.27098703,0.27163363,0.23575258,0.00022220587,0.0006450487,0.828484,0.16975525,0.0008934981
304261993,304161307,0.75816035,0.0018090958,-1.4629862,0.75212806,0.7582978,0.758458,0.74450254,15.855542,-0.6450558,-0.74196625,-0.744812,-0.523304,-32.1159,-0.40264225,-0.40144253,-0.40103436,-0.40263748,0.00017577743,0.0008075594,0.829101,0.16849999,0.0014156426
305261940,305161393,0.8260258,0.0015496198,-1.3135314,0.821608,0.8261621,0.8262681,0.8159817,19.986443,-0.22618675,-0.28504562,-0.2865839,-0.15185261,-31.246758,-0.5316429,-0.5337801,-0.5334196,-0.5271759,0.00015857576,0.0008652422,0.8291512,0.16819559,0.0016293669
306262163,306161478,1.1455559,0.001454115,-0.93226874,1.1419642,1.145686,1.1457788,1.1373647,24.550907,-0.05487728,-0.09510422,-0.09610462,-0.0040302277,-28.037033,-0.27398872,-0.28460312,-0.28444672,-0.25944138,0.00014675391,0.0008837581,0.82911056,0.16815777,0.0017011804
307262302,307161563,1.9395763,0.0015050092,0.010567299,1.9371066,1.9397837,1.9398519,1.9337829,43.478146,-0.85580873,-0.88900685,-0.8898022,-0.8136554,-19.862202,-1.0008545,-1.0429707,-1.0432777,-0.9479885,0.00021639028,0.0010009409,0.8288595,0.16768587,0.0022373132
308262378,308161647,2.549374,0.0011341479,0.80531377,2.547658,2.5495665,2.549605,2.5453162,48.13055,0.19364643,0.18417835,0.18403053,0.20606232,-0.827878,-1.0230551,-1.0615482,-1.0618343,-0.9748564,0.00018791795,0.0011022437,0.82848006,0.16746593,0.0027637659
309262552,309161733,3.0936532,0.0009767754,1.4994905,3.092288,3.093843,3.0938663,3.0904,38.582382,0.59788513,0.6006336,0.6009884,0.594759,12.863716,-0.7292483,-0.75408053,-0.75426054,-0.6980903,0.00018130224,0.0011570732,0.82825947,0.16732784,0.0030743936
310262534,310161815,-3.0976884,0.000876579,1.6818691,-3.0985086,-3.0975382,-3.0974894,-3.0997322,30.740952,0.23353767,0.23678589,0.237154,0.22963905,15.037476,0.23531765,0.22077489,0.2207043,0.25367117,0.00015073597,0.0011663119,0.8282796,0.16727726,0.0031260839
311262603,311161897,2.9602146,0.0009286914,1.5207006,2.959116,2.9603755,2.9603937,2.957595,29.898163,0.1760807,0.17599678,0.17616081,0.17630005,11.781798,0.5245497,0.5151539,0.5151174,0.5364406,0.0001552414,0.0011537137,0.82835203,0.16729058,0.0030484388
312262662,312161980,2.817983,0.0010142054,1.4043188,2.816938,2.8181431,2.8181634,2.815482,29.562866,0.07501602,0.07275009,0.072752,0.07792473,8.11161,0.5593567,0.5534792,0.5534587,0.56685257,0.00015611906,0.0011435276,0.8284087,0.16730484,0.002986838
313262744,313162062,2.6657677,0.0011026805,1.2571988,2.664978,2.665919,2.6659606,2.6638067,28.188538,-0.07134247,-0.0742178,-0.07428646,-0.06769276,5.6530027,0.45178223,0.44821882,0.4482069,0.45639277,0.00015308471,0.0011382863,0.82844085,0.16731262,0.0029552383
314262988,314162144,2.6451857,0.0012068135,1.2392652,2.6444032,2.645342,2.645383,2.6432354,26.237995,-0.18623829,-0.18898582,-0.18907928,-0.18276405,4.353994,0.58427143,0.5821681,0.5821605,0.5870571,0.00015810668,0.0011356929,0.8284534,0.16731334,0.0029394133
315262712,315162225,2.700502,0.0012981769,1.2959868,2.6997411,2.7006564,2.7006984,2.698601,23.60391,-0.2935772,-0.295619,-0.2956829,-0.29101276,3.9474368,0.53608847,0.5345931,0.53458023,0.53808546,0.00015663425,0.0011344188,0.8284668,0.16731085,0.0029312738
316262982,316162306,2.7148893,0.00139326,1.3131438,2.7141333,2.7150426,2.7150846,2.713,21.545906,-0.4474163,-0.44881725,-0.44885445,-0.44566822,4.116822,0.42894316,0.4274907,0.42747068,0.43086195,0.00015549998,0.0011341962,0.82847136,0.16730927,0.0029296512
317263008,317162387,2.7851753,0.0015165063,1.387836,2.7844524,2.7853415,2.7853847,2.7833416,19.011963,-0.64886093,-0.64990807,-0.6499405,-0.6475544,4.000429,0.615674,0.6146183,0.61459875,0.6170926,0.00016889894,0.0011341717,0.82846314,0.16730466,0.0029291788
318263129,318162467,2.719517,0.0015797558,1.3331558,2.7185237,2.7196722,2.719694,2.7171345,15.838975,-0.61715794,-0.6171503,-0.6171274,-0.61717606,4.104629,0.06441975,0.06340456,0.06338358,0.065764904,0.0001527008,0.0011344141,0.8284744,0.16730808,0.0029303934
319263040,319162553,-2.9104059,0.0016081424,2.0301921,-2.911077,-2.9102564,-2.9102125,-2.912106,9.215729,-0.67508507,-0.671566,-0.6713486,-0.6795292,8.189482,0.030390441,0.028352644,0.028316457,0.03295811,0.00015450559,0.0011295584,0.8284611,0.16735277,0.002902051
320263307,320162627,3.0525918,0.0016196505,1.766431,3.0516095,3.0527418,3.0527546,3.050252,7.9053545,-0.49287128,-0.49044514,-0.49029732,-0.49594593,6.7569747,0.28483167,0.28349853,0.28347173,0.2865417,0.00014961367,0.0011260024,0.8284628,0.1673803,0.0028812808
321263346,321162706,2.4024029,0.0016770291,1.1386592,2.4016106,2.4025543,2.4025795,2.4004614,13.081364,-0.19317245,-0.1970396,-0.19725037,-0.18834114,-0.6626692,0.6572938,0.65770864,0.6577039,0.6568942,0.00015578877,0.0011257374,0.82845956,0.16737968,0.002879323
322263415,322162785,2.3948495,0.0015582605,1.1957645,2.3941352,2.3949883,2.3950095,2.3930976,12.335359,-0.27780437,-0.28150845,-0.28171253,-0.27316952,-2.3426037,0.2532692,0.25382137,0.25381947,0.25272465,0.00014573392,0.0011302613,0.82846576,0.16735357,0.0029047204
323263328,323162864,2.7207484,0.0015914063,1.5690691,2.7199466,2.7208838,2.7208946,2.7188222,9.40601,-0.2955389,-0.29681873,-0.2968893,-0.2939558,1.5919275,0.04403782,0.04211998,0.042107582,0.046435356,0.00014240255,0.0011321875,0.8284718,0.16733795,0.0029156953
324263389,324162943,2.7360606,0.0016534586,1.6262443,2.7355049,2.7361853,2.7362173,2.734657,6.433238,-0.08112526,-0.08127403,-0.081279755,-0.08095169,2.6100345,0.16312838,0.16117811,0.16116619,0.16556835,0.00013917503,0.0011316476,0.8284781,0.16733867,0.002912482
325263668,325163022,2.8032265,0.0017381641,1.7113582,2.80269,2.8033478,2.8033812,2.801867,4.6805525,-0.0625267,-0.062568665,-0.06257248,-0.06250954,1.7502866,0.065910816,0.06472397,0.06471491,0.067436695,0.0001372043,0.0011309481,0.82848305,0.1673404,0.0029083642
326263693,326163101,2.7487147,0.0018304111,1.6649,2.7479167,2.7488396,2.7488499,2.7468114,3.0340366,-0.015945435,-0.015900612,-0.01590538,-0.01604271,0.924994,0.09180164,0.09146023,0.09145689,0.09230709,0.00013533465,0.0011308165,0.82848525,0.167341,0.0029075467
327263923,327163179,2.701629,0.0019326636,1.6177987,2.7008452,2.7017553,2.7017665,2.6997535,2.3023472,-0.18991089,-0.19007874,-0.19009686,-0.18973541,0.70651054,0.27271032,0.27248192,0.27247906,0.273077,0.00013744053,0.0011307476,0.82848424,0.16734049,0.0029070321
328263715,328163257,2.7101421,0.0020254117,1.6297237,2.7093534,2.7102652,2.7102761,2.7082598,1.8736076,-0.23537731,-0.2356596,-0.23569202,-0.23505688,0.5320344,0.08159256,0.08112717,0.08111858,0.082242966,0.00013368839,0.0011307978,0.8284894,0.16733888,0.00290715
329263904,329163336,2.7414134,0.0021173912,1.6629995,2.7408588,2.7415278,2.7415597,2.740024,1.8434582,-0.07333946,-0.07367897,-0.07372093,-0.07291794,0.4322462,0.03110218,0.030571938,0.030564308,0.031834126,0.00013000809,0.0011307908,0.8284938,0.16733843,0.0029070463
330263846,330163413,2.7364204,0.0022124585,1.6606026,2.735863,2.7365324,2.7365644,2.7350278,0.95298576,-0.052393913,-0.052559853,-0.052578926,-0.05222988,-0.098881245,-0.16202927,-0.16205978,-0.16206503,-0.16189432,0.0001276384,0.0011309041,0.828496,0.16733785,0.0029077388
331264055,331163491,2.755743,0.0023127377,1.6816798,2.7549403,2.7558613,2.7558718,2.7538362,0.30328274,-0.08022404,-0.08019352,-0.08019638,-0.080298424,-0.39381742,-0.31689262,-0.31661463,-0.316617,-0.31713152,0.00012871412,0.0011308258,0.82849586,0.16733727,0.002907389
332264208,332163569,2.7929974,0.0024087955,1.7182921,2.7921877,2.7931163,2.7931259,2.7910755,-0.5142422,-0.2127924,-0.21247959,-0.21246529,-0.21321964,-0.40364504,-0.35635376,-0.35586643,-0.3558674,-0.35684347,0.00012923722,0.0011303583,0.8284976,0.16733797,0.0029048962
333264203,333163646,2.7946248,0.0024968903,1.7206274,2.7938163,2.7947419,2.7947514,2.792708,-0.843132,-0.30627155,-0.30586243,-0.3058443,-0.30681038,-0.19516802,-0.24896431,-0.24852133,-0.24852228,-0.24940586,0.00012716641,0.0011296218,0.8285017,0.16734068,0.0029008163
334264177,334163723,2.7944093,0.002605036,1.720108,2.793613,2.7945366,2.7945464,2.7925065,-0.59226894,-0.46313477,-0.462924,-0.46291924,-0.4634304,-0.2230587,-0.470963,-0.47093773,-0.47094107,-0.47090816,0.00013887307,0.0011288733,0.8284943,0.16734119,0.0028967492
335264352,335163800,2.7886703,0.0027360488,1.7142189,2.7879012,2.7888238,2.7888339,2.7867959,-0.3770399,-0.57708836,-0.5769377,-0.5769377,-0.57731533,0.35734224,-0.3233552,-0.32386637,-0.323874,-0.32265615,0.00016860144,0.0011288911,0.82846975,0.16733581,0.0028970295
336264339,336163877,2.8068116,0.0027887926,1.73958,2.80631,2.806948,2.806982,2.8055086,0.45871925,-0.3217163,-0.32167053,-0.32167244,-0.32179832,0.85017204,-0.5344982,-0.53588915,-0.53590345,-0.53274345,0.00015653847,0.0011306657,0.8284726,0.16733296,0.002907198
337264389,337163954,2.7093105,0.002806583,1.6578063,2.7085323,2.7094183,2.70943,2.7074695,1.2943792,-0.13546371,-0.13604927,-0.13609886,-0.13474274,0.106799126,-0.31586552,-0.31680107,-0.31681252,-0.31466198,0.00011863141,0.0011326404,0.8284971,0.16733305,0.0029185757
338264654,338164031,2.4113374,0.0027616995,1.4044132,2.4106836,2.4114392,2.4114573,2.4097657,3.1950788,0.27083206,0.26861858,0.26846218,0.2736206,-2.9253845,-0.32750893,-0.3266344,-0.3266344,-0.32845402,0.00011713349,0.001131952,0.82849646,0.16733974,0.0029147079
339254822,339154106,2.1710043,0.002327659,1.3309289,2.1705554,2.1710978,2.1711166,2.1698852,3.5181446,0.15475273,0.15213108,0.15194035,0.1580677,-4.864503,-0.52133083,-0.5187931,-0.51880074,-0.5242405,0.00012403731,0.0011276267,0.82850325,0.16735466,0.0028903636
340264891,340164184,1.8881694,0.0017727347,1.249982,1.8879579,1.8882471,1.8882676,1.8875817,3.184937,0.322886,0.3209505,0.32077885,0.32537985,-5.9592466,-0.5914955,-0.5872307,-0.587286,-0.5964222,0.00013246037,0.0011194899,0.8285297,0.16737354,0.0028447655
341264721,341164260,1.6865819,0.0012530206,1.2409692,1.6865664,1.6866324,1.6866547,1.6864501,2.0251856,-0.001478672,-0.0021517277,-0.002282858,-0.00053191185,-4.915882,-0.39367104,-0.38957977,-0.38968277,-0.39837646,0.000124428,0.0011100529,0.8286005,0.16737236,0.002792657
342264768,342164336,1.3380376,0.0010113858,0.9975616,1.3381083,1.3380734,1.3380966,1.338111,1.0343528,-0.06358147,-0.0637722,-0.06385684,-0.063289165,-4.3604803,-0.17749214,-0.17360115,-0.1737175,-0.18195724,0.0001190436,0.0011064082,0.8286363,0.16736557,0.0027726796
343254914,343154411,1.191896,0.00090458157,0.91420346,1.1920009,1.1919242,1.1919467,1.1920537,0.38806152,-0.24221516,-0.24238968,-0.2424283,-0.24202204,-3.4827356,-0.08379364,-0.080718994,-0.08080101,-0.08730316,0.00011855174,0.0011050367,0.8286512,0.16735996,0.0027651829
344265075,344164487,0.9059659,0.0008269804,0.68059266,0.90603435,0.90598905,0.9060059,0.90605783,-0.24361897,-0.32210064,-0.3225851,-0.32255936,-0.32164764,-2.7216406,-0.00067806244,0.0016784668,0.0016241074,-0.0033636093,0.00011719071,0.0011048842,0.82865494,0.16735883,0.0027641943
345265293,345164563,0.65176743,0.0007772049,0.4663878,0.65177464,0.6517874,0.6517967,0.6517397,-0.76762486,-0.35696316,-0.35804272,-0.35793686,-0.35594463,-2.098937,-0.0016622543,0.00013923645,9.6321106e-05,-0.003704071,0.000116364856,0.0011057182,0.8286429,0.16736674,0.002768281
346255357,346154637,0.3985599,0.00075447786,0.24306962,0.39849687,0.39857858,0.3985803,0.3983921,-1.0955582,-0.4586029,-0.46014023,-0.4599762,-0.45713234,-1.4093661,0.11508608,0.116490364,0.116446495,0.113526344,0.00011837014,0.0011087268,0.8285926,0.16739684,0.0027834189
347255288,347154712,0.16866851,0.0007398347,0.036931768,0.1685479,0.1686861,0.16868182,0.16838613,-1.4128246,-0.51771736,-0.5197277,-0.51952744,-0.51576614,-0.82782614,0.21052098,0.2116592,0.21160698,0.20929885,0.000120783574,0.0011123299,0.8285301,0.16743518,0.0028016092
348265254,348164788,-0.028645534,0.0007205725,-0.1384778,-0.028807681,-0.02862923,-0.02863779,-0.029008962,-1.4230194,-0.5351391,-0.53707886,-0.53689384,-0.5332451,-0.23259187,0.34132063,0.34213293,0.3420812,0.3404994,0.00012405353,0.0011168729,0.8284547,0.1674797,0.0028246955
349265329,349164862,-0.29207155,0.00072409416,-0.38661847,-0.2922358,-0.29205728,-0.29206645,-0.29243475,-0.9729662,-0.091272354,-0.093076706,-0.09288788,-0.089509964,0.28829813,0.5573411,0.5577712,0.5577316,0.5569582,0.0001217211,0.001118746,0.8284267,0.16749871,0.0028341042
350255700,350154936,-0.49966738,0.00074327626,-0.58295083,-0.49980316,-0.4996544,-0.49966162,-0.49996862,-0.76219845,0.042164803,0.040603638,0.040769577,0.043693542,0.6246271,0.71309376,0.71315575,0.71313095,0.71312237,0.00012928782,0.0011190714,0.8284124,0.16750365,0.0028354854
351255712,351155010,-0.7156685,0.0007474311,-0.7869705,-0.7157557,-0.7156582,-0.71566236,-0.715864,-0.5580015,0.13884926,0.13756466,0.13769722,0.14011478,0.7040367,0.60793686,0.6074228,0.6074295,0.60859966,0.00012600078,0.0011181136,0.8284261,0.16749978,0.0028300867
352265539,352165085,-0.9595712,0.0007315122,-1.0181072,-0.95958334,-0.9595637,-0.959562,-0.95960605,-0.116345406,0.4219694,0.42093658,0.4210348,0.42299747,0.84599686,0.5946388,0.5933666,0.59342766,0.5961113,0.00013087275,0.0011147449,0.8284676,0.16747472,0.0028120195
353255838,353155158,-1.2248459,0.0007485371,-1.2757121,-1.224777,-1.2248406,-1.2248325,-1.2247095,0.038294792,0.4666648,0.4657421,0.465827,0.4675908,0.9994259,0.690485,0.688797,0.6888943,0.6924038,0.00013689573,0.0011114499,0.8285077,0.16744955,0.002794362
354255751,354155232,-1.4667804,0.00072292093,-1.507591,-1.4666499,-1.4667779,-1.4667653,-1.4665111,0.3377999,0.60265505,0.6018855,0.6019464,0.603433,0.8190403,0.4714775,0.46939468,0.46952248,0.4737873,0.0001343772,0.0011061161,0.82858247,0.16741097,0.0027661112
355265793,355165306,-1.7145804,0.00071670284,-1.7483741,-1.7144207,-1.7145795,-1.7145654,-1.7142477,0.34850454,0.49393225,0.49340343,0.49343634,0.49446058,0.6624775,0.31497765,0.3128624,0.31298828,0.31732178,0.00012979978,0.0011024114,0.8286348,0.16738637,0.0027466079
356265879,356165379,-1.9503368,0.0007089892,-1.9781663,-1.9501837,-1.9503363,-1.9503232,-1.9500164,0.6152477,0.6661148,0.6659956,0.6659937,0.666193,0.5054779,0.1859932,0.18408012,0.18419456,0.18811417,0.00013706465,0.0011005361,0.82865167,0.16737375,0.0027369068
357255983,357155452,-2.2054296,0.0006937269,-2.228025,-2.2053242,-2.2054286,-2.205421,-2.2052076,0.5518217,0.52457714,0.5251217,0.5250673,0.52392197,0.10522556,-0.17856026,-0.18022919,-0.18012524,-0.17672253,0.0001333538,0.001100975,0.82864594,0.16738038,0.002739376
358256225,358155524,-2.554805,0.00069723657,-2.573621,-2.5548084,-2.554802,-2.5548048,-2.5548086,0.4604702,0.38479614,0.38601875,0.38591576,0.38339806,0.04737568,-0.19280338,-0.1942501,-0.19414997,-0.19120407,0.00013041493,0.0011024289,0.8286256,0.16739447,0.0027471601
359266090,359165597,-2.8769133,0.0006469874,-2.8909495,-2.8770082,-2.876909,-2.8769197,-2.8771086,0.33605576,0.21773148,0.21992683,0.21975327,0.21529007,0.24028039,0.08186507,0.08069754,0.08077526,0.083174944,0.000121728764,0.001104864,0.82859623,0.16741703,0.0027601037
360256352,360155669,3.1163106,0.0006453438,3.1048112,3.1161675,3.1163154,3.1163006,3.1160142,0.2238102,0.09684563,0.09936905,0.09916496,0.09405136,-0.10083461,-0.20515239,-0.20611382,-0.2060566,-0.20404744,0.00011758143,0.0011059289,0.8285838,0.16742696,0.002765737
361256443,361155741,2.7894745,0.000633176,2.780285,2.7893357,2.789479,2.7894645,2.7891865,-0.20030975,-0.31645012,-0.31409073,-0.31428528,-0.31905556,-0.10467291,-0.15743494,-0.15799236,-0.15797424,-0.1567502,0.00011759678,0.0011057502,0.828587,0.16742495,0.0027647405
362256515,362155813,2.4429955,0.0006230533,2.4355683,2.4429247,2.4429982,2.44299,2.4428492,-0.17004395,-0.27398872,-0.27195168,-0.2721157,-0.27624702,0.38411808,0.37147617,0.37167645,0.37161922,0.37137985,0.00012070171,0.0011044741,0.82860106,0.16741598,0.0027577463
363266602,363165885,2.2673862,0.0006163134,2.2613807,2.267355,2.2673879,2.2673829,2.267321,-0.29807663,-0.3794222,-0.37782192,-0.37795544,-0.38118744,0.21243858,0.22227287,0.22328377,0.22314644,0.22131157,0.00012917285,0.0011034766,0.82860416,0.16741104,0.0027521225
364256586,364155955,1.8913376,0.00062847906,1.886257,1.8914138,1.891337,1.8913417,1.8914958,0.06553364,0.004553795,0.005853653,0.0057377815,0.003145218,0.43672562,0.46167374,0.46351814,0.46331024,0.45982742,0.00013312005,0.0011042353,0.8285838,0.16742314,0.0027557972
365256504,365156027,1.637248,0.0006335722,1.6329955,1.6373743,1.6372461,1.6372561,1.637509,-0.052327156,-0.09522796,-0.09411001,-0.094216585,-0.09642792,0.5194149,0.5518112,0.55420685,0.5539417,0.54937935,0.00013902978,0.0011074652,0.82851523,0.16746607,0.0027722237
366266578,366166098,1.4030668,0.00063061115,1.3995903,1.4032168,1.403064,1.4030769,1.4033763,0.1455617,0.12191677,0.12272024,0.12263155,0.12106228,0.47618103,0.5077915,0.51016235,0.509922,0.5053501,0.0001450638,0.0011106787,0.8284498,0.16750571,0.0027886964
367256653,367156169,1.1368713,0.0006406964,1.1339468,1.1370012,1.136869,1.1368805,1.1371375,-0.092591286,-0.103569984,-0.10319233,-0.1032505,-0.10397625,0.512455,0.542717,0.5449257,0.5447006,0.540432,0.0001505217,0.0011140082,0.82838404,0.1675455,0.0028059224
368256944,368156239,0.92444086,0.0006725513,0.92189807,0.9245266,0.9244393,0.9244473,0.92461514,-0.03287697,-0.036107063,-0.03616333,-0.036190033,-0.036055565,0.3875742,0.4139719,0.41586876,0.41567612,0.41201782,0.00015449926,0.0011159691,0.828345,0.16756849,0.0028160699
369257011,369156309,0.647209,0.00069148303,0.6450734,0.64721715,0.647209,0.64721066,0.6472207,-0.09431553,-0.09048748,-0.091137886,-0.09111595,-0.08981705,0.3405962,0.36157513,0.36308956,0.36293888,0.3600273,0.00015908603,0.001118277,0.8283008,0.1675939,0.0028280027
370266818,370166380,0.45009232,0.0006926774,0.4483536,0.45004395,0.45009342,0.45009068,0.4499858,-0.26096153,-0.2512188,-0.25257492,-0.2524948,-0.24980545,0.39401293,0.40894556,0.41014814,0.41001892,0.40774775,0.00016226318,0.0011208252,0.82825536,0.16762036,0.0028411278
371257249,371156449,0.2098999,0.0007334014,0.20837039,0.2097942,0.20990221,0.20989445,0.20967396,-0.0742321,-0.0631237,-0.0647068,-0.064611435,-0.06147957,0.08228445,0.09342909,0.09444952,0.09433365,0.09242964,0.00016351137,0.0011221055,0.82823235,0.16763438,0.002847693
372257024,372156519,-0.026396042,0.0007323929,-0.027649995,-0.026540661,-0.026393035,-0.02640346,-0.026703198,-0.0002975464,0.013244629,0.011297226,0.01143837,0.015270233,0.31793135,0.32460624,0.3254068,0.32531244,0.32384944,0.00016481597,0.0011235235,0.8282053,0.16765153,0.00285488
373257066,373156588,-0.19055183,0.0007444146,-0.19161017,-0.19071132,-0.19054857,-0.19055997,-0.1908893,0.0947113,0.10750389,0.105644226,0.105793,0.10942078,0.45388746,0.4575553,0.45811224,0.45803738,0.45706892,0.00016602407,0.0011242011,0.82818896,0.16766271,0.00285813
374257315,374156657,-0.4192603,0.000776726,-0.4202014,-0.41939494,-0.4192577,-0.41926655,-0.4195454,0.04076481,0.05266285,0.050949097,0.051088333,0.0544281,0.45683622,0.45871115,0.45900202,0.4589486,0.45851374,0.0001668916,0.001124309,0.8281821,0.16766837,0.00285838
375257194,375156726,-0.6434777,0.0007879243,-0.644294,-0.6435679,-0.6434761,-0.64348084,-0.6436689,0.2101345,0.22064018,0.21914387,0.21927166,0.22218037,0.63388157,0.63415146,0.63399315,0.63397217,0.63444424,0.00016763272,0.0011237108,0.8281845,0.16766936,0.0028547656
376257300,376156795,-0.8738774,0.0007732062,-0.87456775,-0.87390506,-0.87387717,-0.8738765,-0.8739366,0.33676815,0.34533596,0.3441019,0.3442068,0.34661865,0.6212349,0.620409,0.6195564,0.61959267,0.6214428,0.0001681428,0.0011216758,0.8282091,0.16765763,0.0028434463
377257546,377156864,-1.1055593,0.0007920735,-1.1061898,-1.1055143,-1.1055607,-1.1055541,-1.1054655,0.2903781,0.29750586,0.2964182,0.29650593,0.29864502,0.5376339,0.5365181,0.53520584,0.5352783,0.5380478,0.00016842883,0.0011192779,0.8282413,0.16764063,0.0028303647
378257449,378156932,-1.3377736,0.00077153,-1.3383174,-1.3376628,-1.3377764,-1.3377638,-1.3375413,0.41012466,0.4151088,0.41421342,0.41427565,0.41605854,0.44325066,0.44218063,0.4404335,0.44054413,0.44416428,0.00016879957,0.0011149221,0.8283007,0.16760877,0.0028068402
379257633,379157001,-1.5696551,0.0007654065,-1.570136,-1.5695008,-1.5696588,-1.5696427,-1.5693303,0.5427377,0.54610205,0.54538774,0.5454254,0.54686403,0.39468575,0.39365196,0.39167786,0.39180565,0.39586258,0.00016896958,0.0011116973,0.8283436,0.16758622,0.002789587
380257539,380157069,-1.8162379,0.0007588307,-1.8166537,-1.816074,-1.8162417,-1.8162254,-1.8158915,0.593637,0.5954313,0.5950146,0.5950179,0.5958743,0.33106804,0.33009338,0.32819748,0.32831955,0.33221626,0.00016909366,0.001109432,0.8283708,0.16757327,0.002777542
381257773,381157137,-2.10502,0.00077106955,-2.1053677,-2.1049032,-2.1050227,-2.1050115,-2.1047697,0.54612064,0.54666805,0.546607,0.5465765,0.5467205,0.16228008,0.16134262,0.15961361,0.15973282,0.1632843,0.00016913365,0.0011086196,0.8283765,0.1675725,0.002773255
382257722,382157204,-2.3477519,0.0007289766,-2.3480122,-2.3476892,-2.3477533,-2.3477473,-2.347613,0.3147812,0.3132038,0.313982,0.31386948,0.31233597,-0.2102375,-0.21105385,-0.21253777,-0.21242714,-0.20940876,0.00016917445,0.0011094986,0.8283562,0.16758709,0.0027779685
383257751,383157272,-2.676286,0.00072412187,-2.6764631,-2.676326,-2.676285,-2.676289,-2.676361,0.19076729,0.18746948,0.18907928,0.18889427,0.18570328,-0.0872159,-0.087780476,-0.08908987,-0.088991165,-0.08632374,0.0001691556,0.0011108498,0.8283307,0.16760407,0.0027851544
384258238,384157339,-2.981714,0.00069828384,-2.9818175,-2.981831,-2.9817114,-2.9817226,-2.9819493,0.5827141,0.5783558,0.58055115,0.5803242,0.575943,-0.37787783,-0.37795603,-0.37887442,-0.37880528,-0.37690032,0.00016891048,0.001113871,0.82827634,0.16763957,0.0028012567
385258034,385157406,-2.4112315,0.0007513478,-2.4113798,-2.4112139,-2.4112318,-2.4112313,-2.4111874,2.0077972,2.006956,2.00743,2.007348,2.0064278,-0.45213938,-0.45239353,-0.4522214,-0.4522543,-0.45243692,0.00036449722,0.0011185464,0.8280176,0.16767198,0.0028274045
386258083,386157474,-1.5703534,0.00074255484,-1.5705801,-1.5701246,-1.5703582,-1.570338,-1.5698714,2.4707897,2.4711668,2.471023,2.4709954,2.471308,1.8850784,1.8842783,1.8857708,1.8856068,1.8828917,0.0017526862,0.0017531572,0.8262395,0.16741665,0.002837939
387258160,387157540,-1.0215735,0.00064261665,-1.0217419,-1.021413,-1.0215769,-1.0215625,-1.0212368,1.1656642,1.1644645,1.1651921,1.1650877,1.1636624,1.9686098,1.9678822,1.9693894,1.9692326,1.966454,0.001758429,0.0017701844,0.82600695,0.1675712,0.0028933077
388260861,388157607,-0.92179114,0.0006533334,-0.9218998,-0.9217443,-0.921792,-0.92178786,-0.92169255,0.24427032,0.24132276,0.24309087,0.24289012,0.23941445,1.9121988,1.911762,1.9126537,1.9125524,1.9109585,0.0017601692,0.0017794959,0.82588637,0.16765021,0.0029237727
389258250,389157674,-0.53192,0.0006855145,-0.5319822,-0.5319406,-0.53191936,-0.5319216,-0.5319619,1.305264,1.3022003,1.3040292,1.3038237,1.3002338,0.4085546,0.40809965,0.40879953,0.40871197,0.4074918,0.0017569445,0.0017879813,0.82578003,0.16772287,0.0029522413
390258437,390157740,0.6894849,0.0007657533,0.689377,0.68957615,0.68948305,0.6894906,0.6896751,1.8225338,1.820874,1.8218658,1.8217326,1.8197939,-0.25510585,-0.25536954,-0.25499523,-0.25505316,-0.25563824,0.0017541079,0.0017917734,0.82573134,0.16775714,0.0029655758
391258587,391157807,0.98215413,0.00083768426,0.9820936,0.98214114,0.9821546,0.98215324,0.9821262,2.1496882,2.1482368,2.1490908,2.1489658,2.1472979,-0.3508047,-0.35133386,-0.35065377,-0.3507433,-0.3519168,0.0017468443,0.0018023077,0.82558864,0.16785982,0.0030024406
392258574,392157873,1.3233232,0.00090210466,1.3231583,1.3235416,1.3233185,1.3233379,1.3237753,2.3677418,2.3660498,2.3670397,2.3668973,2.3649685,0.056254596,0.055647165,0.05639991,0.056298703,0.054994315,0.0017405096,0.001812192,0.8254463,0.16796386,0.0030371565
393258538,393157940,1.1071289,0.0009529855,1.1069853,1.1073017,1.1071252,1.1071404,1.1074847,2.3901966,2.3894155,2.3898542,2.3897526,2.388909,0.31179303,0.31110275,0.3119393,0.3118224,0.31037182,0.0017345042,0.0018213316,0.82529294,0.16808146,0.003069749
394258707,394158006,0.57621884,0.0010185705,0.57610524,0.57635033,0.5762159,0.57622814,0.576488,2.1585567,2.1579964,2.158302,2.158209,2.157632,0.42782116,0.42722738,0.42795336,0.4278463,0.42661214,0.0017323474,0.0018254786,0.8252036,0.16815403,0.0030845627
395258775,395158073,0.31752315,0.0010891994,0.3173767,0.31773096,0.31751844,0.31753746,0.31795004,1.8782818,1.8777263,1.878031,1.8779366,1.8773701,0.5196152,0.5191263,0.51973194,0.51963556,0.5186382,0.0017302687,0.0018297898,0.8251012,0.16823891,0.003099846
396258731,396158139,0.27268293,0.0011639221,0.27253237,0.27290207,0.27267793,0.27269828,0.27313292,1.5175288,1.5169017,1.5172493,1.5171497,1.516496,0.4976334,0.49723643,0.49773514,0.49764824,0.49685925,0.0017278083,0.0018347648,0.8249865,0.16833346,0.003117388
397259011,397158206,0.3064923,0.0012492511,0.30634543,0.30670524,0.30648744,0.30650723,0.30692893,1.6375997,1.6371472,1.6373918,1.6373022,1.6368549,0.5157093,0.51538795,0.5157975,0.5157194,0.515103,0.0017262587,0.0018377271,0.82491046,0.16839768,0.0031278902
398259104,398158273,0.32015583,0.0013417875,0.32001042,0.32036602,0.320151,0.32017067,0.3205865,1.4021704,1.4017084,1.4019616,1.4018695,1.4014103,0.49576414,0.4954906,0.49584317,0.4957714,0.49526078,0.0017252134,0.0018396823,0.82485443,0.1684459,0.0031347855
399259113,399158340,0.27775294,0.0014305072,0.27760363,0.2779723,0.27774787,0.27776855,0.27820253,1.2084475,1.2079453,1.2082229,1.2081294,1.2076159,0.4823656,0.48212814,0.48243767,0.4823707,0.48194003,0.0017237691,0.0018423714,0.82478046,0.16850923,0.0031442498
400259029,400158407,0.2140021,0.0015223256,0.21384743,0.21423306,0.21399674,0.21401858,0.21447545,1.1338048,1.1334491,1.1336331,1.1335506,1.1332088,0.5783946,0.5781788,0.5784634,0.5783981,0.57801735,0.0017228384,0.0018441661,0.8247266,0.16855589,0.0031505767
401259241,401158474,0.13982257,0.0016165446,0.13966271,0.14006373,0.13981692,0.13983989,0.14031719,1.1023159,1.1019382,1.1021366,1.1020541,1.1016879,0.59755874,0.5973673,0.59762394,0.59756124,0.5972351,0.0017222479,0.0018454514,0.82468635,0.16859093,0.0031549986
402259193,402158542,0.10938464,0.0017083755,0.10922319,0.10962912,0.10937893,0.10940216,0.10988605,0.8701608,0.8698671,0.8700135,0.8699343,0.86966586,0.6486204,0.64843744,0.6486848,0.64862233,0.64831704,0.0017216355,0.0018469519,0.82463425,0.1686371,0.0031600734
403259218,403158609,0.09417731,0.0018016476,0.094015114,0.09442328,0.094171554,0.09419494,0.094681814,0.7425728,0.74224997,0.74241257,0.7423334,0.74203444,0.65951467,0.6593508,0.65957606,0.6595159,0.65925443,0.0017211923,0.0018482255,0.824593,0.16867344,0.0031642045
404259253,404158677,0.07940262,0.0018952533,0.07923984,0.07964987,0.07939682,0.0794204,0.07990973,0.594939,0.59460187,0.5947716,0.59469295,0.5943754,0.6883238,0.68818325,0.688382,0.68832374,0.6881168,0.0017208313,0.0018493991,0.8245558,0.1687061,0.0031678663
405259332,405158745,0.10608566,0.0019895446,0.10592414,0.10633072,0.10607992,0.10610322,0.10658833,0.4595344,0.4591372,0.45934176,0.45926023,0.45887065,0.7626778,0.76256,0.7627326,0.76267666,0.76252204,0.0017204963,0.0018504633,0.8245211,0.16873682,0.003171102
406259392,406158813,0.11564411,0.0020838142,0.11548303,0.11588826,0.115638405,0.115661524,0.11614491,0.47111583,0.4707315,0.47092795,0.47084498,0.47046876,0.7831236,0.7830174,0.78317624,0.78312176,0.7829945,0.0017202164,0.0018514249,0.82448864,0.16876586,0.0031739457
407259472,407158882,0.098123446,0.0021736398,0.097961605,0.09836879,0.09811774,0.09814084,0.09862715,0.66495657,0.66453886,0.6647556,0.66467214,0.66425157,0.6982065,0.6981914,0.69824356,0.69819915,0.6982838,0.0017199327,0.0018521108,0.8244612,0.1687909,0.003175787
408259520,408158951,0.2156375,0.002250783,0.21548347,0.21586792,0.21563224,0.21565332,0.21611127,0.65940857,0.65901136,0.65921426,0.6591337,0.6587329,0.50362635,0.5036541,0.5036551,0.5036158,0.5037992,0.0017193933,0.001852717,0.82443273,0.16881754,0.0031776729
409259603,409159020,0.2520402,0.0023304778,0.25201437,0.25195524,0.25204253,0.25203344,0.25186217,0.97052324,0.97022676,0.9703672,0.97029376,0.9700105,0.35372943,0.35372978,0.35376152,0.35371935,0.35384083,0.0017186783,0.0018534391,0.82439864,0.16884913,0.003180225
410259682,410159089,0.273713,0.0024105695,0.27368483,0.27363262,0.2737153,0.27370617,0.27354646,1.6119189,1.6120527,1.6119289,1.6118789,1.6121113,0.447286,0.4473344,0.4473101,0.44727397,0.44750285,0.0017183827,0.001853116,0.8243668,0.16888219,0.0031794722
411259864,411159159,0.31807378,0.0024808166,0.31793013,0.3182805,0.3180692,0.31808743,0.31850442,2.0451577,2.0457826,2.0453577,2.0453334,2.046162,0.72002554,0.72002745,0.7200563,0.7200146,0.7201407,0.0017194987,0.0018504069,0.824352,0.16890766,0.0031703818
412259836,412159229,0.26013795,0.0025627154,0.25998938,0.2603526,0.26013318,0.26015213,0.2605874,1.7692634,1.7690027,1.7691227,1.7690516,1.7688086,1.3588536,1.3587327,1.3589,1.3588456,1.3587017,0.001720035,0.0018492619,0.8242833,0.16898133,0.0031661312
413260010,413159300,0.29369363,0.0026321618,0.29354784,0.29390088,0.29368907,0.29370704,0.29412827,1.4247966,1.4241514,1.4245051,1.424414,1.4237063,1.369333,1.3691609,1.3693875,1.3693268,1.3690698,0.001718637,0.0018521526,0.8242054,0.16904782,0.0031759779
414259912,414159371,0.41346562,0.0026264382,0.41333506,0.41364187,0.41346186,0.41347662,0.41383556,1.0751215,1.0742387,1.074737,1.0746346,1.0736405,1.109843,1.1096357,1.1098993,1.1098341,1.1095079,0.0017161036,0.0018576733,0.8240869,0.16914439,0.0031948923
415260041,415159442,0.43898156,0.0026442972,0.43894136,0.43892598,0.43898332,0.43897572,0.438872,0.82256424,0.8220051,0.82230747,0.8222227,0.82161933,0.5847394,0.5845737,0.5847866,0.5847266,0.58449405,0.0017145334,0.0018609979,0.82401526,0.16920283,0.0032063364
416260048,416159513,0.37128773,0.0027249425,0.37125602,0.37121326,0.37128994,0.3712809,0.37113938,1.2874964,1.2878084,1.2875806,1.2875404,1.287992,0.719048,0.71892786,0.7190914,0.71903706,0.718899,0.0017145313,0.001860932,0.8239751,0.16924334,0.0032061548
417260150,417159586,0.2792245,0.0028089376,0.27920264,0.27912715,0.27922723,0.27921635,0.27902913,0.93462056,0.9342503,0.93443906,0.9343641,0.9339908,1.2016132,1.201485,1.2016566,1.2016034,1.2014503,0.0017145269,0.001861462,0.8239221,0.16929467,0.0032073765
418260196,418159658,0.4631538,0.0028200184,0.46303415,0.46330667,0.4631506,0.463163,0.46347558,0.5026842,0.5018205,0.5023096,0.5022113,0.50123936,0.8526695,0.85249317,0.8527156,0.8526551,0.8524064,0.0017134489,0.0018641148,0.82386047,0.1693461,0.0032159544
419260307,419159731,0.574746,0.0028103096,0.57464623,0.57485986,0.5747438,0.5747523,0.5749858,0.33506617,0.334311,0.33473587,0.33464524,0.33379975,0.49823204,0.49803942,0.4982753,0.49821147,0.49793768,0.0017127189,0.0018660685,0.823818,0.16938089,0.0032223298
420260483,420159804,0.6442838,0.0028437267,0.644197,0.6443711,0.6442822,0.6442877,0.6444682,0.2947828,0.29424378,0.29453856,0.29446018,0.29387316,0.25185564,0.25168958,0.2518958,0.2518342,0.25161636,0.0017122871,0.0018670841,0.8237938,0.16940108,0.0032257093
421260462,421159878,0.67963064,0.0029096776,0.6795511,0.6797046,0.6796295,0.67963326,0.6797864,0.31858495,0.31817675,0.31839293,0.3183235,0.31789184,-0.030516773,-0.030653864,-0.030478746,-0.030536532,-0.030699372,0.0017120128,0.001867536,0.8237814,0.1694117,0.0032273338
422260498,422159952,0.67153496,0.0029951402,0.6714766,0.6715376,0.67153555,0.671532,0.67154276,0.16075985,0.16053933,0.16064015,0.16058,0.16037628,-0.04514932,-0.045272723,-0.04511129,-0.04516857,-0.04530347,0.0017117114,0.001867767,0.82377195,0.16942012,0.0032284486
423260576,423160027,0.6757289,0.0030884657,0.67565006,0.67580396,0.6757277,0.67573166,0.67588574,0.31577128,0.3156317,0.31568238,0.3156262,0.31552148,0.03941514,0.03929565,0.039453767,0.03939598,0.039269783,0.001711579,0.0018678871,0.8237641,0.16942745,0.0032289757
424260643,424160102,0.64360255,0.0031848894,0.64351934,0.6436893,0.64360106,0.6436061,0.64378256,0.053934142,0.053806454,0.053849295,0.05379337,0.053703874,0.10089772,0.10080263,0.10093749,0.10088146,0.10080279,0.0017115292,0.0018679871,0.8237581,0.16943309,0.0032292907
425260872,425160177,0.64998287,0.003283,0.6499006,0.6500673,0.6499815,0.6499864,0.6501584,0.17170525,0.17156905,0.17161673,0.17156044,0.17146108,0.12763488,0.1275567,0.1276754,0.12762073,0.12757455,0.0017115223,0.0018680593,0.82375455,0.16943632,0.0032294504
426260798,426160253,0.6571202,0.003380732,0.6570389,0.65720195,0.65711886,0.65712327,0.6572903,-0.046779316,-0.046888534,-0.046857655,-0.04691259,-0.04697877,0.13867058,0.13860789,0.13871157,0.13865824,0.13864169,0.0017115099,0.0018681313,0.8237504,0.16944039,0.0032296043
427260946,427160330,0.6562507,0.0034787331,0.6561694,0.6563326,0.6562494,0.6562536,0.65642124,0.03716097,0.037034743,0.037075937,0.037019923,0.036933612,0.22683133,0.22676466,0.22687255,0.22681835,0.22679524,0.0017115,0.0018682409,0.823744,0.16944648,0.003229814
428261004,428160407,0.6519805,0.0035759262,0.65189874,0.65206397,0.6519792,0.6519836,0.6521541,-0.04917752,-0.049310602,-0.049265206,-0.049321666,-0.049416065,0.19579193,0.19571969,0.19583324,0.19577804,0.19574553,0.0017115202,0.0018683544,0.8237388,0.16945143,0.0032299813
429261060,429160484,0.64645433,0.003672554,0.64637166,0.64653957,0.64645296,0.64645743,0.6466317,0.15104917,0.15091595,0.15096122,0.15090486,0.1508103,0.23818727,0.23812054,0.23822875,0.23817398,0.23815243,0.0017115044,0.0018684905,0.8237312,0.16945854,0.0032302584
430261152,430160562,0.6417079,0.003769687,0.6416245,0.64179474,0.64170647,0.6417112,0.64188856,0.18740037,0.18728922,0.1873208,0.1872656,0.1871977,0.20842904,0.2083419,0.20847014,0.2084128,0.20835356,0.0017114404,0.001868656,0.82372063,0.16946854,0.0032306951
431261199,431160640,0.61778367,0.0038647845,0.6176967,0.61787885,0.6177822,0.6177874,0.61798114,0.12770337,0.12756726,0.12761423,0.12755826,0.12745911,0.29529506,0.29519945,0.2953356,0.2952774,0.29520285,0.001711399,0.0018688728,0.82370955,0.16947901,0.0032312167
432261294,432160723,0.56050724,0.003959018,0.56046593,0.5604724,0.5605089,0.5605016,0.560436,0.12580416,0.12568006,0.12571967,0.12566425,0.12557869,0.29888284,0.2987888,0.29892316,0.29886532,0.29879376,0.001711389,0.0018691019,0.8236992,0.1694886,0.0032317166
433261441,433160799,0.598142,0.004054091,0.59805226,0.59824425,0.59814036,0.5981462,0.59835327,0.064610675,0.06446665,0.06451816,0.064461514,0.064351626,0.30497673,0.3048987,0.3050176,0.3049616,0.3049205,0.0017114094,0.0018693197,0.8236894,0.16949771,0.0032321045
434261499,434160879,0.5633652,0.00414991,0.56327033,0.56347877,0.5633632,0.56337005,0.56360054,0.14757556,0.1474526,0.14749095,0.14743535,0.14735106,0.33817866,0.33810014,0.3382193,0.33816317,0.33812165,0.0017114002,0.0018695416,0.823678,0.16950847,0.0032325373
435261530,435160959,0.56055397,0.0042445874,0.5604586,0.5606686,0.56055194,0.5605589,0.56079113,0.13268706,0.13253011,0.13258918,0.13253185,0.1324064,0.37683785,0.37676057,0.37687868,0.37682265,0.37678355,0.001711409,0.0018697984,0.82366586,0.16951989,0.003233007
436261611,436161040,0.5601661,0.004337854,0.56007075,0.5602808,0.5601641,0.5601711,0.5604033,0.15225565,0.15211076,0.15216225,0.1521053,0.15199476,0.32802776,0.32794762,0.32806826,0.32801205,0.32796788,0.0017114008,0.00187005,0.8236537,0.16953136,0.0032334987
437261796,437161121,0.58832353,0.004432095,0.58823216,0.58842856,0.5883218,0.5883278,0.5885416,0.1653314,0.16518646,0.16523786,0.16518083,0.1650706,0.43133107,0.431241,0.4313713,0.43131405,0.43125176,0.0017113561,0.0018703446,0.8236392,0.16954494,0.0032341753
438261832,438161204,0.6042298,0.0045178747,0.6041408,0.6043298,0.6042281,0.6042338,0.60443693,0.05043926,0.05024416,0.050326496,0.050266623,0.050096698,0.40177697,0.40168977,0.40181717,0.4017606,0.40170357,0.0017113807,0.0018707577,0.8236223,0.16956055,0.003234979
439261841,439161286,0.60304934,0.004605062,0.6029602,0.6031496,0.60304767,0.60305333,0.60325694,-0.068483226,-0.06868119,-0.06859693,-0.068656944,-0.06882975,0.3209241,0.32085657,0.3209644,0.32091045,0.32089084,0.0017114307,0.0018710084,0.823612,0.16957028,0.0032353504
440261966,440161369,0.59698176,0.004695929,0.59689164,0.597084,0.59698,0.59698594,0.5971936,0.058129326,0.057981767,0.058034822,0.05797698,0.057866074,0.35360467,0.35353446,0.3536446,0.35359067,0.35356736,0.0017114435,0.0018712409,0.8236009,0.16958062,0.0032357308
441261993,441161453,0.60811293,0.004787675,0.6080244,0.6082112,0.60811126,0.6081168,0.60831696,0.05914288,0.058977444,0.059041373,0.05898267,0.058850586,0.32313657,0.32306302,0.32317612,0.32312188,0.3230933,0.0017114042,0.0018715259,0.82358646,0.16959438,0.0032363134
442262079,442161537,0.6275103,0.004873741,0.6274244,0.6276019,0.6275089,0.6275135,0.62770057,0.30392578,0.30371696,0.30380765,0.303747,0.303562,0.46458912,0.4644998,0.4646279,0.46457207,0.4645142,0.0017113396,0.0018718772,0.82357043,0.1696092,0.0032371338
