timestamp,timestamp_sample,q[0],q[1],q[2],q[3],delta_q_reset[0],delta_q_reset[1],delta_q_reset[2],delta_q_reset[3],quat_reset_counter
217905573,217905365,-0.8691524,-0.013014869,-0.003365815,-0.49436164,0.99999976,-1.4708315e-09,1.913252e-09,-0.00069037545,3
218404400,218404196,-0.86830527,-0.012960401,-0.0033599231,-0.4958495,0.99999976,-1.4708315e-09,1.913252e-09,-0.00069037545,3
218908169,218907967,-0.8674013,-0.012991571,-0.0033728469,-0.4974282,0.99999976,-1.4708315e-09,1.913252e-09,-0.00069037545,3
219407005,219406799,-0.8666298,-0.012730063,-0.0032540597,-0.49877876,0.99999976,-1.4708315e-09,1.913252e-09,-0.00069037545,3
219905840,219905631,-0.8664288,-0.011729414,-0.0028309121,-0.4991549,0.99999976,-1.4708315e-09,1.913252e-09,-0.00069037545,3
220404688,220404464,-0.86571485,-0.008791289,-0.0026168905,-0.50045353,0.99999976,-1.4708315e-09,1.913252e-09,-0.00069037545,3
220903516,220903296,-0.8658959,-0.003576124,-0.0022724513,-0.5002064,0.99999976,-1.4708315e-09,1.913252e-09,-0.00069037545,3
221407271,221407069,-0.86644834,-0.000126796,-0.005831726,-0.49923265,0.99999976,-1.4708315e-09,1.913252e-09,-0.00069037545,3
221906104,221905901,-0.86595464,0.012384232,-0.016800813,-0.49968678,0.99999976,-1.4708315e-09,1.913252e-09,-0.00069037545,3
222404939,222404734,-0.8574778,0.009362222,-0.01705862,-0.5141528,0.99999976,-1.4708315e-09,1.913252e-09,-0.00069037545,3
222908749,222908506,-0.8505731,0.014747094,-0.010471266,-0.5255457,0.99999976,-1.4708315e-09,1.913252e-09,-0.00069037545,3
223407544,223407339,-0.85490566,-0.0015783284,0.002512051,-0.51877505,0.99999976,-1.4708315e-09,1.913252e-09,-0.00069037545,3
223906512,223906172,-0.8608287,-0.017167654,-0.0039764224,-0.5085897,0.99999976,-1.4708315e-09,1.913252e-09,-0.00069037545,3
224405213,224405006,-0.8672256,-0.030630939,0.010583678,-0.49685982,0.99999976,-1.4708315e-09,1.913252e-09,-0.00069037545,3
224904056,224903839,-0.8702844,-0.013856027,0.014862135,-0.49213034,0.99999976,-1.4708315e-09,1.913252e-09,-0.00069037545,3
225407818,225407612,-0.87277603,-0.023564864,0.0029305827,-0.4875429,0.99999976,-1.4708315e-09,1.913252e-09,-0.00069037545,3
225906670,225906446,-0.8789807,-0.0041191336,0.008019065,-0.4767722,0.99999976,-1.4708315e-09,1.913252e-09,-0.00069037545,3
226405485,226405280,-0.8827624,0.004157999,0.014675787,-0.46957222,0.99999976,-1.4708315e-09,1.913252e-09,-0.00069037545,3
226909649,226909055,-0.88508147,0.004103794,0.015712122,-0.46515283,0.99999976,-1.4708315e-09,1.913252e-09,-0.00069037545,3
227403165,227402949,-0.8880936,0.0024741946,0.01167818,-0.4595078,0.99999976,-1.4708315e-09,1.913252e-09,-0.00069037545,3
227906994,227906722,-0.884606,-0.0011372173,0.009689288,-0.46623716,0.99999976,-1.4708315e-09,1.913252e-09,-0.00069037545,3
228405762,228405557,-0.87753636,-0.00057364843,-0.0034663405,-0.47949713,0.99999976,-1.4708315e-09,1.913252e-09,-0.00069037545,3
228904734,228904392,-0.8710481,0.0028698663,-0.00034811953,-0.49118924,0.99999976,-1.4708315e-09,1.913252e-09,-0.00069037545,3
229408369,229408166,-0.8694915,0.00051443285,-0.007423239,-0.49389195,0.99999976,-1.4708315e-09,1.913252e-09,-0.00069037545,3
229907220,229907001,-0.87044024,-0.008324809,-0.0091640605,-0.49211848,0.99999976,-1.4708315e-09,1.913252e-09,-0.00069037545,3
230406042,230405836,-0.8717415,-0.016863838,-0.01344573,-0.4894913,0.99999976,-1.4708315e-09,1.913252e-09,-0.00069037545,3
230905010,230904672,-0.87317985,-0.020942371,-0.008469002,-0.48687443,0.99999976,-1.4708315e-09,1.913252e-09,-0.00069037545,3
231403711,231403507,-0.87507653,-0.014758134,-0.008435932,-0.48368606,0.99999976,-1.4708315e-09,1.913252e-09,-0.00069037545,3
231907484,231907282,-0.8774774,-0.009452395,-0.0009059252,-0.4795242,0.99999976,-1.4708315e-09,1.913252e-09,-0.00069037545,3
232406321,232406117,-0.8817276,-0.011659016,0.007052812,-0.47156212,0.99999976,-1.4708315e-09,1.913252e-09,-0.00069037545,3
232905159,232904953,-0.8901341,-0.016226748,0.007252782,-0.45535195,0.99999976,-1.4708315e-09,1.913252e-09,-0.00069037545,3
233408930,233408728,-0.8983267,-0.013521019,0.012434964,-0.43894386,0.99999976,-1.4708315e-09,1.913252e-09,-0.00069037545,3
233907770,233907565,-0.9048245,-0.0075487457,0.0122342,-0.42554212,0.99999976,-1.4708315e-09,1.913252e-09,-0.00069037545,3
234406630,234406401,-0.910289,-0.007635953,0.007883814,-0.41382802,0.99999976,-1.4708315e-09,1.913252e-09,-0.00069037545,3
234905443,234905237,-0.91379964,-0.007589777,0.0030038406,-0.40608343,0.99999976,-1.4708315e-09,1.913252e-09,-0.00069037545,3
235404307,235404074,-0.9156458,-0.002135028,-0.00025194432,-0.40198052,0.99999976,-1.4708315e-09,1.913252e-09,-0.00069037545,3
235908067,235907850,-0.9181333,-0.005945732,0.0025171868,-0.39621902,0.99999976,-1.4708315e-09,1.913252e-09,-0.00069037545,3
236406891,236406687,-0.91921955,-0.01377952,-0.009690634,-0.39338467,0.99999976,-1.4708315e-09,1.913252e-09,-0.00069037545,3
236905742,236905524,-0.91652465,-0.019282052,-0.0124233505,-0.39932004,0.99999976,-1.4708315e-09,1.913252e-09,-0.00069037545,3
237409502,237409300,-0.9121247,-0.013915228,-0.0022887287,-0.40967017,0.99999976,-1.4708315e-09,1.913252e-09,-0.00069037545,3
237903399,237903198,-0.911874,-0.009229584,0.002634625,-0.41035822,0.99999976,-1.4708315e-09,1.913252e-09,-0.00069037545,3
238407176,238406974,-0.9138865,-0.012851718,-0.0016735664,-0.40576294,0.99999976,-1.4708315e-09,1.913252e-09,-0.00069037545,3
238906040,238905812,-0.91411906,-0.012359229,-0.0023486472,-0.40525055,0.99999976,-1.4708315e-09,1.913252e-09,-0.00069037545,3
239404853,239404650,-0.91334426,-0.010540781,0.0023507844,-0.4070451,0.99999976,-1.4708315e-09,1.913252e-09,-0.00069037545,3
239908632,239908426,-0.9118759,-0.015504366,0.0012854295,-0.41017112,0.99999976,-1.4708315e-09,1.913252e-09,-0.00069037545,3
240407472,240407264,-0.91133446,-0.011765452,0.0032978882,-0.41148543,0.99999976,-1.4708315e-09,1.913252e-09,-0.00069037545,3
240906319,240906102,-0.91104394,-0.00927855,0.0025354463,-0.41219708,0.99999976,-1.4708315e-09,1.913252e-09,-0.00069037545,3
241405145,241404941,-0.912015,-0.007921831,-0.002246516,-0.4100741,0.99999976,-1.4708315e-09,1.913252e-09,-0.00069037545,3
241903983,241903779,-0.9137123,-0.006334869,-0.007860821,-0.40623635,0.99999976,-1.4708315e-09,1.913252e-09,-0.00069037545,3
242407759,242407556,-0.91399103,-0.008795584,-0.0109540345,-0.40549132,0.99999976,-1.4708315e-09,1.913252e-09,-0.00069037545,3
242906602,242906395,-0.91650623,-0.008109864,-0.011766689,-0.39976516,0.99999976,-1.4708315e-09,1.913252e-09,-0.00069037545,3
243405482,243405233,-0.9214956,-0.006795124,-0.0075486423,-0.3882561,0.99999976,-1.4708315e-09,1.913252e-09,-0.00069037545,3
243909213,243909011,-0.9253437,-0.00707089,0.0028871037,-0.3790524,0.99999976,-1.4708315e-09,1.913252e-09,-0.00069037545,3
244408068,244407850,-0.9263641,-0.013304113,0.007762484,-0.37631395,0.99999976,-1.4708315e-09,1.913252e-09,-0.00069037545,3
244906938,244906689,-0.9270014,-0.013183243,0.009188112,-0.3747137,0.99999976,-1.4708315e-09,1.913252e-09,-0.00069037545,3
245405801,245405528,-0.9277802,-0.007011393,0.008971791,-0.37295353,0.99999976,-1.4708315e-09,1.913252e-09,-0.00069037545,3
245904568,245904367,-0.9277759,-0.0029070044,0.009780739,-0.3729984,0.99999976,-1.4708315e-09,1.913252e-09,-0.00069037545,3
246408362,246408145,-0.9291452,0.0034516146,0.0040967036,-0.36967614,0.99999976,-1.4708315e-09,1.913252e-09,-0.00069037545,3
246907195,246906984,-0.93127775,0.0071168263,0.0035047324,-0.36422363,0.99999976,-1.4708315e-09,1.913252e-09,-0.00069037545,3
247406039,247405823,-0.9344646,0.0072924984,-0.0059630363,-0.35593152,0.99999976,-1.4708315e-09,1.913252e-09,-0.00069037545,3
247909805,247909602,-0.9364476,0.0024133944,-0.011624821,-0.35060653,0.99999976,-1.4708315e-09,1.913252e-09,-0.00069037545,3
248403848,248403503,-0.9367603,-0.002272567,-0.014436003,-0.34966663,0.99999976,-1.4708315e-09,1.913252e-09,-0.00069037545,3
248907489,248907281,-0.935826,-0.011038922,-0.013791678,-0.35201934,0.99999976,-1.4708315e-09,1.913252e-09,-0.00069037545,3
249406688,249406120,-0.93377477,-0.018357571,-0.008660239,-0.3572852,0.99999976,-1.4708315e-09,1.913252e-09,-0.00069037545,3
249905185,249904960,-0.9307972,-0.018177869,0.0014807207,-0.3650808,0.99999976,-1.4708315e-09,1.913252e-09,-0.00069037545,3
250409047,250408739,-0.92725044,-0.01919807,0.010834933,-0.37379214,0.99999976,-1.4708315e-09,1.913252e-09,-0.00069037545,3
250907784,250907579,-0.92389435,-0.01930046,0.018337635,-0.38172063,0.99999976,-1.4708315e-09,1.913252e-09,-0.00069037545,3
251406790,251406419,-0.9168783,-0.008116798,-0.095223926,-0.38755736,0.99999976,-1.4708315e-09,1.913252e-09,-0.00069037545,3
251905465,251905259,-0.91188735,0.006326218,-0.032596532,-0.4090954,0.99999976,-1.4708315e-09,1.913252e-09,-0.00069037545,3
252404326,252404099,-0.9021411,-0.013063633,0.05774668,-0.42735952,0.99999976,-1.4708315e-09,1.913252e-09,-0.00069037545,3
252908082,252907878,-0.8937236,-0.057064373,0.026765844,-0.4441682,0.99999976,-1.4708315e-09,1.913252e-09,-0.00069037545,3
253406951,253406718,-0.8925385,0.03596982,0.15733287,-0.42110297,0.99999976,-1.4708315e-09,1.913252e-09,-0.00069037545,3
253905762,253905558,-0.90540534,0.061436474,0.17426674,-0.3822276,0.99999976,-1.4708315e-09,1.913252e-09,-0.00069037545,3
254409541,254409337,-0.928387,0.14535828,0.010141112,-0.34185642,0.99999976,-1.4708315e-09,1.913252e-09,-0.00069037545,3
254903463,254903240,-0.94018537,0.13726749,0.005924855,-0.31172737,0.99999976,-1.4708315e-09,1.913252e-09,-0.00069037545,3
255407408,255407023,-0.95535874,0.097530514,-0.037526485,-0.27634996,0.99999976,-1.4708315e-09,1.913252e-09,-0.00069037545,3
255906063,255905859,-0.9624637,0.028945778,-0.115780875,-0.24376383,0.99999976,-1.4708315e-09,1.913252e-09,-0.00069037545,3
256404917,256404700,-0.96068937,-0.024752276,-0.16482194,-0.22202955,0.99999976,-1.4708315e-09,1.913252e-09,-0.00069037545,3
256908686,256908479,-0.9780186,0.03240729,-0.073690034,-0.19235213,0.99999976,-1.4708315e-09,1.913252e-09,-0.00069037545,3
257407531,257407320,-0.9851257,0.03402972,0.021239797,-0.16708764,0.99999976,-1.4708315e-09,1.913252e-09,-0.00069037545,3
257906364,257906161,-0.9774997,-0.002047909,0.14921635,-0.1490792,0.99999976,-1.4708315e-09,1.913252e-09,-0.00069037545,3
258410146,258409941,-0.9750212,-0.009045224,0.16248511,-0.15116407,0.99999976,-1.4708315e-09,1.913252e-09,-0.00069037545,3
258904065,258903843,-0.9825627,0.015651943,0.09055549,-0.1616336,0.99999976,-1.4708315e-09,1.913252e-09,-0.00069037545,3
259402895,259402684,-0.98180366,-0.008174928,0.011341071,-0.1893841,0.99999976,-1.4708315e-09,1.913252e-09,-0.00069037545,3
259906671,259906464,-0.97656393,0.06240457,0.053491022,-0.19891526,0.99999976,-1.4708315e-09,1.913252e-09,-0.00069037545,3
260405510,260405306,-0.9788893,0.04101077,-0.016229194,-0.19957612,0.99999976,-1.4708315e-09,1.913252e-09,-0.00069037545,3
260904354,260904147,-0.9720446,-0.036126662,-0.10255068,-0.20810455,0.99999976,-1.4708315e-09,1.913252e-09,-0.00069037545,3
261408134,261407928,-0.971385,0.012446888,-0.02927374,-0.23537083,0.99999976,-1.4708315e-09,1.913252e-09,-0.00069037545,3
261906973,261906769,-0.96434766,0.0043049287,0.02935582,-0.2629705,0.99999976,-1.4708315e-09,1.913252e-09,-0.00069037545,3
262405817,262405611,-0.9584416,0.0025130503,0.020691564,-0.28452644,0.99999976,-1.4708315e-09,1.913252e-09,-0.00069037545,3
262904665,262904453,-0.9543807,-0.0059366277,0.002490995,-0.29852328,0.99999976,-1.4708315e-09,1.913252e-09,-0.00069037545,3
263403503,263403294,-0.95183736,-0.006591553,0.0052533397,-0.30648747,0.99999976,-1.4708315e-09,1.913252e-09,-0.00069037545,3
263907280,263907075,-0.9497385,0.0025623466,-0.01842963,-0.312491,0.99999976,-1.4708315e-09,1.913252e-09,-0.00069037545,3
264406121,264405917,-0.9428973,0.016769739,-0.0367,-0.3306307,0.99999976,-1.4708315e-09,1.913252e-09,-0.00069037545,3
264904965,264904759,-0.9351277,0.06382496,-0.041981347,-0.34597716,0.99999976,-1.4708315e-09,1.913252e-09,-0.00069037545,3
265408748,265408541,-0.9469272,0.06399354,-0.0475558,-0.31140366,0.99999976,-1.4708315e-09,1.913252e-09,-0.00069037545,3
265902654,265902444,-0.9566232,0.05853273,-0.040692687,-0.2824718,0.99999976,-1.4708315e-09,1.913252e-09,-0.00069037545,3
266406430,266406225,-0.9555342,0.046153188,-0.027779937,-0.28991824,0.99999976,-1.4708315e-09,1.913252e-09,-0.00069037545,3
266905274,266905069,-0.9560502,0.019325247,-0.022414494,-0.29170567,0.99999976,-1.4708315e-09,1.913252e-09,-0.00069037545,3
267404115,267403910,-0.9493372,-0.006107005,-0.030840639,-0.31268287,0.99999976,-1.4708315e-09,1.913252e-09,-0.00069037545,3
267907920,267907692,-0.93554187,-0.014892464,-0.0316126,-0.35148302,0.99999976,-1.4708315e-09,1.913252e-09,-0.00069037545,3
268406736,268406534,-0.9316702,-0.022102032,-0.036195405,-0.3608213,0.99999976,-1.4708315e-09,1.913252e-09,-0.00069037545,3
268905595,268905377,-0.9235687,-0.013011885,-0.045274414,-0.38052845,0.99999976,-1.4708315e-09,1.913252e-09,-0.00069037545,3
269404423,269404220,-0.8786742,-0.25967172,-0.092839226,-0.38972202,0.99999976,-1.4708315e-09,1.913252e-09,-0.00069037545,3
269903285,269903063,-0.75521845,-0.36342275,-0.23768884,-0.4909919,0.99999976,-1.4708315e-09,1.913252e-09,-0.00069037545,3
270407051,270406845,-0.6807662,-0.22358611,-0.14447121,-0.6824183,0.99999976,-1.4708315e-09,1.913252e-09,-0.00069037545,3
270906014,270905688,-0.6141448,-0.054069757,0.13347973,-0.7759419,0.99999976,-1.4708315e-09,1.913252e-09,-0.00069037545,3
271404740,271404531,-0.6170752,0.018771863,0.18123014,-0.76552033,0.99999976,-1.4708315e-09,1.913252e-09,-0.00069037545,3
271909004,271908313,-0.78551555,0.08953032,0.10385001,-0.60346085,0.99999976,-1.4708315e-09,1.913252e-09,-0.00069037545,3
272407360,272407156,-0.8164399,0.07446009,0.0697754,-0.5683422,0.99999976,-1.4708315e-09,1.913252e-09,-0.00069037545,3
272906301,272905999,-0.80687165,0.04097382,0.03863527,-0.5880363,0.99999976,-1.4708315e-09,1.913252e-09,-0.00069037545,3
273405044,273404842,-0.79692745,0.020568535,0.02112489,-0.60335517,0.99999976,-1.4708315e-09,1.913252e-09,-0.00069037545,3
273903942,273903685,-0.7881603,0.010990233,0.011209159,-0.61526996,0.99999976,-1.4708315e-09,1.913252e-09,-0.00069037545,3
274407673,274407467,-0.77734923,-0.0032788697,-0.0037601735,-0.6290495,0.99999976,-1.4708315e-09,1.913252e-09,-0.00069037545,3
274906515,274906310,-0.7590704,-0.009222047,-0.013796796,-0.650797,0.99999976,-1.4708315e-09,1.913252e-09,-0.00069037545,3
275405360,275405154,-0.73705584,0.11742841,0.08781578,-0.65973306,0.99999976,-1.4708315e-09,1.913252e-09,-0.00069037545,3
275909168,275908936,-0.71412665,0.34857908,0.22936071,-0.56205827,0.99999976,-1.4708315e-09,1.913252e-09,-0.00069037545,3
276403047,276402840,-0.8193307,0.42136973,0.13031523,-0.36628237,0.99999976,-1.4708315e-09,1.913252e-09,-0.00069037545,3
276906860,276906622,-0.8747152,0.46581107,0.026287211,-0.13115793,0.99999976,-1.4708315e-09,1.913252e-09,-0.00069037545,3
277405670,277405465,-0.8839811,0.45588863,-0.07408481,0.072487146,0.99999976,-1.4708315e-09,1.913252e-09,-0.00069037545,3
277904514,277904308,-0.8459271,0.43158922,-0.15738493,0.27086568,0.99999976,-1.4708315e-09,1.913252e-09,-0.00069037545,3
278408298,278408089,-0.771002,0.39941666,-0.23811027,0.43511596,0.99999976,-1.4708315e-09,1.913252e-09,-0.00069037545,3
278907135,278906932,-0.6849394,0.3398061,-0.29019162,0.5754813,0.99999976,-1.4708315e-09,1.913252e-09,-0.00069037545,3
279406000,279405775,-0.56035894,0.29460958,-0.31772038,0.7058732,0.99999976,-1.4708315e-09,1.913252e-09,-0.00069037545,3
279904821,279904618,-0.5941039,0.13764116,-0.07846909,0.78863055,0.99999976,-1.4708315e-09,1.913252e-09,-0.00069037545,3
280403669,280403460,-0.6047156,-0.06994995,0.16413054,0.77620065,0.99999976,-1.4708315e-09,1.913252e-09,-0.00069037545,3
280907446,280907241,-0.6558834,-0.2105019,0.23346826,0.68629336,0.99999976,-1.4708315e-09,1.913252e-09,-0.00069037545,3
281406286,281406084,-0.7587044,-0.19092244,0.16198765,0.6013952,0.99999976,-1.4708315e-09,1.913252e-09,-0.00069037545,3
281905133,281904926,-0.7840403,-0.21821429,0.13980061,0.56402045,0.99999976,-1.4708315e-09,1.913252e-09,-0.00069037545,3
282408912,282408707,-0.8312519,-0.23234674,0.13619043,0.48629963,0.99999976,-1.4708315e-09,1.913252e-09,-0.00069037545,3
282907765,282907550,-0.8723659,-0.19437665,0.0938077,0.43862948,0.99999976,-1.4708315e-09,1.913252e-09,-0.00069037545,3
283406596,283406391,-0.8925742,-0.16239764,0.07386817,0.4141036,0.99999976,-1.4708315e-09,1.913252e-09,-0.00069037545,3
283905437,283905233,-0.9191819,-0.1159142,0.052787077,0.37266907,0.99999976,-1.4708315e-09,1.913252e-09,-0.00069037545,3
284404281,284404075,-0.9320045,-0.066293545,0.030762332,0.35500196,0.99999976,-1.4708315e-09,1.913252e-09,-0.00069037545,3
284908065,284907856,-0.93900543,-0.03002279,0.017861325,0.3421234,0.99999976,-1.4708315e-09,1.913252e-09,-0.00069037545,3
285406902,285406697,-0.9433938,0.002769284,0.0045154095,0.3316324,0.99999976,-1.4708315e-09,1.913252e-09,-0.00069037545,3
285905759,285905539,-0.94519794,0.015592926,0.0012126707,0.32612303,0.99999976,-1.4708315e-09,1.913252e-09,-0.00069037545,3
286409538,286409319,-0.9397928,0.017863981,0.0040630945,0.34125337,0.99999976,-1.4708315e-09,1.913252e-09,-0.00069037545,3
286903426,286903221,-0.93706244,0.008104155,0.004160881,0.34904313,0.99999976,-1.4708315e-09,1.913252e-09,-0.00069037545,3
287407226,287407001,-0.94050246,0.008158204,0.0051688305,0.33964956,0.99999976,-1.4708315e-09,1.913252e-09,-0.00069037545,3
287906044,287905842,-0.93691707,0.007448267,-9.3325914e-05,0.34947258,0.99999976,-1.4708315e-09,1.913252e-09,-0.00069037545,3
288404907,288404682,-0.9362359,0.0054923687,-0.0031716852,0.35131472,0.99999976,-1.4708315e-09,1.913252e-09,-0.00069037545,3
288908670,288908462,-0.9379731,-0.0024576967,-0.0074025523,0.3466206,0.99999976,-1.4708315e-09,1.913252e-09,-0.00069037545,3
289407524,289407302,-0.9376235,-0.008643179,-0.008724511,0.3474354,0.99999976,-1.4708315e-09,1.913252e-09,-0.00069037545,3
289906349,289906142,-0.9367815,-0.016376318,-0.010792691,0.34936497,0.99999976,-1.4708315e-09,1.913252e-09,-0.00069037545,3
290405201,290404982,-0.942399,-0.07010348,0.008258241,0.3269579,0.99999976,-1.4708315e-09,1.913252e-09,-0.00069037545,3
290904030,290903822,-0.9505256,-0.066694155,0.009946612,0.3032393,0.99999976,-1.4708315e-09,1.913252e-09,-0.00069037545,3
291407830,291407603,-0.9582201,-0.056591846,0.0060066883,0.28031346,0.99999976,-1.4708315e-09,1.913252e-09,-0.00069037545,3
291906661,291906440,-0.96726257,-0.048561655,0.0038415685,0.24905883,0.99999976,-1.4708315e-09,1.913252e-09,-0.00069037545,3
292405704,292405280,-0.96968865,-0.027572872,0.0017076021,0.24277738,0.99999976,-1.4708315e-09,1.913252e-09,-0.00069037545,3
292909267,292909061,-0.9679083,-0.006908516,-0.008261426,0.25107297,0.99999976,-1.4708315e-09,1.913252e-09,-0.00069037545,3
293408189,293407897,-0.96783894,-0.0031709522,-0.014052274,0.2511579,0.99999976,-1.4708315e-09,1.913252e-09,-0.00069037545,3
293906942,293906736,-0.9694604,-0.0016082709,-0.017787669,0.24459699,0.99999976,-1.4708315e-09,1.913252e-09,-0.00069037545,3
294405884,294405575,-0.9677696,-0.00914487,-0.013761152,0.25129464,0.99999976,-1.4708315e-09,1.913252e-09,-0.00069037545,3
294904625,294904414,-0.9659267,-0.0020843744,-0.010529969,0.25859326,0.99999976,-1.4708315e-09,1.913252e-09,-0.00069037545,3
295408426,295408191,-0.9701573,-0.01181603,-0.004903158,0.24213874,0.99999976,-1.4708315e-09,1.913252e-09,-0.00069037545,3
295907250,295907029,-0.9714158,-0.015025353,-0.0017282668,0.23690212,0.99999976,-1.4708315e-09,1.913252e-09,-0.00069037545,3
296406077,296405868,-0.971701,-0.012315356,-0.00590541,0.23581898,0.99999976,-1.4708315e-09,1.913252e-09,-0.00069037545,3
296909850,296909645,-0.9696182,-0.004483483,-0.016630506,0.24401614,0.99999976,-1.4708315e-09,1.913252e-09,-0.00069037545,3
297403748,297403543,-0.9703231,-0.015088322,-0.0148467375,0.24088404,0.99999976,-1.4708315e-09,1.913252e-09,-0.00069037545,3
297907526,297907320,-0.97130615,-0.011034405,-0.017753923,0.23691238,0.99999976,-1.4708315e-09,1.913252e-09,-0.00069037545,3
298406361,298406158,-0.9710223,-0.010747766,-0.013411145,0.23837024,0.99999976,-1.4708315e-09,1.913252e-09,-0.00069037545,3
298905203,298904995,-0.9695326,-0.014334541,-0.008580609,0.24439222,0.99999976,-1.4708315e-09,1.913252e-09,-0.00069037545,3
299408982,299408771,-0.96883583,-0.0016025598,-0.008849043,0.24754071,0.99999976,-1.4708315e-09,1.913252e-09,-0.00069037545,3
299907815,299907608,-0.9700942,-0.017583447,-0.007823049,0.24196476,0.99999976,-1.4708315e-09,1.913252e-09,-0.00069037545,3
300406659,300406445,-0.97475594,-0.021242892,-0.010021185,0.2220342,0.99999976,-1.4708315e-09,1.913252e-09,-0.00069037545,3
300905499,300905282,-0.97648585,-0.026756976,-0.0117155975,0.21359397,0.99999976,-1.4708315e-09,1.913252e-09,-0.00069037545,3
301404338,301404118,-0.94287336,-0.26001915,0.03135169,0.2059051,0.99999976,-1.4708315e-09,1.913252e-09,-0.00069037545,3
301908098,301907894,-0.90129244,-0.42689496,-0.000674487,0.07370417,0.99999976,-1.4708315e-09,1.913252e-09,-0.00069037545,3
302406938,302406730,-0.8901285,-0.43326238,-0.09314603,-0.10620206,0.99999976,-1.4708315e-09,1.913252e-09,-0.00069037545,3
302905771,302905566,-0.9127254,-0.3203467,-0.102157116,-0.23210838,0.99999976,-1.4708315e-09,1.913252e-09,-0.00069037545,3
303409546,303409341,-0.90288913,-0.29581326,-0.10744785,-0.29281515,0.99999976,-1.4708315e-09,1.913252e-09,-0.00069037545,3
303908401,303908177,-0.9231994,-0.18552648,-0.05237648,-0.33247483,0.99999976,-1.4708315e-09,1.913252e-09,-0.00069037545,3
304407221,304407012,-0.91232795,-0.12297478,-0.034870174,-0.38899758,0.99999976,-1.4708315e-09,1.913252e-09,-0.00069037545,3
304906051,304905848,-0.9152206,-0.057449836,-0.019104194,-0.3983789,0.99999976,-1.4708315e-09,1.913252e-09,-0.00069037545,3
305404910,305404686,-0.9047595,-0.15612985,-0.048524596,-0.39329275,0.99999976,-1.4708315e-09,1.913252e-09,-0.00069037545,3
305908684,305908457,-0.81468433,-0.35412252,-0.15520298,-0.43220234,0.99999976,-1.4708315e-09,1.913252e-09,-0.00069037545,3
306407495,306407292,-0.70210785,-0.3227335,-0.271748,-0.57362074,0.99999976,-1.4708315e-09,1.913252e-09,-0.00069037545,3
306906348,306906127,-0.6018888,-0.2578158,-0.3548076,-0.66736233,0.99999976,-1.4708315e-09,1.913252e-09,-0.00069037545,3
307410105,307409900,-0.49232328,-0.19320549,-0.40827262,-0.7440451,0.99999976,-1.4708315e-09,1.913252e-09,-0.00069037545,3
307904003,307903796,-0.3698086,-0.15050237,-0.43180194,-0.80878794,0.99999976,-1.4708315e-09,1.913252e-09,-0.00069037545,3
308402841,308402630,-0.23834598,-0.0894931,-0.44492224,-0.8586189,0.99999976,-1.4708315e-09,1.913252e-09,-0.00069037545,3
308906611,308906403,-0.08494794,-0.05287047,-0.3795717,-0.9197357,0.99999976,-1.4708315e-09,1.913252e-09,-0.00069037545,3
309405445,309405237,0.018928608,-0.041715395,-0.21244977,-0.9760977,0.99999976,-1.4708315e-09,1.913252e-09,-0.00069037545,3
309909218,309909010,0.028655797,-0.04966461,-0.019971758,-0.998155,0.99999976,-1.4708315e-09,1.913252e-09,-0.00069037545,3
310408051,310407844,-0.017570717,-0.048633706,0.10210055,-0.99342924,0.99999976,-1.4708315e-09,1.913252e-09,-0.00069037545,3
310906912,310906677,-0.09523133,-0.027405225,0.15046565,-0.98363614,0.99999976,-1.4708315e-09,1.913252e-09,-0.00069037545,3
311405713,311405511,-0.13180643,-0.023826648,0.1319365,-0.98216707,0.99999976,-1.4708315e-09,1.913252e-09,-0.00069037545,3
311904692,311904344,-0.15760313,-0.03402002,0.1048906,-0.9813266,0.99999976,-1.4708315e-09,1.913252e-09,-0.00069037545,3
312403382,312403177,-0.19917655,-0.033385668,0.090322435,-0.975221,0.99999976,-1.4708315e-09,1.913252e-09,-0.00069037545,3
312907166,312906949,-0.22830458,-0.03536637,0.06369573,-0.97086,0.99999976,-1.4708315e-09,1.913252e-09,-0.00069037545,3
313405989,313405782,-0.25304538,-0.04191213,0.045760203,-0.96546227,0.99999976,-1.4708315e-09,1.913252e-09,-0.00069037545,3
313909774,313909553,-0.25197318,-0.042557154,0.027542831,-0.96640563,0.99999976,-1.4708315e-09,1.913252e-09,-0.00069037545,3
314408589,314408386,-0.25264502,-0.047884896,0.0038615752,-0.9663657,0.99999976,-1.4708315e-09,1.913252e-09,-0.00069037545,3
314902842,314902279,-0.23755437,-0.043219086,0.0069481484,-0.97038746,0.99999976,-1.4708315e-09,1.913252e-09,-0.00069037545,3
315406272,315406051,-0.21313503,-0.050429266,-0.0096125025,-0.97567314,0.99999976,-1.4708315e-09,1.913252e-09,-0.00069037545,3
315905138,315904883,-0.20890726,-0.040579192,0.011160236,-0.9770295,0.99999976,-1.4708315e-09,1.913252e-09,-0.00069037545,3
316403921,316403716,-0.22559008,-0.041237723,0.016599009,-0.9732076,0.99999976,-1.4708315e-09,1.913252e-09,-0.00069037545,3
316907896,316907486,-0.1950097,-0.038974583,-0.002283106,-0.980024,0.99999976,-1.4708315e-09,1.913252e-09,-0.00069037545,3
317406523,317406318,-0.1680923,-0.044826332,-0.004298466,-0.98474216,0.99999976,-1.4708315e-09,1.913252e-09,-0.00069037545,3
317905369,317905149,-0.17624503,-0.06296575,-0.12609851,-0.9742034,0.99999976,-1.4708315e-09,1.913252e-09,-0.00069037545,3
318404188,318403981,-0.12490997,-0.067854516,-0.3025668,-0.94246835,0.99999976,-1.4708315e-09,1.913252e-09,-0.00069037545,3
318907977,318907752,0.05351164,-0.0739535,-0.16364647,-0.98228675,0.99999976,-1.4708315e-09,1.913252e-09,-0.00069037545,3
319406803,319406583,0.16741285,-0.05426343,0.030524138,-0.9839191,0.99999976,-1.4708315e-09,1.913252e-09,-0.00069037545,3
319905643,319905414,0.054720733,-0.04922582,0.2342009,-0.969398,0.99999976,-1.4708315e-09,1.913252e-09,-0.00069037545,3
320404447,320404246,-0.1276166,0.008533086,0.3930698,-0.9105697,0.99999976,-1.4708315e-09,1.913252e-09,-0.00069037545,3
320908238,320908016,-0.2876215,0.03930384,0.27235436,-0.91736156,0.99999976,-1.4708315e-09,1.913252e-09,-0.00069037545,3
321407053,321406847,-0.37223858,0.016057301,0.08377457,-0.92420906,0.99999976,-1.4708315e-09,1.913252e-09,-0.00069037545,3
321905884,321905678,-0.36502206,-0.027263444,-0.08111177,-0.927058,0.99999976,-1.4708315e-09,1.913252e-09,-0.00069037545,3
322404717,322404509,-0.2779592,-0.03672412,-0.14223135,-0.9492947,0.99999976,-1.4708315e-09,1.913252e-09,-0.00069037545,3
322903546,322903340,-0.20084998,-0.016680814,-0.1453998,-0.9686279,0.99999976,-1.4708315e-09,1.913252e-09,-0.00069037545,3
323407313,323407109,-0.15334627,0.011849252,-0.07693537,-0.9851018,0.99999976,-1.4708315e-09,1.913252e-09,-0.00069037545,3
323906182,323905940,-0.15656148,0.025855534,-0.044751883,-0.9863151,0.99999976,-1.4708315e-09,1.913252e-09,-0.00069037545,3
324405039,324404771,-0.1763142,0.035753235,0.0054740887,-0.98366916,0.99999976,-1.4708315e-09,1.913252e-09,-0.00069037545,3
324908745,324908540,-0.14363359,0.022441855,-0.017683124,-0.9892184,0.99999976,-1.4708315e-09,1.913252e-09,-0.00069037545,3
325402683,325402432,-0.14349847,0.018248877,0.00587696,-0.9894648,0.99999976,-1.4708315e-09,1.913252e-09,-0.00069037545,3
325906405,325906201,-0.16467549,0.030622827,0.030448424,-0.985402,0.99999976,-1.4708315e-09,1.913252e-09,-0.00069037545,3
326405239,326405032,-0.16438647,0.032833263,0.022962905,-0.98558193,0.99999976,-1.4708315e-09,1.913252e-09,-0.00069037545,3
326904068,326903862,-0.17810707,0.022029798,0.009062259,-0.98372275,0.99999976,-1.4708315e-09,1.913252e-09,-0.00069037545,3
327407832,327407631,-0.18928467,0.02046648,0.013808497,-0.9816118,0.99999976,-1.4708315e-09,1.913252e-09,-0.00069037545,3
327906679,327906461,-0.17997393,0.033292267,-0.010193575,-0.983055,0.99999976,-1.4708315e-09,1.913252e-09,-0.00069037545,3
328405497,328405291,-0.18327223,0.034430016,0.0077848453,-0.98242825,0.99999976,-1.4708315e-09,1.913252e-09,-0.00069037545,3
328904330,328904121,-0.16950087,0.023866775,-0.0044967025,-0.98523074,0.99999976,-1.4708315e-09,1.913252e-09,-0.00069037545,3
329403170,329402952,-0.17304683,0.031013835,0.006599215,-0.9844031,0.99999976,-1.4708315e-09,1.913252e-09,-0.00069037545,3
329906924,329906720,-0.17434813,0.034766134,0.0043573687,-0.9840605,0.99999976,-1.4708315e-09,1.913252e-09,-0.00069037545,3
330405758,330405550,-0.1666422,0.024210196,-0.004580528,-0.98570955,0.99999976,-1.4708315e-09,1.913252e-09,-0.00069037545,3
330904585,330904380,-0.1616577,0.021254318,-0.0032126808,-0.9866128,0.99999976,-1.4708315e-09,1.913252e-09,-0.00069037545,3
331408353,331408151,-0.15685938,0.025187206,-0.011749584,-0.9872299,0.99999976,-1.4708315e-09,1.913252e-09,-0.00069037545,3
331907186,331906979,-0.14612718,0.022885311,0.0035769606,-0.98899466,0.99999976,-1.4708315e-09,1.913252e-09,-0.00069037545,3
332406011,332405808,-0.13338195,0.017036371,0.018612618,-0.99074346,0.99999976,-1.4708315e-09,1.913252e-09,-0.00069037545,3
332904847,332904638,-0.13103577,0.017534856,-0.00034238273,-0.9912225,0.99999976,-1.4708315e-09,1.913252e-09,-0.00069037545,3
333403694,333403468,-0.1421815,0.025618128,0.0066269767,-0.9894869,0.99999976,-1.4708315e-09,1.913252e-09,-0.00069037545,3
333907440,333907236,-0.13857399,0.017215336,0.0003080954,-0.9902024,0.99999976,-1.4708315e-09,1.913252e-09,-0.00069037545,3
334406292,334406066,-0.1393917,0.015406219,-0.006027762,-0.99009913,0.99999976,-1.4708315e-09,1.913252e-09,-0.00069037545,3
334905100,334904895,-0.14104994,0.026971277,-0.01622155,-0.98950213,0.99999976,-1.4708315e-09,1.913252e-09,-0.00069037545,3
335408883,335408664,-0.13603973,0.030980365,-0.004127844,-0.99021035,0.99999976,-1.4708315e-09,1.913252e-09,-0.00069037545,3
335902780,335902554,-0.12838078,0.054094497,0.00057032105,-0.9902484,0.99999976,-1.4708315e-09,1.913252e-09,-0.00069037545,3
336406542,336406322,-0.13974315,0.029950486,0.00799433,-0.98970246,0.99999976,-1.4708315e-09,1.913252e-09,-0.00069037545,3
336905373,336905151,-0.15178333,0.07574206,0.11972958,-0.9782075,0.99999976,-1.4708315e-09,1.913252e-09,-0.00069037545,3
337404519,337403981,-0.19221558,0.11080606,0.17816873,-0.9586612,0.99999976,-1.4708315e-09,1.913252e-09,-0.00069037545,3
337907952,337907749,-0.2659486,0.1361248,0.1885655,-0.935513,0.99999976,-1.4708315e-09,1.913252e-09,-0.00069037545,3
338406912,338406578,-0.32015955,0.14847258,0.16026412,-0.92182934,0.99999976,-1.4708315e-09,1.913252e-09,-0.00069037545,3
338905611,338905407,-0.37122086,0.16896172,0.17976587,-0.8951711,0.99999976,-1.4708315e-09,1.913252e-09,-0.00069037545,3
339404620,339404236,-0.45689994,0.19099471,0.17429423,-0.85110813,0.99999976,-1.4708315e-09,1.913252e-09,-0.00069037545,3
339903269,339903065,-0.5179091,0.20464224,0.15087615,-0.8167792,0.99999976,-1.4708315e-09,1.913252e-09,-0.00069037545,3
340407094,340406833,-0.5870487,0.19253042,0.1188111,-0.7772965,0.99999976,-1.4708315e-09,1.913252e-09,-0.00069037545,3
340905911,340905662,-0.6185014,0.22047766,0.118744835,-0.74481225,0.99999976,-1.4708315e-09,1.913252e-09,-0.00069037545,3
341404776,341404491,-0.66222394,0.25052747,0.1295755,-0.69419426,0.99999976,-1.4708315e-09,1.913252e-09,-0.00069037545,3
341908462,341908258,-0.7342007,0.25075185,0.102505386,-0.62254757,0.99999976,-1.4708315e-09,1.913252e-09,-0.00069037545,3
342407293,342407087,-0.780592,0.22342093,0.0609914,-0.58055097,0.99999976,-1.4708315e-09,1.913252e-09,-0.00069037545,3
342906144,342905917,-0.80196995,0.2202045,0.04825134,-0.5531963,0.99999976,-1.4708315e-09,1.913252e-09,-0.00069037545,3
343404974,343404744,-0.8262024,0.24038424,0.04860612,-0.5071908,0.99999976,-1.4708315e-09,1.913252e-09,-0.00069037545,3
343903781,343903573,-0.8609386,0.24766633,0.032981392,-0.44312337,0.99999976,-1.4708315e-09,1.913252e-09,-0.00069037545,3
344407563,344407340,-0.89232373,0.24448687,0.0122403465,-0.37925544,0.99999976,-1.4708315e-09,1.913252e-09,-0.00069037545,3
344906373,344906169,-0.91719747,0.23535356,-0.010455304,-0.3213226,0.99999976,-1.4708315e-09,1.913252e-09,-0.00069037545,3
345410146,345409936,-0.93657887,0.22602096,-0.024656162,-0.26669565,0.99999976,-1.4708315e-09,1.913252e-09,-0.00069037545,3
345908966,345908765,-0.94968534,0.23222175,-0.032792952,-0.20759459,0.99999976,-1.4708315e-09,1.913252e-09,-0.00069037545,3
346402877,346402654,-0.9590178,0.23532085,-0.047032848,-0.15065502,0.99999976,-1.4708315e-09,1.913252e-09,-0.00069037545,3
346906629,346906421,-0.9761386,0.19206834,-0.06031672,-0.08139529,0.99999976,-1.4708315e-09,1.913252e-09,-0.00069037545,3
347405457,347405249,-0.9809137,0.17657797,-0.06893885,-0.043313555,0.99999976,-1.4708315e-09,1.913252e-09,-0.00069037545,3
347904280,347904077,-0.977242,0.19600728,-0.08032696,0.011263615,0.99999976,-1.4708315e-09,1.913252e-09,-0.00069037545,3
348408047,348407844,-0.9747859,0.19288239,-0.09126031,0.065272495,0.99999976,-1.4708315e-09,1.913252e-09,-0.00069037545,3
348906880,348906672,-0.96493214,0.20055392,-0.10542883,0.13254757,0.99999976,-1.4708315e-09,1.913252e-09,-0.00069037545,3
349405719,349405500,-0.95780915,0.17588954,-0.11339848,0.19699071,0.99999976,-1.4708315e-09,1.913252e-09,-0.00069037545,3
349904612,349904328,-0.9466555,0.17434175,-0.10425616,0.2501581,0.99999976,-1.4708315e-09,1.913252e-09,-0.00069037545,3
350403359,350403156,-0.9253307,0.1937075,-0.11965401,0.30318898,0.99999976,-1.4708315e-09,1.913252e-09,-0.00069037545,3
350907128,350906923,-0.90809643,0.18448922,-0.11979136,0.3563353,0.99999976,-1.4708315e-09,1.913252e-09,-0.00069037545,3
351405973,351405750,-0.88057196,0.18850082,-0.13573574,0.4130814,0.99999976,-1.4708315e-09,1.913252e-09,-0.00069037545,3
351904784,351904578,-0.8556691,0.17942719,-0.13837491,0.46528342,0.99999976,-1.4708315e-09,1.913252e-09,-0.00069037545,3
352408551,352408344,-0.82561654,0.17056957,-0.13982089,0.5193395,0.99999976,-1.4708315e-09,1.913252e-09,-0.00069037545,3
352907393,352907172,-0.79051834,0.16182218,-0.14341977,0.5729968,0.99999976,-1.4708315e-09,1.913252e-09,-0.00069037545,3
353406206,353405999,-0.7528257,0.15006942,-0.1529404,0.6223681,0.99999976,-1.4708315e-09,1.913252e-09,-0.00069037545,3
353905031,353904827,-0.71226424,0.1373954,-0.16504294,0.6682537,0.99999976,-1.4708315e-09,1.913252e-09,-0.00069037545,3
354403856,354403654,-0.6640318,0.13231263,-0.18064551,0.713388,0.99999976,-1.4708315e-09,1.913252e-09,-0.00069037545,3
354907627,354907420,-0.615955,0.120960936,-0.18969086,0.75497377,0.99999976,-1.4708315e-09,1.913252e-09,-0.00069037545,3
355406458,355406247,-0.5684633,0.10743417,-0.19493227,0.7920283,0.99999976,-1.4708315e-09,1.913252e-09,-0.00069037545,3
355905275,355905074,-0.52009773,0.09853634,-0.20206133,0.82399035,0.99999976,-1.4708315e-09,1.913252e-09,-0.00069037545,3
356409043,356408840,-0.462319,0.09315972,-0.22551681,0.85248154,0.99999976,-1.4708315e-09,1.913252e-09,-0.00069037545,3
356902932,356902728,-0.40903983,0.07610752,-0.23197246,0.8792513,0.99999976,-1.4708315e-09,1.913252e-09,-0.00069037545,3
357406699,357406494,-0.3457393,0.06889284,-0.24483937,0.90320086,0.99999976,-1.4708315e-09,1.913252e-09,-0.00069037545,3
357905548,357905321,-0.26065361,0.051983252,-0.24756669,0.93170184,0.99999976,-1.4708315e-09,1.913252e-09,-0.00069037545,3
358404354,358404147,-0.18056305,0.02378983,-0.25059396,0.9508069,0.99999976,-1.4708315e-09,1.913252e-09,-0.00069037545,3
358908162,358907913,-0.10145125,0.005815203,-0.252423,0.9622663,0.99999976,-1.4708315e-09,1.913252e-09,-0.00069037545,3
359406968,359406740,-0.008938806,-0.014366291,-0.25264362,0.9674115,0.99999976,-1.4708315e-09,1.913252e-09,-0.00069037545,3
359905783,359905566,0.059161637,-0.037702702,-0.2335002,0.96982276,0.99999976,-1.4708315e-09,1.913252e-09,-0.00069037545,3
360404685,360404393,0.1347391,-0.036766663,-0.24822798,0.95858043,0.99999976,-1.4708315e-09,1.913252e-09,-0.00069037545,3
360903442,360903219,0.2158036,-0.054096397,-0.24499553,0.94365233,0.99999976,-1.4708315e-09,1.913252e-09,-0.00069037545,3
361407186,361406984,0.2811239,-0.077946536,-0.22896463,0.92869204,0.99999976,-1.4708315e-09,1.913252e-09,-0.00069037545,3
361906388,361905810,0.3703572,-0.10428029,-0.24142785,0.8908837,0.99999976,-1.4708315e-09,1.913252e-09,-0.00069037545,3
362404839,362404637,0.4344738,-0.096992336,-0.18328959,0.87648726,0.99999976,-1.4708315e-09,1.913252e-09,-0.00069037545,3
362908706,362908401,0.45027393,-0.07610358,-0.16597658,0.8740215,0.99999976,-1.4708315e-09,1.913252e-09,-0.00069037545,3
363407436,363407228,0.5206344,-0.116065055,-0.21561319,0.8179118,0.99999976,-1.4708315e-09,1.913252e-09,-0.00069037545,3
363906436,363906053,0.601318,-0.1678816,-0.21265456,0.75167185,0.99999976,-1.4708315e-09,1.913252e-09,-0.00069037545,3
364405088,364404879,0.6561023,-0.1530776,-0.17130038,0.71885556,0.99999976,-1.4708315e-09,1.913252e-09,-0.00069037545,3
364903937,364903705,0.7016423,-0.1320978,-0.1409727,0.68583894,0.99999976,-1.4708315e-09,1.913252e-09,-0.00069037545,3
365407674,365407470,0.73078704,-0.13495952,-0.13015963,0.65634954,0.99999976,-1.4708315e-09,1.913252e-09,-0.00069037545,3
365906581,365906295,0.76338613,-0.15412895,-0.12630907,0.6144363,0.99999976,-1.4708315e-09,1.913252e-09,-0.00069037545,3
366405324,366405121,0.8035702,-0.18420292,-0.11479673,0.5542255,0.99999976,-1.4708315e-09,1.913252e-09,-0.00069037545,3
366909088,366908885,0.8420388,-0.18215449,-0.093109675,0.4991202,0.99999976,-1.4708315e-09,1.913252e-09,-0.00069037545,3
367402978,367402772,0.87066954,-0.16568199,-0.07116085,0.4576245,0.99999976,-1.4708315e-09,1.913252e-09,-0.00069037545,3
367906763,367906536,0.8935975,-0.17317384,-0.059789106,0.40977997,0.99999976,-1.4708315e-09,1.913252e-09,-0.00069037545,3
368405570,368405361,0.9088971,-0.17600574,-0.05173238,0.37450224,0.99999976,-1.4708315e-09,1.913252e-09,-0.00069037545,3
368904405,368904186,0.93138635,-0.18073232,-0.047904816,0.3123468,0.99999976,-1.4708315e-09,1.913252e-09,-0.00069037545,3
369408154,369407950,0.9550947,-0.18221758,-0.032713503,0.23134571,0.99999976,-1.4708315e-09,1.913252e-09,-0.00069037545,3
369906984,369906776,0.9715431,-0.14660865,-0.015165938,0.18541846,0.99999976,-1.4708315e-09,1.913252e-09,-0.00069037545,3
370405808,370405604,0.9739422,-0.16111887,-0.011736919,0.1591839,0.99999976,-1.4708315e-09,1.913252e-09,-0.00069037545,3
370904637,370904426,0.9752698,-0.20052233,-0.002680815,0.09291099,0.99999976,-1.4708315e-09,1.913252e-09,-0.00069037545,3
371403466,371403250,0.9816843,-0.18743668,0.006486155,0.03348834,0.99999976,-1.4708315e-09,1.913252e-09,-0.00069037545,3
371907221,371907014,0.9845783,-0.17303106,0.010375396,-0.023628484,0.99999976,-1.4708315e-09,1.913252e-09,-0.00069037545,3
372406046,372405839,0.9826277,-0.16924024,0.02033106,-0.07339855,0.99999976,-1.4708315e-09,1.913252e-09,-0.00069037545,3
372904866,372904663,0.9768528,-0.17878982,0.03676258,-0.11154164,0.99999976,-1.4708315e-09,1.913252e-09,-0.00069037545,3
373408633,373408427,0.9708025,-0.16910385,0.04545333,-0.16395287,0.99999976,-1.4708315e-09,1.913252e-09,-0.00069037545,3
373902520,373902313,0.95864433,-0.17152143,0.05927773,-0.21924363,0.99999976,-1.4708315e-09,1.913252e-09,-0.00069037545,3
374406280,374406076,0.9444487,-0.1773053,0.06767741,-0.26832652,0.99999976,-1.4708315e-09,1.913252e-09,-0.00069037545,3
374905109,374904900,0.9288172,-0.17659941,0.073902495,-0.31725344,0.99999976,-1.4708315e-09,1.913252e-09,-0.00069037545,3
375403929,375403725,0.90764165,-0.17239705,0.092848375,-0.37127495,0.99999976,-1.4708315e-09,1.913252e-09,-0.00069037545,3
375907693,375907488,0.8832268,-0.16662647,0.10833448,-0.42474678,0.99999976,-1.4708315e-09,1.913252e-09,-0.00069037545,3
376406519,376406312,0.85429746,-0.16338415,0.12384573,-0.47764388,0.99999976,-1.4708315e-09,1.913252e-09,-0.00069037545,3
376905338,376905136,0.828912,-0.1526671,0.12152694,-0.5242412,0.99999976,-1.4708315e-09,1.913252e-09,-0.00069037545,3
377409120,377408899,0.8012712,-0.13958788,0.122897096,-0.56866163,0.99999976,-1.4708315e-09,1.913252e-09,-0.00069037545,3
377902988,377902784,0.7653859,-0.14101443,0.13975082,-0.6121839,0.99999976,-1.4708315e-09,1.913252e-09,-0.00069037545,3
378406751,378406547,0.7192648,-0.13567457,0.15902501,-0.6625419,0.99999976,-1.4708315e-09,1.913252e-09,-0.00069037545,3
378905575,378905371,0.6791908,-0.1216722,0.17001592,-0.70355546,0.99999976,-1.4708315e-09,1.913252e-09,-0.00069037545,3
379404397,379404195,0.63937753,-0.11362253,0.1723988,-0.7406518,0.99999976,-1.4708315e-09,1.913252e-09,-0.00069037545,3
379908163,379907958,0.59260225,-0.10570907,0.17666528,-0.778741,0.99999976,-1.4708315e-09,1.913252e-09,-0.00069037545,3
380407001,380406781,0.539844,-0.0970611,0.1882412,-0.81468576,0.99999976,-1.4708315e-09,1.913252e-09,-0.00069037545,3
380905811,380905605,0.4717066,-0.09345826,0.2060831,-0.8522254,0.99999976,-1.4708315e-09,1.913252e-09,-0.00069037545,3
381404655,381404429,0.42226896,-0.07543366,0.22197594,-0.87562865,0.99999976,-1.4708315e-09,1.913252e-09,-0.00069037545,3
381903454,381903252,0.36193994,-0.065898955,0.2512695,-0.8952767,0.99999976,-1.4708315e-09,1.913252e-09,-0.00069037545,3
382407218,382407015,0.28124297,-0.0444633,0.25356713,-0.9244616,0.99999976,-1.4708315e-09,1.913252e-09,-0.00069037545,3
382906045,382905838,0.2060454,-0.020603169,0.25343686,-0.9449288,0.99999976,-1.4708315e-09,1.913252e-09,-0.00069037545,3
383404879,383404661,0.14398348,-0.0004431701,0.21948425,-0.9649328,0.99999976,-1.4708315e-09,1.913252e-09,-0.00069037545,3
383908635,383908424,0.7371925,-0.05568647,0.07726231,-0.66893715,0.7020629,1.623546e-08,1.9027972e-08,0.7121149,4
384407467,384407247,0.67619234,0.14518818,-0.09207097,-0.7163849,0.7020629,1.623546e-08,1.9027972e-08,0.7121149,4
384906343,384906070,0.6933855,0.3508367,-0.23855036,-0.58242935,0.7020629,1.623546e-08,1.9027972e-08,0.7121149,4
385405119,385404893,0.7499933,0.40096536,-0.18126181,-0.49384308,0.7020629,1.623546e-08,1.9027972e-08,0.7121149,4
385903921,385903716,0.6748694,0.4688491,-0.14451864,-0.55122256,0.7020629,1.623546e-08,1.9027972e-08,0.7121149,4
386407696,386407478,0.80658823,0.49777657,-0.029651644,-0.31741908,0.7020629,1.623546e-08,1.9027972e-08,0.7121149,4
386906507,386906301,0.95894325,0.27723393,0.019843478,-0.056351803,0.7020629,1.623546e-08,1.9027972e-08,0.7121149,4
387405343,387405125,0.99179465,0.118509986,0.035073597,0.032688953,0.7020629,1.623546e-08,1.9027972e-08,0.7121149,4
387909092,387908886,0.80049485,0.0028297827,0.5954484,0.0681277,0.7020629,1.623546e-08,1.9027972e-08,0.7121149,4
388403141,388402770,0.789975,-0.070434466,0.5967121,0.12211972,0.7020629,1.623546e-08,1.9027972e-08,0.7121149,4
388906736,388906531,0.9193288,0.16374929,-0.278123,0.22509634,0.7020629,1.623546e-08,1.9027972e-08,0.7121149,4
389405590,389405354,0.824467,-0.22915164,0.37431458,0.35725686,0.7020629,1.623546e-08,1.9027972e-08,0.7121149,4
389904381,389904177,0.7587805,0.011025319,-0.1046272,0.6427938,0.7020629,1.623546e-08,1.9027972e-08,0.7121149,4
390408363,390407939,0.6294771,0.19840413,0.030232746,0.7506533,0.7020629,1.623546e-08,1.9027972e-08,0.7121149,4
390906982,390906761,0.5572862,-0.15608405,-0.14998376,0.8016076,0.7020629,1.623546e-08,1.9027972e-08,0.7121149,4
391405788,391405584,0.4789833,0.23329756,0.050039828,0.8447741,0.7020629,1.623546e-08,1.9027972e-08,0.7121149,4
391904670,391904406,0.4422252,-0.08718116,-0.21218781,0.86707133,0.7020629,1.623546e-08,1.9027972e-08,0.7121149,4
392403433,392403229,0.42241415,0.016549667,0.03389923,0.9056176,0.7020629,1.623546e-08,1.9027972e-08,0.7121149,4
392907212,392906990,0.8205849,-0.1740657,-0.061076574,0.54093564,0.8815624,-2.428356e-09,-3.8635622e-10,-0.47206742,5
393406037,393405813,0.893389,-0.05123939,-0.0522202,0.44328743,0.8815624,-2.428356e-09,-3.8635622e-10,-0.47206742,5
393904838,393904636,0.9399392,-0.09018366,-0.03897008,0.3268983,0.8815624,-2.428356e-09,-3.8635622e-10,-0.47206742,5
394408654,394408397,0.9724753,0.0033747754,-0.032087233,0.23076124,0.8815624,-2.428356e-09,-3.8635622e-10,-0.47206742,5
394907426,394907220,0.98624486,-0.021311177,-0.044169758,0.15784793,0.8815624,-2.428356e-09,-3.8635622e-10,-0.47206742,5
395406257,395406042,0.99135286,-0.007115504,-0.040672053,0.12455788,0.8815624,-2.428356e-09,-3.8635622e-10,-0.47206742,5
395905075,395904865,0.9918239,0.008971399,-0.045377042,0.11893631,0.8815624,-2.428356e-09,-3.8635622e-10,-0.47206742,5
396403893,396403688,0.99198747,-0.006000024,-0.043124937,0.11859699,0.8815624,-2.428356e-09,-3.8635622e-10,-0.47206742,5
396907657,396907449,0.9911226,-0.014203652,-0.031732973,0.1283252,0.8815624,-2.428356e-09,-3.8635622e-10,-0.47206742,5
397406477,397406272,0.99083096,0.0017064841,-0.034994975,0.1304855,0.8815624,-2.428356e-09,-3.8635622e-10,-0.47206742,5
397905299,397905094,0.98910886,0.005168403,-0.059578005,0.13449025,0.8815624,-2.428356e-09,-3.8635622e-10,-0.47206742,5
398409061,398408856,0.989677,0.0015661134,-0.049657937,0.13442908,0.8815624,-2.428356e-09,-3.8635622e-10,-0.47206742,5
398902945,398902740,0.99137753,-0.012350141,-0.04293354,0.12318637,0.8815624,-2.428356e-09,-3.8635622e-10,-0.47206742,5
399406707,399406501,0.99306273,-0.036244817,-0.03597708,0.10591751,0.8815624,-2.428356e-09,-3.8635622e-10,-0.47206742,5
399905580,399905324,0.99412745,-0.04982598,-0.04457434,0.085095614,0.8815624,-2.428356e-09,-3.8635622e-10,-0.47206742,5
400404352,400404147,0.9964327,-0.027881633,-0.029474221,0.07399792,0.8815624,-2.428356e-09,-3.8635622e-10,-0.47206742,5
400908112,400907909,0.99692416,-0.041779887,-0.041545592,0.051679865,0.8815624,-2.428356e-09,-3.8635622e-10,-0.47206742,5
401406955,401406732,0.997649,-0.038534287,-0.031849008,0.046875346,0.8815624,-2.428356e-09,-3.8635622e-10,-0.47206742,5
401905756,401905554,0.9977614,-0.030790769,-0.04916785,0.033266347,0.8815624,-2.428356e-09,-3.8635622e-10,-0.47206742,5
402404584,402404377,0.9993882,-0.010809124,-0.020954449,0.02583285,0.8815624,-2.428356e-09,-3.8635622e-10,-0.47206742,5
402903432,402903201,0.9982295,-0.040803533,-0.03995408,0.016636636,0.8815624,-2.428356e-09,-3.8635622e-10,-0.47206742,5
403407168,403406962,0.9993505,-0.015596192,-0.025258841,0.020431334,0.8815624,-2.428356e-09,-3.8635622e-10,-0.47206742,5
403905993,403905786,0.99853265,-0.044318534,-0.02891262,0.011514772,0.8815624,-2.428356e-09,-3.8635622e-10,-0.47206742,5
404404816,404404609,0.99965715,-0.015881296,-0.01750722,0.011267045,0.8815624,-2.428356e-09,-3.8635622e-10,-0.47206742,5
404908575,404908371,0.99902153,-0.02485574,-0.030690169,0.019909317,0.8815624,-2.428356e-09,-3.8635622e-10,-0.47206742,5
405407401,405407194,0.9985076,-0.03723356,-0.031869385,0.024095617,0.8815624,-2.428356e-09,-3.8635622e-10,-0.47206742,5
405906221,405906018,0.9990552,-0.013738452,-0.027019551,0.031143516,0.8815624,-2.428356e-09,-3.8635622e-10,-0.47206742,5
406405049,406404841,0.9989706,-0.02339471,0.033564594,0.019591365,0.8815624,-2.428356e-09,-3.8635622e-10,-0.47206742,5
406903888,406903665,0.9994844,-0.0066959183,0.02856501,0.013040201,0.8815624,-2.428356e-09,-3.8635622e-10,-0.47206742,5
407407635,407407427,0.9974695,0.0006293929,0.066822246,0.024270656,0.8815624,-2.428356e-09,-3.8635622e-10,-0.47206742,5
407906481,407906251,0.99829745,-0.010032298,0.024735313,0.051863108,0.8815624,-2.428356e-09,-3.8635622e-10,-0.47206742,5
408405278,408405075,0.99590737,0.0011812288,0.020123053,0.08810326,0.8815624,-2.428356e-09,-3.8635622e-10,-0.47206742,5
408909057,408908837,0.99224067,-0.011768088,-0.021088924,0.12196387,0.8815624,-2.428356e-09,-3.8635622e-10,-0.47206742,5
409402926,409402722,0.9826827,-0.0322957,0.122245766,0.13545378,0.8815624,-2.428356e-09,-3.8635622e-10,-0.47206742,5
409906702,409906485,0.9864386,-0.07196953,0.028508462,0.14472964,0.8815624,-2.428356e-09,-3.8635622e-10,-0.47206742,5
410405530,410405309,0.9776233,-0.15573834,0.046976212,0.13338578,0.8815624,-2.428356e-09,-3.8635622e-10,-0.47206742,5
410904351,410904133,0.98608387,-0.10384218,0.002527615,0.12980367,0.8815624,-2.428356e-09,-3.8635622e-10,-0.47206742,5
411408100,411407897,0.9937065,-0.012632135,-0.00762164,0.111039646,0.8815624,-2.428356e-09,-3.8635622e-10,-0.47206742,5
411907114,411906721,0.9944855,0.032890018,-0.045972116,0.0883365,0.8815624,-2.428356e-09,-3.8635622e-10,-0.47206742,5
412405766,412405545,0.9955179,0.023889782,-0.043718036,0.08038813,0.8815624,-2.428356e-09,-3.8635622e-10,-0.47206742,5
412904838,412904370,0.9952586,0.02991676,-0.03160417,0.08698533,0.8815624,-2.428356e-09,-3.8635622e-10,-0.47206742,5
413403396,413403195,0.993922,0.021386333,-0.033190783,0.10276276,0.8815624,-2.428356e-09,-3.8635622e-10,-0.47206742,5
413907193,413906959,0.9903958,0.030009612,-0.030710237,0.13142543,0.8815624,-2.428356e-09,-3.8635622e-10,-0.47206742,5
414405988,414405783,0.9862384,0.027112102,-0.030304693,0.16025087,0.8815624,-2.428356e-09,-3.8635622e-10,-0.47206742,5
414904973,414904608,0.9817333,-0.0407753,0.04228044,0.18096834,0.8815624,-2.428356e-09,-3.8635622e-10,-0.47206742,5
415408576,415408372,0.9736262,-0.14281979,0.039742064,0.17342208,0.8815624,-2.428356e-09,-3.8635622e-10,-0.47206742,5
415907432,415907198,0.97846514,-0.12470998,0.034836963,0.16074786,0.8815624,-2.428356e-09,-3.8635622e-10,-0.47206742,5
416406228,416406023,0.98839986,-0.04452376,-0.0201976,0.14378954,0.8815624,-2.428356e-09,-3.8635622e-10,-0.47206742,5
416905110,416904848,0.98930717,0.07272967,-0.019355549,0.12492866,0.8815624,-2.428356e-09,-3.8635622e-10,-0.47206742,5
417403878,417403674,0.98799473,0.09274319,-0.027697358,0.12040753,0.8815624,-2.428356e-09,-3.8635622e-10,-0.47206742,5
417907670,417907438,0.9863034,0.05179181,-0.060533654,0.14442642,0.8815624,-2.428356e-09,-3.8635622e-10,-0.47206742,5
418406491,418406264,0.9834466,0.028536852,-0.03798674,0.17485839,0.8815624,-2.428356e-09,-3.8635622e-10,-0.47206742,5
418905306,418905091,0.9780763,0.022653084,-0.03835246,0.20342767,0.8815624,-2.428356e-09,-3.8635622e-10,-0.47206742,5
419409057,419408855,0.9736649,0.016630117,-0.017545551,0.22669882,0.8815624,-2.428356e-09,-3.8635622e-10,-0.47206742,5
419902946,419902743,0.97005546,0.006368276,-0.011532632,0.24252619,0.8815624,-2.428356e-09,-3.8635622e-10,-0.47206742,5
420406710,420406508,0.96720195,0.009679948,-0.017429562,0.25322506,0.8815624,-2.428356e-09,-3.8635622e-10,-0.47206742,5
420905539,420905334,0.9652751,0.0076100705,-0.018007727,0.26050317,0.8815624,-2.428356e-09,-3.8635622e-10,-0.47206742,5
421404362,421404161,0.96374553,-0.012328661,-0.0038375817,0.26651043,0.8815624,-2.428356e-09,-3.8635622e-10,-0.47206742,5
421908128,421907926,0.96330434,-0.015735857,-0.013445802,0.26761273,0.8815624,-2.428356e-09,-3.8635622e-10,-0.47206742,5
422406962,422406753,0.96385264,-0.017255327,-0.02227572,0.2649418,0.8815624,-2.428356e-09,-3.8635622e-10,-0.47206742,5
422910729,422910519,0.9654367,-0.017895322,-0.01612921,0.25952214,0.8815624,-2.428356e-09,-3.8635622e-10,-0.47206742,5
423404613,423404407,0.9678084,-0.009522973,-0.013325695,0.2511547,0.8815624,-2.428356e-09,-3.8635622e-10,-0.47206742,5
423903451,423903234,0.9705138,-0.006477357,-0.014204641,0.24053966,0.8815624,-2.428356e-09,-3.8635622e-10,-0.47206742,5
424407204,424407001,0.97197497,-0.0061294697,-0.013456848,0.23461893,0.8815624,-2.428356e-09,-3.8635622e-10,-0.47206742,5
424906035,424905828,0.97172475,0.0018603461,-0.0071193497,0.23600192,0.8815624,-2.428356e-09,-3.8635622e-10,-0.47206742,5
425404880,425404656,0.9708791,0.00091346545,-0.0050912546,0.23951428,0.8815624,-2.428356e-09,-3.8635622e-10,-0.47206742,5
425908651,425908423,0.9708905,-0.012544092,-0.009071756,0.23902288,0.8815624,-2.428356e-09,-3.8635622e-10,-0.47206742,5
426407457,426407250,0.9710223,0.0014495412,-0.011632883,0.23870143,0.8815624,-2.428356e-09,-3.8635622e-10,-0.47206742,5
426906298,426906079,0.97122437,-0.0019214713,-0.018172592,0.23746413,0.8815624,-2.428356e-09,-3.8635622e-10,-0.47206742,5
427405117,427404907,0.9717325,-0.0039161667,-0.016541969,0.23547174,0.8815624,-2.428356e-09,-3.8635622e-10,-0.47206742,5
427903936,427903735,0.9723073,-0.0036266148,-0.016455865,0.23309776,0.8815624,-2.428356e-09,-3.8635622e-10,-0.47206742,5
428407706,428407502,0.9732194,-0.0049574734,-0.012407414,0.22949003,0.8815624,-2.428356e-09,-3.8635622e-10,-0.47206742,5
428906536,428906331,0.9737847,-0.0029264546,-0.0127149215,0.2270971,0.8815624,-2.428356e-09,-3.8635622e-10,-0.47206742,5
429405375,429405160,0.9738593,-0.0099147605,-0.017366115,0.22627026,0.8815624,-2.428356e-09,-3.8635622e-10,-0.47206742,5
429909130,429908928,0.9746312,-0.014095558,-0.020507567,0.22242911,0.8815624,-2.428356e-09,-3.8635622e-10,-0.47206742,5
430403021,430402818,0.97511697,0.0063524577,-0.011075646,0.22132324,0.8815624,-2.428356e-09,-3.8635622e-10,-0.47206742,5
430906788,430906586,0.9767851,-0.019043256,-0.025382424,0.21185821,0.8815624,-2.428356e-09,-3.8635622e-10,-0.47206742,5
431405644,431405415,0.979458,-0.01799438,-0.018670088,0.1999745,0.8815624,-2.428356e-09,-3.8635622e-10,-0.47206742,5
431904445,431904245,0.9807414,-0.0069851186,-0.00848361,0.19500192,0.8815624,-2.428356e-09,-3.8635622e-10,-0.47206742,5
432408216,432408013,0.9810809,-0.0020606474,-0.009251784,0.19336624,0.8815624,-2.428356e-09,-3.8635622e-10,-0.47206742,5
432907051,432906843,0.98103195,-0.018478412,-0.011005785,0.19264942,0.8815624,-2.428356e-09,-3.8635622e-10,-0.47206742,5
433405894,433405673,0.98245573,-0.022076821,-0.0042534904,0.18513626,0.8815624,-2.428356e-09,-3.8635622e-10,-0.47206742,5
433904710,433904503,0.98454607,-0.017120814,-0.014289233,0.17369999,0.8815624,-2.428356e-09,-3.8635622e-10,-0.47206742,5
434403550,434403334,0.9856805,-0.014836626,-0.013213872,0.16744949,0.8815624,-2.428356e-09,-3.8635622e-10,-0.47206742,5
434907307,434907103,0.98588383,-0.0105319675,-0.0137452595,0.16653292,0.8815624,-2.428356e-09,-3.8635622e-10,-0.47206742,5
435406152,435405934,0.9859226,-0.015482628,-0.010924208,0.1661254,0.8815624,-2.428356e-09,-3.8635622e-10,-0.47206742,5
435904980,435904764,0.986034,-0.020497607,-0.01421339,0.16466619,0.8815624,-2.428356e-09,-3.8635622e-10,-0.47206742,5
436408792,436408534,0.9863414,-0.0052662212,-0.01832487,0.16360706,0.8815624,-2.428356e-09,-3.8635622e-10,-0.47206742,5
436907626,436907365,0.98496526,-0.012988008,-0.021375526,0.17093271,0.8815624,-2.428356e-09,-3.8635622e-10,-0.47206742,5
437406675,437406197,0.9839855,-0.00044488005,-0.013387381,0.1777445,0.8815624,-2.428356e-09,-3.8635622e-10,-0.47206742,5
437905248,437905028,0.98285973,0.0038553125,-0.013891489,0.18379046,0.8815624,-2.428356e-09,-3.8635622e-10,-0.47206742,5
438404082,438403860,0.98369783,-0.0029704398,-0.01069147,0.17948693,0.8815624,-2.428356e-09,-3.8635622e-10,-0.47206742,5
438907848,438907630,0.983578,0.013187282,-0.004808525,0.17993717,0.8815624,-2.428356e-09,-3.8635622e-10,-0.47206742,5
439406854,439406462,0.98392135,0.0011627682,-0.00965764,0.1783371,0.8815624,-2.428356e-09,-3.8635622e-10,-0.47206742,5
439905495,439905294,0.984926,-0.0016532451,-0.006289634,0.17285402,0.8815624,-2.428356e-09,-3.8635622e-10,-0.47206742,5
440409283,440409065,0.98468256,0.0031251481,-0.010006976,0.17404127,0.8815624,-2.428356e-09,-3.8635622e-10,-0.47206742,5
440903166,440902959,0.9845525,0.0057963575,-0.008031165,0.17480986,0.8815624,-2.428356e-09,-3.8635622e-10,-0.47206742,5
441407024,441406730,0.9836989,0.0048414273,-0.020972248,0.17853114,0.8815624,-2.428356e-09,-3.8635622e-10,-0.47206742,5
441905769,441905563,0.98304594,0.009714213,-0.014314751,0.18254165,0.8815624,-2.428356e-09,-3.8635622e-10,-0.47206742,5
442404598,442404396,0.98264194,-0.008041404,-0.0139697185,0.18481103,0.8815624,-2.428356e-09,-3.8635622e-10,-0.47206742,5
442908372,442908168,0.9822738,-0.011808247,-0.015506684,0.18643607,0.8815624,-2.428356e-09,-3.8635622e-10,-0.47206742,5
443407220,443407003,0.98232824,-0.0014605031,-0.008002102,0.18698965,0.8815624,-2.428356e-09,-3.8635622e-10,-0.47206742,5
443906039,443905835,0.9823186,-0.011714385,-0.011320243,0.1865071,0.8815624,-2.428356e-09,-3.8635622e-10,-0.47206742,5
444404907,444404668,0.9830706,-0.009922585,-0.010597979,0.18265165,0.8815624,-2.428356e-09,-3.8635622e-10,-0.47206742,5
444903763,444903502,0.98366386,-0.011204246,-0.012128942,0.17925633,0.8815624,-2.428356e-09,-3.8635622e-10,-0.47206742,5
445407481,445407275,0.985595,-0.016858239,-0.013683408,0.16772349,0.8815624,-2.428356e-09,-3.8635622e-10,-0.47206742,5
445906314,445906109,0.98783636,-0.01716678,-0.01083668,0.15416655,0.8815624,-2.428356e-09,-3.8635622e-10,-0.47206742,5
446405146,446404943,0.9897778,-0.013586459,-0.009356502,0.14166133,0.8815624,-2.428356e-09,-3.8635622e-10,-0.47206742,5
446908925,446908717,0.9919212,-0.006572301,-0.01770524,0.1254428,0.8815624,-2.428356e-09,-3.8635622e-10,-0.47206742,5
447407761,447407552,0.9929253,-0.020597115,-0.016319053,0.11579668,0.8815624,-2.428356e-09,-3.8635622e-10,-0.47206742,5
447906594,447906386,0.99389976,-0.019741843,-0.008965127,0.10813498,0.8815624,-2.428356e-09,-3.8635622e-10,-0.47206742,5
448405428,448405221,0.9952881,-0.008469103,-0.0051252176,0.09645554,0.8815624,-2.428356e-09,-3.8635622e-10,-0.47206742,5
448904262,448904057,0.9955365,0.0013378384,-0.009184264,0.0939208,0.8815624,-2.428356e-09,-3.8635622e-10,-0.47206742,5
449408036,449407831,0.9946024,0.009288587,-0.00638631,0.10314593,0.8815624,-2.428356e-09,-3.8635622e-10,-0.47206742,5
449906895,449906666,0.9933092,0.013181463,-0.008580922,0.11440919,0.8815624,-2.428356e-09,-3.8635622e-10,-0.47206742,5
450405704,450405502,0.9914828,0.018316474,-0.014566899,0.12811832,0.8815624,-2.428356e-09,-3.8635622e-10,-0.47206742,5
450909481,450909277,0.99036336,0.0047908747,-0.00848601,0.13815053,0.8815624,-2.428356e-09,-3.8635622e-10,-0.47206742,5
451403380,451403174,0.9886699,0.00503523,-0.010112548,0.14968061,0.8815624,-2.428356e-09,-3.8635622e-10,-0.47206742,5
451907152,451906949,0.98711735,-0.0013974489,-0.00077353744,0.15999007,0.8815624,-2.428356e-09,-3.8635622e-10,-0.47206742,5
452405989,452405786,0.98584825,0.0009235225,-0.0060186903,0.16753012,0.8815624,-2.428356e-09,-3.8635622e-10,-0.47206742,5
452904826,452904622,0.985135,0.0015385814,-0.010847668,0.17143255,0.8815624,-2.428356e-09,-3.8635622e-10,-0.47206742,5
453408603,453408398,0.9847183,-0.005927833,-0.010331616,0.17374675,0.8815624,-2.428356e-09,-3.8635622e-10,-0.47206742,5
453907441,453907235,0.9847024,-0.0046339403,-0.0131869875,0.17368323,0.8815624,-2.428356e-09,-3.8635622e-10,-0.47206742,5
454406274,454406072,0.9846106,0.011830587,-0.023544874,0.17276444,0.8815624,-2.428356e-09,-3.8635622e-10,-0.47206742,5
454905115,454904909,0.9848359,-0.00994799,-0.021010548,0.17192402,0.8815624,-2.428356e-09,-3.8635622e-10,-0.47206742,5
455403955,455403747,0.98502064,-0.017771188,-0.008350659,0.17131525,0.8815624,-2.428356e-09,-3.8635622e-10,-0.47206742,5
455907727,455907523,0.9859164,-0.0026630173,-0.011519564,0.16682042,0.8815624,-2.428356e-09,-3.8635622e-10,-0.47206742,5
456406567,456406361,0.9873349,-0.020264551,-0.0019490371,0.15733881,0.8815624,-2.428356e-09,-3.8635622e-10,-0.47206742,5
456905423,456905199,0.9883876,-0.008077158,-0.00015327206,0.1517397,0.8815624,-2.428356e-09,-3.8635622e-10,-0.47206742,5
457409182,457408976,0.9878613,-0.006453405,-0.008179061,0.15498948,0.8815624,-2.428356e-09,-3.8635622e-10,-0.47206742,5
457908037,457907815,0.9877082,-0.0051363115,-0.011035835,0.15583424,0.8815624,-2.428356e-09,-3.8635622e-10,-0.47206742,5
458406854,458406653,0.98810035,-0.008447347,-0.008890657,0.15332146,0.8815624,-2.428356e-09,-3.8635622e-10,-0.47206742,5
458905713,458905492,0.9884945,-0.0040559866,-0.014055859,0.15054737,0.8815624,-2.428356e-09,-3.8635622e-10,-0.47206742,5
459404533,459404331,0.9886907,0.0009910926,-0.015487656,0.14916474,0.8815624,-2.428356e-09,-3.8635622e-10,-0.47206742,5
459908801,459908109,0.98848486,-0.004527987,-0.020005193,0.14992355,0.8815624,-2.428356e-09,-3.8635622e-10,-0.47206742,5
460407154,460406948,0.9887844,-0.0060622026,-0.017458417,0.14820223,0.8815624,-2.428356e-09,-3.8635622e-10,-0.47206742,5
460906077,460905788,0.9890338,-0.0018462763,-0.011805946,0.14720522,0.8815624,-2.428356e-09,-3.8635622e-10,-0.47206742,5
