timestamp,timestamp_sample,states[0],states[1],states[2],states[3],states[4],states[5],states[6],states[7],states[8],states[9],states[10],states[11],states[12],states[13],states[14],states[15],states[16],states[17],states[18],states[19],states[20],states[21],states[22],states[23],covariances[0],covariances[1],covariances[2],covariances[3],covariances[4],covariances[5],covariances[6],covariances[7],covariances[8],covariances[9],covariances[10],covariances[11],covariances[12],covariances[13],covariances[14],covariances[15],covariances[16],covariances[17],covariances[18],covariances[19],covariances[20],covariances[21],covariances[22],covariances[23],n_states
218338743,218238322,-0.86288655,-0.02098611,-0.000119691846,-0.50496185,0.019789686,-0.013653871,0.074743345,13.336232,0.65472066,4.4170895,1.9113668e-05,2.2751268e-05,-5.4309085e-06,0.0010982251,0.0001790861,-0.00017297745,0.26281977,-0.03839576,0.40018925,0.0,0.0,0.0,0.0,0.0,2.1923455e-05,5.2137293e-06,5.3608683e-06,6.521391e-05,0.009812982,0.009815352,0.011202105,0.06363287,0.063646846,0.15512957,2.1559723e-11,2.1834954e-11,4.299053e-11,5.0001184e-08,6.0187055e-08,5.0000363e-08,0.0,0.0,0.0,0.0,0.0,0.0,0.0,0.0,24
219338830,219238404,-0.8610067,-0.02120062,-0.00020116383,-0.50815153,0.012162628,-0.008336004,0.0758115,13.354281,0.6582492,4.4476075,1.9093559e-05,2.2668008e-05,-7.0963642e-06,0.0010982915,0.0001823718,-0.00017165499,0.26281977,-0.03839576,0.40018925,0.0,0.0,0.0,0.0,0.0,2.1942644e-05,5.2325236e-06,5.380375e-06,6.513751e-05,0.0097809,0.009780047,0.011162687,0.06280518,0.06281312,0.1534082,2.1304083e-11,2.157846e-11,4.2972268e-11,5.0000633e-08,6.018197e-08,5e-08,0.0,0.0,0.0,0.0,0.0,0.0,0.0,0.0,24
220328877,220228486,-0.8606038,-0.018648397,0.000743463,-0.5089331,-0.006603726,-0.009791447,0.07150191,13.373996,0.63864243,4.459999,1.9294459e-05,2.2533493e-05,-7.1320283e-06,0.0010983723,0.00018137334,-0.00016409034,0.26281977,-0.03839576,0.40018925,0.0,0.0,0.0,0.0,0.0,2.2084701e-05,5.222757e-06,5.362381e-06,6.522186e-05,0.009700089,0.009699133,0.011145882,0.061738808,0.06174232,0.15332271,2.106203e-11,2.1326963e-11,4.3012798e-11,5.0000626e-08,6.016586e-08,5.0000093e-08,0.0,0.0,0.0,0.0,0.0,0.0,0.0,0.0,24
221328952,221228569,-0.86138046,-0.009777824,-0.00023491791,-0.50786626,-0.0012334986,0.0025955322,0.058569178,13.402083,0.65644693,4.456012,1.9484412e-05,2.2872962e-05,-5.211788e-06,0.001099419,0.00017760195,-0.00014948152,0.26281977,-0.03839576,0.40018925,0.0,0.0,0.0,0.0,0.0,2.2384063e-05,5.2073055e-06,5.323259e-06,6.5198496e-05,0.009679053,0.009678618,0.011174666,0.060958475,0.06095906,0.15391324,2.0852767e-11,2.1101681e-11,4.3059816e-11,5.0000537e-08,6.0137715e-08,5.0000363e-08,0.0,0.0,0.0,0.0,0.0,0.0,0.0,0.0,24
222339063,222238654,-0.85574037,0.0017591709,-0.016164208,-0.5171499,-0.0011906335,-0.010946039,0.06350753,13.402357,0.650773,4.4196777,1.9576386e-05,2.2966833e-05,-1.4226418e-06,0.0010983819,0.00016890402,-0.00012908781,0.26281977,-0.03839576,0.40018925,0.0,0.0,0.0,0.0,0.0,2.3908806e-05,5.201811e-06,5.288272e-06,6.395473e-05,0.009660491,0.009660208,0.0111725675,0.06037278,0.060371663,0.15314028,2.0668363e-11,2.0897443e-11,4.3113936e-11,5.000071e-08,6.010196e-08,5.000009e-08,0.0,0.0,0.0,0.0,0.0,0.0,0.0,0.0,24
223339203,223238738,-0.84920204,0.008086152,0.012600603,-0.52785575,0.09086408,-0.18959661,0.019833777,13.4225855,0.61773777,4.3638024,1.9572011e-05,2.3445677e-05,5.094564e-06,0.0010977866,0.00015684462,-0.00011407775,0.26281977,-0.03839576,0.40018925,0.0,0.0,0.0,0.0,0.0,2.5921305e-05,5.1903658e-06,5.2443484e-06,6.1836676e-05,0.009681377,0.00967557,0.011191765,0.05960245,0.059600547,0.15383296,2.0512697e-11,2.072252e-11,4.3079425e-11,5.0000626e-08,6.005263e-08,5.000036e-08,0.0,0.0,0.0,0.0,0.0,0.0,0.0,0.0,24
224329242,224228822,-0.8612497,-0.032034338,0.010819991,-0.50705594,-0.11661959,-0.11124654,-0.3262543,13.489123,0.46648845,4.0958724,1.9960837e-05,2.4009429e-05,1.1025872e-05,0.0011007095,0.00014605581,-0.000121760655,0.26281977,-0.03839576,0.40018925,0.0,0.0,0.0,0.0,0.0,2.5016638e-05,5.105065e-06,5.3115823e-06,6.276872e-05,0.0096983295,0.009711357,0.011114019,0.058580965,0.058578786,0.1521479,2.0341468e-11,2.0528282e-11,4.3096745e-11,5.0000608e-08,5.997892e-08,5e-08,0.0,0.0,0.0,0.0,0.0,0.0,0.0,0.0,24
225329308,225228907,-0.8674274,-0.02749135,0.0047164713,-0.49678135,-0.11934295,0.08170631,-0.5697889,13.373472,0.49055424,3.5706239,2.0182702e-05,2.417209e-05,1.6650834e-05,0.0010996702,0.00013410713,-0.00011910002,0.26281977,-0.03839576,0.40018925,0.0,0.0,0.0,0.0,0.0,2.4998466e-05,5.026947e-06,5.2085584e-06,6.297209e-05,0.009667862,0.009666968,0.011133742,0.057853375,0.05785213,0.15296142,2.0197928e-11,2.0354171e-11,4.3121125e-11,5.0000533e-08,5.991711e-08,5.000027e-08,0.0,0.0,0.0,0.0,0.0,0.0,0.0,0.0,24
226339383,226238993,-0.8774813,-0.009856693,0.019029861,-0.4791317,-0.15293075,0.14353864,-0.7745747,13.211832,0.6607992,2.8704941,2.0040372e-05,2.450974e-05,2.2178607e-05,0.0010988389,0.00012576094,-0.00012238309,0.26281977,-0.03839576,0.40018925,0.0,0.0,0.0,0.0,0.0,2.4292367e-05,5.024821e-06,5.097249e-06,6.3906395e-05,0.009685352,0.009686205,0.011149022,0.05747551,0.05747474,0.15245935,2.0099204e-11,2.0230527e-11,4.315843e-11,5.0000626e-08,5.987922e-08,5.000009e-08,0.0,0.0,0.0,0.0,0.0,0.0,0.0,0.0,24
227329469,227229078,-0.883283,-0.006126795,0.015410157,-0.46854693,0.022304561,0.030017905,-0.87923956,13.142768,0.824765,2.002108,1.9551118e-05,2.5037067e-05,2.7448568e-05,0.0010992514,0.00011888732,-0.00011026415,0.26281977,-0.03839576,0.40018925,0.0,0.0,0.0,0.0,0.0,2.4148507e-05,4.966964e-06,5.0550143e-06,6.4222135e-05,0.00954593,0.009552758,0.011139658,0.05659636,0.05659564,0.15285999,2.0010134e-11,2.0128064e-11,4.3182666e-11,5.000054e-08,5.986196e-08,5.000018e-08,0.0,0.0,0.0,0.0,0.0,0.0,0.0,0.0,24
228329552,228229165,-0.87608886,-0.0066963914,0.006314467,-0.48206183,0.10914807,0.0026504965,-0.95481014,13.266145,0.90548366,1.0701168,1.9643327e-05,2.6016078e-05,3.2809807e-05,0.001101774,0.00011019226,-0.00011900786,0.26281977,-0.03839576,0.40018925,0.0,0.0,0.0,0.0,0.0,2.6056396e-05,4.9410287e-06,5.042451e-06,6.217442e-05,0.009504072,0.009507869,0.011172239,0.05603859,0.05603836,0.1537677,1.9954143e-11,2.0064133e-11,4.3136696e-11,5.0000633e-08,5.985711e-08,5.0000363e-08,0.0,0.0,0.0,0.0,0.0,0.0,0.0,0.0,24
229339820,229239253,-0.86513656,-0.008860166,0.001523512,-0.50145596,0.107387975,-0.06194499,-1.0011982,13.408864,0.8816834,-0.015554516,1.9974434e-05,2.645119e-05,3.804637e-05,0.001102679,0.000101144324,-9.206187e-05,0.26281977,-0.03839576,0.40018925,0.0,0.0,0.0,0.0,0.0,2.8642546e-05,4.955423e-06,5.048153e-06,5.982006e-05,0.009508238,0.0095069455,0.011213206,0.055701073,0.05570111,0.15478402,1.9918404e-11,2.0018862e-11,4.31741e-11,5.0000722e-08,5.985544e-08,5e-08,0.0,0.0,0.0,0.0,0.0,0.0,0.0,0.0,24
230339782,230239340,-0.8668293,-0.025078073,-0.007049321,-0.4979241,0.051034823,-0.14135744,-1.0035983,13.5599785,0.7329607,-1.0280085,2.0613517e-05,2.6582027e-05,4.309955e-05,0.0011040726,9.2516115e-05,-0.000103049475,0.26281977,-0.03839576,0.40018925,0.0,0.0,0.0,0.0,0.0,2.9045857e-05,4.9654395e-06,5.1164175e-06,5.9522048e-05,0.009497663,0.009500087,0.011200802,0.05512221,0.05512201,0.15486102,1.988215e-11,1.9970945e-11,4.3195943e-11,5.000063e-08,5.9847515e-08,5.000009e-08,0.0,0.0,0.0,0.0,0.0,0.0,0.0,0.0,24
231329986,231229427,-0.8699439,-0.02364308,-0.00943735,-0.49249333,-0.14146863,-0.049162373,-1.004592,13.551442,0.6574788,-2.0528362,2.0733407e-05,2.6824693e-05,4.7756854e-05,0.001104329,8.582052e-05,-9.5234034e-05,0.26281977,-0.03839576,0.40018925,0.0,0.0,0.0,0.0,0.0,2.9154593e-05,4.9545883e-06,5.0930926e-06,5.9499915e-05,0.009397782,0.009419392,0.011156653,0.0542632,0.054263372,0.1545237,1.9833838e-11,1.9903886e-11,4.3198677e-11,5.000054e-08,5.9834214e-08,5.000009e-08,0.0,0.0,0.0,0.0,0.0,0.0,0.0,0.0,24
232329968,232229515,-0.87469083,-0.025318133,0.008564149,-0.48394376,-0.1486888,-0.03944909,-1.0265799,13.402299,0.5410491,-3.079194,2.1129257e-05,2.6331245e-05,5.2184798e-05,0.0011045695,7.655301e-05,-9.1619884e-05,0.26281977,-0.03839576,0.40018925,0.0,0.0,0.0,0.0,0.0,2.8916756e-05,4.9616137e-06,5.098077e-06,5.983499e-05,0.009388305,0.00939359,0.011155017,0.053753458,0.053754825,0.15462811,1.9800644e-11,1.9854153e-11,4.3212874e-11,5.0000537e-08,5.982115e-08,5.0000178e-08,0.0,0.0,0.0,0.0,0.0,0.0,0.0,0.0,24
233330083,233229604,-0.891148,-0.020212982,0.015976986,-0.45298073,-0.09680058,0.04255835,-1.0110147,13.261837,0.45282534,-4.1457276,2.1363161e-05,2.549493e-05,5.6147404e-05,0.0011031423,6.738645e-05,-6.818432e-05,0.26281977,-0.03839576,0.40018925,0.0,0.0,0.0,0.0,0.0,2.6539601e-05,4.9757737e-06,5.080451e-06,6.2357794e-05,0.009353579,0.0093415575,0.011158506,0.05322904,0.0532301,0.1547734,1.9765526e-11,1.9811802e-11,4.3238503e-11,5.0000633e-08,5.981478e-08,5.000027e-08,0.0,0.0,0.0,0.0,0.0,0.0,0.0,0.0,24
234330126,234229693,-0.90392673,-0.017772757,0.016727623,-0.42699063,0.025202943,0.14687607,-0.9863966,13.185139,0.52846766,-4.9704647,2.1191388e-05,2.5105293e-05,5.9620994e-05,0.0011017391,6.227338e-05,-0.00010544861,0.26281977,-0.03839576,0.40018925,0.0,0.0,0.0,0.0,0.0,2.459361e-05,4.9686387e-06,5.0735553e-06,6.442543e-05,0.009370766,0.009358818,0.011176615,0.052848797,0.052848034,0.1551149,1.9734254e-11,1.977861e-11,4.3259188e-11,5.0005305e-08,5.9819335e-08,5.0000452e-08,0.0,0.0,0.0,0.0,0.0,0.0,0.0,0.0,24
235330217,235229783,-0.9110851,-0.012129973,0.0067988634,-0.41198364,0.06692114,0.11024417,-1.2914593,13.246035,0.6738765,-5.8332253,2.1046591e-05,2.515713e-05,6.333514e-05,0.0011018519,5.755025e-05,-0.00015646844,0.26281977,-0.03839576,0.40018925,0.0,0.0,0.0,0.0,0.0,2.3584023e-05,4.936858e-06,5.054639e-06,6.526138e-05,0.009520653,0.009524467,0.011141894,0.052536856,0.052535027,0.15357083,1.9704486e-11,1.9747023e-11,4.3208773e-11,5.000453e-08,5.981712e-08,5.000018e-08,0.0,0.0,0.0,0.0,0.0,0.0,0.0,0.0,24
236330274,236229873,-0.91531605,-0.018747538,-0.0030509336,-0.4022884,0.10105148,-0.045414403,-2.9391246,13.359796,0.73781043,-8.077013,2.103111e-05,2.5626357e-05,6.7192865e-05,0.0011042254,5.0932023e-05,-0.00021077416,0.26281977,-0.03839576,0.40018925,0.0,0.0,0.0,0.0,0.0,2.3156479e-05,4.7846233e-06,4.907736e-06,6.5854576e-05,0.009988914,0.009988402,0.011167055,0.052319195,0.052318767,0.15405776,1.9574719e-11,1.9611195e-11,4.323218e-11,5.000063e-08,5.9758655e-08,5.000027e-08,0.0,0.0,0.0,0.0,0.0,0.0,0.0,0.0,24
237340411,237239965,-0.9093009,-0.019506482,0.00068864715,-0.41568124,-0.03756625,-0.054868516,-2.8239248,13.449902,0.7213641,-10.923744,2.1287762e-05,2.6050659e-05,7.046499e-05,0.0011055345,4.4543714e-05,-0.00018821158,0.26281977,-0.03839576,0.40018925,0.0,0.0,0.0,0.0,0.0,2.45961e-05,4.7420885e-06,4.8411307e-06,6.462692e-05,0.009615773,0.009621633,0.011178445,0.052354105,0.052354734,0.15319878,1.9554943e-11,1.9584345e-11,4.3260603e-11,5.000081e-08,5.971171e-08,5.000009e-08,0.0,0.0,0.0,0.0,0.0,0.0,0.0,0.0,24
238330491,238230055,-0.90879935,-0.015954256,0.0011151722,-0.41692695,-0.07228098,-0.01746663,-2.7678783,13.426791,0.65219873,-13.817894,2.1784614e-05,2.6030777e-05,7.408411e-05,0.0011037831,4.0957228e-05,-0.00014757097,0.26281977,-0.03839576,0.40018925,0.0,0.0,0.0,0.0,0.0,2.5030604e-05,4.750725e-06,4.8202073e-06,6.4304855e-05,0.00929722,0.009305656,0.011156935,0.05173493,0.051736057,0.15328951,1.9568045e-11,1.9589504e-11,4.3269124e-11,5.0000633e-08,5.9692304e-08,5.0000093e-08,0.0,0.0,0.0,0.0,0.0,0.0,0.0,0.0,24
239330659,239230146,-0.9094851,-0.022171669,0.005650871,-0.41510636,-0.08343275,0.012063152,-2.851004,13.39963,0.63140213,-16.684494,2.2208398e-05,2.6138132e-05,7.816342e-05,0.0011032064,3.729816e-05,-9.645081e-05,0.26281977,-0.03839576,0.40018925,0.0,0.0,0.0,0.0,0.0,2.519228e-05,4.794898e-06,4.8614493e-06,6.3957144e-05,0.00921991,0.009225692,0.011167399,0.051354602,0.05135612,0.15389302,1.9596436e-11,1.9612808e-11,4.322061e-11,5.0002683e-08,5.96896e-08,5.0000363e-08,0.0,0.0,0.0,0.0,0.0,0.0,0.0,0.0,24
240330626,240230238,-0.90712625,-0.02023063,0.0077388403,-0.42030102,-0.054159112,0.054931145,-2.9372263,13.321295,0.6113291,-19.623089,2.2416689e-05,2.5797443e-05,8.184333e-05,0.0011028071,3.4777284e-05,-5.8575468e-05,0.26281977,-0.03839576,0.40018925,0.0,0.0,0.0,0.0,0.0,2.5976184e-05,4.8460047e-06,4.8833836e-06,6.335976e-05,0.009240339,0.009239912,0.011132766,0.051088516,0.05109003,0.1526699,1.9615328e-11,1.9629121e-11,4.3249238e-11,5.001012e-08,5.969425e-08,5.000009e-08,0.0,0.0,0.0,0.0,0.0,0.0,0.0,0.0,24
241330719,241230332,-0.9070314,-0.016530713,0.0062819566,-0.42069158,0.012164594,0.091066055,-2.9597125,13.28942,0.6864731,-22.556711,2.2388187e-05,2.5770125e-05,8.555935e-05,0.0011022544,3.088064e-05,-4.178429e-05,0.26281977,-0.03839576,0.40018925,0.0,0.0,0.0,0.0,0.0,2.633473e-05,4.8783572e-06,4.8986944e-06,6.3195606e-05,0.009227155,0.009226354,0.01114701,0.050780836,0.050781697,0.15339649,1.9615523e-11,1.9630022e-11,4.3277226e-11,5.0017977e-08,5.969917e-08,5.000027e-08,0.0,0.0,0.0,0.0,0.0,0.0,0.0,0.0,24
242330812,242230422,-0.9095901,-0.012834146,-0.00590778,-0.41526636,0.01844849,0.022464287,-2.9671779,13.390656,0.8009955,-25.51718,2.2602502e-05,2.6365935e-05,8.9170586e-05,0.0011022274,2.8927221e-05,-2.2995513e-05,0.26281977,-0.03839576,0.40018925,0.0,0.0,0.0,0.0,0.0,2.6149904e-05,4.901304e-06,4.92327e-06,6.357309e-05,0.009241503,0.009239402,0.011167862,0.050567973,0.05056822,0.15409508,1.9612487e-11,1.9627836e-11,4.3302355e-11,5.0023246e-08,5.9700625e-08,5.000036e-08,0.0,0.0,0.0,0.0,0.0,0.0,0.0,0.0,24
243330935,243230515,-0.9155583,-0.014441436,-0.003185311,-0.40191355,-0.08461963,-0.049616598,-2.9904034,13.474396,0.7868039,-28.44564,2.3255581e-05,2.6909496e-05,9.283436e-05,0.0011034294,2.7298533e-05,-1.39244985e-05,0.26281977,-0.03839576,0.40018925,0.0,0.0,0.0,0.0,0.0,2.5190926e-05,4.9141513e-06,4.9465325e-06,6.4351116e-05,0.009253359,0.009251786,0.011135345,0.05033871,0.050338745,0.15291996,1.9604424e-11,1.9616824e-11,4.324486e-11,5.0026728e-08,5.96998e-08,5.000018e-08,0.0,0.0,0.0,0.0,0.0,0.0,0.0,0.0,24
244330996,244230609,-0.92163026,-0.021744054,0.011330413,-0.38729373,-0.13972577,-0.062365416,-2.972816,13.356903,0.6300498,-31.378397,2.3811774e-05,2.6389424e-05,9.559709e-05,0.001104206,2.4014873e-05,-5.1643806e-06,0.26281977,-0.03839576,0.40018925,0.0,0.0,0.0,0.0,0.0,2.4141724e-05,4.943903e-06,4.9839273e-06,6.5736764e-05,0.009242367,0.00924377,0.011166699,0.050146528,0.0501465,0.15378599,1.9599622e-11,1.9606436e-11,4.3308992e-11,5.003229e-08,5.970299e-08,5.0000452e-08,0.0,0.0,0.0,0.0,0.0,0.0,0.0,0.0,24
245331103,245230702,-0.9210173,-0.016865266,0.015099542,-0.38886335,-0.07299314,0.083394945,-2.992332,13.219455,0.5919401,-34.29524,2.3794151e-05,2.5810263e-05,9.557066e-05,0.0011040211,2.3385568e-05,9.608163e-06,0.26281977,-0.03839576,0.40018925,0.0,0.0,0.0,0.0,0.0,2.4692996e-05,4.973873e-06,4.977524e-06,6.824154e-05,0.009286497,0.009279967,0.011146455,0.05000459,0.05000469,0.15277714,1.9593388e-11,1.959972e-11,4.3943266e-11,5.0040423e-08,5.971063e-08,5.000027e-08,0.0,0.0,0.0,0.0,0.0,0.0,0.0,0.0,24
246331229,246230795,-0.9195992,-0.0049791164,0.01326953,-0.3926025,0.04281784,0.12624311,-2.9768105,13.110693,0.73229885,-37.126328,2.2994078e-05,2.5409745e-05,9.5491785e-05,0.0011036233,2.3004486e-05,7.921572e-06,0.26281977,-0.03839576,0.40018925,0.0,0.0,0.0,0.0,0.0,2.5409066e-05,4.981316e-06,4.9657037e-06,7.0576636e-05,0.009299186,0.009307156,0.011130489,0.049945634,0.049945246,0.15185773,1.9583193e-11,1.9594144e-11,4.4545242e-11,5.0049067e-08,5.971914e-08,5e-08,0.0,0.0,0.0,0.0,0.0,0.0,0.0,0.0,24
247331327,247230889,-0.92241675,-0.00080639723,0.003787708,-0.38617662,0.15092072,0.052741103,-2.7788997,13.191343,0.9400451,-40.000797,2.2148912e-05,2.6056081e-05,9.533003e-05,0.0011036209,2.2918359e-05,1.6528069e-05,0.26281977,-0.03839576,0.40018925,0.0,0.0,0.0,0.0,0.0,2.5143288e-05,4.9672885e-06,4.985672e-06,7.3719886e-05,0.009201633,0.009218485,0.011156351,0.049809944,0.04981028,0.15281412,1.9578348e-11,1.959525e-11,4.508046e-11,5.005784e-08,5.972752e-08,5.0000274e-08,0.0,0.0,0.0,0.0,0.0,0.0,0.0,0.0,24
248331399,248230983,-0.9246125,-0.009971372,-0.008123644,-0.38069198,0.107204854,-0.13255295,-1.8578043,13.4522505,0.9907299,-42.349266,2.2256336e-05,2.7258164e-05,9.509437e-05,0.0011021609,2.3289798e-05,4.5845896e-05,0.26281977,-0.03839576,0.40018925,0.0,0.0,0.0,0.0,0.0,2.4959518e-05,5.034568e-06,5.0588583e-06,7.687214e-05,0.008922679,0.008901652,0.011130599,0.049717676,0.049719196,0.15186273,1.9619128e-11,1.9640517e-11,4.5611213e-11,5.0064777e-08,5.9730574e-08,5e-08,0.0,0.0,0.0,0.0,0.0,0.0,0.0,0.0,24
249331580,249231077,-0.9221223,-0.02326931,-0.005830845,-0.38615415,-0.093065135,-0.22616276,-1.0865394,13.6176405,0.76554495,-43.727787,2.339619e-05,2.7821754e-05,9.4801006e-05,0.0010995504,2.782875e-05,6.221853e-05,0.26281977,-0.03839576,0.40018925,0.0,0.0,0.0,0.0,0.0,2.5776462e-05,5.1351494e-06,5.208723e-06,7.8951445e-05,0.008852577,0.008858415,0.011150226,0.049542647,0.049541384,0.15272228,1.9687174e-11,1.9703367e-11,4.610666e-11,5.006635e-08,5.9721614e-08,5.000009e-08,0.0,0.0,0.0,0.0,0.0,0.0,0.0,0.0,24
250331556,250231171,-0.915249,-0.025532544,0.012064633,-0.40189776,-0.23256847,-0.118069984,-0.6357867,13.462503,0.48617724,-44.572784,2.4302191e-05,2.7149763e-05,9.454454e-05,0.0011005935,3.0329733e-05,0.00011202923,0.26281977,-0.03839576,0.40018925,0.0,0.0,0.0,0.0,0.0,2.7631497e-05,5.2408145e-06,5.2946198e-06,7.996613e-05,0.008972096,0.008998013,0.011166747,0.04943614,0.04943522,0.15343201,1.9729666e-11,1.9729465e-11,4.6577e-11,5.0070447e-08,5.971767e-08,5.0000178e-08,0.0,0.0,0.0,0.0,0.0,0.0,0.0,0.0,24
251331700,251231265,-0.90834045,-0.0059383838,-0.031763237,-0.4169815,-0.2181371,0.030291481,-0.46008077,13.20267,0.3289807,-44.98918,2.4724768e-05,2.5803072e-05,9.429411e-05,0.0011021572,2.9476807e-05,0.00011360438,0.26281977,-0.03839576,0.40018925,0.0,0.0,0.0,0.0,0.0,2.9443934e-05,5.315002e-06,5.2467226e-06,8.0909136e-05,0.009182002,0.009160694,0.011180684,0.049398787,0.04940062,0.15414998,1.9713071e-11,1.9706486e-11,4.6996542e-11,5.0076874e-08,5.972126e-08,5.000036e-08,0.0,0.0,0.0,0.0,0.0,0.0,0.0,0.0,24
252331809,252231360,-0.88817704,-0.042827353,0.036028687,-0.45608062,-1.0855963,-0.54456484,-0.31347913,12.519632,-0.27250692,-45.175503,2.7483808e-05,2.510381e-05,9.28406e-05,0.0011110723,2.5310077e-05,8.581514e-05,0.26281977,-0.03839576,0.40018925,0.0,0.0,0.0,0.0,0.0,3.3612832e-05,5.5035885e-06,5.3953045e-06,7.8254714e-05,0.009309742,0.009467082,0.011127119,0.049461782,0.049473286,0.15285532,1.9707421e-11,1.9666203e-11,4.7219024e-11,5.007338e-08,5.971882e-08,5e-08,0.0,0.0,0.0,0.0,0.0,0.0,0.0,0.0,24
253331852,253231454,-0.8747901,0.009093622,0.14826308,-0.46116984,-0.23291992,0.13188851,-0.23547286,11.684774,-0.7240286,-45.31488,2.7543105e-05,2.2783852e-05,9.213964e-05,0.00110573,1.0717217e-05,7.152386e-05,0.26281977,-0.03839576,0.40018925,0.0,0.0,0.0,0.0,0.0,3.4277746e-05,8.153956e-06,4.9925166e-06,7.775984e-05,0.009515872,0.009413523,0.01111044,0.04951597,0.04952693,0.15351728,1.9643549e-11,1.9612941e-11,4.7568796e-11,5.0038654e-08,5.967364e-08,5.000027e-08,0.0,0.0,0.0,0.0,0.0,0.0,0.0,0.0,24
254331906,254231549,-0.9067292,0.12866725,0.07854112,-0.39385048,2.3682227,0.9136701,-0.2066346,12.053362,0.4674084,-45.423126,1.8720755e-05,2.2285536e-05,7.978036e-05,0.0010476952,4.733236e-05,2.5228628e-05,0.26281977,-0.03839576,0.40018925,0.0,0.0,0.0,0.0,0.0,2.2509157e-05,5.560534e-06,6.938781e-06,8.143712e-05,0.009584919,0.012241154,0.011096919,0.04975922,0.0497623,0.15389946,1.9580625e-11,1.9590366e-11,4.5782843e-11,5.0000622e-08,5.9600794e-08,5.000009e-08,0.0,0.0,0.0,0.0,0.0,0.0,0.0,0.0,24
255331969,255231645,-0.93434125,0.10076136,-0.011982434,-0.34162843,2.9183712,-0.667169,-0.077521145,14.69423,1.072447,-45.527634,1.6259617e-05,2.3653713e-05,7.521493e-05,0.0010413645,6.43775e-05,-2.3417824e-06,0.26281977,-0.03839576,0.40018925,0.0,0.0,0.0,0.0,0.0,1.6764945e-05,5.786474e-06,7.0238807e-06,8.714703e-05,0.014359113,0.016770132,0.011088936,0.060047377,0.06190749,0.15589026,2.0281716e-11,2.0296062e-11,4.5565055e-11,5.0005305e-08,5.9596374e-08,5.000045e-08,0.0,0.0,0.0,0.0,0.0,0.0,0.0,0.0,24
256334594,256231740,-0.94729125,-0.014682039,-0.14535096,-0.28512585,1.2909588,-0.65359634,-0.06562301,17.780827,1.6430498,-45.775818,1.6801534e-05,3.2596854e-05,6.594744e-05,0.0010784758,2.7573911e-05,2.8212655e-06,0.26281977,-0.03839576,0.40018925,0.0,0.0,0.0,0.0,0.0,1.0546995e-05,8.526596e-06,5.489863e-06,8.754226e-05,0.012990141,0.012440913,0.011007716,0.060894422,0.062452167,0.15401873,1.9934185e-11,2.0080354e-11,4.482679e-11,5.0000608e-08,5.9516445e-08,5.0000093e-08,0.0,0.0,0.0,0.0,0.0,0.0,0.0,0.0,24
257332162,257231836,-0.9716071,0.035076927,-0.031269427,-0.23188671,-0.5951225,-1.0625408,0.14372851,18.70838,0.7252291,-45.71922,2.448246e-05,3.271912e-05,5.4822623e-05,0.0010035967,6.914147e-06,7.113082e-06,0.26281977,-0.03839576,0.40018925,0.0,0.0,0.0,0.0,0.0,6.1487544e-06,5.0711055e-06,5.0779186e-06,8.844314e-05,0.010310283,0.011984032,0.011107495,0.056043327,0.056682285,0.15428683,1.9721362e-11,1.9764025e-11,4.323479e-11,5.0000516e-08,5.9224504e-08,5.000036e-08,0.0,0.0,0.0,0.0,0.0,0.0,0.0,0.0,24
258332288,258231932,-0.9573757,-0.04782866,0.20283099,-0.20000939,1.2216288,-0.35292396,-0.029054433,18.789234,-0.6416056,-45.663223,2.799568e-05,2.921725e-05,4.87828e-05,0.0009180155,7.4386604e-05,-9.765395e-06,0.26281977,-0.03839576,0.40018925,0.0,0.0,0.0,0.0,0.0,4.3716846e-06,8.441074e-06,5.1066386e-06,8.481547e-05,0.009889199,0.009686883,0.0109525835,0.053549893,0.053724498,0.15282543,1.9790756e-11,1.9734036e-11,4.286222e-11,5.0000622e-08,5.86941e-08,5e-08,0.0,0.0,0.0,0.0,0.0,0.0,0.0,0.0,24
259332420,259232028,-0.9733858,0.003744947,0.006347919,-0.22905439,2.2105665,0.65958697,0.16644599,20.298044,-0.10004952,-45.55059,2.3888899e-05,2.6547563e-05,4.432393e-05,0.0009923825,0.0001505714,-5.8641166e-05,0.26281977,-0.03839576,0.40018925,0.0,0.0,0.0,0.0,0.0,4.8714915e-06,4.775377e-06,4.8166858e-06,8.6352535e-05,0.009932373,0.009678863,0.010999532,0.052156493,0.052302547,0.15332705,1.9808516e-11,1.9812357e-11,4.257873e-11,5.0000708e-08,5.804584e-08,5.000027e-08,0.0,0.0,0.0,0.0,0.0,0.0,0.0,0.0,24
260332523,260232125,-0.9680802,0.027326005,0.024079751,-0.24798013,1.9348682,0.7009072,-0.032465734,21.910997,0.8341888,-45.42939,2.1720187e-05,2.4786832e-05,4.2401207e-05,0.0010332539,0.0001945539,-0.00010870672,0.26281977,-0.03839576,0.40018925,0.0,0.0,0.0,0.0,0.0,5.483286e-06,4.774155e-06,4.810089e-06,8.641495e-05,0.009599512,0.009476058,0.01101974,0.0515442,0.051630042,0.15209407,1.9910865e-11,1.9896192e-11,4.2818363e-11,5.0000626e-08,5.7505297e-08,5e-08,0.0,0.0,0.0,0.0,0.0,0.0,0.0,0.0,24
261332546,261232222,-0.96019,-0.003695776,-0.055011254,-0.27385262,0.092953496,0.6402659,0.08456753,23.073399,1.3606805,-45.465668,2.3112021e-05,2.3831166e-05,4.0992043e-05,0.0010126297,0.00021706408,-0.0001392927,0.26281977,-0.03839576,0.40018925,0.0,0.0,0.0,0.0,0.0,6.415902e-06,5.2896225e-06,4.751104e-06,8.625158e-05,0.009410382,0.010141329,0.011057966,0.051284667,0.05129449,0.15288809,2.0005156e-11,1.9977742e-11,4.308357e-11,5.000053e-08,5.7181015e-08,5.000027e-08,0.0,0.0,0.0,0.0,0.0,0.0,0.0,0.0,24
262332718,262232319,-0.94654506,-0.009912743,-0.006032461,-0.32236305,-0.20599335,0.12663738,0.07694473,22.948011,1.2673886,-45.523163,2.6406118e-05,2.1931592e-05,3.7417063e-05,0.0009857852,0.00024095908,-0.00013320694,0.26281977,-0.03839576,0.40018925,0.0,0.0,0.0,0.0,0.0,8.3926525e-06,4.8753272e-06,4.7292247e-06,8.407606e-05,0.009309177,0.00971287,0.011115208,0.05121881,0.05120774,0.15367475,2.0083732e-11,2.0056864e-11,4.2954845e-11,5.0000615e-08,5.7070235e-08,5.000036e-08,0.0,0.0,0.0,0.0,0.0,0.0,0.0,0.0,24
263332781,263232416,-0.9375718,-0.014144311,0.033099696,-0.3459243,-0.12361666,0.0876978,-0.06935517,22.773014,1.0983325,-45.50727,2.8299768e-05,2.0837353e-05,3.629495e-05,0.0009865757,0.00024449616,-0.00013710778,0.26281977,-0.03839576,0.40018925,0.0,0.0,0.0,0.0,0.0,9.763359e-06,5.0953636e-06,4.728553e-06,8.438268e-05,0.00936773,0.009430029,0.011101532,0.051192004,0.05119998,0.15256849,2.0128704e-11,2.0091881e-11,4.3369367e-11,5.0000697e-08,5.7057722e-08,5e-08,0.0,0.0,0.0,0.0,0.0,0.0,0.0,0.0,24
264332849,264232517,-0.93080646,-0.0015082703,-0.027467001,-0.36447605,1.2659392,1.6401551,0.12951225,22.669218,1.3390675,-45.68839,2.816593e-05,1.8213785e-05,3.5039397e-05,0.0009950579,0.00022051285,-8.376973e-05,0.26281977,-0.03839576,0.40018925,0.0,0.0,0.0,0.0,0.0,1.0803576e-05,4.97221e-06,4.8141223e-06,8.486073e-05,0.0101117445,0.010010732,0.01122482,0.051224027,0.051222257,0.15334655,2.0093656e-11,2.0092497e-11,4.3653862e-11,5.000061e-08,5.700291e-08,5.000027e-08,0.0,0.0,0.0,0.0,0.0,0.0,0.0,0.0,24
265332938,265232612,-0.92281973,0.06442517,-0.034941904,-0.37819585,4.241262,4.8353214,-0.26150197,24.62317,4.9935975,-46.06242,2.2970919e-05,1.4821435e-05,2.6558328e-05,0.0009613079,0.00016257375,-3.2991993e-05,0.26281977,-0.03839576,0.40018925,0.0,0.0,0.0,0.0,0.0,9.638539e-06,5.4494803e-06,5.883081e-06,7.479993e-05,0.015610794,0.017812429,0.011682515,0.056419425,0.056356926,0.15226305,2.0399887e-11,2.0417744e-11,4.150127e-11,5.0000597e-08,5.6909784e-08,5.000009e-08,0.0,0.0,0.0,0.0,0.0,0.0,0.0,0.0,24
266333041,266232710,-0.94324327,0.048352666,-0.019490268,-0.32798532,7.670272,7.0560746,0.46843916,29.830677,11.403846,-46.374435,2.0578662e-05,1.385515e-05,2.5907091e-05,0.0009352735,0.00015233438,4.4147648e-05,0.26281977,-0.03839576,0.40018925,0.0,0.0,0.0,0.0,0.0,6.881477e-06,6.140156e-06,6.402877e-06,7.405142e-05,0.02370618,0.034535423,0.0122892605,0.077488236,0.08190121,0.15326613,2.1181551e-11,2.1107852e-11,4.0866612e-11,5.0000406e-08,5.689175e-08,5.000027e-08,0.0,0.0,0.0,0.0,0.0,0.0,0.0,0.0,24
267333143,267232809,-0.9433647,-0.0023507592,-0.024636652,-0.3308335,10.083293,9.892254,0.04701308,37.015064,21.548483,-46.28008,1.461222e-05,1.3095883e-05,1.3424516e-05,0.0008928663,0.00010689188,4.7961177e-05,0.26281977,-0.03839576,0.40018925,0.0,0.0,0.0,0.0,0.0,5.2160876e-06,6.8800805e-06,6.37581e-06,6.365337e-05,0.02775601,0.04326363,0.012494779,0.0995562,0.11507257,0.15242456,2.1797404e-11,2.1442927e-11,3.8583258e-11,5.0000093e-08,5.6811455e-08,5.0000093e-08,0.0,0.0,0.0,0.0,0.0,0.0,0.0,0.0,24
268333268,268232907,-0.92459947,-0.025470685,-0.01968313,-0.37957856,10.644266,13.363268,-0.6107548,45.09307,35.670532,-46.857834,7.838729e-06,1.240207e-05,-1.7784001e-06,0.0008509723,5.3363772e-05,3.374341e-05,0.26281977,-0.03839576,0.40018925,0.0,0.0,0.0,0.0,0.0,4.976569e-06,7.5494486e-06,6.457927e-06,5.0333983e-05,0.028602362,0.036611795,0.012224834,0.11272647,0.13029188,0.15361655,2.2411056e-11,2.1506583e-11,3.6196327e-11,5e-08,5.6684534e-08,5.000025e-08,0.0,0.0,0.0,0.0,0.0,0.0,0.0,0.0,24
269333348,269233007,-0.89332086,-0.1695275,-0.0872098,-0.40698022,8.820889,15.493986,-1.1735505,52.78737,53.431957,-48.005272,-1.770208e-06,1.4052491e-05,2.4094132e-05,0.00078432565,4.462887e-05,3.7037345e-05,0.33851758,-0.113384366,0.46394795,0.043715283,-0.010164567,0.026449658,0.16953339,4.339912,4.8096386e-05,8.853479e-06,5.1241336e-06,0.00024899715,0.014942358,0.015264052,0.011350718,0.081288524,0.08523669,0.15259522,2.2320026e-11,2.0133471e-11,1.0002118e-06,5.000009e-08,5.642026e-08,5.000009e-08,0.0013512361,0.0001894589,0.0014985977,0.00095400267,0.001408328,0.0014984813,2.313316,1.8153981,24
270333395,270233106,-0.68278444,-0.26643303,-0.18840834,-0.65369815,0.5639573,19.952995,-1.1175634,58.657352,71.13804,-49.122288,3.0810888e-06,1.452469e-05,-0.0008322785,0.0008171229,2.076756e-06,5.8558817e-05,0.33771926,-0.11307772,0.46466616,0.045393463,-0.008433496,0.02696159,0.19909635,3.8965337,0.0005737925,1.2678934e-05,0.00018469937,0.0009866802,0.013644227,0.040436782,0.013770422,0.0654211,0.06723196,0.15331855,2.197084e-11,2.017317e-11,4.5236183e-07,5.000027e-08,5.623496e-08,5.000027e-08,0.001351166,0.00018883625,0.0014985714,0.000951968,0.0014078539,0.0014984546,1.0492383,0.43565652,24
271333526,271233206,-0.6426774,-0.008152445,0.15960947,-0.7492824,-1.265461,19.353682,1.7853831,57.04562,89.99178,-49.215656,9.887736e-06,1.2202292e-05,-0.0015396919,0.0009265739,-0.00014736452,8.258784e-05,0.2157494,-0.071397014,0.5449633,0.16937736,-0.14413187,0.1248405,-0.48073983,4.4401107,0.0012877684,0.00012125912,0.00054242415,0.000789329,0.011088219,0.02651955,0.011522932,0.05890865,0.059323706,0.15218584,2.1609972e-11,2.0488531e-11,2.4366798e-07,5e-08,5.5631425e-08,5e-08,0.0006299273,0.000107839514,0.00087860227,0.0002888198,0.0005980961,0.000888447,0.52901465,0.13181867,24
272333645,272233305,-0.8074534,0.06607264,0.09196453,-0.5789611,1.2961923,19.061855,1.6101347,56.50885,108.847496,-47.217854,1.3977489e-05,9.8786395e-06,1.760105e-05,0.0009974414,-0.00023629822,9.82464e-06,0.20050326,-0.06528493,0.5595449,0.19489926,-0.17106475,0.13040967,-1.3144166,4.8752556,0.00025316532,1.155211e-05,5.7934012e-05,0.00029174247,0.012905706,0.04369618,0.011297584,0.055523008,0.056219302,0.15284617,2.0613606e-11,2.0994428e-11,2.537625e-08,5.0000363e-08,5.511638e-08,5.000036e-08,0.00056326576,9.8762794e-05,0.00077128137,0.00025078692,0.0005384942,0.0007686701,0.42995876,0.082711264,24
273333719,273233405,-0.80201167,0.0124475835,0.04561836,-0.5954337,3.5355885,19.410141,1.3179326,59.308487,128.20657,-45.906944,1.650747e-05,1.0520103e-05,-0.0002454955,0.0010492707,-0.0002360134,-6.196331e-05,0.19762483,-0.06435691,0.5583389,0.19673687,-0.16990736,0.13156019,-1.1351212,4.872616,0.00010119791,4.9419773e-06,9.9298395e-06,0.00015674271,0.012524411,0.020601155,0.010983815,0.05378309,0.05486768,0.15164623,2.0473335e-11,2.1872386e-11,6.3827534e-09,5.0000413e-08,5.5041394e-08,5.0000093e-08,0.0005622282,9.704522e-05,0.0007708673,0.0002492157,0.0005382912,0.0007683589,0.3768799,0.06701338,24
274333880,274233504,-0.7916617,-0.010685886,0.0155759845,-0.6106676,4.4977684,19.59688,0.56744677,63.831017,147.69981,-44.940567,2.122676e-05,1.1046034e-05,-0.00033839743,0.0011196372,-0.0002342977,-0.00014532745,0.19500217,-0.063484095,0.55795103,0.19894123,-0.16895898,0.13223414,-0.7514212,4.8873696,9.252359e-05,5.9926692e-06,5.473159e-06,0.00015196895,0.012316486,0.012759229,0.011032709,0.053110916,0.054136783,0.15247954,2.0269406e-11,2.2806194e-11,4.0425436e-09,5.0000587e-08,5.5019253e-08,5.000027e-08,0.0005618511,9.547882e-05,0.0007708249,0.00024780096,0.00053821894,0.00076824497,0.3377053,0.059030727,24
275334003,275233604,-0.7662279,0.031245582,0.030253675,-0.6410954,4.7511153,19.547415,-0.054263286,68.88067,167.35187,-44.71148,2.465361e-05,1.1164748e-05,-0.00039620785,0.0011559415,-0.0002440544,-0.00016708286,0.19338036,-0.0629356,0.5577567,0.2005808,-0.16850567,0.13254768,-0.4002429,4.8237596,0.00011955437,5.4482357e-06,5.6413232e-06,0.00017487693,0.012137837,0.010107212,0.011053531,0.052779693,0.05339179,0.15157795,2.0156873e-11,2.3507161e-11,3.5089356e-09,5.0000622e-08,5.5001127e-08,5.000009e-08,0.00056163635,9.401762e-05,0.00077081734,0.00024649242,0.0005381821,0.00076815946,0.30504587,0.053309213,24
276334183,276233703,-0.8040642,0.40183085,0.16222659,-0.40705684,12.045671,16.38013,0.31735227,75.774055,186.09592,-44.2521,2.3813764e-05,1.22428255e-05,-0.00035817962,0.0011563693,-0.0002316445,-0.00016083349,0.19396333,-0.063143335,0.5578186,0.19967456,-0.16844735,0.13262235,-0.036123354,4.8321514,5.0041665e-05,4.3922564e-06,2.9613704e-05,0.00014396264,0.020249652,0.03641076,0.011665664,0.05255982,0.05299086,0.1524831,2.0216521e-11,2.3982741e-11,2.1550777e-09,5.0001482e-08,5.477706e-08,5.000027e-08,0.00056143955,9.255548e-05,0.0007708197,0.00024498053,0.000538153,0.0007680825,0.26533175,0.050331753,24
277334163,277233802,-0.8909439,0.45307434,-0.027627783,0.013391497,19.691502,0.375688,-1.6659062,92.42147,195.21793,-45.281567,2.0584617e-05,1.4368491e-05,-0.00032609084,0.0011582973,-0.00023239187,-0.00016233197,0.19531491,-0.06362199,0.5580251,0.19778538,-0.16855003,0.13293098,1.8867801,4.4092717,3.06315e-06,6.1627957e-06,5.561644e-06,3.3737335e-05,0.031278953,0.017269969,0.015952004,0.052972544,0.0536899,0.1515409,2.0256645e-11,2.3207429e-11,5.22871e-10,5.0003724e-08,5.477953e-08,5.0002605e-08,0.00056126615,9.132386e-05,0.0007708235,0.00024353305,0.00053811126,0.00076800986,0.14849591,0.0439206,24
278334240,278233901,-0.80235237,0.40260345,-0.19994068,0.39263833,12.850631,-14.498964,-1.3986098,109.56226,188.13162,-47.25188,1.8750829e-05,1.8464838e-05,-0.00030975582,0.0011853506,-0.00025919508,-0.00017936267,0.19567674,-0.063770145,0.55826366,0.19671743,-0.16821606,0.13359578,1.8747983,4.416919,2.2079034e-06,7.669653e-06,3.2566468e-06,1.6372684e-05,0.022314008,0.01083782,0.019045025,0.054379012,0.053800095,0.15299276,2.095547e-11,2.2816086e-11,3.378821e-10,5.0000722e-08,5.4698784e-08,5.0000722e-08,0.00056125014,9.020904e-05,0.00077082426,0.00024259536,0.0005380832,0.00076792866,0.14696278,0.043758135,24
279334386,279233999,-0.60041636,0.3197687,-0.30489847,0.6665472,-1.3033329,-20.154987,-0.10914371,115.32728,170.31049,-48.723682,1.9149864e-05,2.3965897e-05,-0.00027686974,0.0012371449,-0.00033697343,-0.00018492175,0.19504847,-0.063574985,0.5585341,0.19678701,-0.16749147,0.13424177,1.9094679,4.4096475,3.500435e-06,7.123001e-06,3.1794016e-06,9.584784e-06,0.013663508,0.014624217,0.020674126,0.056282226,0.054466754,0.15272924,2.189542e-11,2.2595766e-11,2.620655e-10,5.0000583e-08,5.4248716e-08,5.0000498e-08,0.00056123396,8.9170586e-05,0.00077081955,0.00024179174,0.00053804973,0.00076784677,0.14603211,0.043773018,24
280334577,280234098,-0.599742,0.01107422,0.096069224,0.79432845,-7.679379,-19.097664,3.326026,109.111534,151.43346,-47.782955,2.0537871e-05,2.8107967e-05,-0.00023750446,0.0013286402,-0.00036534373,-9.597891e-05,0.23781706,-0.08021478,0.57148296,0.2226968,-0.12504143,0.13544524,1.9463141,4.4065104,6.7764995e-06,3.5649994e-06,6.462271e-06,5.4090665e-06,0.009536013,0.0114466045,0.016338607,0.058020964,0.056309734,0.15565123,2.276681e-11,2.2972882e-11,2.2132965e-10,5e-08,5.3183758e-08,5.0000256e-08,0.00018021383,4.2173535e-05,0.00075430353,0.00016018233,0.00017931468,0.00073761854,0.14435956,0.043648493,24
281334498,281234195,-0.721051,-0.20828487,0.20335191,0.6287694,-2.0399187,-20.144766,1.3996078,102.68062,131.98439,-44.97351,2.0506906e-05,2.6745392e-05,-0.0002405112,0.0013412528,-0.00019155233,-7.58509e-05,0.21760358,-0.08075626,0.53276324,0.25049067,-0.14048895,0.19825278,1.8876406,4.4304957,5.4774086e-06,3.4282841e-06,9.1674365e-06,6.6654534e-06,0.010119199,0.01029562,0.010701638,0.05781652,0.05664025,0.15368675,2.3707751e-11,2.3704922e-11,2.127207e-10,5.000018e-08,5.1642427e-08,5.000018e-08,0.000102506936,2.9975618e-05,0.00062549766,0.00011534008,0.00011107121,0.00060291553,0.14244394,0.043521665,24
282334601,282234293,-0.80303043,-0.22444327,0.1527105,0.53051573,4.0032606,-19.148352,0.53008574,103.68088,111.40082,-43.993404,2.5058613e-05,2.9365314e-05,-0.00020562926,0.00087845186,-0.00018185361,-0.00010161524,0.21380012,-0.07867215,0.53441143,0.25158858,-0.14334302,0.19756249,1.8615594,4.4540234,4.1093244e-06,3.579342e-06,7.0995316e-06,9.949881e-06,0.012327754,0.012676388,0.010222667,0.057481267,0.0567272,0.15221763,2.4371154e-11,2.4387957e-11,1.8243149e-10,5.0000363e-08,5.047719e-08,5.0000363e-08,0.00010158258,2.9518113e-05,0.00062535534,0.00011522499,0.00011077272,0.0006027202,0.14025772,0.04346722,24
283334688,283234390,-0.876967,-0.17060275,0.095726885,0.43893042,9.004964,-17.271904,0.27920622,110.78528,92.240395,-43.876816,2.9605493e-05,3.4831468e-05,-0.00015514925,0.00044069104,-0.00013001457,-0.00022427303,0.22012202,-0.081631936,0.5283949,0.26786917,-0.14024065,0.21124296,1.8572224,4.463856,2.6407424e-06,3.7983455e-06,4.6702467e-06,1.2457212e-05,0.012721739,0.012064984,0.010805391,0.05745968,0.05706833,0.14947349,2.4848613e-11,2.502669e-11,1.499805e-10,5.000009e-08,5.0000537e-08,5.000009e-08,8.989098e-05,2.7328726e-05,0.000603147,0.000102230406,0.0001030542,0.00058198615,0.13840102,0.043497402,24
284335008,284234487,-0.92281216,-0.08036121,0.058322694,0.37223417,11.65334,-15.654668,0.31311092,121.73319,75.20574,-43.368443,2.9884692e-05,3.881302e-05,-0.00012887095,0.00020703554,-0.00011668397,-0.00030576802,0.25372013,-0.09505351,0.5076654,0.30885118,-0.1176351,0.26276734,1.7848183,4.474644,1.9345503e-06,4.080605e-06,3.943335e-06,1.4882075e-05,0.011683061,0.010715957,0.011156101,0.057881154,0.057662003,0.14968316,2.5278885e-11,2.5638732e-11,1.3466438e-10,5e-08,5e-08,5.000013e-08,5.9802427e-05,2.2250239e-05,0.00054679817,6.667561e-05,7.692628e-05,0.00052876037,0.13647507,0.04356732,24
285334924,285234585,-0.9388038,-0.018930811,0.026345415,0.34292138,12.406489,-14.88565,0.12936372,134.35396,59.783413,-43.173546,2.7533346e-05,4.0682993e-05,-0.00011455055,5.986651e-05,-0.00012151896,-0.0003236063,0.26507643,-0.09591815,0.48714507,0.31888452,-0.10274958,0.29492906,1.682602,4.483794,1.8068736e-06,4.335623e-06,4.1813455e-06,1.7930271e-05,0.010486079,0.010006011,0.011146323,0.05817793,0.058002565,0.14869419,2.5646518e-11,2.609641e-11,1.2982575e-10,5.00002e-08,5.0000207e-08,5e-08,5.043266e-05,2.05978e-05,0.0005105183,5.6532783e-05,6.092936e-05,0.00049738254,0.13471842,0.04366526,24
286334983,286234679,-0.9387914,0.015668478,0.0143460715,0.34383047,12.449504,-14.761607,0.1427091,147.04178,45.054638,-42.98038,2.4693276e-05,4.0460312e-05,-0.00010793916,-1.7133387e-05,-0.00017070438,-0.00031880714,0.27141216,-0.09580082,0.46774307,0.32449967,-0.09365237,0.32120952,1.5828128,4.4911675,2.0908187e-06,4.5008933e-06,4.5913184e-06,2.1807451e-05,0.009894489,0.009957939,0.011171583,0.058331408,0.05817892,0.1498463,2.588692e-11,2.6346786e-11,1.2844292e-10,5.0000363e-08,5.0000363e-08,5.0000363e-08,4.5897617e-05,1.9625062e-05,0.0004687285,5.142568e-05,5.0436003e-05,0.0004600013,0.13327816,0.043770786,24
287335095,287234774,-0.93486655,0.00558838,0.0051818644,0.35491785,12.210599,-14.993465,-0.059865437,159.48698,30.478374,-42.92848,2.1923983e-05,3.8613114e-05,-0.000102624195,-5.20898e-05,-0.00025086416,-0.0002917693,0.27538583,-0.09620653,0.4582974,0.3282379,-0.09000792,0.33707964,1.4842602,4.4976587,2.6422106e-06,4.6642444e-06,4.730047e-06,2.6053893e-05,0.00996194,0.010167763,0.011171294,0.0583018,0.05820957,0.1492901,2.5895433e-11,2.6382506e-11,1.2650792e-10,5.0000516e-08,5.000043e-08,5e-08,4.33341e-05,1.8973697e-05,0.00043979418,4.8290836e-05,4.421707e-05,0.0004336583,0.13173541,0.04387412,24
288335161,288234869,-0.93052405,-0.0030981814,0.003767407,0.36619845,12.266656,-15.054826,0.19206458,171.70224,15.740329,-42.725662,2.0094503e-05,3.5983638e-05,-9.732663e-05,-5.0699804e-05,-0.00031229825,-0.00025745874,0.27883402,-0.096845984,0.45373002,0.33146757,-0.08785556,0.3481702,1.389906,4.5038595,3.2755363e-06,4.8111037e-06,4.830541e-06,3.0306244e-05,0.009974091,0.009989225,0.011248613,0.05816026,0.05813593,0.1506546,2.5687685e-11,2.6270243e-11,1.2375728e-10,5.000012e-08,5.000009e-08,5.000012e-08,4.1652853e-05,1.8471253e-05,0.00042523653,4.599834e-05,4.0360344e-05,0.00042049054,0.1302675,0.04397775,24
289335285,289234963,-0.93220395,-0.015491236,0.011846972,0.36140776,12.308645,-15.148357,0.19991356,183.84286,0.87714803,-42.711857,1.8904413e-05,3.338255e-05,-9.406862e-05,-3.6888356e-05,-0.0003492581,-0.00021184202,0.278835,-0.09684623,0.45373008,0.33146703,-0.08785467,0.34817073,1.3108758,4.509905,3.6490853e-06,4.9416108e-06,4.9398755e-06,3.4628803e-05,0.009981704,0.009849292,0.011241476,0.05798029,0.057993688,0.15019844,2.5289396e-11,2.6065013e-11,1.2038746e-10,5.000018e-08,5.000015e-08,5e-08,0.0,0.0,0.0,0.0,0.0,0.0,0.12910949,0.044085603,24
290335371,290235057,-0.9339432,-0.04751889,0.021262968,0.35360998,12.306516,-14.985214,-0.06438112,195.9709,-14.003525,-42.69201,1.8020379e-05,3.0700685e-05,-9.173772e-05,-2.4596717e-05,-0.00037108143,-0.00018757793,0.278835,-0.09684623,0.45373008,0.33146703,-0.08785467,0.34817073,1.2175739,4.5178246,3.9858414e-06,5.0518793e-06,5.147547e-06,3.9200142e-05,0.01000485,0.009896135,0.011261366,0.057830993,0.05785059,0.1515255,2.4807443e-11,2.575584e-11,1.1771607e-10,5.000045e-08,5.0000423e-08,5.0000093e-08,0.0,0.0,0.0,0.0,0.0,0.0,0.12785731,0.04419348,24
291335432,291235150,-0.94924366,-0.063481696,0.018493596,0.30751377,12.858039,-13.798178,-0.2940377,208.41095,-28.344788,-42.975113,1.7613711e-05,2.8691948e-05,-9.159421e-05,-2.0444964e-05,-0.00038019972,-0.00015079549,0.278835,-0.09684623,0.45373008,0.33146703,-0.08785467,0.34817073,1.1029079,4.527052,3.4137354e-06,5.1208267e-06,5.2995597e-06,4.5335644e-05,0.009944736,0.0099290805,0.011276856,0.057794165,0.05781035,0.1528076,2.4324175e-11,2.5263262e-11,1.1609586e-10,5.0000622e-08,5.00006e-08,5.0000452e-08,0.0,0.0,0.0,0.0,0.0,0.0,0.12667438,0.044304103,24
292335533,292235242,-0.9657675,-0.031384397,0.00033208466,0.25750375,13.302168,-12.842426,-0.1905424,221.39499,-41.606956,-43.26511,1.7024478e-05,2.784612e-05,-9.173004e-05,-2.2170074e-05,-0.00038190008,-9.158177e-05,0.278835,-0.09684623,0.45373008,0.33146703,-0.08785467,0.34817073,0.9865913,4.5321593,2.6695293e-06,5.1931083e-06,5.1988436e-06,5.1806695e-05,0.009913107,0.009862119,0.01124863,0.05769471,0.057708092,0.15216854,2.3903527e-11,2.4653786e-11,1.139675e-10,5.000009e-08,5.000009e-08,5.0000146e-08,0.0,0.0,0.0,0.0,0.0,0.0,0.12568948,0.04441568,24
293335624,293235335,-0.9632556,-0.0149959,0.001255489,0.2681646,13.676372,-12.555739,0.046722606,234.7796,-54.182217,-43.205284,1.6793076e-05,2.7041804e-05,-9.124248e-05,-2.209177e-05,-0.000383344,-6.718852e-05,0.278835,-0.09684623,0.45373008,0.33146703,-0.08785467,0.34817073,0.86628854,4.5327487,3.2019043e-06,5.2367377e-06,5.2251776e-06,5.6843477e-05,0.009743448,0.009770052,0.011250345,0.057514027,0.057521537,0.15333165,2.349747e-11,2.4070943e-11,1.11636915e-10,5.0000274e-08,5.0000274e-08,5.000043e-08,0.0,0.0,0.0,0.0,0.0,0.0,0.12469618,0.04452687,24
294335735,294235426,-0.9652056,-0.00959052,0.003966345,0.26128614,13.778402,-12.49786,-0.45487282,248.42957,-66.70688,-43.363716,1.6623537e-05,2.6359723e-05,-9.018319e-05,-2.3516663e-05,-0.0003821664,-8.480604e-05,0.278835,-0.09684623,0.45373008,0.33146703,-0.08785467,0.34817073,0.7617054,4.5306077,3.3305287e-06,5.2062132e-06,5.199392e-06,6.2264735e-05,0.009936562,0.0099367015,0.011196586,0.057412196,0.057416566,0.15248048,2.3017857e-11,2.3530443e-11,1.0931521e-10,5.0000352e-08,5.000035e-08,5.000018e-08,0.0,0.0,0.0,0.0,0.0,0.0,0.123837635,0.044636577,24
295335807,295235517,-0.9643282,-0.0057343263,0.00087685883,0.26464605,13.613815,-12.576703,-0.05928361,262.06543,-79.09829,-43.919964,1.614048e-05,2.532947e-05,-8.827753e-05,-2.4880745e-05,-0.0003757082,-2.7567243e-05,0.278835,-0.09684623,0.45373008,0.33146703,-0.08785467,0.34817073,0.6879743,4.52713,3.6973508e-06,5.181728e-06,5.1741254e-06,6.729052e-05,0.009633391,0.009557689,0.011202257,0.057313908,0.05731509,0.15349346,2.2600338e-11,2.3109974e-11,1.0680327e-10,5.000044e-08,5.0000445e-08,5.000036e-08,0.0,0.0,0.0,0.0,0.0,0.0,0.1231726,0.04474043,24
296335967,296235608,-0.96764845,-0.010705544,-0.0060913987,0.25200137,13.677339,-12.490845,-0.046462364,275.58755,-91.62395,-43.676083,1.6693206e-05,2.4002333e-05,-8.558466e-05,-2.272298e-05,-0.00037179256,-4.3307322e-05,0.278835,-0.09684623,0.45373008,0.33146703,-0.08785467,0.34817073,0.59386665,4.5223207,3.5508253e-06,5.2284067e-06,5.216151e-06,7.228641e-05,0.009736268,0.009683544,0.011177249,0.057298057,0.057293545,0.15260105,2.2294656e-11,2.2831669e-11,1.0376737e-10,5e-08,5e-08,5.0000178e-08,0.0,0.0,0.0,0.0,0.0,0.0,0.12236766,0.04484186,24
297336009,297235698,-0.9661682,-0.0135128,-5.0089916e-06,0.25755873,13.621234,-12.516587,-0.3303953,289.06644,-104.0581,-43.805817,1.7476646e-05,2.2818596e-05,-8.3126484e-05,-2.2422011e-05,-0.00036861477,-2.8316279e-05,0.278835,-0.09684623,0.45373008,0.33146703,-0.08785467,0.34817073,0.50562996,4.517024,3.9318625e-06,5.179544e-06,5.201506e-06,7.673699e-05,0.009830804,0.009779836,0.0111973835,0.057215177,0.057207055,0.15358159,2.194207e-11,2.2494326e-11,1.00920626e-10,5.000009e-08,5.000009e-08,5.000036e-08,0.0,0.0,0.0,0.0,0.0,0.0,0.12162941,0.044942666,24
298336084,298235787,-0.9671812,-0.014773962,0.003052038,0.25363955,13.589544,-12.3496685,-0.13259518,302.54697,-116.47971,-44.033524,1.836921e-05,2.2187804e-05,-8.06123e-05,-2.1156573e-05,-0.00036489803,-2.2642822e-05,0.278835,-0.09684623,0.45373008,0.33146703,-0.08785467,0.34817073,0.434675,4.5115976,4.002521e-06,5.1373295e-06,5.1870493e-06,8.127159e-05,0.009616605,0.009603701,0.011168169,0.057100557,0.05709112,0.15266012,2.1638372e-11,2.2185701e-11,9.805555e-11,5.000027e-08,5.000027e-08,5.000018e-08,0.0,0.0,0.0,0.0,0.0,0.0,0.12102325,0.04504002,24
299336198,299235876,-0.96480423,0.00023169912,-0.0040297816,0.2629385,13.474534,-12.234326,-0.27899417,316.00253,-128.71965,-44.286346,1.8884472e-05,2.1800766e-05,-7.8159355e-05,-1.8569106e-05,-0.00035841897,1.7112403e-06,0.278835,-0.09684623,0.45373008,0.33146703,-0.08785467,0.34817073,0.35664463,4.5052295,4.51442e-06,5.124589e-06,5.129228e-06,8.5174266e-05,0.009649151,0.00964012,0.011134185,0.056888863,0.05688113,0.15171723,2.1393182e-11,2.1907344e-11,9.519474e-11,5.0000452e-08,5.0000452e-08,5e-08,0.0,0.0,0.0,0.0,0.0,0.0,0.12035697,0.045135036,24
300336252,300235964,-0.96906376,-0.029546449,-0.0012680298,0.24503227,13.382814,-12.261475,-0.1476941,329.37515,-140.96211,-44.418484,1.9117877e-05,2.1256972e-05,-7.810478e-05,-2.2122153e-05,-0.00035795526,1.8123968e-05,0.278835,-0.09684623,0.45373008,0.33146703,-0.08785467,0.34817073,0.268919,4.50154,4.239495e-06,5.108747e-06,5.292112e-06,9.242709e-05,0.009600162,0.009592612,0.011166974,0.05670427,0.056697,0.15269212,2.1185706e-11,2.1691133e-11,9.473227e-11,5.000054e-08,5.000054e-08,5.000018e-08,0.0,0.0,0.0,0.0,0.0,0.0,0.11979302,0.04523271,24
301336425,301236053,-0.95364636,-0.18454616,0.040360235,0.23424895,13.669148,-11.580716,-0.13951191,342.7385,-153.0255,-44.47739,1.979514e-05,2.1134661e-05,-7.806224e-05,-2.498995e-05,-0.00036085778,3.6506044e-05,0.278835,-0.09684623,0.45373008,0.33146703,-0.08785467,0.34817073,0.18621127,4.4969215,4.375612e-06,5.0236304e-06,8.9357445e-06,9.563376e-05,0.009734715,0.009636324,0.011173991,0.056407094,0.05640233,0.15365016,2.099849e-11,2.14484e-11,9.397503e-11,5.0000025e-08,5e-08,5.000036e-08,0.0,0.0,0.0,0.0,0.0,0.0,0.11932092,0.04533009,24
302336452,302236140,-0.8968994,-0.4390435,-0.044362683,-0.02905639,16.54231,-2.3954132,-1.3037015,358.09744,-161.86284,-44.996067,2.5716e-05,2.8195827e-05,-5.6498695e-05,9.7963966e-05,-0.00037065338,-7.411107e-05,0.28394076,-0.0998986,0.4397939,0.33774403,-0.09056408,0.36166537,0.27576008,4.46224,2.1660983e-06,4.7168155e-06,1.41438895e-05,6.116704e-05,0.027962886,0.011033626,0.011811511,0.05630806,0.05624329,0.15260264,2.0771171e-11,2.0814905e-11,6.8430185e-11,5.000081e-08,5.0000807e-08,5.000018e-08,3.861054e-05,1.7729632e-05,0.00026796825,4.2442316e-05,3.8047765e-05,0.0002657707,0.11827704,0.045375697,24
303336518,303236227,-0.91788787,-0.3071628,-0.076433875,-0.23935528,15.508758,7.020727,-0.5764878,375.1686,-158.72443,-46.612335,2.7354476e-05,3.4092915e-05,-1.8507892e-05,5.2698473e-05,-0.0003404867,-9.885829e-05,0.28954017,-0.10043488,0.42727292,0.3456404,-0.09284388,0.36911085,0.54279023,4.3669586,4.2350002e-06,4.6455907e-06,4.261076e-06,2.6212625e-05,0.021286946,0.010733181,0.012021334,0.058763646,0.057831258,0.15313385,2.087058e-11,2.1099051e-11,3.8824638e-11,5.0000363e-08,5.0000363e-08,5.0000626e-08,3.5273973e-05,1.7065826e-05,0.00020044243,3.8258044e-05,3.6010664e-05,0.00019448723,0.11698173,0.045035228,24
304336605,304236313,-0.91620827,-0.16369523,-0.044417728,-0.36303383,13.229213,11.299438,0.3565596,389.89008,-149.14401,-46.40966,2.6755893e-05,3.4715038e-05,-1.0621513e-05,-2.3512757e-05,-0.00034351952,-0.00011561563,0.28624046,-0.09964963,0.41216904,0.34500387,-0.089528665,0.35209414,0.6658135,4.3046417,5.279918e-06,4.1543617e-06,4.8914044e-06,1.7938019e-05,0.012702949,0.010466356,0.011180779,0.058187906,0.057095755,0.15127091,2.1370775e-11,2.1565695e-11,3.3930133e-11,5.000062e-08,5.000052e-08,5.0000235e-08,3.226484e-05,1.6354195e-05,0.00017163769,3.3877863e-05,3.3790908e-05,0.00016467915,0.115215056,0.044327717,24
305336783,305236399,-0.9158376,-0.09422896,-0.008051841,-0.39025334,11.885288,12.734057,0.5029022,402.3685,-136.70958,-45.620182,2.5431242e-05,3.3665485e-05,-9.071022e-06,-7.7234174e-05,-0.00040568147,-0.000107660104,0.28075528,-0.09910339,0.40016788,0.3414098,-0.08340006,0.34743112,0.77438784,4.2437077,5.949975e-06,3.7944733e-06,5.981187e-06,1.7250195e-05,0.010256385,0.009995628,0.010397937,0.0576172,0.056618057,0.15079038,2.199782e-11,2.2023263e-11,3.395673e-11,5.00005e-08,5.000042e-08,5.000009e-08,3.0002164e-05,1.5603568e-05,0.00016247804,3.0894258e-05,3.1296815e-05,0.00015639636,0.11172528,0.04320283,24
306336777,306236484,-0.7458796,-0.3474029,-0.22795194,-0.520589,6.530166,16.01082,1.529186,412.53525,-123.0075,-43.96495,2.4925881e-05,3.4405075e-05,-0.00024369636,-0.000120034696,-0.00038216324,-0.00015755785,0.3957541,-0.023072701,0.45848942,0.34842998,-0.118407935,0.36991552,0.7983154,4.229117,0.00042823039,8.177724e-06,0.00011812293,0.0013126942,0.010706684,0.018944673,0.012162479,0.05707012,0.056419205,0.15028481,2.272739e-11,2.2467002e-11,9.1578755e-07,5.0000573e-08,5.0000494e-08,5.000036e-08,0.0013166369,5.7140616e-05,0.001353848,0.0006049364,0.0012906136,0.0012008651,0.1088752,0.042579163,24
307336891,307236569,-0.5338551,-0.22463414,-0.3933127,-0.71403325,-7.529159,17.61561,-0.49982712,412.75668,-105.127144,-43.535725,2.4601899e-05,3.7676746e-05,0.00061159825,-0.00020894551,-0.00027441126,-0.0003949044,0.32420352,-0.015495258,0.43562406,0.42958897,-0.16696054,0.45422846,0.76146126,4.2367635,0.00042996716,7.56014e-06,0.00019667449,0.0004900021,0.023600707,0.035096668,0.038329825,0.05687359,0.057005145,0.14897658,2.3666062e-11,2.2847167e-11,1.4750597e-07,5.0000626e-08,5.000034e-08,5.000009e-08,0.0006873365,5.2147167e-05,0.0012462033,0.00017404617,0.0011108827,0.0008403183,0.1079323,0.04258436,24
308336963,308236654,-0.280302,-0.11567365,-0.42758518,-0.85159934,-16.312916,10.405215,0.65387887,400.3476,-90.20325,-43.628056,2.4677038e-05,3.910304e-05,0.0003872444,-0.00021278491,-0.00020605892,-0.000367672,0.3458073,-0.020592745,0.44495744,0.4206461,-0.1546869,0.41577312,0.76013905,4.2298694,0.00018106017,6.0199086e-06,8.038206e-05,8.382362e-05,0.028318256,0.013377233,0.040334877,0.05692299,0.057657115,0.15072514,2.4592205e-11,2.3593377e-11,2.320845e-08,5.000062e-08,5.0000345e-08,5.000027e-08,0.0005741697,5.004668e-05,0.0012309089,0.00015068537,0.0010749971,0.00074638426,0.10775924,0.042652216,24
309337078,309236738,-0.008630415,-0.054369252,-0.2546493,-0.9654653,-17.971968,1.9137348,1.8309561,382.7139,-84.09919,-42.43253,2.5050946e-05,3.8895054e-05,0.00011923739,-0.00021063375,-0.00013375742,-0.00035901694,0.34788474,-0.020904327,0.44561994,0.41742718,-0.15404235,0.41350046,0.79989165,4.2104115,0.00010286995,1.0620273e-05,4.2385647e-05,6.6195394e-06,0.017363774,0.014790975,0.031036988,0.057111196,0.057902854,0.15120266,2.5541307e-11,2.43665e-11,6.4672214e-09,5.000072e-08,5.0000057e-08,5e-08,0.0005738567,4.9076178e-05,0.0012306756,0.0001491489,0.0010745362,0.00074560667,0.10760287,0.042545695,24
310337111,310236821,-0.00043169255,-0.067914315,0.06624867,-0.9954892,-17.204622,-0.08373385,3.143383,365.11905,-83.71131,-39.746307,2.4997633e-05,3.8900078e-05,0.000111565714,-0.0001997333,-0.0001358937,-0.00029896197,0.3478877,-0.020907251,0.44564787,0.41739747,-0.15399733,0.41343746,0.8349339,4.181773,7.6625685e-05,2.3436158e-05,2.0476118e-05,8.268164e-07,0.0100732995,0.017541427,0.017618192,0.057264794,0.057998903,0.1533243,2.6491248e-11,2.5181647e-11,3.1034157e-09,5.0000722e-08,5.000027e-08,5.000027e-08,0.0005736021,4.8085072e-05,0.0012306373,0.00014810721,0.0010744662,0.0007453968,0.10710357,0.042249892,24
311337231,311236904,-0.12918748,-0.046117514,0.12332987,-0.9828395,-16.466059,2.1770537,3.1856556,348.17053,-82.8313,-36.416584,2.4711004e-05,3.893036e-05,0.000115541785,-0.00021423785,-0.0001544119,-0.00021377414,0.3478252,-0.020893617,0.44563836,0.4175677,-0.15399142,0.4135157,0.8933589,4.12413,6.2931394e-05,1.4477909e-05,9.5985215e-06,1.8214096e-06,0.0136573175,0.017752543,0.011690344,0.05714259,0.057935946,0.15182176,2.7384981e-11,2.5910883e-11,1.5877745e-09,5.0000704e-08,5.000016e-08,5e-08,0.00057348993,4.7203015e-05,0.0012305952,0.0001473523,0.0010744242,0.0007453074,0.10668936,0.041881394,24
312337303,312236986,-0.19789714,-0.049518194,0.094887935,-0.9743619,-15.7252445,4.32962,3.1157544,331.9096,-79.310715,-33.32666,2.4725492e-05,3.8412007e-05,8.1576436e-05,-0.00026772183,-0.00019270986,-0.0001966303,0.34803718,-0.02089288,0.44546613,0.41775283,-0.15408002,0.4133574,0.9445048,4.0612116,5.031821e-05,6.4912792e-06,5.854544e-06,3.3586746e-06,0.013327959,0.014962788,0.010927332,0.05709306,0.057773236,0.15178701,2.8088436e-11,2.6741557e-11,8.576255e-10,5.0000686e-08,5.000049e-08,5.000027e-08,0.0005734766,4.6355923e-05,0.0012305691,0.00014663352,0.0010744004,0.00074526866,0.10658157,0.041552246,24
313337364,313237069,-0.2594807,-0.059582036,0.041284602,-0.9630241,-15.094917,5.4062834,3.126316,316.36737,-74.06112,-30.50245,2.5429377e-05,3.8151553e-05,5.8521124e-05,-0.00027340953,-0.00021319768,-0.00017354923,0.3480475,-0.020890566,0.445405,0.41783923,-0.1540696,0.41320354,0.98365664,3.9960933,4.7213798e-05,4.3223486e-06,4.851867e-06,5.4385055e-06,0.011254045,0.01276858,0.0109387655,0.056969568,0.05753628,0.15046859,2.84655e-11,2.7659703e-11,6.0844774e-10,5.0000594e-08,5.000042e-08,5.000009e-08,0.00057348027,4.554095e-05,0.0012305562,0.00014594817,0.0010743818,0.0007452489,0.10665225,0.041307997,24
314337503,314237150,-0.26951447,-0.066693746,-0.0043377206,-0.9606743,-14.778111,5.9489903,3.1500137,301.4934,-68.075485,-27.335945,2.6916254e-05,3.7628954e-05,4.734518e-05,-0.00024825084,-0.00020191418,-0.0001338127,0.34797427,-0.020892188,0.44537467,0.41780737,-0.15406466,0.41307095,1.025659,3.9099598,5.2487838e-05,4.319139e-06,4.7431454e-06,6.6617404e-06,0.010263873,0.011366968,0.011060784,0.05682621,0.057376184,0.15144223,2.8561696e-11,2.843146e-11,5.211478e-10,5.0000605e-08,5.0000637e-08,5.000027e-08,0.0005734844,4.46957e-05,0.0012305453,0.00014525249,0.0010743628,0.0007452354,0.106784396,0.041015204,24
315337557,315237231,-0.2397527,-0.06261273,-0.0071580224,-0.96878636,-14.716926,5.9719715,2.960318,286.84338,-61.925205,-24.36286,2.866475e-05,3.6804297e-05,4.1625637e-05,-0.00022578464,-0.00018495857,-0.00012824952,0.34788492,-0.020892804,0.44534612,0.41778234,-0.15407524,0.41298255,1.0616652,3.8329544,6.489054e-05,4.746357e-06,4.888331e-06,6.5449085e-06,0.009965363,0.01053957,0.011090053,0.05664873,0.057174463,0.15073526,2.8317654e-11,2.8798443e-11,4.8941806e-10,5.0000455e-08,5.0000725e-08,5e-08,0.00057348906,4.3940407e-05,0.0012305382,0.00014463723,0.0010743459,0.0007452254,0.106966585,0.04079756,24
316337624,316237312,-0.24190058,-0.059667263,0.00062396034,-0.9684646,-14.80202,5.728521,3.0277603,272.21347,-55.954468,-21.432236,3.0223564e-05,3.532861e-05,3.634e-05,-0.00019956024,-0.00017367079,-0.00011684451,0.34782454,-0.020894414,0.44531333,0.41775456,-0.15410778,0.41292912,1.0877814,3.7805738,8.001362e-05,5.0175404e-06,5.0727976e-06,7.781778e-06,0.010057912,0.010022241,0.011157558,0.0565356,0.05699887,0.15191159,2.7877343e-11,2.8635929e-11,4.749781e-10,5.0000406e-08,5.0000608e-08,5.000027e-08,0.0005734949,4.3211487e-05,0.0012305311,0.0001440484,0.001074329,0.0007452169,0.10719185,0.040721662,24
317337713,317237393,-0.19250107,-0.0550531,-0.006619789,-0.9797289,-14.506797,5.652985,2.9439733,257.70218,-50.103214,-18.727222,3.0364172e-05,3.1883992e-05,9.997456e-06,-0.00011748062,-0.00026229894,-7.660683e-05,0.3478179,-0.020895215,0.4453051,0.41774306,-0.15411994,0.4129232,1.1160477,3.7314045,9.498428e-05,5.278541e-06,5.199216e-06,6.7039505e-06,0.010230736,0.009982485,0.011152965,0.05652054,0.0568671,0.15119834,2.7266984e-11,2.8008486e-11,4.462081e-10,5.00002e-08,5.0000445e-08,5e-08,0.0,0.0,0.0,0.0,0.0,0.0,0.10743561,0.040622026,24
318327972,318227472,-0.18596865,-0.08303249,-0.25111517,-0.9462888,-14.6926365,4.1009192,3.1700873,243.52716,-44.84956,-15.8937435,3.0794694e-05,2.847986e-05,-2.7852555e-05,-2.6655252e-05,-0.00040976395,-5.0444047e-05,0.3478179,-0.020895215,0.4453051,0.41774306,-0.15411994,0.4129232,1.1558733,3.691003,9.5761425e-05,1.1716016e-05,5.1507745e-06,8.5810425e-06,0.01162767,0.009741374,0.011091765,0.056319788,0.05653765,0.15173547,2.665174e-11,2.7011353e-11,4.0433645e-10,5.000029e-08,5.000063e-08,5.000009e-08,0.0005734975,4.299255e-05,0.0012305308,0.00014391606,0.0010743252,0.0007452153,0.10758567,0.040510796,24
319337892,319237553,0.12963165,-0.077347904,-0.035134263,-0.9879163,-15.412805,-0.18484056,2.5972176,228.32068,-43.00871,-13.070117,3.245913e-05,2.7392902e-05,-3.913359e-05,-7.287467e-06,-0.0004548326,-7.492977e-05,0.3478179,-0.020895215,0.4453051,0.41774306,-0.15411994,0.4129232,1.1984336,3.6598926,9.48011e-05,5.387768e-06,5.3327058e-06,1.1009645e-06,0.0161023,0.010291887,0.011263983,0.056767464,0.056677587,0.15315484,2.5929963e-11,2.5652034e-11,3.06879e-10,5.0000473e-08,5.0000722e-08,5.000027e-08,0.0005735076,4.2243115e-05,0.0012305425,0.00014391606,0.0010743252,0.0007452153,0.10742665,0.0404551,24
320338023,320237632,-0.085055895,-0.026859343,0.38258043,-0.9196066,-15.045567,1.9288713,2.957393,213.0101,-43.245964,-10.751814,2.8784558e-05,2.6000424e-05,-3.4618944e-05,-5.2650405e-05,-0.00042290636,8.767631e-06,0.3478179,-0.020895215,0.4453051,0.41774306,-0.15411994,0.4129232,1.2001053,3.6540725,7.472637e-05,2.498793e-05,4.77747e-06,2.4706671e-06,0.0097761145,0.009924013,0.010765166,0.056869514,0.056593083,0.15212902,2.5327952e-11,2.5117403e-11,2.7086294e-10,5.0000374e-08,5.0000697e-08,5.000009e-08,0.00057351775,4.1572304e-05,0.0012305542,0.00014391606,0.0010743252,0.0007452153,0.10732851,0.040432576,24
321338190,321237712,-0.36622825,0.01713212,0.15404095,-0.9175265,-13.419522,9.24353,2.9536498,198.5789,-37.603054,-8.021906,2.2739729e-05,2.3321867e-05,-4.440299e-05,-0.00011421578,-0.0004325811,2.1038222e-05,0.42939073,-0.031645454,0.31119013,0.3854371,-0.08693781,0.34811574,1.1818345,3.6386623,5.4665034e-05,6.471741e-06,5.1135003e-06,1.2559451e-05,0.018922664,0.011266621,0.010980028,0.05635274,0.056384817,0.15274835,2.4392054e-11,2.4584215e-11,1.8161106e-10,5.000036e-08,5.000053e-08,5.000036e-08,0.0002327922,3.7306665e-05,0.0005335432,0.00011669683,0.00036335946,0.00037367898,0.107682854,0.040635213,24
322328164,322227791,-0.3270936,-0.045189667,-0.12795205,-0.93519837,-13.766055,10.104715,1.2085449,185.50806,-27.522045,-6.7433767,2.259134e-05,2.1587668e-05,-5.6034412e-05,-0.00010259979,-0.00044386342,9.483133e-06,0.4336371,-0.039720464,0.3648851,0.36316758,-0.024681386,0.29444852,1.1470058,3.6075532,4.268703e-05,6.834116e-06,4.642293e-06,8.567306e-06,0.012239285,0.010553531,0.010855608,0.056281816,0.05619017,0.15115936,2.3448635e-11,2.4628998e-11,1.3043909e-10,5.0000295e-08,5.0000526e-08,5e-08,0.00019506479,3.5048102e-05,0.00031572778,0.000107329804,0.00019138193,0.00027936668,0.10796881,0.04083445,24
323338205,323237870,-0.18199459,-0.0023959135,-0.108503155,-0.9772919,-16.105635,7.7684345,-0.11801797,170.55692,-18.117758,-5.9913483,2.597219e-05,2.309055e-05,-4.569191e-05,-0.00014018132,-0.00043232218,-3.0464424e-05,0.42367437,-0.03522936,0.3666786,0.36621436,-0.02487077,0.31579208,1.1423677,3.5744486,5.14581e-05,6.549367e-06,4.544884e-06,3.7143345e-06,0.010793688,0.011160812,0.0108271595,0.05676968,0.056647185,0.15245324,2.2753762e-11,2.4197137e-11,1.2476599e-10,5.000018e-08,5.0000484e-08,5.000018e-08,0.00016488854,3.3610926e-05,0.00022721209,0.00010478783,0.00012912079,0.00021713389,0.10834808,0.041024063,24
