timestamp,accel_device_id,gyro_device_id,accel_clipping[0],accel_clipping[1],accel_clipping[2],accel_error_count,gyro_error_count,accel_rate_hz,gyro_rate_hz,accel_raw_rate_hz,gyro_raw_rate_hz,accel_vibration_metric,gyro_vibration_metric,delta_angle_coning_metric,mean_accel[0],mean_accel[1],mean_accel[2],mean_gyro[0],mean_gyro[1],mean_gyro[2],var_accel[0],var_accel[1],var_accel[2],var_gyro[0],var_gyro[1],var_gyro[2],temperature_accel,temperature_gyro
218098196,2490378,2490378,0,0,0,0,0,405.0059,405.0059,8100.1177,8100.1177,0.019385276,0.00084375974,1.1207115e-11,-0.02607519,-0.27917665,-9.851987,0.00046827213,-0.021593269,0.0052586966,0.0022103633,0.0016409535,0.017575242,4.385995e-06,5.645072e-06,-1.0073139e-07,36.20629,36.20629
219135350,2490378,2490378,0,0,0,0,0,405.0059,405.0059,8100.1177,8100.1177,0.019102814,0.0008499993,1.1268083e-11,-0.027988104,-0.27610567,-9.857242,0.00048223988,-0.021943312,0.0053108656,0.0023853753,0.0016648583,0.019028628,4.0561863e-06,7.200553e-06,-1.359695e-07,36.234543,36.234543
220172531,2490378,2490378,0,0,0,0,0,405.0059,405.0059,8100.1177,8100.1177,0.60728705,0.011939672,1.295693e-10,-0.022289647,-0.23084688,-9.818156,-0.013683794,-0.018772341,0.0013605299,0.113363326,0.55353075,0.48632574,0.0006605347,0.00038626342,-8.439096e-06,36.27646,36.27646
221105987,2490378,2490378,0,0,0,0,0,405.0059,405.0059,8100.1177,8100.1177,1.3839891,0.02565217,2.851652e-10,0.012955555,-0.12972933,-9.907788,0.0055532735,-0.0071407217,0.0030001728,0.41481024,1.3579776,2.8190987,0.0012850688,0.0019035594,5.8579263e-07,36.271847,36.271847
222143171,2490378,2490378,0,0,0,0,0,405.0059,405.0059,8100.1177,8100.1177,2.2911344,0.053834096,5.4786615e-09,0.5608176,-0.19457516,-9.816269,0.06536001,-0.016768223,0.098582484,2.4482071,4.771616,7.0114837,0.0027817164,0.00949571,-5.5228313e-05,36.298454,36.298454
223180356,2490378,2490378,0,0,0,0,0,405.0059,405.0059,8100.1177,8100.1177,3.4406679,0.06402997,8.3000335e-09,0.0116160195,-0.46978647,-10.132514,-0.15083079,-0.061468072,-0.014829806,8.813773,46.880657,47.93732,0.04442878,0.033651024,-0.0019261033,36.328938,36.328938
224113806,2490378,2490378,0,0,0,0,0,405.0059,405.0059,8100.1177,8100.1177,3.523943,0.068763904,3.4597256e-09,-0.20672858,-0.30194724,-9.981962,0.036661714,-0.11570576,-0.023706654,2.6239812,14.01688,12.925878,0.011761581,0.0073358025,-0.00030526603,36.3487,36.3487
225150980,2490378,2490378,0,0,0,0,0,405.0059,405.0059,8100.1177,8100.1177,3.2799072,0.061235245,5.5507776e-09,-0.19931848,-0.15754801,-10.2134695,0.108571626,0.04095028,0.01601503,4.989249,17.211214,16.347115,0.013673363,0.009500964,-0.00021948044,36.356037,36.356037
226188160,2490378,2490378,0,0,0,0,0,405.0059,405.0059,8100.1177,8100.1177,2.283519,0.046112604,3.8212136e-09,-0.157595,0.19563659,-10.123535,-0.09086955,-0.047000244,-0.00499507,5.3581867,47.538746,38.569897,0.035844605,0.029485077,-0.0014339956,36.382343,36.382343
227121638,2490378,2490378,0,0,0,0,0,405.0059,405.0059,8100.1177,8100.1177,3.2337022,0.058152664,1.8554378e-09,-0.17149928,-0.09074343,-9.768052,0.027931688,0.010108554,-0.0023234957,5.6911016,35.398148,28.169424,0.024654517,0.012597499,-0.0008989597,36.402042,36.402042
228158806,2490378,2490378,0,0,0,0,0,405.0059,405.0059,8100.1177,8100.1177,3.089162,0.057059027,6.0929723e-09,-0.11948479,-0.08212754,-9.980757,0.013585185,0.04798721,0.08993464,6.612129,63.680313,37.603676,0.042062815,0.023836328,-0.00083838217,36.42095,36.42095
229092265,2490378,2490378,0,0,0,0,0,405.0059,405.0059,8100.1177,8100.1177,2.973498,0.054639913,2.736578e-09,0.03911196,-0.068865195,-9.85095,0.036358997,-0.019461477,0.056106597,4.040822,46.57511,13.514985,0.02395338,0.007088659,0.00017701683,36.443596,36.443596
230129463,2490378,2490378,0,0,0,0,0,405.0059,405.0059,8100.1177,8100.1177,2.8702042,0.052615292,2.9422973e-09,0.066733904,0.023454987,-9.707609,0.0530233,-0.03583917,0.02260626,7.792547,28.442045,39.29282,0.018968068,0.026760016,-0.0007739422,36.460274,36.460274
231166635,2490378,2490378,0,0,0,0,0,405.0059,405.0059,8100.1177,8100.1177,2.8193758,0.053328108,2.70616e-09,-0.008317446,-0.28873414,-9.776827,-0.025507249,0.037971526,0.012298697,5.052152,21.044249,26.587145,0.016481524,0.019029727,-0.0008410978,36.48328,36.48328
232100156,2490378,2490378,0,0,0,0,0,405.0059,405.0059,8100.1177,8100.1177,2.5919938,0.0487881,1.8826216e-09,-0.03759469,-0.23673046,-9.964358,0.045126867,-0.07653252,0.010298493,2.2221758,2.6148033,10.473794,0.0022332766,0.0065128044,4.7512917e-06,36.484142,36.484142
233137298,2490378,2490378,0,0,0,0,0,405.0059,405.0059,8100.1177,8100.1177,3.4428048,0.05995165,3.2935765e-09,-0.002258119,-0.19119108,-9.715335,-0.042102326,-0.025115373,-0.047260895,2.52839,1.5276796,12.447108,0.0017962776,0.0032615934,-9.103594e-05,36.515705,36.515705
234174465,2490378,2490378,0,0,0,0,0,405.0059,405.0059,8100.1177,8100.1177,2.8230104,0.053133406,1.0790284e-09,-0.06050499,-0.106238835,-9.843334,0.021793008,-0.017702002,-0.025372095,2.8187964,16.20305,9.796405,0.009939379,0.008377395,-0.00025206758,36.54575,36.54575
235107933,2490378,2490378,0,0,0,0,0,405.0059,405.0059,8100.1177,8100.1177,2.6520336,0.049253993,1.5660464e-09,-0.19292562,-0.19766736,-10.849455,-0.024759868,-0.00011864999,0.006125281,3.4054246,17.615927,10.768001,0.013062244,0.004934122,-0.0003976884,36.564453,36.564453
236145332,2490378,2490378,0,0,0,0,0,405.0059,405.0059,8100.1177,8100.1177,2.567055,0.052909475,1.9280348e-09,-0.100271344,-0.316779,-10.040774,0.06696091,0.04784102,0.008347416,2.1223202,21.629936,18.037834,0.019011477,0.013334483,-0.00060970767,36.575947,36.575947
237182302,2490378,2490378,0,0,0,0,0,405.0059,405.0059,8100.1177,8100.1177,3.866061,0.07558179,8.15612e-09,-0.07634631,-0.45042974,-9.916423,-0.07541764,-0.08300088,0.07482314,3.3454878,65.73838,24.482119,0.06066945,0.016448207,-0.0016094894,36.60074,36.60074
238115769,2490378,2490378,0,0,0,0,0,405.0059,405.0059,8100.1177,8100.1177,2.465656,0.047858592,2.1318198e-09,-0.051648676,-0.64764905,-9.771884,0.028245792,0.048314396,0.011354365,2.4510882,185.64139,9.408258,0.12145674,0.009003054,-0.0031737003,36.63633,36.63633
239152989,2490378,2490378,0,0,0,0,0,405.0059,405.0059,8100.1177,8100.1177,3.451358,0.071457595,3.6431953e-09,-0.04906811,-0.09754854,-9.920836,-0.010432603,-0.058132563,0.036628146,1.8370625,25.900053,20.73409,0.036297254,0.010071063,-0.0013764616,36.667385,36.667385
240086440,2490378,2490378,0,0,0,0,0,405.0059,405.0059,8100.1177,8100.1177,3.3849542,0.06890301,4.1680774e-09,-0.026050301,-0.50019985,-10.0551,-0.024691924,-0.023194704,0.03778147,2.2039335,115.19457,20.200863,0.11987677,0.014873401,-0.0048131435,36.68384,36.68384
241123613,2490378,2490378,0,0,0,0,0,405.0059,405.0059,8100.1177,8100.1177,3.3465292,0.07022343,3.7744234e-09,0.017348044,0.104700394,-9.960277,-0.0040924493,-0.015967887,0.027024569,2.8017113,138.46536,16.889795,0.09927937,0.010036418,-0.003313748,36.709225,36.709225
242161076,2490378,2490378,0,0,0,0,0,405.0059,405.0059,8100.1177,8100.1177,3.3938763,0.0671806,2.5507938e-09,-0.057695083,-0.6502961,-9.894327,0.017398443,-0.0040429924,0.02829865,3.5036614,207.63545,14.802142,0.17043808,0.013270652,-0.005643375,36.73345,36.73345
243094278,2490378,2490378,0,0,0,0,0,405.0059,405.0059,8100.1177,8100.1177,2.5700924,0.05863391,2.623808e-09,0.06467934,0.1303379,-9.856581,-0.019313833,-0.03648819,-0.02056143,2.5592165,172.14154,7.5868697,0.1208781,0.013916412,-0.0023027668,36.75545,36.75545
244131475,2490378,2490378,0,0,0,0,0,405.0059,405.0059,8100.1177,8100.1177,3.3025525,0.06594814,3.3056684e-09,-0.001836979,-0.20531403,-10.046285,0.054935455,-0.06391524,0.018265393,3.023979,19.71495,16.985485,0.026066836,0.008875514,-0.0008027665,36.753002,36.753002
245168652,2490378,2490378,0,0,0,0,0,405.0059,405.0059,8100.1177,8100.1177,3.2077954,0.05823297,1.2284228e-09,-0.009914737,-0.109501906,-9.791271,-0.048741885,-0.0104511585,0.014405905,2.835648,13.997298,8.481912,0.023755604,0.005291471,-0.0007655037,36.77723,36.77723
246102120,2490378,2490378,0,0,0,0,0,405.0059,405.0059,8100.1177,8100.1177,3.137917,0.060923774,2.6525124e-09,-0.010767871,-0.10797518,-9.757552,-0.044200376,0.0049482826,0.013584021,3.0357788,233.89038,8.028771,0.1689763,0.01330594,-0.0040858504,36.773136,36.773136
247139310,2490378,2490378,0,0,0,0,0,405.0059,405.0059,8100.1177,8100.1177,2.8926115,0.054852642,1.6824374e-09,0.007907905,-0.024096942,-9.828737,0.02323832,0.017129602,-0.009117859,3.3618412,134.93846,8.432745,0.09569578,0.0110780215,-0.0025725134,36.780537,36.780537
248176506,2490378,2490378,0,0,0,0,0,405.0059,405.0059,8100.1177,8100.1177,2.2348044,0.046466704,1.9847148e-09,-0.07271143,-0.16537017,-8.890768,0.026952505,-0.0148364445,0.0120343575,3.231077,30.724283,17.762102,0.020162895,0.0126469955,-0.00032198243,36.80224,36.80224
249109987,2490378,2490378,0,0,0,0,0,405.0059,405.0059,8100.1177,8100.1177,2.7618432,0.051569227,4.3185118e-09,0.001713322,0.017579956,-9.160828,0.027748616,-0.053791717,0.036122058,3.8255835,87.725044,29.62196,0.063346475,0.017090984,-0.0016537237,36.81031,36.81031
250147172,2490378,2490378,0,0,0,0,0,405.0059,405.0059,8100.1177,8100.1177,3.2244937,0.056492623,4.501756e-09,-0.010494707,-0.014387856,-9.151266,-0.014738118,-0.05405408,0.05181946,6.1907215,41.915462,29.508108,0.029731065,0.010376822,-0.0013683576,36.83094,36.83094
251184357,2490378,2490378,0,0,0,0,0,405.0059,405.0059,8100.1177,8100.1177,2.9549456,0.055072103,1.8928118e-08,-0.04403777,0.13993958,-9.715101,0.026551409,0.55908686,0.03182241,5.2900753,79.90313,14.15765,0.04420375,0.018973412,-0.0005813187,36.82597,36.82597
252117835,2490378,2490378,0,0,0,0,0,405.0059,405.0059,8100.1177,8100.1177,2.6805882,0.055279806,1.3550047e-08,0.019131377,-0.35154358,-10.123851,0.19531737,-0.54132956,0.12444671,2.357905,31.738365,15.751753,0.024093265,0.011048698,-0.0006858065,36.827194,36.827194
253155020,2490378,2490378,0,0,0,0,0,405.0059,405.0059,8100.1177,8100.1177,2.9556613,0.05944415,4.1235857e-08,-0.09319791,-0.3672433,-10.482229,-0.95981216,-0.5751965,-0.026567645,5.5872045,60.782356,30.426151,0.058225866,0.018897718,-0.0026886892,36.84524,36.84524
254088498,2490378,2490378,0,0,0,0,0,405.0059,405.0059,8100.1177,8100.1177,3.1132262,0.0617459,3.2564945e-08,-0.21442628,0.45394984,-11.090515,-0.42820594,0.64007825,-0.15160477,5.1806493,231.66084,15.049382,0.19180281,0.09838322,-0.008943655,36.854153,36.854153
255125701,2490378,2490378,0,0,0,0,0,405.0059,405.0059,8100.1177,8100.1177,3.5840356,0.07632625,1.0392821e-08,-0.2890258,0.9224649,-9.730175,0.18232554,0.02874405,-0.12172672,8.847419,276.70224,13.898711,0.17456032,0.022919679,-0.0059290593,36.869682,36.869682
256162884,2490378,2490378,0,0,0,0,0,405.0059,405.0059,8100.1177,8100.1177,3.9433281,0.0791697,2.5515286e-08,-0.10918896,1.008527,-10.113089,0.3760838,0.22320768,-0.1165075,10.084164,222.06114,27.273272,0.16154696,0.027496545,-0.0056462614,36.880024,36.880024
257096354,2490378,2490378,0,0,0,0,0,405.0059,405.0059,8100.1177,8100.1177,4.3928065,0.09560222,1.4813773e-08,0.08766878,1.3223876,-9.930643,0.009561264,-0.14269686,-0.14842108,14.001996,166.17288,34.68256,0.114046276,0.030210767,-0.0031852613,36.888153,36.888153
258133551,2490378,2490378,0,0,0,0,0,405.0059,405.0059,8100.1177,8100.1177,3.948513,0.08192801,2.6653977e-08,-0.09061784,0.74982685,-11.070001,0.19526443,-0.44078034,-0.008680074,12.202329,111.33002,41.638313,0.107170075,0.034846418,-0.004079562,36.898445,36.898445
259170742,2490378,2490378,0,0,0,0,0,405.0059,405.0059,8100.1177,8100.1177,3.7440608,0.07758023,3.009125e-08,-0.6051227,0.81969565,-9.237811,0.11883436,0.34189454,0.09855446,10.696583,390.2881,31.064106,0.31099415,0.0528546,-0.008129817,36.900806,36.900806
260104225,2490378,2490378,0,0,0,0,0,405.0059,405.0059,8100.1177,8100.1177,3.929229,0.07666786,1.6432761e-08,-0.39592317,0.37405318,-10.014944,0.31227311,0.1927661,0.012473465,13.221253,248.01959,39.656456,0.19299144,0.02893839,-0.005911701,36.910152,36.910152
261141412,2490378,2490378,0,0,0,0,0,405.0059,405.0059,8100.1177,8100.1177,3.743639,0.07302361,1.8618303e-08,-0.24931273,0.5779455,-9.490606,-0.28446233,-0.33250168,0.10364144,14.456885,99.374504,10.409843,0.07079092,0.013129992,-0.0019958846,36.92295,36.92295
262178612,2490378,2490378,0,0,0,0,0,405.0059,405.0059,8100.1177,8100.1177,3.1852276,0.0671832,1.1921788e-08,-0.23759733,0.29263404,-9.009516,0.061125554,0.19824697,0.08161122,3.4771814,53.658607,28.2721,0.049117222,0.029353859,-0.001372514,36.935886,36.935886
263112087,2490378,2490378,0,0,0,0,0,405.0059,405.0059,8100.1177,8100.1177,3.0469656,0.065270275,1.2407913e-08,-0.10843253,-0.17448717,-10.569938,-0.053254984,-0.2407294,0.04106016,10.355827,66.99544,31.495264,0.056386504,0.031339116,-0.0018169222,36.92813,36.92813
264149285,2490378,2490378,0,0,0,0,0,405.0059,405.0059,8100.1177,8100.1177,4.050756,0.0821793,1.1179343e-08,6.2503924,0.27213272,-9.57,-0.044046585,0.029006967,0.06811572,21.569403,185.77689,20.106823,0.122319825,0.019752746,0.00136899,36.94919,36.94919
265186479,2490378,2490378,0,0,0,0,0,405.0059,405.0059,8100.1177,8100.1177,6.376245,0.14597338,3.605267e-08,5.0564895,0.18092814,-10.274347,0.047659438,0.05245999,-0.1476193,37.556812,245.75198,90.078835,0.25292104,0.06668995,-0.0024949743,36.97198,36.97198
266119983,2490378,2490378,0,0,0,0,0,405.0059,405.0059,8100.1177,8100.1177,10.145766,0.16778116,1.401925e-08,4.859986,-0.15562655,-9.159395,-0.042304743,-0.09861922,-0.025906207,47.61634,120.67835,129.57425,0.08111531,0.041627437,-0.00044213893,36.98585,36.98585
267157157,2490378,2490378,0,0,0,0,0,405.0059,405.0059,8100.1177,8100.1177,12.535769,0.199749,2.141256e-08,3.9745638,-0.5082127,-10.937523,0.08298479,-0.011573628,-0.011596867,38.965805,135.99359,127.907776,0.1109651,0.05986538,-0.0029369085,36.988224,36.988224
268090746,2490378,2490378,0,0,0,0,0,405.0059,405.0059,8100.1177,8100.1177,11.149376,0.18393196,1.5488775e-08,3.0836585,0.07964277,-11.963738,0.11508759,-0.088646375,-0.011886109,17.363358,44.490204,89.573074,0.026243536,0.031199524,0.00022094832,36.986347,36.986347
269127828,2490378,2490378,0,0,0,0,0,405.0059,405.0059,8100.1177,8100.1177,4.6820817,0.093967624,5.4659328e-08,-1.8306755,-0.05531647,-11.386128,1.2476726,-0.11002893,0.06928134,10.013414,104.75431,11.6134205,0.014093204,0.014510969,0.0012962158,37.009575,37.009575
270165029,2490378,2490378,0,0,0,0,0,405.0059,405.0059,8100.1177,8100.1177,3.3608432,0.07357737,5.7910214e-08,0.23536904,0.85553974,-16.551819,-0.74453914,0.27645236,0.56190604,12.17969,29.16694,17.403072,0.011837953,0.020033294,0.00016364854,37.01835,37.01835
271098738,2490378,2490378,0,0,0,0,0,405.0059,405.0059,8100.1177,8100.1177,4.042555,0.084687784,2.3405802e-08,-0.3431484,-0.14375581,-6.173797,-0.3104796,-0.13584743,0.0350217,15.530005,52.50048,6.6375723,0.022249946,0.011220197,0.00022090475,37.013237,37.013237
272135702,2490378,2490378,0,0,0,0,0,405.0059,405.0059,8100.1177,8100.1177,3.6306305,0.078148775,1.6841438e-08,0.22414282,-0.596989,-11.571483,0.22065318,0.008984168,-0.19648652,20.05689,34.842834,14.408751,0.02153942,0.008962277,-0.00022366983,37.01936,37.01936
273172903,2490378,2490378,0,0,0,0,0,405.0059,405.0059,8100.1177,8100.1177,3.254249,0.0687599,6.9653296e-09,-0.027222387,-0.3112767,-9.042006,0.08471567,-0.11888999,-0.03482718,12.651029,41.428482,15.550063,0.02207927,0.009282994,-0.00010774695,37.029568,37.029568
274106409,2490378,2490378,0,0,0,0,0,405.0059,405.0059,8100.1177,8100.1177,3.2557454,0.065191455,9.314287e-09,0.1380526,-0.17609121,-11.438502,0.16667403,-0.06538617,-0.012645739,12.562991,39.86515,16.469246,0.026879048,0.011915608,-0.00027338444,37.03811,37.03811
275143640,2490378,2490378,0,0,0,0,0,405.0059,405.0059,8100.1177,8100.1177,3.2627416,0.06644347,1.1603151e-08,-0.3218331,-0.09928173,-11.499987,-0.23029062,-0.036237143,-0.00089896604,16.30415,36.414833,14.37571,0.04119742,0.010621537,-0.0011067255,37.016914,37.016914
276180780,2490378,2490378,0,0,0,0,0,405.0059,405.0059,8100.1177,8100.1177,3.5352695,0.06965219,4.6309083e-08,2.1585784,-1.1688112,-22.52815,0.014470229,0.7903552,-0.5985089,20.622683,48.07937,51.405945,0.020311024,0.015659705,0.00033170378,37.02504,37.02504
277114256,2490378,2490378,0,0,0,0,0,405.0059,405.0059,8100.1177,8100.1177,3.9858994,0.082310334,6.5379545e-08,1.8399802,-2.287167,-20.900644,0.032363087,0.6460744,-0.57071334,27.063377,92.69626,37.553375,0.04005803,0.026090773,0.00014810341,37.01072,37.01072
278151599,2490378,2490378,0,0,0,0,0,405.0059,405.0059,8100.1177,8100.1177,4.357216,0.08513007,6.483554e-08,1.8660994,-3.2454715,-19.766998,0.079121046,0.6630899,-0.5032617,32.816216,90.342026,60.88866,0.0413161,0.0251289,0.00037057762,36.988945,36.988945
279188652,2490378,2490378,0,0,0,0,0,405.0059,405.0059,8100.1177,8100.1177,4.0281544,0.08450763,6.331125e-08,1.8595697,-2.5852234,-14.404087,0.26348573,0.42858225,-0.5744202,25.840374,96.89279,41.053585,0.05037635,0.01993827,0.00036036453,37.000885,37.000885
280122128,2490378,2490378,0,0,0,0,0,405.0059,405.0059,8100.1177,8100.1177,3.2027378,0.0694414,6.6545645e-08,-0.26712328,-0.9779385,-6.197978,1.3115578,0.018382873,-0.0015890334,20.356775,62.89222,8.588547,0.03929728,0.011747229,8.259837e-05,36.975643,36.975643
281159339,2490378,2490378,0,0,0,0,0,405.0059,405.0059,8100.1177,8100.1177,3.0322638,0.059883006,3.3813112e-08,0.6060967,-0.056188047,-16.390097,-0.24598648,0.27455544,0.51115054,23.458265,61.31855,27.934252,0.027198965,0.010062129,0.00092542823,36.98111,36.98111
282092806,2490378,2490378,0,0,0,0,0,405.0059,405.0059,8100.1177,8100.1177,3.0918758,0.06225147,2.0756609e-08,-0.044127624,-0.5421074,-11.968476,-0.04812588,0.095055744,0.30858424,20.806522,78.0004,19.694973,0.041082896,0.007924282,0.00052318734,36.95753,36.95753
283130005,2490378,2490378,0,0,0,0,0,405.0059,405.0059,8100.1177,8100.1177,3.0929055,0.06458326,1.5539559e-08,-0.35869282,-0.1652336,-8.847855,-0.17776701,0.027062943,0.1432998,21.503117,50.916397,16.797153,0.030098978,0.013169292,-0.0002687081,36.96285,36.96285
284167316,2490378,2490378,0,0,0,0,0,405.0059,405.0059,8100.1177,8100.1177,3.2298777,0.0693616,1.6988011e-08,-0.45015857,0.23104732,-9.364137,-0.26885015,-0.081920184,0.108617604,11.5976095,40.95382,12.750137,0.027956935,0.010294856,-0.000108946835,36.933372,36.933372
285100675,2490378,2490378,0,0,0,0,0,405.0059,405.0059,8100.1177,8100.1177,3.450951,0.06880457,1.7762998e-08,-0.6172687,0.15523762,-9.344767,-0.32594824,-0.030867446,0.08054901,15.296105,52.43597,11.021402,0.033165827,0.011194504,-0.00067098136,36.925964,36.925964
286137868,2490378,2490378,0,0,0,0,0,405.0059,405.0059,8100.1177,8100.1177,3.499298,0.070291966,6.8988473e-09,-0.19541697,0.14867479,-11.14699,-0.0794675,-0.05359061,-0.045125086,13.950088,37.32679,12.511468,0.019548269,0.01092539,0.00059499306,36.90749,36.90749
287175244,2490378,2490378,0,0,0,0,0,405.0059,405.0059,8100.1177,8100.1177,3.3627698,0.069706194,9.024536e-09,0.1440993,-0.16716424,-11.625575,-0.09255174,0.05000076,0.043851983,15.3292265,43.74937,10.89093,0.03439926,0.010829456,-0.0008699674,36.888588,36.888588
288108536,2490378,2490378,0,0,0,0,0,405.0059,405.0059,8100.1177,8100.1177,3.4993033,0.072441526,5.3995235e-09,0.20688735,-0.267694,-9.743409,0.075202666,0.053227097,-0.014568644,16.566696,42.797268,10.474657,0.0266402,0.010408981,-0.00027499115,36.881977,36.881977
289145731,2490378,2490378,0,0,0,0,0,405.0059,405.0059,8100.1177,8100.1177,3.4473047,0.07236633,8.051572e-09,0.33959234,0.046546146,-7.7505608,0.13019964,-0.04814479,0.0009934403,15.858828,49.366085,11.458239,0.031871952,0.012908583,-0.0006328324,36.843292,36.843292
290182936,2490378,2490378,0,0,0,0,0,405.0059,405.0059,8100.1177,8100.1177,3.4771056,0.067542136,6.2075736e-09,0.0995961,-0.44562164,-9.552456,0.018250708,-0.073616885,0.092600115,12.269588,46.910294,8.430874,0.030933749,0.009235927,-0.00041265544,36.834953,36.834953
291116392,2490378,2490378,0,0,0,0,0,405.0059,405.0059,8100.1177,8100.1177,3.494477,0.069479614,4.6042268e-09,0.057734847,-0.4301997,-12.30807,0.016857233,-0.041883975,0.0615536,16.376883,41.41142,16.306091,0.023375068,0.012039643,-0.0003034248,36.827053,36.827053
292153585,2490378,2490378,0,0,0,0,0,405.0059,405.0059,8100.1177,8100.1177,3.627084,0.069824725,1.5184238e-08,0.25582075,-0.014254552,-10.797301,-0.25060713,0.059519373,0.0346335,11.472331,37.18191,13.476222,0.015354325,0.015525628,-7.656645e-05,36.802685,36.802685
293087055,2490378,2490378,0,0,0,0,0,405.0059,405.0059,8100.1177,8100.1177,3.6459904,0.0718181,6.657727e-09,0.39504886,0.034262873,-9.185537,0.10118,-0.03882402,-0.009538733,11.631203,40.6686,12.756001,0.019006876,0.013195482,-0.00024147931,36.771416,36.771416
294124264,2490378,2490378,0,0,0,0,0,405.0059,405.0059,8100.1177,8100.1177,3.57524,0.075176,4.510024e-09,0.052526075,0.14928006,-10.433342,0.042870272,-0.11974085,0.005758511,13.896867,34.47461,14.278563,0.012923504,0.011635376,6.855436e-05,36.765663,36.765663
295161440,2490378,2490378,0,0,0,0,0,405.0059,405.0059,8100.1177,8100.1177,3.6466541,0.07232267,6.457244e-09,0.14758351,-0.25755593,-9.663981,-0.052218743,-0.09960373,0.08243388,16.849262,45.579235,10.110155,0.03201054,0.010059009,-0.00059738336,36.721592,36.721592
296094905,2490378,2490378,0,0,0,0,0,405.0059,405.0059,8100.1177,8100.1177,3.6547396,0.07142528,1.1341678e-08,0.4586953,0.022935633,-11.070485,-0.18873112,0.111354046,0.017346106,10.24548,26.586794,16.947987,0.019607104,0.011820659,1.6992508e-05,36.701534,36.701534
297132094,2490378,2490378,0,0,0,0,0,405.0059,405.0059,8100.1177,8100.1177,3.733933,0.072107986,7.31534e-09,0.31285176,-0.14304554,-9.458628,0.12775896,-0.051776554,0.035237104,11.762199,34.109253,11.610081,0.017296672,0.009877169,-8.7789085e-05,36.673714,36.673714
298169278,2490378,2490378,0,0,0,0,0,405.0059,405.0059,8100.1177,8100.1177,3.7889485,0.07457471,6.8730865e-09,0.101833165,-0.055083208,-9.028733,0.10866883,-0.14101097,0.0066267285,11.998349,34.898632,12.625824,0.01700235,0.009856293,4.0299924e-06,36.637188,36.637188
299102750,2490378,2490378,0,0,0,0,0,405.0059,405.0059,8100.1177,8100.1177,3.8067713,0.07624679,1.3062357e-08,0.18655556,-0.17591943,-11.550447,-0.22415993,0.02146165,-0.019899935,16.970453,28.740194,12.913453,0.017687855,0.014164942,-0.00010187243,36.60779,36.60779
300139938,2490378,2490378,0,0,0,0,0,405.0059,405.0059,8100.1177,8100.1177,3.694442,0.07392808,7.2758426e-09,0.111267276,-0.22671592,-9.734614,0.051079497,0.06146013,0.09137621,16.568844,45.10106,9.689488,0.020883068,0.008760901,0.0001996516,36.590904,36.590904
301177128,2490378,2490378,0,0,0,0,0,405.0059,405.0059,8100.1177,8100.1177,3.8313196,0.07992809,5.9007036e-08,0.13745765,-0.5316987,-10.179983,1.0042562,-0.007193349,-0.034516,17.198637,38.69855,11.376053,0.017691549,0.013158244,0.00010569921,36.56264,36.56264
302110607,2490378,2490378,0,0,0,0,0,405.0059,405.0059,8100.1177,8100.1177,3.1718814,0.06424147,5.0227523e-08,1.936064,0.30125025,-18.232918,-0.027421055,0.70935726,0.6300211,13.956002,51.100784,18.608162,0.021879146,0.011686268,0.000850194,36.516277,36.516277
303147785,2490378,2490378,0,0,0,0,0,405.0059,405.0059,8100.1177,8100.1177,3.3784397,0.07267436,2.4809877e-08,0.19740301,0.73607975,-8.001663,-0.21615472,0.095891126,0.3124745,8.479062,31.627941,12.779661,0.009214553,0.01240632,0.0005285723,36.51002,36.51002
304184952,2490378,2490378,0,0,0,0,0,405.0059,405.0059,8100.1177,8100.1177,3.9753733,0.091748424,3.220334e-08,0.013715551,0.087424204,-12.329357,-0.35253832,0.13376808,0.25411487,14.546305,34.22692,13.953789,0.019344032,0.014496882,0.0002734474,36.510246,36.510246
305118416,2490378,2490378,0,0,0,0,0,405.0059,405.0059,8100.1177,8100.1177,4.2123775,0.10677661,2.9475059e-08,-0.56400585,0.11918662,-9.331376,-0.23158805,-0.11801718,-0.0067593977,14.562203,50.28275,12.369955,0.056070536,0.013099164,0.00015235905,36.46732,36.46732
306155618,2490378,2490378,0,0,0,0,0,405.0059,405.0059,8100.1177,8100.1177,3.694161,0.082938395,3.3278784e-08,1.7090627,-0.58850044,-16.644438,0.08083446,0.73646307,0.41424477,15.832475,34.96453,11.428555,0.021796837,0.009300799,0.00013126501,36.448982,36.448982
307089081,2490378,2490378,0,0,0,0,0,405.0059,405.0059,8100.1177,8100.1177,3.0323956,0.06772541,3.0265227e-08,2.2771804,0.5054043,-18.819466,0.059811484,0.5522011,0.42118186,9.103655,27.824623,17.050896,0.009249985,0.013182223,0.0005427457,36.417145,36.417145
308126255,2490378,2490378,0,0,0,0,0,405.0059,405.0059,8100.1177,8100.1177,4.327843,0.082096346,2.5190632e-08,-0.6833696,0.19698906,-13.81341,-0.101304285,0.45182475,0.35538438,5.063869,89.799,17.039371,0.020943036,0.008640312,0.00091698533,36.397083,36.397083
309163444,2490378,2490378,0,0,0,0,0,405.0059,405.0059,8100.1177,8100.1177,4.644875,0.09451092,1.05664334e-07,-1.6790763,0.4982162,-10.761152,-0.81174225,0.1581935,0.42960665,3.7043445,22.10518,52.352757,0.0018659272,0.04000711,0.00035517054,36.383137,36.383137
310096900,2490378,2490378,0,0,0,0,0,405.0059,405.0059,8100.1177,8100.1177,5.085164,0.098821335,3.0936725e-08,-1.662752,0.41272247,-8.080285,-0.61997473,-0.06427293,-0.083586775,1.3676522,5.639178,14.95267,0.006686707,0.0062445113,-5.2867403e-05,36.367977,36.367977
311134065,2490378,2490378,0,0,0,0,0,405.0059,405.0059,8100.1177,8100.1177,3.2394798,0.059906784,9.658882e-09,-1.5609748,-0.07701222,-9.251771,0.27268985,-0.005343389,-0.16169219,1.3097675,8.153107,14.082654,0.002938216,0.007772239,2.3723462e-05,36.34288,36.34288
312171242,2490378,2490378,0,0,0,0,0,405.0059,405.0059,8100.1177,8100.1177,2.229615,0.044244587,5.465981e-09,-1.4562117,0.023989478,-9.315078,-0.015856497,0.012386089,-0.20478572,1.295816,4.379281,11.796359,0.00064415083,0.007194941,-8.702525e-05,36.312756,36.312756
313104717,2490378,2490378,0,0,0,0,0,405.0059,405.0059,8100.1177,8100.1177,2.2104354,0.041811172,7.943513e-09,-1.604451,-0.0037250922,-7.5639386,0.2224002,-0.07613018,-0.13303715,1.4542514,2.5380723,13.686811,0.0013408387,0.006926981,-0.00014715942,36.30169,36.30169
314141895,2490378,2490378,0,0,0,0,0,405.0059,405.0059,8100.1177,8100.1177,2.409364,0.04078271,9.3519805e-09,-1.205564,-0.10418294,-9.3764,0.3351777,-0.059603244,-0.014536527,2.683413,4.7484503,23.213942,0.0025128094,0.012412918,-0.00025643586,36.263733,36.263733
315179057,2490378,2490378,0,0,0,0,0,405.0059,405.0059,8100.1177,8100.1177,2.5342913,0.038143132,5.965037e-09,-1.1038399,-0.111850515,-9.18106,0.14726323,-0.056570824,0.115939036,2.0022485,5.680439,16.298252,0.0015547784,0.0077798804,2.3752757e-05,36.271854,36.271854
316112785,2490378,2490378,0,0,0,0,0,405.0059,405.0059,8100.1177,8100.1177,2.139095,0.03376222,6.105956e-09,-1.0948418,0.026084017,-9.534846,0.17010812,-0.08885149,-0.08554052,0.81774366,5.5781093,7.9059386,0.007590562,0.0038537504,-9.9179655e-05,36.246185,36.246185
317149690,2490378,2490378,0,0,0,0,0,405.0059,405.0059,8100.1177,8100.1177,2.220716,0.032900777,2.7029996e-09,-1.1948919,0.23133363,-9.122265,0.0125429565,-0.073459454,0.10463899,1.2220856,5.408511,10.30462,0.0016629644,0.0045862226,0.00020429007,36.21657,36.21657
318083168,2490378,2490378,0,0,0,0,0,405.0059,405.0059,8100.1177,8100.1177,2.1346095,0.033173647,2.5495988e-08,-1.2266328,-0.62759,-9.074025,0.84892476,7.986495e-05,-0.05041798,1.5483555,7.3621984,14.244243,0.0018357714,0.007842078,0.00041453316,36.19515,36.19515
319120403,2490378,2490378,0,0,0,0,0,405.0059,405.0059,8100.1177,8100.1177,2.9976456,0.04551661,3.1392158e-08,-1.2970192,0.65236557,-10.432335,-0.71787053,0.14273934,0.6925402,1.2817477,4.6950884,12.959537,0.0035846757,0.006192914,0.0008923727,36.19184,36.19184
320157494,2490378,2490378,0,0,0,0,0,405.0059,405.0059,8100.1177,8100.1177,2.963868,0.042890683,3.992705e-08,-1.3059194,0.52228224,-11.250021,-0.9849454,0.39159426,-0.597358,1.476377,6.5680776,15.468064,0.004882295,0.008570266,0.00045840605,36.175312,36.175312
321090949,2490378,2490378,0,0,0,0,0,405.0059,405.0059,8100.1177,8100.1177,4.373766,0.07553303,3.6069174e-08,0.6436886,-0.37568462,-12.370357,0.70738757,0.21780227,-0.4065709,4.5620284,31.12149,14.513942,0.007591668,0.0044910074,0.00039012052,36.151226,36.151226
322128214,2490378,2490378,0,0,0,0,0,405.0059,405.0059,8100.1177,8100.1177,4.1392274,0.079257675,1.5908077e-08,0.64500254,-0.26199964,-10.516752,0.32020667,0.050370947,0.34515926,7.6942763,153.39128,9.560455,0.016315812,0.009312765,0.0024951736,36.155388,36.155388
323165295,2490378,2490378,0,0,0,0,0,405.0059,405.0059,8100.1177,8100.1177,4.7583156,0.103062764,3.1492487e-08,1.4981027,0.39087397,-12.990884,-0.3039162,0.15105118,0.20221764,7.4708085,28.41451,19.179438,0.0048689977,0.016660066,0.0008448981,36.132458,36.132458
324098754,2490378,2490378,0,0,0,0,0,405.0059,405.0059,8100.1177,8100.1177,4.8885417,0.10973574,2.1529162e-08,0.22923882,0.13135533,-9.265159,-0.1780836,-0.09490557,-0.10435204,4.0061913,69.7386,11.311918,0.013553429,0.009823878,-3.1266045e-05,36.138573,36.138573
325135940,2490378,2490378,0,0,0,0,0,405.0059,405.0059,8100.1177,8100.1177,4.18671,0.08040344,1.454392e-08,-0.08914085,0.5628202,-10.914377,-0.29189944,-0.025110789,0.0151052885,4.1684713,61.571117,15.1318655,0.012762104,0.0075079547,0.0007943406,36.105213,36.105213
326173128,2490378,2490378,0,0,0,0,0,405.0059,405.0059,8100.1177,8100.1177,4.264273,0.07862254,8.626015e-09,0.065508045,-0.1286779,-8.067246,0.17073998,-0.017648356,0.018856624,5.2476435,63.68864,13.603891,0.005677752,0.0068446854,0.0009513476,36.104214,36.104214
327106551,2490378,2490378,0,0,0,0,0,405.0059,405.0059,8100.1177,8100.1177,4.350983,0.07945881,7.3051774e-09,0.7717604,-0.30905947,-11.141381,-0.11259006,0.023828495,-0.060149148,3.4288387,78.22379,13.356853,0.008556901,0.007898629,0.0004768067,36.102345,36.102345
328143803,2490378,2490378,0,0,0,0,0,405.0059,405.0059,8100.1177,8100.1177,4.8992662,0.08577301,1.2520811e-08,1.0564784,0.40706697,-10.17833,-0.08063366,-0.12119452,-0.046596963,6.665633,29.821655,14.687222,0.006124783,0.0117321955,0.0013041253,36.089397,36.089397
329180911,2490378,2490378,0,0,0,0,0,405.0059,405.0059,8100.1177,8100.1177,5.0809216,0.10669391,1.01888045e-08,0.572862,0.5812788,-11.074212,-0.09371095,0.0062439167,0.014491697,4.257526,66.70663,17.27586,0.0065974845,0.012707898,0.0008490042,36.083935,36.083935
330114355,2490378,2490378,0,0,0,0,0,405.0059,405.0059,8100.1177,8100.1177,4.1262302,0.08170519,9.691012e-09,0.1675433,0.025097512,-11.107004,-0.19182296,-0.08162065,0.015704213,4.564465,75.72344,11.631104,0.009833632,0.0064799227,0.0010128322,36.073227,36.073227
331151520,2490378,2490378,0,0,0,0,0,405.0059,405.0059,8100.1177,8100.1177,4.3071313,0.07941828,8.267826e-09,-0.09293756,0.101906024,-9.176539,-0.16001663,0.032602098,0.0019838759,4.0149975,64.53811,14.391426,0.014213354,0.0064174966,0.0005351966,36.062008,36.062008
332084972,2490378,2490378,0,0,0,0,0,405.0059,405.0059,8100.1177,8100.1177,4.02474,0.077211455,1.02961515e-08,-0.14452396,0.22674623,-9.673574,0.22094563,-0.04292782,0.060570363,6.2236633,78.124275,11.812078,0.027204253,0.0071218885,8.96605e-05,36.044903,36.044903
333122145,2490378,2490378,0,0,0,0,0,405.0059,405.0059,8100.1177,8100.1177,4.0009513,0.07422708,4.268078e-09,0.18654504,0.14000128,-9.279252,-0.03899737,-0.015024543,-0.055712193,4.3953223,41.991417,14.227963,0.01063245,0.006723709,0.00022883905,36.04943,36.04943
334159357,2490378,2490378,0,0,0,0,0,405.0059,405.0059,8100.1177,8100.1177,4.3407526,0.07691054,7.859595e-09,0.7557831,-0.13461575,-10.261409,0.14091721,0.005156533,0.013474388,3.06618,61.028183,11.759679,0.010936244,0.0073097344,0.00094113976,36.028362,36.028362
335092800,2490378,2490378,0,0,0,0,0,405.0059,405.0059,8100.1177,8100.1177,4.6047964,0.09560727,5.8728165e-09,1.2316628,0.011128299,-9.23112,-0.07140396,-0.12135416,0.0049793543,5.797561,54.464622,15.167316,0.011189801,0.012774245,0.0017130675,36.040665,36.040665
336129939,2490378,2490378,0,0,0,0,0,405.0059,405.0059,8100.1177,8100.1177,4.283014,0.09909344,2.2874982e-08,1.7998899,0.118382074,-11.725215,-0.26256523,-0.15597075,-0.04167652,8.542411,14.634289,21.923664,0.0025408638,0.019340135,0.0005706305,36.02967,36.02967
337167106,2490378,2490378,0,0,0,0,0,405.0059,405.0059,8100.1177,8100.1177,3.8480713,0.09017141,1.2511083e-08,2.143065,0.41792738,-11.110687,-0.07989863,0.16775486,-0.14590341,6.777664,28.876425,20.246803,0.007550655,0.026454473,0.0011968474,36.024345,36.024345
338100622,2490378,2490378,0,0,0,0,0,405.0059,405.0059,8100.1177,8100.1177,3.1567483,0.070074454,2.3674362e-08,2.4454222,-0.7967926,-12.724697,0.25224087,0.20509301,-0.23121348,13.760626,50.59629,23.840475,0.02913534,0.013274085,0.00051315984,36.00989,36.00989
339137730,2490378,2490378,0,0,0,0,0,405.0059,405.0059,8100.1177,8100.1177,3.1594703,0.06855275,2.1941288e-08,2.2081063,0.05436552,-11.741325,-0.1004925,0.23982541,-0.35787767,11.643299,42.914814,29.24064,0.019143809,0.01308871,0.00038423022,35.999397,35.999397
340174922,2490378,2490378,0,0,0,0,0,405.0059,405.0059,8100.1177,8100.1177,3.1655433,0.066632524,2.0817325e-08,1.8955129,0.41512564,-14.509222,-0.005834233,0.20721912,-0.29041854,9.44274,45.298805,19.203138,0.016202934,0.017688729,0.0017889912,36.0096,36.0096
341108352,2490378,2490378,0,0,0,0,0,405.0059,405.0059,8100.1177,8100.1177,3.4401217,0.07340187,1.6670679e-08,1.4548059,-0.113345526,-8.857049,-0.12610574,0.07074452,-0.20202063,18.102402,63.021496,29.566118,0.022830293,0.023100203,0.0007443276,35.987606,35.987606
342145518,2490378,2490378,0,0,0,0,0,405.0059,405.0059,8100.1177,8100.1177,3.2893825,0.069194384,2.542525e-08,1.4631001,-0.8844025,-11.00687,0.34836727,0.03781233,-0.21976863,17.777658,58.803783,36.884026,0.031075649,0.014140461,0.00055345503,35.987247,35.987247
343182692,2490378,2490378,0,0,0,0,0,405.0059,405.0059,8100.1177,8100.1177,3.4418414,0.071986794,1.6842288e-08,1.5925741,0.071121454,-8.7539425,0.0713255,0.054614913,-0.1807752,17.502327,66.47128,31.345133,0.025810951,0.0235839,0.00074173365,35.98322,35.98322
344116141,2490378,2490378,0,0,0,0,0,405.0059,405.0059,8100.1177,8100.1177,3.322747,0.07007134,2.0964643e-08,1.5318352,-0.28657338,-9.662579,0.164031,0.046974577,-0.23276673,19.506346,70.312294,31.796007,0.023964088,0.020584842,0.00056003476,35.97187,35.97187
345153307,2490378,2490378,0,0,0,0,0,405.0059,405.0059,8100.1177,8100.1177,3.33566,0.06656805,1.6618543e-08,1.5100417,-0.18740115,-9.819043,0.09029673,-0.022084877,-0.198058,14.417216,55.765297,33.974503,0.02810059,0.014079127,9.399789e-06,35.959206,35.959206
346086760,2490378,2490378,0,0,0,0,0,405.0059,405.0059,8100.1177,8100.1177,3.228752,0.067361355,2.0525032e-08,1.4908781,-0.6556171,-11.252183,0.14111835,0.08943662,-0.22790675,15.346694,60.904648,26.971497,0.028810708,0.014844481,0.00058040384,35.958416,35.958416
347123934,2490378,2490378,0,0,0,0,0,405.0059,405.0059,8100.1177,8100.1177,3.2044492,0.0675173,1.4062726e-08,1.4581301,-0.6567023,-11.874958,0.18482535,0.042599212,-0.11728396,17.266891,59.32694,33.520344,0.030854626,0.014665653,0.00057839276,35.969563,35.969563
348161094,2490378,2490378,0,0,0,0,0,405.0059,405.0059,8100.1177,8100.1177,3.2727394,0.06864791,1.4023681e-08,1.4766917,-0.40571356,-11.456293,-0.033507902,0.06495265,-0.18557312,17.761272,68.68649,27.349737,0.027601125,0.016559517,0.0005489488,35.940804,35.940804
349094555,2490378,2490378,0,0,0,0,0,405.0059,405.0059,8100.1177,8100.1177,3.2138124,0.06790778,1.9923009e-08,1.455606,-0.7207892,-11.534975,0.0025517882,0.19185612,-0.24152678,16.757101,62.293274,30.079481,0.027167568,0.012398568,0.0006926793,35.951805,35.951805
350131710,2490378,2490378,0,0,0,0,0,405.0059,405.0059,8100.1177,8100.1177,3.1369696,0.07159117,1.6714168e-08,0.97745585,-0.47437066,-9.703938,-0.07570354,0.10723842,-0.22594243,16.471008,56.578255,21.020807,0.02336498,0.016772555,0.0008534489,35.937862,35.937862
351168878,2490378,2490378,0,0,0,0,0,405.0059,405.0059,8100.1177,8100.1177,3.3382702,0.07187956,1.9478302e-08,0.5108619,-0.29463688,-8.4139,-0.18446362,0.08215245,-0.26050043,16.348206,41.300785,15.293619,0.022930231,0.015636414,6.154869e-05,35.923054,35.923054
352102348,2490378,2490378,0,0,0,0,0,405.0059,405.0059,8100.1177,8100.1177,3.53283,0.07355249,1.7884476e-08,0.7400698,-0.18572459,-10.619826,0.16380036,-0.0147046335,-0.21147734,16.86353,37.62632,14.641719,0.014637222,0.013638641,0.00027444444,35.91938,35.91938
353139492,2490378,2490378,0,0,0,0,0,405.0059,405.0059,8100.1177,8100.1177,3.7537248,0.07224966,1.1846827e-08,0.5683975,-0.65798414,-11.608794,0.038446873,0.17328323,-0.22646439,13.735276,37.314297,13.153603,0.021342464,0.011298682,-2.7900414e-05,35.90738,35.90738
354176665,2490378,2490378,0,0,0,0,0,405.0059,405.0059,8100.1177,8100.1177,3.7630246,0.07104031,1.4221465e-08,0.39121616,-0.5851844,-11.111454,-0.04834149,0.17091838,-0.24117544,14.8955,36.209637,14.079025,0.015785562,0.011641985,0.00018174744,35.889835,35.889835
355110108,2490378,2490378,0,0,0,0,0,405.0059,405.0059,8100.1177,8100.1177,3.8476598,0.07300137,1.2058604e-08,0.1811902,-0.56026745,-10.059264,0.05797068,0.036659233,-0.2030111,15.164343,32.979378,13.584845,0.021237183,0.0120119555,-0.00016828334,35.88179,35.88179
356147296,2490378,2490378,0,0,0,0,0,405.0059,405.0059,8100.1177,8100.1177,3.8545592,0.07352644,1.8411312e-08,0.5256685,-0.23336032,-10.612132,-0.20730095,-0.015561639,-0.22189502,12.556932,28.89043,15.614299,0.013817908,0.0133694215,-7.3255775e-05,35.872944,35.872944
357184439,2490378,2490378,0,0,0,0,0,405.0059,405.0059,8100.1177,8100.1177,3.7552066,0.07355612,1.7177099e-08,0.6845109,-0.30490103,-10.648939,0.16642822,0.001262252,-0.22757588,15.89053,29.93016,14.09803,0.015690671,0.00989233,0.00015985226,35.86123,35.86123
358117906,2490378,2490378,0,0,0,0,0,405.0059,405.0059,8100.1177,8100.1177,3.8352995,0.0747434,1.6264886e-08,0.6046621,-0.6418823,-11.584106,0.14235705,0.23689651,-0.28851277,17.195309,32.64166,14.080046,0.019646836,0.010327707,-0.00020792143,35.84965,35.84965
359155051,2490378,2490378,0,0,0,0,0,405.0059,405.0059,8100.1177,8100.1177,3.896819,0.07905534,2.9277766e-08,1.1247307,-0.2583951,-16.235317,-0.32440174,0.16176888,-0.34129444,10.736883,17.06085,20.720533,0.015028503,0.014197604,0.0001911327,35.84757,35.84757
360088584,2490378,2490378,0,0,0,0,0,405.0059,405.0059,8100.1177,8100.1177,3.7726476,0.07585121,1.838602e-08,0.28317022,-0.023564203,-11.334494,-0.14281996,-0.016777506,-0.18454784,17.9157,26.08217,17.894905,0.04126593,0.012478662,-6.633821e-05,35.84282,35.84282
361125664,2490378,2490378,0,0,0,0,0,405.0059,405.0059,8100.1177,8100.1177,3.7647216,0.07412463,1.1306086e-08,0.17474152,-0.324083,-10.132942,0.0876022,0.26488566,-0.17036587,19.788221,37.761974,10.552087,0.024465716,0.0098126875,-0.00012903525,35.83549,35.83549
362162827,2490378,2490378,0,0,0,0,0,405.0059,405.0059,8100.1177,8100.1177,3.858532,0.080310225,2.926114e-08,0.14135288,-1.0518515,-9.05993,0.36281225,-0.010119298,-0.26511395,26.175014,45.721825,10.860532,0.0381536,0.009589188,-0.00078539376,35.820614,35.820614
363096417,2490378,2490378,0,0,0,0,0,405.0059,405.0059,8100.1177,8100.1177,3.9841392,0.08423651,3.701672e-08,-0.35520375,-0.17188263,-10.740938,-0.55054843,0.16797653,-0.30749935,11.0462675,29.161232,16.277777,0.009134139,0.013545819,0.0007990236,35.81435,35.81435
364133450,2490378,2490378,0,0,0,0,0,405.0059,405.0059,8100.1177,8100.1177,3.915366,0.08300838,2.384623e-08,0.19701928,-0.49752662,-9.418799,0.29767987,0.020818602,-0.2241087,18.88142,36.257496,10.871173,0.03004156,0.009684203,-0.00012868445,35.80472,35.80472
365170597,2490378,2490378,0,0,0,0,0,405.0059,405.0059,8100.1177,8100.1177,4.0091095,0.08084496,9.303502e-09,0.27202144,-0.4433741,-11.587576,-0.07327031,0.06389472,-0.1503282,17.851868,29.988329,11.672162,0.016596576,0.0107189845,0.00031279319,35.789482,35.789482
366104060,2490378,2490378,0,0,0,0,0,405.0059,405.0059,8100.1177,8100.1177,3.9366453,0.07879706,1.568885e-08,-0.0056883018,-0.3996127,-10.2589855,-0.16225702,0.18777804,-0.2629734,21.510735,32.732784,13.817098,0.015083855,0.009951068,0.00021130228,35.78301,35.78301
367141224,2490378,2490378,0,0,0,0,0,405.0059,405.0059,8100.1177,8100.1177,3.933642,0.08008284,2.3798222e-08,0.3166125,-0.66222006,-10.0141735,0.40995568,-0.038355198,-0.17585234,19.036606,30.341154,14.868342,0.021044109,0.011966467,-0.00031914504,35.778984,35.778984
368178369,2490378,2490378,0,0,0,0,0,405.0059,405.0059,8100.1177,8100.1177,3.8291707,0.073574826,1.5658014e-08,0.49476466,-0.6051935,-10.819943,0.20768327,-0.0491403,-0.13791393,17.887741,34.151505,13.828144,0.02316993,0.010974314,-0.0003614612,35.750298,35.750298
369111839,2490378,2490378,0,0,0,0,0,405.0059,405.0059,8100.1177,8100.1177,3.8514893,0.075711355,2.3110056e-08,0.32235846,-0.5905455,-12.192122,-0.22615911,0.22343656,-0.34826767,21.122824,25.809086,13.674444,0.021793112,0.011767927,-0.0002631063,35.754536,35.754536
370148988,2490378,2490378,0,0,0,0,0,405.0059,405.0059,8100.1177,8100.1177,3.7393634,0.07367972,1.9271255e-08,0.12312497,-0.46913344,-9.200745,-0.32562345,0.079691954,-0.08450164,21.535418,41.81896,14.936658,0.025965996,0.010991199,6.749545e-05,35.74304,35.74304
371186152,2490378,2490378,0,0,0,0,0,405.0059,405.0059,8100.1177,8100.1177,3.7490327,0.076616295,1.2516366e-08,0.12216378,-0.6201145,-11.465379,-0.02794508,-0.031013539,-0.21720667,16.501904,29.79224,11.764149,0.0142974155,0.009989345,0.00027058914,35.737297,35.737297
372119592,2490378,2490378,0,0,0,0,0,405.0059,405.0059,8100.1177,8100.1177,3.8457465,0.077514045,9.936817e-09,0.40100956,-0.8220778,-12.243714,-0.057363074,0.17259169,-0.21898751,17.543152,28.96491,13.40492,0.018012593,0.009795575,0.0003117652,35.721478,35.721478
373156751,2490378,2490378,0,0,0,0,0,405.0059,405.0059,8100.1177,8100.1177,3.8142579,0.078985445,1.395117e-08,0.372223,-0.08469301,-9.884564,-0.10269606,0.07867699,-0.20856236,14.093704,31.125502,13.412741,0.016735459,0.012717663,9.7695185e-05,35.704292,35.704292
374090195,2490378,2490378,0,0,0,0,0,405.0059,405.0059,8100.1177,8100.1177,3.890008,0.08026965,1.1070724e-08,0.3234684,-0.5895831,-11.005993,-0.044440318,-0.014402817,-0.18668132,16.194046,28.665495,14.330359,0.017480202,0.012000038,0.00010356341,35.695526,35.695526
375127346,2490378,2490378,0,0,0,0,0,405.0059,405.0059,8100.1177,8100.1177,3.9155152,0.07646924,9.911126e-09,0.51800907,-0.2762259,-10.978133,-0.043691978,0.18012837,-0.21045633,17.365559,26.833601,14.245252,0.013440131,0.009314886,0.00011032872,35.697613,35.697613
376164629,2490378,2490378,0,0,0,0,0,405.0059,405.0059,8100.1177,8100.1177,3.7031724,0.07391998,1.3240651e-08,0.48816532,-0.31984076,-9.903507,0.0018528636,0.047144152,-0.22976118,17.301046,35.873894,12.075884,0.020089522,0.010666595,-9.877508e-05,35.697895,35.697895
377097980,2490378,2490378,0,0,0,0,0,405.0059,405.0059,8100.1177,8100.1177,3.814899,0.07024094,9.523565e-09,0.5604702,-0.41571587,-11.73896,-0.012121104,0.11346236,-0.18938732,16.089334,28.946861,11.532681,0.018499292,0.011568809,1.1047469e-05,35.664112,35.664112
378135105,2490378,2490378,0,0,0,0,0,405.0059,405.0059,8100.1177,8100.1177,3.7637694,0.07398479,1.4251346e-08,0.483506,-0.3828983,-11.209321,-0.063560575,0.18017338,-0.25726846,14.56895,23.923952,14.907873,0.011936905,0.010051714,0.00010003268,35.682446,35.682446
379172458,2490378,2490378,0,0,0,0,0,405.0059,405.0059,8100.1177,8100.1177,3.89821,0.07198115,1.246922e-08,0.46080774,-0.3369231,-10.030982,-0.03684188,-0.0370276,-0.21351682,20.547659,30.216734,14.154993,0.015132557,0.007902969,-6.0344733e-05,35.666256,35.666256
380105706,2490378,2490378,0,0,0,0,0,405.0059,405.0059,8100.1177,8100.1177,3.942979,0.077901416,1.5605481e-08,0.7475634,-0.39059797,-13.331471,-0.027619265,0.13016218,-0.23611876,13.362582,16.68989,18.698595,0.0057701874,0.015492295,0.00032866257,35.6603,35.6603
381142866,2490378,2490378,0,0,0,0,0,405.0059,405.0059,8100.1177,8100.1177,3.9097497,0.07399627,1.1817565e-08,0.78796965,-1.053801,-12.559214,-0.21022171,0.21851614,-0.17720352,22.261583,31.50553,10.667873,0.03163928,0.009028441,-0.00027647335,35.64377,35.64377
382180043,2490378,2490378,0,0,0,0,0,405.0059,405.0059,8100.1177,8100.1177,3.8387618,0.07669103,1.9661005e-08,0.999341,-0.3337237,-11.12419,0.18278761,0.08595885,-0.29204687,15.908495,21.74959,13.978835,0.016342517,0.013589529,-5.5661385e-05,35.62255,35.62255
383113465,2490378,2490378,0,0,0,0,0,405.0059,405.0059,8100.1177,8100.1177,3.8029172,0.0734413,1.7034775e-08,0.5221911,-0.87530553,-12.218995,0.21761402,0.06624221,-0.2426478,17.313541,33.010338,11.707923,0.024856955,0.00932077,-0.00017664344,35.63859,35.63859
384150625,2490378,2490378,0,0,0,0,0,405.0059,405.0059,8100.1177,8100.1177,4.839437,0.09934228,1.1006692e-07,-2.135204,-0.83868295,-10.952909,1.1323125,0.18102966,-0.21165594,14.245092,61.35491,47.618027,0.021109536,0.021336919,0.0026659349,35.615803,35.615803
385084069,2490378,2490378,0,0,0,0,0,405.0059,405.0059,8100.1177,8100.1177,13.41004,0.23816504,1.0903112e-07,-1.8539759,-0.5234575,-16.446825,0.033814207,0.7971856,0.52148527,45.89725,164.30258,148.4134,0.08502019,0.067135006,0.0028658167,35.60085,35.60085
386121239,2490378,2490378,0,0,0,0,0,405.0059,405.0059,8100.1177,8100.1177,12.537002,0.19141532,6.22435e-08,-1.0554708,-0.48050356,-14.878129,-0.33012992,0.6652263,0.42003247,53.452503,112.71575,104.357025,0.10359761,0.03732751,-0.0017872966,35.581726,35.581726
387158377,2490378,2490378,0,0,0,0,0,405.0059,405.0059,8100.1177,8100.1177,10.480126,0.18203853,6.614173e-08,-1.2439146,-0.041751888,-11.029291,-0.6683919,0.19030973,0.17154154,58.07024,160.63632,100.04406,0.1068805,0.052256577,-0.0010664376,35.59646,35.59646
388091841,2490378,2490378,0,0,0,0,0,405.0059,405.0059,8100.1177,8100.1177,10.25202,0.20516938,1.1333459e-07,-1.090878,-0.24921922,-6.906902,-0.057581317,2.628965,-0.011521429,24.212227,74.76971,159.46585,0.05805942,0.21762434,-0.004006338,35.58517,35.58517
389128972,2490378,2490378,0,0,0,0,0,405.0059,405.0059,8100.1177,8100.1177,7.530717,0.16143854,4.086848e-07,-2.6501946,0.16722137,-14.645757,0.32346874,3.9221413,-0.14269237,36.333927,394.3081,28.664715,0.56851697,0.2033947,-0.01933469,35.577484,35.577484
390166131,2490378,2490378,0,0,0,0,0,405.0059,405.0059,8100.1177,8100.1177,7.642159,0.16884722,8.954202e-08,0.17383522,-0.3099892,-14.288175,1.5669527,-0.6931961,0.31648126,21.573832,149.9737,46.380123,0.45537442,0.18590635,-0.025296077,35.56109,35.56109
391099569,2490378,2490378,0,0,0,0,0,405.0059,405.0059,8100.1177,8100.1177,5.2061095,0.12006481,1.14014455e-07,-0.49475443,-0.073057264,-12.366927,1.8767648,-1.7344525,0.0051228777,23.521793,220.4826,12.932826,0.2635062,0.012322238,-0.0077935653,35.56375,35.56375
392136727,2490378,2490378,0,0,0,0,0,405.0059,405.0059,8100.1177,8100.1177,4.877358,0.118865505,6.2501e-08,-0.03994317,0.17771065,-13.108995,1.8090075,0.096835844,0.20728847,8.833024,170.83327,23.970516,0.2700268,0.01692755,-0.00788932,35.564255,35.564255
393173883,2490378,2490378,0,0,0,0,0,405.0059,405.0059,8100.1177,8100.1177,4.285528,0.08341087,2.7322933e-08,-0.3259532,1.6072738,-12.274087,0.17403188,-0.4055017,-0.53990525,21.69057,275.99405,11.586668,0.31991336,0.012799588,-0.010405638,35.553253,35.553253
394107320,2490378,2490378,0,0,0,0,0,405.0059,405.0059,8100.1177,8100.1177,4.094217,0.078981996,3.4735077e-08,-0.8560088,0.89693826,-10.11756,0.44153863,-0.15423061,-0.42786786,27.485703,248.95395,35.916935,0.24901544,0.030556781,-0.009239367,35.570793,35.570793
395144480,2490378,2490378,0,0,0,0,0,405.0059,405.0059,8100.1177,8100.1177,3.7466261,0.073745586,1.31809195e-08,-0.7733209,0.66862035,-11.362631,0.16582002,-0.04724317,-0.15947399,14.172802,307.51102,12.808565,0.34551927,0.009777894,-0.0140648205,35.557423,35.557423
396181636,2490378,2490378,0,0,0,0,0,405.0059,405.0059,8100.1177,8100.1177,4.0198464,0.077465035,4.9245927e-09,-0.76208955,0.115230754,-9.467313,-0.13706353,-0.0048676617,0.0013912395,11.8713045,382.49988,14.842206,0.36058277,0.011365221,-0.0103165405,35.56541,35.56541
397115076,2490378,2490378,0,0,0,0,0,405.0059,405.0059,8100.1177,8100.1177,3.2457714,0.061561186,3.4127103e-09,-0.8916432,-0.07576493,-9.77784,0.14165007,0.002058539,0.02591475,10.934594,376.5034,2.501269,0.35501015,0.007814688,-0.008216694,35.58007,35.58007
398152229,2490378,2490378,0,0,0,0,0,405.0059,405.0059,8100.1177,8100.1177,4.3072104,0.091141015,2.3617694e-08,-0.7866574,0.51212066,-7.843371,-0.013708158,-0.035830315,0.02402422,42.726826,362.04352,105.20352,0.33484367,0.08874421,-0.0075885607,35.57468,35.57468
399085674,2490378,2490378,0,0,0,0,0,405.0059,405.0059,8100.1177,8100.1177,4.657619,0.095442906,1.5352615e-08,-0.7438409,0.17726183,-9.531788,-0.120763265,-0.0010214248,-0.049226157,24.065075,796.62274,24.580788,0.6571779,0.021364972,-0.017791526,35.58194,35.58194
400122842,2490378,2490378,0,0,0,0,0,405.0059,405.0059,8100.1177,8100.1177,5.043601,0.112659946,1.4876662e-08,-0.80429673,-0.025230035,-10.080936,0.1875214,0.03933281,-0.023071816,24.906916,337.75653,27.808905,0.2879905,0.02463576,-0.0062903264,35.581715,35.581715
401159986,2490378,2490378,0,0,0,0,0,405.0059,405.0059,8100.1177,8100.1177,5.894085,0.11060757,1.1497446e-08,-0.58567315,0.5964915,-9.445816,-0.06690608,-0.036349304,-0.029002868,19.380693,365.51413,32.61269,0.367006,0.0256848,-0.010636301,35.606884,35.606884
402093424,2490378,2490378,0,0,0,0,0,405.0059,405.0059,8100.1177,8100.1177,5.829057,0.13279068,1.5287664e-08,-0.71897393,0.386783,-9.772027,-0.069856785,0.12699544,-0.041949406,24.58498,379.5978,48.14306,0.3409706,0.03768129,-0.007955124,35.596462,35.596462
403130632,2490378,2490378,0,0,0,0,0,405.0059,405.0059,8100.1177,8100.1177,6.404492,0.12696637,1.783129e-08,-0.6484512,0.65386194,-9.633037,0.12757698,0.0010474172,0.022969797,26.614397,300.09384,45.2983,0.27176774,0.034087643,-0.009475174,35.60149,35.60149
404167753,2490378,2490378,0,0,0,0,0,405.0059,405.0059,8100.1177,8100.1177,5.4358,0.11838083,1.4630176e-08,-0.7510658,0.2181111,-9.875978,0.16876177,0.008256927,-0.0046935137,25.227356,353.57736,31.738842,0.35542643,0.025727568,-0.009692045,35.607246,35.607246
405101181,2490378,2490378,0,0,0,0,0,405.0059,405.0059,8100.1177,8100.1177,5.783372,0.13650432,2.2000563e-08,-0.5885577,0.94706625,-9.652131,0.057330735,-0.015452486,0.027757725,28.846174,492.59586,38.68466,0.4623741,0.03363338,-0.014986991,35.62902,35.62902
406138353,2490378,2490378,0,0,0,0,0,405.0059,405.0059,8100.1177,8100.1177,5.6320477,0.12926999,2.2067905e-08,-0.87649846,0.980123,-9.964923,-0.01624792,0.042443395,-0.046214655,17.961403,577.6793,51.746006,0.489947,0.04670476,-0.014597545,35.616596,35.616596
407175498,2490378,2490378,0,0,0,0,0,405.0059,405.0059,8100.1177,8100.1177,5.7559476,0.13711615,3.180571e-08,-0.47133616,0.22257875,-9.963193,0.024635522,0.33240858,0.06846569,14.311882,136.51495,60.81078,0.14937586,0.050959222,-0.0048185554,35.637295,35.637295
408108956,2490378,2490378,0,0,0,0,0,405.0059,405.0059,8100.1177,8100.1177,4.728417,0.11050255,1.96521e-08,-0.4257628,0.3628651,-9.61285,0.07724428,0.044547673,0.1636209,11.997423,171.72235,46.650135,0.18378624,0.038815822,-0.005679985,35.65634,35.65634
409146097,2490378,2490378,0,0,0,0,0,405.0059,405.0059,8100.1177,8100.1177,4.070512,0.085901916,4.6469662e-08,-0.42346984,-0.25678432,-9.741933,-0.22757907,0.94369113,0.09659023,8.3388405,78.68468,46.490517,0.07438044,0.038057216,-0.0025712827,35.67475,35.67475
410183259,2490378,2490378,0,0,0,0,0,405.0059,405.0059,8100.1177,8100.1177,3.4196222,0.07121103,1.2886287e-08,-0.27027518,0.03776604,-9.421313,-0.3254838,0.25413975,-0.05961297,9.49671,121.978195,32.8344,0.12733571,0.03571458,-0.003960623,35.691216,35.691216
411116712,2490378,2490378,0,0,0,0,0,405.0059,405.0059,8100.1177,8100.1177,3.3793557,0.07327353,2.7704441e-08,0.06766687,0.7486381,-10.652359,0.20693272,-0.32942036,-0.08427351,20.622417,264.67294,41.07601,0.2215988,0.04376301,-0.006867325,35.683304,35.683304
412153858,2490378,2490378,0,0,0,0,0,405.0059,405.0059,8100.1177,8100.1177,3.9933033,0.087688506,6.5486194e-09,-0.3073575,0.7995225,-9.146566,-0.035650097,0.13061239,-0.029246058,24.79379,92.6602,33.780422,0.095268235,0.026494455,-0.003468175,35.7025,35.7025
413087302,2490378,2490378,0,0,0,0,0,405.0059,405.0059,8100.1177,8100.1177,3.6884816,0.077206604,1.0129837e-08,-0.23471378,0.60394704,-10.511915,0.004216043,-0.19798467,0.069717266,9.838753,162.01157,29.70831,0.1365377,0.026559493,-0.003048224,35.71932,35.71932
414124476,2490378,2490378,0,0,0,0,0,405.0059,405.0059,8100.1177,8100.1177,3.714077,0.08029631,1.1717707e-08,-0.35436282,0.23434806,-9.8617115,0.0039998433,-0.008109687,0.13756688,10.9147625,191.92143,8.923333,0.14865379,0.006106166,-0.0026529843,35.727303,35.727303
415161643,2490378,2490378,0,0,0,0,0,405.0059,405.0059,8100.1177,8100.1177,3.4312947,0.08062718,1.8902895e-08,-0.32555333,-0.006467007,-10.510928,-0.38799357,-0.16571796,-0.0053145876,6.6265874,288.07236,13.540525,0.3008954,0.016801596,-0.008306554,35.7549,35.7549
416095082,2490378,2490378,0,0,0,0,0,405.0059,405.0059,8100.1177,8100.1177,3.3230064,0.07036942,1.8041252e-08,-0.20309523,1.2192689,-9.665424,0.35411465,-0.18750328,-0.06192802,8.050945,325.39624,29.33386,0.26921096,0.031244425,-0.007042078,35.7685,35.7685
417132258,2490378,2490378,0,0,0,0,0,405.0059,405.0059,8100.1177,8100.1177,3.7048078,0.076346554,1.12310925e-08,-0.12889023,0.33631775,-10.607135,0.26903883,-0.1681397,-0.016615009,12.27721,115.13805,30.931372,0.11468309,0.027322568,-0.0034463124,35.789913,35.789913
418169392,2490378,2490378,0,0,0,0,0,405.0059,405.0059,8100.1177,8100.1177,3.4374886,0.073117286,1.4545642e-08,-0.27451882,0.058036808,-9.7323885,-0.120086215,0.031593412,0.13538818,10.029522,167.80336,44.561367,0.14786892,0.03362314,-0.004023757,35.79969,35.79969
419102839,2490378,2490378,0,0,0,0,0,405.0059,405.0059,8100.1177,8100.1177,3.4944596,0.080493264,1.1053225e-08,-0.39325437,-0.053024393,-10.09018,-0.0009141801,0.1284584,0.10556978,4.1898365,33.913544,13.805531,0.034584854,0.0140054785,-0.0008456228,35.822407,35.822407
420140417,2490378,2490378,0,0,0,0,0,405.0059,405.0059,8100.1177,8100.1177,2.985266,0.06923621,1.061235e-08,-0.3726809,0.11696259,-10.054739,0.01280196,-0.10284619,0.059001584,6.159974,270.32523,21.605333,0.24356826,0.023652473,-0.006796662,35.835564,35.835564
421177225,2490378,2490378,0,0,0,0,0,405.0059,405.0059,8100.1177,8100.1177,3.4977646,0.07093476,4.354059e-09,-0.29600754,0.07935595,-10.269699,-0.025532482,0.071264446,0.032135867,4.918926,62.360928,16.67055,0.06593797,0.016586183,-0.0020403091,35.861588,35.861588
422110621,2490378,2490378,0,0,0,0,0,405.0059,405.0059,8100.1177,8100.1177,3.5268502,0.07749692,7.540709e-09,-0.14190985,0.13582447,-9.480278,-0.08377435,-0.03136516,-0.0012423713,11.024307,78.04376,33.904842,0.08370497,0.03045812,-0.002772436,35.86597,35.86597
423147893,2490378,2490378,0,0,0,0,0,405.0059,405.0059,8100.1177,8100.1177,3.745598,0.08639657,5.256729e-09,-0.23436537,0.4429589,-9.971073,0.03178159,-0.01070845,-0.0248452,9.628891,194.57248,23.028624,0.1598309,0.025009874,-0.0008986297,35.89322,35.89322
424184945,2490378,2490378,0,0,0,0,0,405.0059,405.0059,8100.1177,8100.1177,3.7438002,0.08186094,3.765517e-09,-0.29868713,0.11144013,-9.866649,0.003686712,-0.013094483,-0.020349389,4.564883,52.29168,18.43621,0.03197034,0.014742307,-3.1293e-05,35.910763,35.910763
425118407,2490378,2490378,0,0,0,0,0,405.0059,405.0059,8100.1177,8100.1177,3.51479,0.077766925,4.5698556e-09,-0.27062124,-0.21225554,-10.053643,-0.03885557,0.012736566,0.02493384,8.749286,123.51104,15.989689,0.10362083,0.012166877,-0.0016591114,35.93211,35.93211
426155776,2490378,2490378,0,0,0,0,0,405.0059,405.0059,8100.1177,8100.1177,3.3547215,0.079665266,4.5889372e-09,-0.34932074,0.13114779,-10.128348,0.08879173,-0.07209748,0.010389919,5.2635922,64.16566,21.841698,0.07212948,0.01256718,-0.0026806523,35.945766,35.945766
427089010,2490378,2490378,0,0,0,0,0,405.0059,405.0059,8100.1177,8100.1177,3.4457133,0.07534523,5.887681e-09,-0.35587725,0.14970177,-10.014362,0.0056593274,0.013380186,-0.0010920101,5.4685507,194.77667,25.0149,0.16811325,0.026807342,-0.0039480743,35.95245,35.95245
428126181,2490378,2490378,0,0,0,0,0,405.0059,405.0059,8100.1177,8100.1177,3.598216,0.07765857,4.818862e-09,-0.32122964,0.11556964,-10.002672,0.03285223,-0.011389685,-0.0038917493,4.161753,191.83316,32.802723,0.13555683,0.024883954,-0.0018416189,35.974163,35.974163
429163366,2490378,2490378,0,0,0,0,0,405.0059,405.0059,8100.1177,8100.1177,3.332484,0.07008161,5.599092e-09,-0.29134548,0.109406024,-9.733272,-0.085782155,-0.019947013,0.004326958,7.4479265,179.08684,38.671658,0.13200681,0.02737344,-0.0021758706,35.98214,35.98214
430096834,2490378,2490378,0,0,0,0,0,405.0059,405.0059,8100.1177,8100.1177,3.4915252,0.07515724,6.6374413e-09,-0.29052848,-0.067926146,-9.906407,0.046188947,-0.037935574,-0.0017255261,10.699102,130.57802,54.380543,0.13119395,0.035754632,-0.0037606794,36.00529,36.00529
431133970,2490378,2490378,0,0,0,0,0,405.0059,405.0059,8100.1177,8100.1177,3.5572946,0.081357904,6.2477166e-09,-0.33175904,0.3100041,-9.637459,0.06803458,0.05103453,-0.046455443,7.1763277,85.06261,22.571548,0.07925096,0.01572539,-0.0017224201,36.035057,36.035057
432171323,2490378,2490378,0,0,0,0,0,405.0059,405.0059,8100.1177,8100.1177,3.52603,0.081378736,4.5934287e-09,-0.21551485,0.44341725,-9.752352,-0.041474417,-0.032048237,-0.007157704,8.247463,59.786163,21.78059,0.054142624,0.015570137,-0.00081957737,36.06762,36.06762
433104592,2490378,2490378,0,0,0,0,0,405.0059,405.0059,8100.1177,8100.1177,3.974842,0.090525135,6.618439e-09,-0.22059207,0.18637228,-10.176262,0.08548131,-0.037930608,-0.0093188295,9.465205,172.41548,41.289078,0.15730147,0.03511879,-0.0031862105,36.08056,36.08056
434141768,2490378,2490378,0,0,0,0,0,405.0059,405.0059,8100.1177,8100.1177,3.6152792,0.08265463,3.6485535e-09,-0.20885973,0.4288713,-9.735897,0.006172367,-0.022051292,-0.020136643,10.782695,68.88452,29.345757,0.06077508,0.025047252,-0.00087850116,36.100395,36.100395
435178937,2490378,2490378,0,0,0,0,0,405.0059,405.0059,8100.1177,8100.1177,3.712026,0.08374322,3.802355e-09,-0.23304231,0.5049876,-9.80326,-0.053960927,0.014489201,0.0013028727,8.310853,80.07199,21.739285,0.061491407,0.014301707,-0.00056634576,36.130234,36.130234
436112393,2490378,2490378,0,0,0,0,0,405.0059,405.0059,8100.1177,8100.1177,3.907011,0.090692714,8.030019e-09,-0.27835706,0.042590275,-9.6723995,0.04911251,-0.07204016,-0.005831581,11.017822,106.35715,41.955627,0.12011122,0.028547794,-0.0038305891,36.153385,36.153385
437149586,2490378,2490378,0,0,0,0,0,405.0059,405.0059,8100.1177,8100.1177,4.2110467,0.09522912,9.414548e-09,-0.41639873,0.015901634,-9.787287,0.064668074,-0.026390567,0.028789226,11.128602,97.162766,64.71043,0.09678583,0.051169716,-0.0030258808,36.19184,36.19184
438186744,2490378,2490378,0,0,0,0,0,405.0059,405.0059,8100.1177,8100.1177,3.8703332,0.08767114,8.239764e-09,-0.3516384,-0.025648452,-9.79807,-0.059330627,-0.0071185003,-0.01422516,7.7128572,238.78313,41.10371,0.21026129,0.028429966,-0.0053060413,36.22333,36.22333
439120199,2490378,2490378,0,0,0,0,0,405.0059,405.0059,8100.1177,8100.1177,4.0712123,0.08833472,7.3529822e-09,-0.29837218,0.6474402,-9.567472,-0.14057466,-0.04074468,-0.003536001,14.726647,134.68561,29.902891,0.12645651,0.025952183,-0.0034879728,36.229595,36.229595
440157376,2490378,2490378,0,0,0,0,0,405.0059,405.0059,8100.1177,8100.1177,3.6136563,0.08084997,3.663548e-09,-0.3070226,-0.13980609,-9.973818,0.010475128,-0.04074153,0.013663989,4.038905,47.327232,28.13408,0.04672341,0.01601136,-0.0015875768,36.25597,36.25597
441090832,2490378,2490378,0,0,0,0,0,405.0059,405.0059,8100.1177,8100.1177,3.527025,0.08080769,8.92873e-09,-0.22533637,0.1347404,-9.835711,-0.035484534,-0.09238277,0.018428994,7.6481814,145.11728,51.428303,0.11453069,0.045245737,-0.0032352307,36.293846,36.293846
442128007,2490378,2490378,0,0,0,0,0,405.0059,405.0059,8100.1177,8100.1177,3.3235912,0.080602944,7.773423e-09,-0.18722413,0.3359105,-9.698917,-0.12281719,-0.024843546,0.015419627,5.0253654,114.110466,25.131367,0.10453496,0.019919531,-0.0021105106,36.29572,36.29572
