timestamp,time_utc_usec,device_id,lat,lon,alt,alt_ellipsoid,s_variance_m_s,c_variance_rad,eph,epv,hdop,vdop,noise_per_ms,jamming_indicator,vel_m_s,vel_n_m_s,vel_e_m_s,vel_d_m_s,cog_rad,timestamp_time_relative,heading,heading_offset,heading_accuracy,automatic_gain_control,fix_type,jamming_state,vel_ned_valid,satellites_used
218050621,1693632361600291,11010053,366607229,1263420409,6451,24106,0.27600002,0.7172716,1.0760001,1.6060001,0.57,0.87,95,80,0.053000003,0.045,-0.028,0.105000004,5.7874765,0,nan,0.0,0.0,936,3,0,1,20
219044618,1693632362600291,11010053,366607232,1263420409,6455,24110,0.27800003,0.71732277,1.0610001,1.5830001,0.57,0.87,94,74,0.024,0.023000002,0.007,0.076000005,5.7874765,0,nan,0.0,0.0,1092,3,0,1,20
220052613,1693632363600291,11010053,366607236,1263420406,6419,24074,0.25500003,0.7173729,1.0480001,1.562,0.57,0.87,94,83,0.060000002,0.027,-0.054,0.09200001,5.7874765,0,nan,0.0,0.0,1092,3,0,1,20
221049613,1693632364600292,11010053,366607238,1263420407,6442,24097,0.26700002,0.71742225,1.0350001,1.542,0.57,0.87,95,82,0.044000003,0.033,0.029000001,0.060000002,5.7874765,0,nan,0.0,0.0,1092,3,0,1,20
222090612,1693632365600292,11010053,366607240,1263420407,6469,24124,0.21000001,0.7174645,1.023,1.5250001,0.57,0.87,95,75,0.036000002,-0.002,-0.035,0.022000002,5.7874765,0,nan,0.0,0.0,1092,3,0,1,20
223050614,1693632366600292,11010053,366607242,1263420406,6432,24087,0.23900001,0.7175102,1.0120001,1.5090001,0.57,0.87,95,81,0.033,-0.013,-0.030000001,0.059000004,5.7874765,0,nan,0.0,0.0,1092,3,0,1,20
224050613,1693632367600293,11010053,366607251,1263420390,6565,24220,0.23,0.5825478,0.9990001,1.493,0.57,0.87,95,89,0.14,-0.033,-0.136,-0.24700001,5.5845723,0,nan,0.0,0.0,1092,3,0,1,20
225049614,1693632368600293,11010053,366607241,1263420388,7035,24690,0.26200002,0.5927782,0.989,1.4790001,0.57,0.87,95,75,0.15,-0.119,0.091000006,-0.56100005,4.450703,0,nan,0.0,0.0,1092,3,0,1,20
226050612,1693632369600293,11010053,366607227,1263420405,7722,25377,0.27400002,0.7419749,0.98,1.4660001,0.57,0.87,95,80,0.22900002,-0.21800001,0.07,-0.68600005,3.2244992,0,nan,0.0,0.0,1092,3,0,1,20
227049614,1693632370600294,11010053,366607218,1263420425,8572,26228,0.26500002,0.6475665,0.97,1.455,0.57,0.87,95,83,0.24900001,-0.048,0.24400002,-0.947,2.7010958,0,nan,0.0,0.0,1092,3,0,1,20
228047613,1693632371600294,11010053,366607225,1263420432,9470,27125,0.24900001,0.58899015,0.9620001,1.4460001,0.57,0.87,95,78,0.19700001,0.19100001,0.048,-0.83100003,1.4770992,0,nan,0.0,0.0,1092,3,0,1,20
229051613,1693632372600294,11010053,366607238,1263420435,10527,28182,0.24300002,0.71221644,0.952,1.434,0.57,0.87,95,66,0.16100001,0.156,-0.039,-0.998,1.283128,0,nan,0.0,0.0,1092,3,0,1,20
230049937,1693632373600295,11010053,366607254,1263420422,11489,29144,0.245,0.70588547,0.94200003,1.422,0.57,0.87,95,68,0.18900001,0.17500001,-0.072000004,-0.89400005,0.35168645,0,nan,0.0,0.0,1092,3,0,1,20
231050613,1693632374600295,11010053,366607262,1263420410,12556,30211,0.275,0.57145846,0.93500006,1.4120001,0.57,0.87,95,77,0.15400001,-0.12900001,-0.085,-1.092,5.7733054,0,nan,0.0,0.0,1092,3,0,1,20
232045613,1693632375600295,11010053,366607248,1263420397,13631,31286,0.26200002,0.47017688,0.92800003,1.4000001,0.57,0.87,95,83,0.31800002,-0.25100002,-0.19500001,-0.96700007,3.8579845,0,nan,0.0,0.0,1092,3,0,1,20
233053614,1693632376600296,11010053,366607233,1263420384,14761,32416,0.277,0.60781944,0.92,1.3900001,0.59,0.93,95,82,0.256,-0.21100001,-0.14500001,-1.1350001,3.690303,0,nan,0.0,0.0,1092,3,0,1,19
234053613,1693632377600296,11010053,366607223,1263420384,15753,33408,0.284,0.608043,0.91700006,1.3900001,0.59,0.93,95,66,0.12900001,-0.020000001,0.128,-0.92,3.690303,0,nan,0.0,0.0,1092,3,0,1,19
235043613,1693632378600296,11010053,366607227,1263420401,16679,34334,0.27100003,0.68981904,0.91200006,1.3900001,0.59,0.93,95,58,0.254,0.075,0.24300002,-0.89400005,2.632013,0,nan,0.0,0.0,1092,3,0,1,19
236046613,1693632379600297,11010053,366607233,1263420416,18523,36178,0.282,0.75727046,0.906,1.3900001,0.59,0.93,95,101,0.15100001,0.14600001,0.039,-2.8560002,1.8170205,0,nan,0.0,0.0,1092,3,0,1,19
237043618,1693632380600297,11010053,366607244,1263420416,21489,39144,0.282,0.75779605,0.901,1.3900001,0.59,0.93,95,80,0.045,0.039,-0.022000002,-2.9220002,1.8170205,0,nan,0.0,0.0,1092,3,0,1,19
238053613,1693632381600297,11010053,366607243,1263420406,24494,42149,0.279,0.7583258,0.896,1.3900001,0.62,0.93,95,77,0.069000006,-0.060000002,-0.033,-2.924,1.8170205,0,nan,0.0,0.0,1092,3,0,1,18
239054638,1693632382600297,11010053,366607241,1263420403,27500,45155,0.28300002,0.7588574,0.89300007,1.389,0.62,0.93,96,70,0.024,0.004,-0.023000002,-3.0000002,1.8170205,0,nan,0.0,0.0,1092,3,0,1,18
240048613,1693632383600298,11010053,366607235,1263420396,30563,48218,0.279,0.75940925,0.89000005,1.389,0.62,0.93,96,79,0.09,-0.08800001,0.020000001,-3.0080001,1.8170205,0,nan,0.0,0.0,1092,3,0,1,18
241050823,1693632384600298,11010053,366607230,1263420402,33597,51252,0.27,0.75994813,0.887,1.389,0.62,0.93,96,76,0.120000005,-0.0050000004,0.120000005,-2.959,1.8170205,0,nan,0.0,0.0,1092,3,0,1,18
242054612,1693632385600298,11010053,366607239,1263420419,36731,54387,0.272,0.73860514,0.883,1.389,0.59,0.93,96,82,0.10300001,0.057000004,0.086,-3.0700002,1.0769348,0,nan,0.0,0.0,1092,3,0,1,19
243051613,1693632386600299,11010053,366607251,1263420423,39820,57475,0.273,0.73916703,0.87900007,1.389,0.59,0.93,96,80,0.072000004,0.061000004,-0.040000003,-3.1100001,1.0769348,0,nan,0.0,0.0,1092,3,0,1,19
244055625,1693632387600299,11010053,366607242,1263420404,42897,60553,0.266,0.7748712,0.87600005,1.3870001,0.62,0.93,96,60,0.21900001,-0.120000005,-0.18200001,-3.012,3.6902118,0,nan,0.0,0.0,1092,3,0,1,18
245034617,1693632388600299,11010053,366607229,1263420393,46019,63674,0.279,0.67007357,0.873,1.386,0.62,0.93,96,99,0.187,-0.186,0.022000002,-3.0600002,3.8373346,0,nan,0.0,0.0,1092,3,0,1,18
246047628,1693632389600300,11010053,366607215,1263420406,49117,66772,0.275,0.76070875,0.873,1.3870001,0.62,0.93,96,63,0.201,-0.11100001,0.16800001,-3.028,3.4280212,0,nan,0.0,0.0,1092,3,0,1,18
247046619,1693632390600300,11010053,366607215,1263420430,52144,69799,0.266,0.6681441,0.87100005,1.3870001,0.59,0.93,96,78,0.28,0.126,0.25,-2.805,2.1141918,0,nan,0.0,0.0,1092,3,0,1,19
248049613,1693632391600300,11010053,366607238,1263420448,54870,72525,0.26200002,0.5139773,0.87000006,1.388,0.62,0.93,96,94,0.34100002,0.33900002,0.035,-2.194,0.24481802,0,nan,0.0,0.0,1092,3,0,1,18
249049613,1693632392600300,11010053,366607260,1263420429,56704,74359,0.252,0.49063542,0.86800003,1.388,0.62,0.93,96,79,0.39000002,0.125,-0.36900002,-1.2950001,5.2801948,0,nan,0.0,0.0,1092,3,0,1,18
250048855,1693632393600301,11010053,366607253,1263420395,57959,75614,0.28,0.5001649,0.86700004,1.386,0.62,0.93,96,62,0.38700002,-0.19900002,-0.33100003,-0.91200006,4.253181,0,nan,0.0,0.0,1092,3,0,1,18
251051762,1693632394600301,11010053,366607229,1263420366,58650,76305,0.27800003,0.47704682,0.86800003,1.3900001,0.62,0.93,96,80,0.393,-0.33200002,-0.21100001,-0.441,3.740038,0,nan,0.0,0.0,1092,3,0,1,18
252044612,1693632395600301,11010053,366607184,1263420324,58979,76634,0.22800002,0.13952929,0.869,1.3900001,0.62,0.93,96,82,1.3540001,-0.92200005,-0.99200004,-0.19500001,3.9263773,0,nan,0.0,0.0,1092,3,0,1,18
253054614,1693632396600302,11010053,366607105,1263420246,59274,76930,0.24000001,0.2470763,0.873,1.3920001,0.62,0.93,96,79,0.906,-0.882,-0.20700002,-0.21800001,3.594583,0,nan,0.0,0.0,1092,3,0,1,18
254051988,1693632397600302,11010053,366607080,1263420330,59592,77247,0.187,0.10492186,0.878,1.401,0.59,0.93,96,79,1.978,0.77400005,1.8210001,-0.09200001,1.3431019,0,nan,0.0,0.0,1092,3,0,1,19
255050612,1693632398600302,11010053,366607264,1263420563,59841,77496,0.171,0.055107202,0.878,1.411,0.59,0.93,96,80,3.5740001,3.203,1.585,-0.080000006,0.5820907,0,nan,0.0,0.0,1092,3,0,1,19
256054614,1693632399600303,11010053,366607559,1263420663,60062,77718,0.224,0.05817985,0.874,1.4070001,0.62,0.93,96,73,2.917,2.917,0.069000006,-0.08400001,0.11834658,0,nan,0.0,0.0,1092,3,0,1,18
257049613,1693632400600303,11010053,366607699,1263420560,59887,77542,0.171,0.12326789,0.87700003,1.404,0.62,0.93,96,98,1.725,0.314,-1.6960001,0.22000001,5.126643,0,nan,0.0,0.0,1092,3,0,1,18
258036612,1693632401600303,11010053,366607707,1263420353,59741,77396,0.18300001,0.1689655,0.878,1.404,0.59,0.93,96,80,1.5120001,0.31100002,-1.48,0.15300001,4.7959194,0,nan,0.0,0.0,1092,3,0,1,19
259049673,1693632402600303,11010053,366607807,1263420336,59555,77210,0.263,0.08600109,0.883,1.4150001,0.62,0.93,96,81,1.9660001,1.7590001,0.87700003,0.133,0.33709323,0,nan,0.0,0.0,1092,3,0,1,18
260045614,1693632403600304,11010053,366607953,1263420436,59343,76998,0.24800001,0.103645675,0.8880001,1.422,0.59,0.93,96,79,1.7080001,1.5300001,0.75900006,0.142,0.49001268,0,nan,0.0,0.0,1092,3,0,1,19
261043205,1693632404600304,11010053,366608090,1263420498,59173,76828,0.268,0.18982846,0.89100003,1.424,0.64,1.01,96,78,0.883,0.83900005,0.27800003,0.012,0.32326096,0,nan,0.0,0.0,1092,3,0,1,18
262048613,1693632405600304,11010053,366608095,1263420487,59187,76842,0.22800002,0.5995228,0.89400005,1.4210001,0.69,1.01,96,76,0.347,-0.127,-0.323,-0.091000006,4.6184607,0,nan,0.0,0.0,1092,3,0,1,17
263045613,1693632406600305,11010053,366608081,1263420453,59148,76803,0.21400002,0.58388066,0.89500004,1.424,0.64,1.01,96,81,0.3,-0.22100002,-0.20300001,-0.004,4.0780106,0,nan,0.0,0.0,1092,3,0,1,18
264048613,1693632407600305,11010053,366608061,1263420446,59219,76874,0.14600001,0.56546515,0.896,1.4280001,0.62,0.93,96,79,0.27100003,-0.17,0.21100001,0.082,3.5120714,0,nan,0.0,0.0,1092,3,0,1,18
265050613,1693632408600305,11010053,366608129,1263420758,59200,76855,0.18400002,0.03554293,0.89500004,1.424,0.62,0.93,97,70,5.3700004,1.6270001,5.117,-0.093,1.2734168,0,nan,0.0,0.0,1092,3,0,1,18
266049612,1693632409600306,11010053,366608385,1263421528,59428,77083,0.19100001,0.016484285,0.89100003,1.4180001,0.62,0.93,97,89,9.583,4.21,8.609,0.22200002,1.1160342,0,nan,0.0,0.0,1092,3,0,1,18
267040617,1693632410600306,11010053,366608891,1263422678,58957,76613,0.21900001,0.01325752,0.88900006,1.414,0.62,0.93,97,90,13.885,7.13,11.9140005,0.59400004,1.0314773,0,nan,0.0,0.0,1092,3,0,1,18
268051614,1693632411600306,11010053,366609613,1263424158,58849,76505,0.208,0.009783617,0.88900006,1.4130001,0.59,0.93,97,90,16.979,8.712001,14.574,0.036000002,1.0320246,0,nan,0.0,0.0,1092,3,0,1,19
269048633,1693632412600306,11010053,366610439,1263425910,59329,76985,0.20500001,0.009946631,0.89000005,1.4120001,0.62,0.93,97,96,18.729,9.387,16.207,-0.80200005,1.0458224,0,nan,0.0,0.0,1092,3,0,1,18
270047624,1693632413600307,11010053,366611154,1263427781,59989,77646,0.23500001,0.011015645,0.89900005,1.4120001,0.59,0.93,97,96,19.18,4.543,18.634,-0.531,1.3316607,0,nan,0.0,0.0,1092,3,0,1,19
271042613,1693632414600307,11010053,366611149,1263429880,60623,78280,0.22800002,0.012669519,0.90500003,1.414,0.59,0.93,97,95,18.481,-1.7580001,18.398,0.77000004,1.6660866,0,nan,0.0,0.0,1092,3,0,1,19
272059147,1693632415600307,11010053,366611054,1263431959,58761,76418,0.25300002,0.010288541,0.91,1.424,0.59,0.93,97,94,19.009,0.257,19.007,2.332,1.5572835,0,nan,0.0,0.0,1092,3,0,1,19
273046614,1693632416600308,11010053,366611251,1263434114,57023,74681,0.21000001,0.009737017,0.91,1.429,0.59,0.93,97,99,19.728,3.5060003,19.414001,1.598,1.3921416,0,nan,0.0,0.0,1092,3,0,1,19
274044636,1693632417600308,11010053,366611639,1263436281,55650,73309,0.202,0.009639802,0.90900004,1.4330001,0.59,0.93,97,78,20.055,4.918,19.443,1.225,1.3230488,0,nan,0.0,0.0,1092,3,0,1,19
275049612,1693632418600308,11010053,366612096,1263438469,54991,72650,0.19100001,0.008872206,0.906,1.434,0.59,0.93,97,76,20.29,5.1400003,19.628,0.536,1.3146975,0,nan,0.0,0.0,1092,3,0,1,19
276047728,1693632419600309,11010053,366612619,1263440632,54565,72224,0.23200001,0.009940871,0.90300006,1.4350001,0.62,0.93,97,95,20.001001,7.3960004,18.583,1.245,1.1920204,0,nan,0.0,0.0,1092,3,0,1,18
277041614,1693632420600309,11010053,366613865,1263442128,54467,72127,0.298,0.011394906,0.90800005,1.44,0.59,0.93,97,90,19.710001,18.821001,5.8550005,-1.0760001,0.30160493,0,nan,0.0,0.0,1092,3,0,1,19
278039617,1693632421600309,11010053,366615523,1263441822,56442,74101,0.31,0.022404792,0.93200004,1.445,0.62,0.93,97,95,19.284,16.105001,-10.607,-1.9530001,5.700794,0,nan,0.0,0.0,1092,3,0,1,18
279043613,1693632422600309,11010053,366616385,1263440063,58398,76057,0.29900002,0.019931834,0.96700007,1.468,0.62,0.93,97,86,19.434,2.6720002,-19.25,-1.4180001,4.850315,0,nan,0.0,0.0,1092,3,0,1,18
280041614,1693632423600310,11010053,366616038,1263437925,58582,76240,0.321,0.008994903,0.98100007,1.493,0.62,0.93,97,97,20.014002,-7.7980003,-18.432001,1.519,4.312176,0,nan,0.0,0.0,1092,3,0,1,18
281041611,1693632424600310,11010053,366615353,1263435821,55703,73361,0.27600002,0.010705675,0.9850001,1.498,0.64,0.94,97,81,20.963001,-5.5870004,-20.204,2.7970002,4.442593,0,nan,0.0,0.0,1092,3,0,1,17
282042613,1693632425600310,11010053,366615245,1263433476,54430,72087,0.23900001,0.012278042,0.989,1.4920001,0.59,0.93,97,95,20.778002,2.4880002,-20.629002,0.91300005,4.8324404,0,nan,0.0,0.0,1092,3,0,1,19
283041614,1693632426600311,11010053,366615746,1263431233,54105,71762,0.26200002,0.017770592,1.0,1.501,0.59,0.93,97,95,20.681002,8.614,-18.801,0.1,5.1419835,0,nan,0.0,0.0,1092,3,0,1,19
284036613,1693632427600311,11010053,366616664,1263429241,53919,71576,0.24100001,0.015799418,1.01,1.5120001,0.59,0.93,97,101,20.310001,11.706,-16.597,0.878,5.3266935,0,nan,0.0,0.0,1092,3,0,1,19
285049614,1693632428600311,11010053,366617778,1263427460,53756,71412,0.21900001,0.01139665,1.013,1.5150001,0.59,0.93,97,96,19.800001,12.935,-14.991001,0.551,5.424322,0,nan,0.0,0.0,1092,3,0,1,19
286046636,1693632429600311,11010053,366618927,1263425798,53754,71410,0.20700002,0.01185096,1.0120001,1.5180001,0.62,0.93,97,77,19.369001,12.698001,-14.626,0.36900002,5.427355,0,nan,0.0,0.0,1092,3,0,1,18
287050613,1693632430600312,11010053,366620056,1263424167,53606,71261,0.19700001,0.012592026,1.01,1.5200001,0.59,0.93,97,95,19.129002,12.420001,-14.549001,0.17400001,5.4189806,0,nan,0.0,0.0,1092,3,0,1,19
288048613,1693632431600312,11010053,366621154,1263422513,53743,71397,0.22700001,0.0120015815,1.005,1.521,0.59,0.93,98,95,19.059,12.218,-14.628,0.046000004,5.408246,0,nan,0.0,0.0,1092,3,0,1,19
289047613,1693632432600312,11010053,366622245,1263420848,53762,71416,0.20500001,0.01167503,1.001,1.5230001,0.59,0.93,98,99,19.152,12.183001,-14.777,-0.224,5.401888,0,nan,0.0,0.0,1092,3,0,1,19
290047693,1693632433600313,11010053,366623335,1263419181,53755,71409,0.2,0.011648153,0.998,1.5270001,0.61,0.94,98,97,19.207,12.126,-14.895,-0.009000001,5.3956766,0,nan,0.0,0.0,1092,3,0,1,18
291041612,1693632434600313,11010053,366624433,1263417557,54002,71656,0.21100001,0.01078753,0.99700004,1.529,0.65,0.95,98,86,18.879002,12.616,-14.045001,0.134,5.4442506,0,nan,0.0,0.0,1092,3,0,1,17
292044612,1693632435600313,11010053,366625594,1263416042,54359,72012,0.21800001,0.011100468,0.99500006,1.524,0.61,0.94,98,90,18.503,13.18,-12.987,-0.021000002,5.5051947,0,nan,0.0,0.0,1092,3,0,1,18
293048077,1693632436600314,11010053,366626795,1263414621,54442,72095,0.216,0.012091465,0.99300003,1.5250001,0.59,0.93,98,93,18.459002,13.561001,-12.524,0.007,5.5375166,0,nan,0.0,0.0,1092,3,0,1,19
294050933,1693632437600314,11010053,366628028,1263413222,54586,72238,0.20600002,0.013808172,0.99000007,1.5280001,0.59,0.93,98,92,18.551,13.64,-12.5720005,-0.497,5.5385075,0,nan,0.0,0.0,1092,3,0,1,19
295044611,1693632438600314,11010053,366629265,1263411833,55206,72858,0.21700001,0.014371041,0.989,1.5320001,0.59,0.93,98,93,18.344002,13.612,-12.297001,-0.26500002,5.548482,0,nan,0.0,0.0,1092,3,0,1,19
296046613,1693632439600314,11010053,366630479,1263410441,55244,72896,0.202,0.012323769,0.989,1.536,0.59,0.93,98,78,18.382,13.505001,-12.471001,0.20500001,5.5375843,0,nan,0.0,0.0,1092,3,0,1,19
297037613,1693632440600315,11010053,366631693,1263409050,55230,72882,0.209,0.013053492,0.98800004,1.542,0.59,0.93,98,94,18.336,13.487,-12.423,-0.46800002,5.5388093,0,nan,0.0,0.0,1092,3,0,1,19
298049612,1693632441600315,11010053,366632906,1263407660,55518,73169,0.21300001,0.012277169,0.984,1.536,0.57,0.87,98,93,18.33,13.519001,-12.378,-0.13900001,5.541815,0,nan,0.0,0.0,1092,3,0,1,20
299049613,1693632442600315,11010053,366634125,1263406287,55557,73208,0.20300001,0.012348553,0.98100007,1.531,0.57,0.87,98,96,18.206001,13.47,-12.249001,0.021000002,5.5452566,0,nan,0.0,0.0,1092,3,0,1,20
300046639,1693632443600316,11010053,366635332,1263404923,55668,73319,0.202,0.0107534975,0.9760001,1.519,0.57,0.87,98,81,18.12,13.2560005,-12.354001,-0.372,5.5329676,0,nan,0.0,0.0,1092,3,0,1,20
301047613,1693632444600316,11010053,366636532,1263403559,55669,73319,0.23200001,0.011353366,0.97200006,1.5070001,0.57,0.87,98,85,18.070002,13.365001,-12.162001,-0.069000006,5.544864,0,nan,0.0,0.0,1092,3,0,1,20
302049613,1693632445600316,11010053,366637825,1263402376,55924,73573,0.23200001,0.01340762,0.96800005,1.4890001,0.59,0.87,98,90,17.874,16.258001,-7.426,-0.69100004,5.854727,0,nan,0.0,0.0,1092,3,0,1,19
303056788,1693632446600316,11010053,366639382,1263402347,57514,75164,0.277,0.0136779705,0.975,1.491,0.62,0.95,98,92,17.508001,16.639,5.4480004,-1.705,0.3163936,0,nan,0.0,0.0,1092,3,0,1,19
304050613,1693632447600317,11010053,366640767,1263403280,57807,75456,0.26700002,0.011891626,0.97900003,1.4810001,0.62,0.95,98,97,17.726002,14.191001,10.622001,0.80500007,0.6425227,0,nan,0.0,0.0,1092,3,0,1,19
305058614,1693632448600317,11010053,366641939,1263404621,57081,74731,0.25800002,0.010703056,0.97900003,1.4640001,0.62,0.95,98,98,17.698,12.158001,12.861001,0.564,0.8134749,0,nan,0.0,0.0,1092,3,0,1,19
306042613,1693632449600317,11010053,366642939,1263406104,56072,73722,0.24000001,0.013448633,0.97900003,1.455,0.69,0.96,98,87,16.679,9.069,13.998001,2.048,0.9959278,0,nan,0.0,0.0,1092,3,0,1,17
307047629,1693632450600318,11010053,366643287,1263407995,54853,72503,0.19800001,0.009934588,0.98600006,1.4510001,0.57,0.87,98,79,18.909,-2.9770002,18.674002,0.177,1.7289041,0,nan,0.0,0.0,1092,3,0,1,20
308042689,1693632451600318,11010053,366642422,1263409854,55364,73015,0.21700001,0.012663061,0.994,1.4590001,0.59,0.87,98,95,19.742,-14.431001,13.472001,-0.17500001,2.3905463,0,nan,0.0,0.0,1092,3,0,1,19
309045613,1693632452600318,11010053,366640899,1263410818,54941,72592,0.20600002,0.016276067,1.0,1.4760001,0.57,0.87,98,91,18.771002,-18.322,4.0820003,1.0830001,2.922369,0,nan,0.0,0.0,1092,3,0,1,20
310033613,1693632453600319,11010053,366639290,1263410971,53282,70933,0.21000001,0.011237477,0.998,1.473,0.58,0.87,98,82,17.37,-17.368,-0.30200002,2.45,3.1589708,0,nan,0.0,0.0,1092,3,0,1,19
311045613,1693632454600319,11010053,366637748,1263410999,50488,68139,0.202,0.010992607,0.99000007,1.4720001,0.57,0.87,98,98,16.957,-16.895,1.4490001,2.529,3.0560246,0,nan,0.0,0.0,1092,3,0,1,20
312045613,1693632455600319,11010053,366636262,1263411317,47564,65215,0.20600002,0.0114155,0.9850001,1.4770001,0.57,0.87,98,80,16.577002,-16.091002,3.9830003,2.7370002,2.8989277,0,nan,0.0,0.0,1092,3,0,1,20
313047613,1693632456600319,11010053,366634851,1263411867,44768,62420,0.20500001,0.01162843,0.98,1.48,0.57,0.87,98,95,16.268002,-15.2960005,5.538,2.3330002,2.7942128,0,nan,0.0,0.0,1092,3,0,1,20
314046613,1693632457600320,11010053,366633501,1263412526,41764,59416,0.20600002,0.011979242,0.97700006,1.4770001,0.57,0.87,98,96,15.898001,-14.682001,6.096,2.933,2.7480843,0,nan,0.0,0.0,1092,3,0,1,20
315046612,1693632458600320,11010053,366632185,1263413217,38657,56309,0.21000001,0.012336336,0.9760001,1.4720001,0.57,0.87,98,90,15.854001,-14.629001,6.11,2.795,2.745937,0,nan,0.0,0.0,1092,3,0,1,20
316043750,1693632459600320,11010053,366630872,1263413898,35615,53267,0.21900001,0.01252553,0.9760001,1.462,0.57,0.87,98,94,15.707001,-14.570001,5.8680005,2.838,2.7587037,0,nan,0.0,0.0,1092,3,0,1,20
317046613,1693632460600321,11010053,366629568,1263414550,32768,50420,0.19800001,0.012777904,0.97700006,1.4540001,0.57,0.87,98,93,15.284,-14.235001,5.5670004,2.365,2.7688031,0,nan,0.0,0.0,1092,3,0,1,20
318045613,1693632461600321,11010053,366628279,1263415175,29949,47602,0.216,0.012968669,0.97800004,1.447,0.57,0.87,98,87,15.165001,-14.308001,5.025,2.897,2.8038492,0,nan,0.0,0.0,1092,3,0,1,20
319038613,1693632462600321,11010053,366626950,1263415523,26922,44575,0.20300001,0.015458381,0.97800004,1.442,0.57,0.87,98,95,15.314001,-15.306001,0.47800002,2.6660001,3.110349,0,nan,0.0,0.0,1092,3,0,1,20
320050612,1693632463600321,11010053,366625562,1263415489,24486,42139,0.20700002,0.011464719,0.97300005,1.44,0.57,0.87,98,94,15.200001,-15.199,-0.17600001,2.4450002,3.153169,0,nan,0.0,0.0,1092,3,0,1,20
321045613,1693632464600322,11010053,366624229,1263415868,21334,38987,0.20600002,0.010892426,0.96800005,1.4410001,0.57,0.87,98,97,15.993001,-14.119,7.5120006,3.3330002,2.6526468,0,nan,0.0,0.0,1092,3,0,1,20
322046625,1693632465600322,11010053,366623031,1263416942,18731,36384,0.22200002,0.011528597,0.975,1.447,0.58,0.87,98,82,16.810001,-13.113001,10.518001,1.559,2.4655945,0,nan,0.0,0.0,1092,3,0,1,19
323045614,1693632466600322,11010053,366621761,1263418048,17467,35120,0.20400001,0.010457663,0.97900003,1.445,0.58,0.87,98,100,17.683,-15.404,8.683001,0.791,2.6283228,0,nan,0.0,0.0,1092,3,0,1,19
324045614,1693632467600323,11010053,366620289,1263418902,17447,35101,0.21100001,0.011368376,0.97800004,1.437,0.57,0.87,98,93,18.135,-16.786001,6.8640003,-0.505,2.7534275,0,nan,0.0,0.0,1092,3,0,1,20
325049619,1693632468600323,11010053,366618787,1263419645,17760,35414,0.202,0.010429215,0.97900003,1.4300001,0.58,0.87,98,96,17.724,-16.469,6.551,-0.156,2.7629864,0,nan,0.0,0.0,1092,3,0,1,19
326044614,1693632469600323,11010053,366617328,1263420357,17933,35587,0.21200001,0.011201523,0.97800004,1.4200001,0.57,0.87,98,82,17.122002,-15.918001,6.307,0.22100002,2.764336,0,nan,0.0,0.0,1092,3,0,1,20
327045611,1693632470600324,11010053,366615908,1263421077,17252,34907,0.20700002,0.010986848,0.97800004,1.414,0.58,0.87,98,110,16.966002,-15.700001,6.432,0.804,2.7527666,0,nan,0.0,0.0,1092,3,0,1,19
328045614,1693632471600324,11010053,366614487,1263421837,16734,34389,0.21000001,0.011291407,0.97700006,1.404,0.57,0.87,98,94,17.306002,-15.842001,6.965,0.68,2.7273624,0,nan,0.0,0.0,1092,4,0,1,20
329045613,1693632472600324,11010053,366613034,1263422626,16595,34250,0.18900001,0.01075978,0.975,1.391,0.57,0.87,98,99,17.813002,-16.296001,7.1910005,-0.388,2.7260249,0,nan,0.0,0.0,1092,4,0,1,20
330039614,1693632473600324,11010053,366611572,1263423429,17176,34831,0.22800002,0.010378948,0.97300005,1.376,0.57,0.87,98,92,17.511002,-16.012001,7.09,-0.39600003,2.7247214,0,nan,0.0,0.0,1092,4,0,1,20
331045613,1693632474600325,11010053,366610151,1263424233,17832,35488,0.21100001,0.011036764,0.9710001,1.366,0.57,0.87,98,89,17.12,-15.561001,7.1380005,-0.55600005,2.7115505,0,nan,0.0,0.0,1092,4,0,1,20
332043613,1693632475600325,11010053,366608770,1263425005,18023,35679,0.21000001,0.011629128,0.97,1.3570001,0.57,0.87,98,82,16.496,-15.068001,6.7120004,0.15100001,2.722544,0,nan,0.0,0.0,1092,4,0,1,20
333062613,1693632476600325,11010053,366607429,1263425738,17692,35348,0.19800001,0.011825479,0.96900004,1.348,0.57,0.87,98,93,16.084002,-14.779,6.346,0.40500003,2.735994,0,nan,0.0,0.0,1092,4,0,1,20
334045613,1693632477600326,11010053,366606104,1263426471,17262,34919,0.22200002,0.012266348,0.96700007,1.335,0.57,0.87,98,92,16.087,-14.612,6.7300005,0.65000004,2.7099452,0,nan,0.0,0.0,1092,4,0,1,20
335049613,1693632478600326,11010053,366604760,1263427235,16645,34301,0.22100002,0.012038234,0.96700007,1.3280001,0.57,0.87,98,98,16.595001,-15.151001,6.7700005,0.61600006,2.7213821,0,nan,0.0,0.0,1092,4,0,1,20
336035613,1693632479600326,11010053,366603347,1263428024,16288,33945,0.22000001,0.011047236,0.96500003,1.3160001,0.57,0.87,98,100,17.882,-16.352001,7.2360005,-0.23300001,2.724993,0,nan,0.0,0.0,1092,4,0,1,20
337042621,1693632480600327,11010053,366601847,1263428860,17306,34964,0.209,0.00951187,0.96300006,1.304,0.57,0.87,98,83,18.479,-16.684,7.945,-0.76100004,2.6971421,0,nan,0.0,0.0,1092,4,0,1,20
338046676,1693632481600327,11010053,366600377,1263429920,18627,36284,0.21300001,0.009478184,0.957,1.2770001,0.58,0.87,98,95,19.306002,-15.260001,11.826,-1.9030001,2.4823334,0,nan,0.0,0.0,1092,4,0,1,19
339041630,1693632482600327,11010053,366599134,1263431473,20787,38445,0.22600001,0.009084787,0.95900005,1.2870001,0.64,0.96,98,100,19.959002,-12.442,15.607,-2.5110002,2.2438476,0,nan,0.0,0.0,1092,4,0,1,18
340046910,1693632483600327,11010053,366598204,1263433400,23291,40949,0.257,0.010250144,0.96500003,1.3000001,0.58,0.87,98,95,20.133001,-7.846,18.541,-2.966,1.9710969,0,nan,0.0,0.0,1092,4,0,1,19
341050613,1693632484600328,11010053,366597748,1263435554,26895,44554,0.252,0.011476936,0.9760001,1.312,0.58,0.87,98,78,19.824001,-2.572,19.657001,-3.558,1.7008795,0,nan,0.0,0.0,1092,4,0,1,19
342039725,1693632485600328,11010053,366597723,1263437736,29545,47204,0.2,0.011692658,0.97800004,1.3030001,0.58,0.87,98,95,19.383001,2.663,19.199001,-2.786,1.4329604,0,nan,0.0,0.0,1092,4,0,1,19
343050613,1693632486600328,11010053,366598207,1263439781,32335,49994,0.18400002,0.00934938,0.96700007,1.297,0.57,0.87,98,79,19.057001,7.4680004,17.533,-2.592,1.1681517,0,nan,0.0,0.0,1092,4,0,1,20
344045093,1693632487600329,11010053,366599054,1263441621,34486,52147,0.194,0.008140913,0.95000005,1.284,0.57,0.87,98,95,19.052,11.512,15.18,-2.414,0.9219452,0,nan,0.0,0.0,1092,4,0,1,20
345045797,1693632488600329,11010053,366600252,1263443118,36707,54368,0.22900002,0.008388925,0.93500006,1.276,0.57,0.87,98,91,18.861,14.867001,11.606001,-2.545,0.66280884,0,nan,0.0,0.0,1092,4,0,1,20
346044612,1693632489600329,11010053,366601718,1263444199,39102,56763,0.275,0.008762251,0.92600006,1.271,0.57,0.87,98,93,18.877,17.154001,7.879,-2.19,0.43058285,0,nan,0.0,0.0,1092,4,0,1,20
347046614,1693632490600330,11010053,366603335,1263444791,41701,59361,0.25,0.0085924305,0.92100006,1.2670001,0.57,0.87,98,89,18.605001,18.392,2.8070002,-3.121,0.15147328,0,nan,0.0,0.0,1092,4,0,1,20
348044613,1693632491600330,11010053,366604996,1263444864,44703,62363,0.23200001,0.008781624,0.919,1.2700001,0.59,0.87,98,74,18.588001,18.547,-1.225,-2.8070002,6.2172074,0,nan,0.0,0.0,1092,4,0,1,19
349035696,1693632492600330,11010053,366606625,1263444470,47517,65177,0.23400001,0.010284702,0.915,1.2720001,0.57,0.87,98,96,18.08,17.153,-5.715,-2.788,5.9615917,0,nan,0.0,0.0,1092,4,0,1,20
350040613,1693632493600330,11010053,366608094,1263443572,50405,68065,0.22100002,0.011032925,0.91400003,1.2780001,0.57,0.87,98,94,18.34,15.368001,-10.009001,-2.785,5.7058887,0,nan,0.0,0.0,1092,4,0,1,20
351043623,1693632494600331,11010053,366609357,1263442266,52549,70208,0.19500001,0.010581407,0.91200006,1.2850001,0.57,0.87,98,89,18.433,12.645,-13.412001,-1.743,5.46838,0,nan,0.0,0.0,1092,4,0,1,20
352038614,1693632495600331,11010053,366610322,1263440607,53824,71483,0.18300001,0.009099797,0.906,1.2820001,0.57,0.87,98,95,18.365002,8.84,-16.098001,-0.776,5.2145457,0,nan,0.0,0.0,1092,4,0,1,20
353044617,1693632496600331,11010053,366610929,1263438659,54529,72188,0.17400001,0.008143706,0.901,1.2820001,0.57,0.87,98,82,18.979,4.6860003,-18.391,-0.40800002,4.961898,0,nan,0.0,0.0,1092,4,0,1,20
354030614,1693632497600332,11010053,366611122,1263436542,54865,72524,0.231,0.008409345,0.897,1.2900001,0.59,0.87,98,94,19.188002,-0.16900001,-19.188002,-0.354,4.703561,0,nan,0.0,0.0,1092,4,0,1,19
355030733,1693632498600332,11010053,366610877,1263434403,55192,72850,0.273,0.008732231,0.897,1.304,0.61,0.9,98,92,19.587002,-5.1790004,-18.890001,-0.591,4.4447746,0,nan,0.0,0.0,1092,4,0,1,18
356039008,1693632499600332,11010053,366610190,1263432382,55617,73275,0.257,0.009371196,0.90200007,1.3240001,0.59,0.87,98,95,19.709002,-9.774,-17.116001,-0.164,4.193541,0,nan,0.0,0.0,1092,4,0,1,19
357034612,1693632500600333,11010053,366609082,1263430617,55887,73544,0.208,0.00797057,0.906,1.3390001,0.59,0.88,98,82,20.237001,-14.530001,-14.085001,-0.120000005,3.911448,0,nan,0.0,0.0,1092,4,0,1,19
358039611,1693632501600333,11010053,366607578,1263429269,56173,73830,0.20300001,0.008182627,0.90500003,1.337,0.57,0.87,98,76,20.822,-18.419,-9.71,-0.485,3.6267564,0,nan,0.0,0.0,1092,4,0,1,20
359044613,1693632502600333,11010053,366605788,1263428473,56883,74540,0.19900002,0.007307868,0.89300007,1.3030001,0.57,0.87,99,92,21.160002,-20.711,-4.3370004,-0.38900003,3.3480105,0,nan,0.0,0.0,1092,4,0,1,20
360039640,1693632503600333,11010053,366603879,1263428353,58140,75797,0.20700002,0.009110095,0.88500005,1.292,0.57,0.87,99,91,21.109001,-21.002,2.1220002,-0.859,3.040885,0,nan,0.0,0.0,1092,4,0,1,20
361039614,1693632504600334,11010053,366602030,1263428866,59325,76982,0.19900002,0.008229227,0.87700003,1.2670001,0.57,0.87,99,95,20.642,-19.269001,7.4020004,-0.549,2.7748137,0,nan,0.0,0.0,1092,4,0,1,20
362029613,1693632505600334,11010053,366600403,1263429956,59781,77439,0.22800002,0.009602103,0.87700003,1.258,0.64,0.96,99,87,20.236,-16.055,12.318001,-0.49800003,2.487141,0,nan,0.0,0.0,1092,4,0,1,18
363060612,1693632506600334,11010053,366599151,1263431585,60484,78142,0.23300001,0.009639105,0.89100003,1.2880001,0.58,0.87,98,99,20.065,-11.872001,16.176,-1.0220001,2.2039042,0,nan,0.0,0.0,1092,4,0,1,19
364044612,1693632507600335,11010053,366598246,1263433507,60692,78350,0.289,0.012482595,0.90400004,1.317,0.58,0.87,98,97,19.578001,-7.3840003,18.132,0.22200002,1.9575479,0,nan,0.0,0.0,1092,4,0,1,19
365040613,1693632508600335,11010053,366597830,1263435598,60107,77766,0.21400002,0.010732552,0.90900004,1.3290001,0.57,0.87,98,96,19.108002,-1.9650002,19.006,0.42000002,1.6738293,0,nan,0.0,0.0,1092,4,0,1,20
366038621,1693632509600335,11010053,366597858,1263437729,59510,77169,0.20300001,0.010891029,0.90700006,1.33,0.57,0.87,98,99,18.882,2.503,18.716002,0.78200006,1.437845,0,nan,0.0,0.0,1092,4,0,1,20
367037628,1693632510600336,11010053,366598288,1263439726,58605,76265,0.2,0.0102011,0.90000004,1.315,0.59,0.87,98,82,18.417002,7.2070003,16.948,0.757,1.1687282,0,nan,0.0,0.0,1092,4,0,1,19
368045612,1693632511600336,11010053,366599114,1263441493,58054,75714,0.19900002,0.009089326,0.892,1.2980001,0.57,0.87,98,95,18.272001,10.9210005,14.649001,0.46100003,0.93018293,0,nan,0.0,0.0,1092,4,0,1,20
369040623,1693632512600336,11010053,366600240,1263442949,57690,75350,0.24700001,0.009306096,0.88600004,1.2930001,0.57,0.87,98,96,18.034,13.776001,11.639001,0.12100001,0.7015031,0,nan,0.0,0.0,1092,4,0,1,20
370040612,1693632513600336,11010053,366601600,1263443997,57979,75640,0.263,0.010028487,0.8880001,1.294,0.57,0.87,98,105,17.743,16.121,7.412,-1.0830001,0.43092978,0,nan,0.0,0.0,1092,4,0,1,20
371039612,1693632514600337,11010053,366603096,1263444657,58156,75816,0.263,0.00847846,0.89000005,1.2950001,0.57,0.87,98,96,17.486,16.886002,4.543,0.34100002,0.26283786,0,nan,0.0,0.0,1092,4,0,1,20
372034612,1693632515600337,11010053,366604646,1263444870,58095,75755,0.256,0.009127025,0.892,1.299,0.57,0.87,98,94,17.343,17.343,-0.101,-0.13000001,6.27736,0,nan,0.0,0.0,1092,4,0,1,20
373054613,1693632516600337,11010053,366606186,1263444605,58163,75823,0.26500002,0.01104357,0.896,1.304,0.59,0.87,98,75,17.214,16.638,-4.418,-0.29000002,6.023655,0,nan,0.0,0.0,1092,4,0,1,19
374036619,1693632517600338,11010053,366607650,1263443917,58085,75745,0.254,0.012289561,0.89900005,1.312,0.57,0.87,98,71,17.348001,15.437,-7.9170003,0.141,5.809316,0,nan,0.0,0.0,1092,4,0,1,20
375024613,1693632518600338,11010053,366608948,1263442815,57949,75609,0.23300001,0.014502639,0.90800005,1.3290001,0.57,0.87,98,88,17.532001,13.178,-11.563001,0.109000005,5.5629735,0,nan,0.0,0.0,1092,4,0,1,20
376039613,1693632519600338,11010053,366610002,1263441340,57707,75366,0.16700001,0.009751853,0.90400004,1.327,0.57,0.87,98,91,17.76,9.986,-14.686001,-0.006,5.309552,0,nan,0.0,0.0,1092,4,0,1,20
377043675,1693632520600339,11010053,366610730,1263439560,57748,75407,0.162,0.0086435685,0.89800006,1.3240001,0.57,0.87,98,99,18.046001,6.2770004,-16.919,0.069000006,5.067652,0,nan,0.0,0.0,1092,4,0,1,20
378039613,1693632521600339,11010053,366611094,1263437580,57828,75486,0.22200002,0.008978497,0.89300007,1.3280001,0.57,0.87,98,91,18.324001,2.157,-18.197,0.097,4.8303595,0,nan,0.0,0.0,1092,4,0,1,20
379033613,1693632522600339,11010053,366611068,1263435517,57786,75444,0.21700001,0.009148317,0.89300007,1.3390001,0.63,0.94,98,93,18.652,-2.559,-18.475,-0.21400002,4.574733,0,nan,0.0,0.0,1092,4,0,1,18
380037729,1693632523600340,11010053,366610623,1263433488,57879,75536,0.261,0.010255903,0.89800006,1.3560001,0.61,0.94,98,96,19.072,-7.025,-17.731,-0.006,4.335142,0,nan,0.0,0.0,1092,4,0,1,19
381035619,1693632524600340,11010053,366609764,1263431598,58189,75847,0.27100003,0.0117162205,0.906,1.3750001,0.61,0.94,98,94,19.699001,-11.551001,-15.957001,-0.208,4.085836,0,nan,0.0,0.0,1092,4,0,1,19
382034613,1693632525600340,11010053,366608513,1263430006,58102,75759,0.22700001,0.00944258,0.91300005,1.3870001,0.61,0.94,98,94,20.064001,-15.722001,-12.466001,0.291,3.8120098,0,nan,0.0,0.0,1092,4,0,1,19
383039615,1693632526600340,11010053,366606902,1263428871,58117,75774,0.19600001,0.006457544,0.91,1.3740001,0.61,0.94,98,97,20.632002,-19.219002,-7.5030003,0.033,3.513784,0,nan,0.0,0.0,1092,4,0,1,19
384038613,1693632527600341,11010053,366605087,1263428350,58857,76514,0.22100002,0.008267275,0.896,1.3310001,0.61,0.94,98,74,19.729,-19.634,-1.9340001,-0.80300003,3.2397814,0,nan,0.0,0.0,1092,4,0,1,19
385031612,1693632528600341,11010053,366603448,1263428104,59784,77441,0.27100003,0.016604887,0.90000004,1.3260001,0.61,0.94,98,94,16.92,-16.503,-3.7340002,-0.573,3.364108,0,nan,0.0,0.0,1092,4,0,1,19
386029618,1693632529600341,11010053,366602350,1263427183,60419,78076,0.321,0.021193532,0.91400003,1.3410001,0.62,0.96999997,98,99,13.505001,-7.6170006,-11.152,-0.513,4.1131682,0,nan,0.0,0.0,1014,4,0,1,18
387028115,1693632530600342,11010053,366602154,1263425956,60496,78152,0.24400002,0.037236247,0.933,1.365,0.62,0.96999997,98,100,10.032001,1.8800001,-9.854,0.024,4.900878,0,nan,0.0,0.0,1014,4,0,1,18
388028617,1693632531600342,11010053,366602430,1263425025,60917,78573,0.187,0.027132189,0.943,1.366,0.57,0.87,98,77,6.0660005,2.42,-5.5620003,-1.5920001,5.139935,0,nan,0.0,0.0,1014,4,0,1,20
389038613,1693632532600342,11010053,366602447,1263424733,58498,76155,0.33800003,0.19802,0.943,1.3690001,0.61,0.94,98,70,1.276,-0.72700006,-1.049,2.539,4.2833056,0,nan,0.0,0.0,1014,4,0,1,19
390038630,1693632533600343,11010053,366602385,1263424631,55595,73251,0.25800002,0.07336369,0.947,1.36,0.57,0.87,98,86,2.8820002,-2.26,-1.7870001,4.0880003,3.7845795,0,nan,0.0,0.0,1014,4,0,1,20
391038614,1693632534600343,11010053,366602321,1263424553,52448,70104,0.26700002,0.30935228,0.95400006,1.3570001,0.57,0.87,98,98,0.82800007,0.15,-0.814,3.1710002,4.4568915,0,nan,0.0,0.0,1014,4,0,1,20
392042614,1693632535600343,11010053,366602402,1263424525,49796,67452,0.307,0.15288647,0.95300007,1.358,0.57,0.87,97,90,1.245,1.148,0.48200002,2.0570002,0.354276,0,nan,0.0,0.0,1014,4,0,1,20
393041613,1693632536600344,11010053,366602592,1263424533,48528,66184,0.22700001,0.07564937,0.952,1.365,0.57,0.87,97,88,2.6230001,2.5540001,-0.6,-0.14400001,6.1526484,0,nan,0.0,0.0,1014,4,0,1,20
394042621,1693632537600344,11010053,366602898,1263424389,49542,67198,0.18900001,0.05720212,0.95000005,1.3670001,0.57,0.87,97,93,3.755,3.4480002,-1.4870001,-1.7450001,5.9004188,0,nan,0.0,0.0,1014,4,0,1,20
395042622,1693632538600344,11010053,366603223,1263424206,51434,69090,0.215,0.06190159,0.95400006,1.366,0.57,0.87,97,94,3.9310002,3.653,-1.452,-2.3100002,5.88818,0,nan,0.0,0.0,1014,4,0,1,20
396038973,1693632539600344,11010053,366603564,1263424059,54022,71678,0.224,0.058681108,0.96000004,1.366,0.59,0.87,97,92,3.8370001,3.6490002,-1.189,-2.8520002,5.959357,0,nan,0.0,0.0,1014,4,0,1,19
397032665,1693632540600345,11010053,366603922,1263423938,56738,74394,0.22200002,0.057202294,0.96500003,1.365,0.61,0.9,97,88,3.821,3.6330001,-1.184,-2.867,5.9857607,0,nan,0.0,0.0,1014,4,0,1,18
398039240,1693632541600345,11010053,366604243,1263423804,59271,76927,0.23400001,0.059801787,0.9710001,1.363,0.59,0.87,97,80,3.6850002,3.5200002,-1.0910001,-1.9100001,5.9665694,0,nan,0.0,0.0,1014,4,0,1,19
399039103,1693632542600345,11010053,366604570,1263423698,60331,77987,0.282,0.055457313,0.97900003,1.3620001,0.59,0.89,97,86,3.7560003,3.67,-0.799,-0.73600006,6.052779,0,nan,0.0,0.0,1014,4,0,1,19
400039175,1693632543600346,11010053,366604900,1263423601,60820,78476,0.27400002,0.05690768,0.98700005,1.3610001,0.61,0.9,97,88,3.765,3.6350002,-0.97800004,-0.469,6.0294657,0,nan,0.0,0.0,1014,4,0,1,18
401029181,1693632544600346,11010053,366605234,1263423481,61229,78885,0.291,0.057450302,0.994,1.3620001,0.56,0.82,97,81,3.693,3.5440001,-1.0380001,-0.23200001,5.9987035,0,nan,0.0,0.0,1014,4,0,1,20
402034081,1693632545600346,11010053,366605578,1263423350,61412,79068,0.279,0.051795263,0.99700004,1.3610001,0.56,0.82,97,89,4.0290003,3.818,-1.2880001,-0.172,5.9567313,0,nan,0.0,0.0,1014,4,0,1,20
403038634,1693632546600347,11010053,366605927,1263423208,61651,79307,0.28500003,0.049828626,1.0,1.3610001,0.58,0.83,96,89,4.026,3.8360002,-1.2240001,-0.18900001,5.9670525,0,nan,0.0,0.0,1014,4,0,1,19
404034807,1693632547600347,11010053,366606284,1263423072,61802,79458,0.282,0.050345942,1.003,1.358,0.58,0.83,96,76,4.0290003,3.8250003,-1.2650001,-0.16800001,5.9684415,0,nan,0.0,0.0,1014,4,0,1,19
405030612,1693632548600347,11010053,366606631,1263422934,62013,79669,0.26000002,0.05247559,1.0020001,1.353,0.56,0.79999995,90,84,3.8910003,3.6950002,-1.22,-0.16600001,5.962177,0,nan,0.0,0.0,1014,4,0,1,20
406043613,1693632549600348,11010053,366606976,1263422801,62135,79791,0.25100002,0.04977225,1.0020001,1.348,0.56,0.79999995,90,90,3.9780002,3.7570002,-1.309,0.018000001,5.9537854,0,nan,0.0,0.0,1014,4,0,1,20
407034625,1693632550600348,11010053,366607291,1263422681,62409,80065,0.24100001,0.06654573,0.9990001,1.342,0.56,0.79999995,90,90,2.9650002,2.809,-0.94900006,-0.16700001,5.9644423,0,nan,0.0,0.0,1014,4,0,1,20
408037614,1693632551600348,11010053,366607483,1263422600,62581,80237,0.27100003,0.1150994,0.9990001,1.335,0.56,0.79999995,90,71,1.746,1.6470001,-0.58000004,0.086,5.945317,0,nan,0.0,0.0,1014,4,0,1,20
409037635,1693632552600348,11010053,366607603,1263422539,62499,80154,0.22200002,0.1950648,0.99700004,1.3240001,0.53999996,0.79999995,90,93,1.0940001,0.9620001,-0.521,0.149,5.8064637,0,nan,0.0,0.0,1014,4,0,1,21
410034613,1693632553600349,11010053,366607643,1263422445,62512,80167,0.22700001,0.1600062,0.99200004,1.3110001,0.56,0.79999995,90,84,1.4380001,-0.586,-1.3130001,-0.047000002,4.4527636,0,nan,0.0,0.0,1014,4,0,1,20
411042702,1693632554600349,11010053,366607543,1263422180,62534,80190,0.21700001,0.055816848,0.989,1.3010001,0.56,0.79999995,90,79,3.8420002,-1.475,-3.548,0.07700001,4.301944,0,nan,0.0,0.0,1170,4,0,1,20
412032613,1693632555600349,11010053,366607423,1263421766,62603,80258,0.21900001,0.07112286,0.98800004,1.294,0.56,0.79999995,90,87,3.453,-1.215,-3.232,-0.098000005,4.3598666,0,nan,0.0,0.0,1170,4,0,1,20
413030613,1693632556600350,11010053,366607340,1263421472,62656,80312,0.186,0.116634585,0.98600006,1.279,0.58,0.83,96,91,2.21,-0.587,-2.131,0.209,4.407943,0,nan,0.0,0.0,1170,4,0,1,19
414025012,1693632557600350,11010053,366607301,1263421280,62770,80425,0.16900001,0.20319611,0.984,1.2590001,0.58,0.83,96,88,1.2470001,-0.21000001,-1.2290001,0.102000006,4.512116,0,nan,0.0,0.0,1170,4,0,1,19
415032612,1693632558600350,11010053,366607300,1263421174,63000,80655,0.18,0.34966344,0.98,1.2370001,0.56,0.79999995,97,80,0.684,-0.13000001,-0.67200005,-0.029000001,4.555999,0,nan,0.0,0.0,1170,4,0,1,20
416037613,1693632559600351,11010053,366607258,1263420976,63019,80674,0.20700002,0.0749221,0.98100007,1.2340001,0.53999996,0.79999995,97,86,3.255,-0.89400005,-3.13,-0.076000005,4.425217,0,nan,0.0,0.0,1170,4,0,1,21
417035613,1693632560600351,11010053,366607169,1263420586,63118,80773,0.194,0.06989939,0.98100007,1.2260001,0.53999996,0.79999995,103,94,3.3730001,-1.164,-3.1650002,-0.128,4.3934035,0,nan,0.0,0.0,1170,4,0,1,21
418027614,1693632561600351,11010053,366607082,1263420348,63757,81412,0.224,0.17408925,0.97400004,1.189,0.56,0.79999995,103,96,1.246,-0.675,-1.0480001,-0.018000001,4.196507,0,nan,0.0,0.0,1170,4,0,1,20
419036618,1693632562600352,11010053,366607050,1263420272,63842,81497,0.231,0.6528622,0.97400004,1.177,0.56,0.79999995,103,81,0.34300002,-0.15200001,-0.307,-0.039,4.267925,0,nan,0.0,0.0,1170,4,0,1,20
420042612,1693632563600352,11010053,366607048,1263420255,63828,81483,0.275,0.6529069,0.97700006,1.179,0.56,0.79999995,103,72,0.031000001,-0.017,-0.025,-0.011000001,4.267925,0,nan,0.0,0.0,1170,4,0,1,20
421032613,1693632564600352,11010053,366607051,1263420257,63546,81201,0.27100003,0.65301263,0.97800004,1.1830001,0.56,0.79999995,103,97,0.19500001,0.081,0.177,0.99200004,4.267925,0,nan,0.0,0.0,1170,4,0,1,20
422035612,1693632565600352,11010053,366607046,1263420287,62878,80533,0.23500001,0.7564227,0.97900003,1.184,0.57,0.87,103,89,0.282,-0.268,0.09,0.81500006,3.648112,0,nan,0.0,0.0,1170,4,0,1,20
423034614,1693632566600353,11010053,366607054,1263420286,61675,79330,0.277,0.7566241,0.98,1.19,0.53999996,0.79999995,103,87,0.14500001,0.093,-0.11100001,1.1730001,3.648112,0,nan,0.0,0.0,1170,4,0,1,21
424038612,1693632567600353,11010053,366607065,1263420273,60417,78072,0.275,0.7568425,0.97900003,1.195,0.53999996,0.79999995,104,80,0.16700001,0.012,-0.16600001,1.1730001,3.648112,0,nan,0.0,0.0,1170,4,0,1,21
425035695,1693632568600353,11010053,366607076,1263420262,59305,76960,0.25800002,0.75703585,0.98100007,1.1980001,0.53999996,0.79999995,104,77,0.08800001,-0.083000004,-0.029000001,1.052,3.648112,0,nan,0.0,0.0,1170,4,0,1,21
426030743,1693632569600354,11010053,366607073,1263420263,58201,75856,0.24900001,0.75722677,0.98100007,1.199,0.53999996,0.79999995,104,88,0.18100001,-0.18100001,0.013,1.1570001,3.648112,0,nan,0.0,0.0,1170,4,0,1,21
427025831,1693632570600354,11010053,366607063,1263420260,57005,74660,0.257,0.6648364,0.98200005,1.2,0.53999996,0.79999995,104,90,0.155,-0.15400001,-0.013,1.0630001,3.4960475,0,nan,0.0,0.0,1170,4,0,1,21
428038613,1693632571600354,11010053,366607058,1263420260,55788,73443,0.257,0.665068,0.98300004,1.202,0.53999996,0.79999995,103,86,0.109000005,-0.041,0.101,1.1010001,3.4960475,0,nan,0.0,0.0,1170,4,0,1,21
429034611,1693632572600355,11010053,366607056,1263420269,54685,72340,0.24700001,0.6652926,0.98300004,1.2040001,0.53999996,0.79999995,103,82,0.179,-0.165,0.07,1.0450001,3.4960475,0,nan,0.0,0.0,1170,4,0,1,21
430037619,1693632573600355,11010053,366607043,1263420276,53722,71377,0.24300002,0.66548824,0.984,1.2040001,0.53999996,0.79999995,104,80,0.16100001,-0.158,0.035,0.83100003,3.4960475,0,nan,0.0,0.0,1170,4,0,1,21
431035613,1693632574600355,11010053,366607037,1263420282,52714,70369,0.268,0.66568613,0.984,1.205,0.53999996,0.79999995,104,86,0.082,0.059000004,0.057000004,1.039,3.4960475,0,nan,0.0,0.0,1170,4,0,1,21
432036614,1693632575600356,11010053,366607043,1263420286,51522,69177,0.27100003,0.6659246,0.9850001,1.2080001,0.53999996,0.79999995,104,73,0.074,0.074,-0.002,1.2090001,3.4960475,0,nan,0.0,0.0,1170,4,0,1,21
433038614,1693632576600356,11010053,366607051,1263420288,50371,68027,0.26500002,0.666153,0.98600006,1.2110001,0.53999996,0.79999995,103,89,0.010000001,0.002,-0.010000001,1.097,3.4960475,0,nan,0.0,0.0,1170,4,0,1,21
434047613,1693632577600356,11010053,366607052,1263420291,49214,66869,0.263,0.6663796,0.98700005,1.2140001,0.53999996,0.79999995,104,92,0.034,-0.034,-0.0050000004,1.1680001,3.4960475,0,nan,0.0,0.0,1170,4,0,1,21
435035613,1693632578600356,11010053,366607051,1263420285,48033,65688,0.263,0.66661763,0.989,1.215,0.56,0.79999995,104,78,0.067,-0.009000001,-0.066,1.176,3.4960475,0,nan,0.0,0.0,1170,4,0,1,20
436036703,1693632579600357,11010053,366607050,1263420285,46871,64526,0.26200002,0.66684055,0.99000007,1.218,0.56,0.79999995,104,72,0.026,-0.022000002,0.015000001,1.047,3.4960475,0,nan,0.0,0.0,1170,4,0,1,20
437038611,1693632580600357,11010053,366607056,1263420279,45661,63316,0.257,0.5635862,0.99100006,1.22,0.56,0.79999995,104,87,0.14,-0.055000003,-0.12900001,1.148,3.5679533,0,nan,0.0,0.0,1170,4,0,1,20
438034235,1693632581600357,11010053,366607065,1263420270,44469,62125,0.27,0.56387275,0.99100006,1.2210001,0.56,0.79999995,104,88,0.086,0.076000005,-0.041,1.069,3.5679533,0,nan,0.0,0.0,1170,4,0,1,20
439038614,1693632582600358,11010053,366607071,1263420270,43346,61001,0.26500002,0.56413543,0.99300003,1.222,0.56,0.79999995,104,84,0.059000004,0.014,0.058000002,1.0680001,3.5679533,0,nan,0.0,0.0,1170,4,0,1,20
440025652,1693632583600358,11010053,366607072,1263420278,42224,59879,0.259,0.56440264,0.99300003,1.222,0.58,0.83,104,86,0.085,-0.075,-0.039,1.0630001,3.5679533,0,nan,0.0,0.0,1170,4,0,1,19
441042613,1693632584600358,11010053,366607069,1263420274,41134,58789,0.23700002,0.6396886,0.99500006,1.223,0.56,0.79999995,104,86,0.25100002,-0.25100002,0.0,0.92,3.4050462,0,nan,0.0,0.0,1170,4,0,1,20
442041613,1693632585600359,11010053,366607059,1263420275,40072,57727,0.26200002,0.6399167,0.99600005,1.223,0.53999996,0.79999995,104,94,0.079,0.017,0.07700001,1.033,3.4050462,0,nan,0.0,0.0,1170,4,0,1,21
443034612,1693632586600359,11010053,366607056,1263420286,39045,56700,0.27,0.75451875,0.99600005,1.2240001,0.53999996,0.79999995,104,82,0.147,0.060000002,0.135,1.087,3.243524,0,nan,0.0,0.0,1170,4,0,1,21
444046621,1693632587600359,11010053,366607053,1263420290,37881,55537,0.266,0.75472224,0.99600005,1.2270001,0.53999996,0.79999995,104,89,0.106000006,-0.102000006,0.026,1.1420001,3.243524,0,nan,0.0,0.0,1092,4,0,1,21
445031612,1693632588600360,11010053,366607049,1263420294,36866,54521,0.27600002,0.75491035,0.998,1.23,0.53999996,0.79999995,104,93,0.128,0.024,0.126,1.033,3.243524,0,nan,0.0,0.0,1092,4,0,1,21
446035612,1693632589600360,11010053,366607043,1263420293,35847,53502,0.263,0.7552395,1.0,1.235,0.53999996,0.79999995,103,76,0.11100001,-0.097,-0.052,1.021,3.2037606,0,nan,0.0,0.0,1092,4,0,1,21
447036611,1693632590600360,11010053,366607038,1263420293,34752,52407,0.28,0.7554376,1.0020001,1.238,0.56,0.79999995,103,89,0.09,0.071,0.055000003,1.148,3.2037606,0,nan,0.0,0.0,1092,4,0,1,20
448035613,1693632591600360,11010053,366607041,1263420294,33679,51334,0.28500003,0.75563574,1.0040001,1.2420001,0.56,0.79999995,103,91,0.101,0.098000005,-0.025,1.1860001,3.2037606,0,nan,0.0,0.0,1092,4,0,1,20
449034619,1693632592600361,11010053,366607051,1263420280,32569,50224,0.26500002,0.7558427,1.006,1.241,0.53999996,0.79999995,103,82,0.13000001,0.018000001,-0.128,1.149,3.2037606,0,nan,0.0,0.0,1092,4,0,1,21
450032835,1693632593600361,11010053,366607049,1263420267,31501,49157,0.25800002,0.7560443,1.003,1.241,0.53999996,0.79999995,96,81,0.18300001,-0.098000005,-0.15400001,1.0550001,3.2037606,0,nan,0.0,0.0,1092,4,0,1,21
451035612,1693632594600361,11010053,366607054,1263420268,30455,48110,0.26700002,0.75624466,1.001,1.2370001,0.56,0.79999995,96,87,0.133,0.064,0.116000004,1.0580001,3.2037606,0,nan,0.0,0.0,1092,4,0,1,20
452043256,1693632595600362,11010053,366607058,1263420280,29479,47134,0.263,0.7564294,0.9990001,1.2360001,0.53999996,0.79999995,96,91,0.106000006,0.007,0.106000006,1.033,3.2037606,0,nan,0.0,0.0,1092,4,0,1,21
453024613,1693632596600362,11010053,366607054,1263420287,28509,46164,0.254,0.7566044,0.998,1.2360001,0.53999996,0.79999995,96,96,0.086,-0.085,-0.011000001,0.98700005,3.2037606,0,nan,0.0,0.0,1092,4,0,1,21
454048612,1693632597600362,11010053,366607038,1263420282,27524,45179,0.245,0.32617515,0.99700004,1.2360001,0.53999996,0.79999995,96,92,0.194,-0.193,-0.026,0.97400004,3.4910662,0,nan,0.0,0.0,1092,4,0,1,21
455030613,1693632598600363,11010053,366607033,1263420287,26583,44238,0.26500002,0.5984821,0.99500006,1.2360001,0.56,0.79999995,96,90,0.067,-0.002,0.067,0.9760001,3.4708965,0,nan,0.0,0.0,1092,4,0,1,20
456034613,1693632599600363,11010053,366607043,1263420298,25397,43052,0.26900002,0.4611151,0.994,1.2360001,0.53999996,0.79999995,96,90,0.096,0.09200001,0.028,1.2190001,1.8213406,0,nan,0.0,0.0,1092,4,0,1,21
457031613,1693632600600363,11010053,366607051,1263420295,24203,41858,0.27400002,0.4614701,0.99300003,1.2370001,0.53999996,0.79999995,96,88,0.098000005,0.08800001,-0.043,1.1850001,1.8213406,0,nan,0.0,0.0,1092,4,0,1,21
458032612,1693632601600364,11010053,366607049,1263420290,23129,40784,0.26200002,0.46179858,0.99100006,1.2360001,0.53999996,0.79999995,96,81,0.031000001,-0.031000001,-0.003,1.1060001,1.8213406,0,nan,0.0,0.0,1092,4,0,1,21
459034613,1693632602600364,11010053,366607047,1263420282,22015,39670,0.268,0.46212983,0.989,1.235,0.53999996,0.79999995,96,93,0.049000002,0.010000001,-0.048,1.1620001,1.8213406,0,nan,0.0,0.0,1092,4,0,1,21
460034613,1693632603600364,11010053,366607040,1263420280,20948,38603,0.273,0.4624583,0.98800004,1.2360001,0.53999996,0.79999995,96,87,0.069000006,0.069000006,0.0,1.131,1.8213406,0,nan,0.0,0.0,1092,4,0,1,21
461032612,1693632604600364,11010053,366607045,1263420279,19747,37402,0.264,0.46279287,0.98800004,1.2360001,0.53999996,0.79999995,96,82,0.075,0.035,0.066,1.2650001,1.8213406,0,nan,0.0,0.0,1092,4,0,1,21
462030612,1693632605600365,11010053,366607046,1263420284,18526,36181,0.272,0.46315345,0.98700005,1.2360001,0.53999996,0.79999995,96,85,0.028,0.024,0.016,1.1190001,1.8213406,0,nan,0.0,0.0,1092,4,0,1,21
463030613,1693632606600365,11010053,366607049,1263420293,17468,35123,0.27600002,0.46347705,0.98600006,1.2370001,0.53999996,0.79999995,96,93,0.116000004,0.060000002,0.09900001,0.95300007,1.8213406,0,nan,0.0,0.0,1092,4,0,1,21
464040624,1693632607600365,11010053,366607055,1263420305,16461,34116,0.263,0.6540103,0.98600006,1.238,0.53999996,0.79999995,96,90,0.085,-0.083000004,-0.021000002,1.105,1.3848908,0,nan,0.0,0.0,1092,4,0,1,21
465035617,1693632608600366,11010053,366607039,1263420298,15456,33111,0.24700001,0.7501299,0.98600006,1.238,0.53999996,0.79999995,96,76,0.20400001,-0.19900002,-0.047000002,0.961,3.135739,0,nan,0.0,0.0,1092,4,0,1,21
466025613,1693632609600366,11010053,366607027,1263420293,14436,32092,0.266,0.5534257,0.98700005,1.24,0.53999996,0.79999995,96,91,0.075,-0.001,-0.074,1.077,3.4447412,0,nan,0.0,0.0,1092,4,0,1,21
467035614,1693632610600366,11010053,366607031,1263420296,13440,31095,0.27400002,0.5536874,0.98800004,1.241,0.53999996,0.79999995,96,75,0.080000006,0.075,0.027,0.99000007,3.4447412,0,nan,0.0,0.0,1092,4,0,1,21
468030613,1693632611600367,11010053,366607032,1263420293,12364,30019,0.26500002,0.55395526,0.989,1.243,0.53999996,0.79999995,96,92,0.072000004,-0.004,-0.072000004,1.1060001,3.4447412,0,nan,0.0,0.0,1092,4,0,1,21
469035663,1693632612600367,11010053,366607041,1263420280,11294,28949,0.277,0.7685641,0.989,1.245,0.53999996,0.79999995,96,87,0.201,0.09200001,-0.179,1.1350001,4.201632,0,nan,0.0,0.0,1092,4,0,1,21
470033612,1693632613600367,11010053,366607043,1263420271,10271,27926,0.26200002,0.7687629,0.98700005,1.241,0.53999996,0.79999995,96,83,0.065000005,-0.023000002,0.061000004,1.014,4.201632,0,nan,0.0,0.0,1092,4,0,1,21
471026611,1693632614600367,11010053,366607042,1263420278,9215,26870,0.25800002,0.7689617,0.9850001,1.241,0.53999996,0.79999995,96,101,0.155,-0.040000003,0.15,1.047,4.201632,0,nan,0.0,0.0,1092,4,0,1,21
472034928,1693632615600368,11010053,366607034,1263420275,8246,25901,0.26200002,0.7383917,0.984,1.2390001,0.53999996,0.79999995,96,89,0.043,-0.003,-0.043,0.952,3.8601618,0,nan,0.0,0.0,1092,4,0,1,21
473025129,1693632616600368,11010053,366607020,1263420265,8020,25675,0.20500001,0.34971964,0.97900003,1.2260001,0.57,0.87,96,100,0.135,0.116000004,0.069000006,-0.072000004,3.0097055,0,nan,0.0,0.0,1092,4,0,1,20
474033611,1693632617600368,11010053,366607015,1263420265,8073,25728,0.187,0.34979486,0.97300005,1.223,0.57,0.87,96,116,0.08800001,0.013,0.087000005,-0.008,3.0097055,0,nan,0.0,0.0,1092,4,0,1,20
475220613,1693632618800369,11010053,366607009,1263420264,8081,25736,0.201,0.34991702,0.97200006,1.2260001,0.62,0.96,96,122,0.004,-0.003,0.003,0.004,3.0097055,0,nan,0.0,0.0,936,4,0,1,19
476023613,1693632619600369,11010053,366607004,1263420263,8107,25762,0.272,0.34999382,0.96900004,1.225,0.62,0.96,96,122,0.020000001,0.020000001,0.004,0.07,3.0097055,0,nan,0.0,0.0,936,4,0,1,19
477220614,1693632620800369,11010053,366606994,1263420260,8203,25858,0.23,0.3501015,0.96400005,1.222,0.62,0.96,90,94,0.049000002,-0.049000002,0.006,-0.008,3.0097055,0,nan,0.0,0.0,936,4,0,1,19
478022666,1693632621600370,11010053,366606988,1263420256,8322,25978,0.252,0.35018042,0.96000004,1.215,0.62,0.96,90,94,0.022000002,0.016,-0.014,0.043,3.0097055,0,nan,0.0,0.0,936,4,0,1,19
479014613,1693632622600370,11010053,366606980,1263420252,8435,26090,0.22100002,0.3502738,0.95500004,1.2060001,0.61,0.93,89,113,0.045,0.030000001,0.034,0.0,3.0097055,0,nan,0.0,0.0,936,4,0,1,20
480023612,1693632623600370,11010053,366606971,1263420247,8563,26218,0.25100002,0.3503715,0.95100003,1.1980001,0.61,0.93,89,85,0.031000001,0.027,-0.016,0.033,3.0097055,0,nan,0.0,0.0,936,4,0,1,20
481028613,1693632624600370,11010053,366606964,1263420243,8665,26320,0.21800001,0.35045722,0.943,1.189,0.61,0.93,89,104,0.026,-0.008,-0.025,-0.036000002,3.0097055,0,nan,0.0,0.0,936,4,0,1,20
482029612,1693632625600371,11010053,366606959,1263420240,8743,26398,0.20500001,0.350542,0.93600005,1.1800001,0.56,0.83,89,119,0.026,-0.016,0.021000002,0.058000002,3.0097055,0,nan,0.0,0.0,936,4,0,1,21
483036613,1693632626600371,11010053,366606954,1263420236,8824,26479,0.25,0.3506321,0.929,1.172,0.56,0.83,89,95,0.083000004,0.083000004,-0.009000001,0.068,3.0097055,0,nan,0.0,0.0,936,4,0,1,21
484219613,1693632627800371,11010053,366606951,1263420234,8928,26583,0.25,0.35073754,0.92200005,1.1630001,0.56,0.83,89,103,0.091000006,0.087000005,-0.026,0.030000001,3.0097055,0,nan,0.0,0.0,936,4,0,1,21
485023825,1693632628600372,11010053,366606946,1263420231,8973,26628,0.22000001,0.35081258,0.92300004,1.159,0.56,0.83,89,103,0.106000006,0.060000002,0.087000005,-0.011000001,3.0097055,0,nan,0.0,0.0,936,4,0,1,21
486035612,1693632629600372,11010053,366606945,1263420237,9119,26774,0.31,0.637723,0.92800003,1.161,0.56,0.83,89,104,0.35700002,-0.32700002,0.143,-0.49800003,2.9444466,0,nan,0.0,0.0,936,4,0,1,21
487035612,1693632630600372,11010053,366606894,1263420248,9862,27517,0.409,0.323169,0.93900007,1.167,0.56,0.83,89,97,0.73300004,-0.72,0.13700001,-0.512,2.950924,0,nan,0.0,0.0,936,4,0,1,21
488027012,1693632631600373,11010053,366606771,1263420262,10236,27892,0.30600002,0.16678017,0.96000004,1.1650001,0.56,0.83,89,104,1.593,-1.5920001,-0.037,0.13800001,3.1175609,0,nan,0.0,0.0,936,4,0,1,21
489033613,1693632632600373,11010053,366606623,1263420232,10496,28152,0.25,0.13810615,0.97400004,1.144,0.58,0.84,89,104,1.7090001,-1.7060001,-0.093,0.142,3.2357147,0,nan,0.0,0.0,936,4,0,1,20
490033614,1693632633600373,11010053,366606489,1263420215,10633,28288,0.192,0.14878461,0.98300004,1.13,0.61,0.93,89,102,1.559,-1.547,-0.19100001,0.018000001,3.2450962,0,nan,0.0,0.0,936,4,0,1,20
491033612,1693632634600373,11010053,366606357,1263420188,10716,28371,0.22700001,0.16974111,0.99600005,1.13,0.62,0.93,89,103,1.373,-1.3360001,-0.316,-0.055000003,3.3288054,0,nan,0.0,0.0,936,4,0,1,19
492023613,1693632635600374,11010053,366606242,1263420159,10652,28307,0.215,0.2132972,1.0150001,1.1470001,0.62,0.93,88,96,1.072,-1.031,-0.293,0.002,3.3473907,0,nan,0.0,0.0,936,4,0,1,19
493033611,1693632636600374,11010053,366606151,1263420135,10589,28245,0.257,0.29480615,1.033,1.166,0.62,0.93,88,97,0.961,-0.92700005,-0.25500003,-0.048,3.3618977,0,nan,0.0,0.0,936,4,0,1,19
494042640,1693632637600374,11010053,366606077,1263420125,10626,28281,0.24900001,0.3834602,1.0500001,1.1850001,0.62,0.93,88,98,0.71000004,-0.707,-0.066,0.14600001,3.2939227,0,nan,0.0,0.0,936,4,0,1,19
495033612,1693632638600375,11010053,366606011,1263420112,10712,28367,0.25,0.46912566,1.069,1.2040001,0.62,0.93,88,99,0.606,-0.59000003,-0.13900001,-0.011000001,3.3998127,0,nan,0.0,0.0,936,4,0,1,19
496034612,1693632639600375,11010053,366605969,1263420125,10858,28513,0.3,0.7218395,1.088,1.2090001,0.61,0.93,88,98,0.1,-0.097,0.021000002,-0.027,3.2266304,0,nan,0.0,0.0,1092,4,0,1,20
497034611,1693632640600375,11010053,366605956,1263420121,10926,28581,0.286,0.7218896,1.098,1.2140001,0.62,0.93,88,100,0.105000004,-0.032,-0.09900001,0.052,3.2266304,0,nan,0.0,0.0,936,4,0,1,19
498038612,1693632641600376,11010053,366605942,1263420129,10944,28599,0.28500003,0.72195226,1.12,1.2600001,0.61,0.93,88,128,0.36600003,-0.178,0.32000002,0.040000003,3.2266304,0,nan,0.0,0.0,936,4,0,1,20
499024612,1693632642600376,11010053,366605923,1263420153,10720,28375,0.523,0.722032,1.171,1.338,0.61,0.93,88,94,0.14500001,0.14400001,-0.018000001,0.532,3.2266304,0,nan,0.0,0.0,936,4,0,1,20
500025614,1693632643600376,11010053,366605900,1263420161,10252,27907,0.44300002,0.7221778,1.205,1.4250001,0.61,0.93,88,98,0.22000001,-0.113000005,-0.18800001,0.84200007,3.2266304,0,nan,0.0,0.0,936,4,0,1,20
501024612,1693632644600376,11010053,366605898,1263420161,10108,27763,0.354,0.7222699,1.223,1.4580001,0.61,0.93,88,102,0.15,-0.054,-0.14,0.109000005,3.2266304,0,nan,0.0,0.0,936,4,0,1,20
502022614,1693632645600377,11010053,366605896,1263420162,10156,27811,0.257,0.72232246,1.2210001,1.4480001,0.61,0.93,88,112,0.172,0.043,-0.16700001,0.124000005,3.2266304,0,nan,0.0,0.0,936,4,0,1,20
503038632,1693632646600377,11010053,366605894,1263420161,10125,27781,0.27800003,0.7223755,1.222,1.437,0.56,0.83,88,86,0.13900001,0.119,0.071,-0.128,3.2266304,0,nan,0.0,0.0,1092,4,0,1,21
504026642,1693632647600377,11010053,366605889,1263420159,10207,27862,0.328,0.72243506,1.23,1.442,0.56,0.83,88,96,0.102000006,-0.102000006,0.0,0.083000004,3.2266304,0,nan,0.0,0.0,1092,4,0,1,21
505015666,1693632648600378,11010053,366605882,1263420156,10197,27852,0.404,0.72250116,1.2490001,1.4640001,0.56,0.83,88,135,0.058000002,0.054,-0.020000001,0.07300001,3.2266304,0,nan,0.0,0.0,1092,4,0,1,21
506220611,1693632649800378,11010053,366605877,1263420159,10298,27954,0.33600003,0.7225813,1.2820001,1.498,0.56,0.83,88,96,0.046000004,-0.001,-0.046000004,0.09,3.2266304,0,nan,0.0,0.0,1092,4,0,1,21
507021613,1693632650600378,11010053,366605873,1263420146,10258,27913,0.286,0.722627,1.2900001,1.4990001,0.56,0.83,88,96,0.058000002,-0.014,0.056,0.155,3.2266304,0,nan,0.0,0.0,1092,4,0,1,21
508034619,1693632651600378,11010053,366605879,1263420141,10194,27849,0.411,0.72269386,1.3010001,1.5000001,0.57,0.84,88,114,0.21300001,-0.11400001,-0.18,0.068,3.2266304,0,nan,0.0,0.0,1092,4,0,1,20
509019031,1693632652600379,11010053,366605872,1263420144,10129,27784,0.43300003,0.72275823,1.309,1.5040001,0.57,0.84,88,82,0.291,-0.277,0.089,0.115,3.2266304,0,nan,0.0,0.0,1092,4,0,1,20
510217614,1693632653800379,11010053,366605888,1263420162,10361,28016,0.551,0.7393099,1.3570001,1.5740001,0.57,0.84,88,93,0.093,0.07,0.062000003,0.002,2.1151707,0,nan,0.0,0.0,1014,4,0,1,20
