timestamp,timestamp_sample,yaw_composite,yaw_variance,yaw[0],yaw[1],yaw[2],yaw[3],yaw[4],innov_vn[0],innov_vn[1],innov_vn[2],innov_vn[3],innov_vn[4],innov_ve[0],innov_ve[1],innov_ve[2],innov_ve[3],innov_ve[4],weight[0],weight[1],weight[2],weight[3],weight[4]
219071404,218972173,3.0079389,3.7977512,-2.5132742,-1.2566371,0.0,1.2566371,2.5132742,0.0,0.0,0.0,0.0,0.0,0.0,0.0,0.0,0.0,0.0,0.2,0.2,0.2,0.2,0.2
219269468,219169731,-2.8763525,3.6849475,-2.5132132,-1.2565761,6.106744e-05,1.2566983,2.5133355,0.0,0.0,0.0,0.0,0.0,0.0,0.0,0.0,0.0,0.0,0.2,0.2,0.2,0.2,0.2
220266692,220167395,-2.0631776,3.753495,-2.5111194,-1.254538,0.0020918332,1.2587802,2.5154567,-0.008754773,-0.002119545,-0.001239704,-0.007331483,-0.011976126,0.0264571,0.027688071,0.034379162,0.037283488,0.032387212,0.20002209,0.20001695,0.19998842,0.1999759,0.1999966
221264535,221165060,1.1574683,3.5640178,-2.5065656,-1.2498504,0.006802747,1.2633725,2.5199523,-0.0221502,-0.009654995,-0.0069502126,-0.017774269,-0.027168345,-0.05772887,-0.056512825,-0.044252865,-0.037892293,-0.046221144,0.19997089,0.19997495,0.20001392,0.20003335,0.20000689
222261977,222162725,2.4906368,3.5542166,-2.4747667,-1.2179576,0.039148923,1.2959051,2.5521472,0.02852626,0.0624052,0.031245107,-0.021872144,-0.02354905,-0.023237195,0.020522371,0.06626152,0.05075717,-0.0045420416,0.20005047,0.19982848,0.19984394,0.20007457,0.20020254
223269731,223170270,1.9152834,3.8600354,-2.4136183,-1.1563635,0.10082941,1.3571928,2.6131065,0.03288675,0.014289859,0.00562483,0.018863562,0.035700027,0.027805012,0.030884003,0.014143992,0.00073906034,0.009177165,0.19988279,0.19968744,0.19992429,0.20026538,0.20024005
224267041,224167936,1.3416203,3.4059775,-2.4456594,-1.1650008,0.09906644,1.3363926,2.5738416,0.2832169,0.28583467,0.11396909,0.00807254,0.10950389,-0.061691627,0.12092688,0.17718348,0.033879597,-0.11288445,0.19164933,0.1915842,0.20309196,0.21047477,0.20319971
225264907,225165604,1.4839718,3.2512786,-2.4637606,-1.1559227,0.12277191,1.3427566,2.5547028,0.12393627,0.34728467,0.22778185,-0.050560758,-0.11713022,-0.39186865,-0.20058765,0.063308254,0.033602297,-0.23651648,0.18383475,0.180091,0.20334765,0.2228158,0.20991084
226262394,226163272,1.3877351,2.938144,-2.4997287,-1.1439848,0.14704299,1.3287005,2.5038874,0.1720217,0.39321357,0.27845645,0.024136141,-0.0491658,-0.3037912,-0.12287566,0.12638703,0.10162207,-0.14275634,0.1656407,0.16259922,0.20968395,0.24654786,0.21552822
227260040,227160940,1.4006503,2.7876096,-2.5131276,-1.1326772,0.16870594,1.3316293,2.486445,-0.1487427,-0.032559276,0.09123987,0.056457702,-0.07785221,-0.22172427,-0.32769036,-0.24322124,-0.11188713,-0.09149213,0.1569443,0.15252006,0.21104595,0.25952187,0.2199678
228267617,228168487,1.4501635,2.6651354,-2.4733937,-1.069817,0.23752135,1.3837788,2.5230143,-0.25798804,-0.24517441,-0.09429851,-0.030799001,-0.114399776,-0.07280511,-0.23391634,-0.25487164,-0.13464731,-0.027380273,0.14974694,0.14482833,0.21252199,0.27007413,0.22282857
229265445,229166157,1.5023097,2.6047015,-2.4032497,-0.98763335,0.31926426,1.4559587,2.5887675,-0.17557043,-0.23733774,-0.16463374,-0.08037012,-0.07956376,0.16322252,0.07069805,-0.0037885122,0.033812016,0.12600337,0.14540544,0.14175934,0.21479295,0.27544335,0.2225989
230263164,230163827,1.5243226,2.5476608,-2.3897243,-0.9623327,0.3474246,1.4768053,2.6015716,-0.10258422,-0.19695194,-0.19492334,-0.1200222,-0.06501404,0.13681883,0.115207106,0.025371429,-0.0005946383,0.056011193,0.14194895,0.13801849,0.2153804,0.28070292,0.22394928
231260736,231161498,1.5713708,2.4838555,-2.386744,-0.9469863,0.37125757,1.4953518,2.6087613,0.33896452,0.31938887,0.082279004,-0.012331396,0.113763586,-0.06379535,0.19211614,0.22098982,0.03446056,-0.1302002,0.13943353,0.132754,0.21328837,0.2864121,0.22811201
232268310,232169047,1.6312648,2.240049,-2.4143019,-0.92709255,0.41494903,1.513639,2.5872679,0.3639855,0.38878882,0.16976625,0.058732852,0.14483628,0.0039117634,0.24984947,0.30939308,0.15267341,-0.015308544,0.12708789,0.11455814,0.20920745,0.3095193,0.23962723
233265960,233166719,1.6671139,2.162094,-2.4782395,-0.97764516,0.3869741,1.4847044,2.5396674,0.12838632,0.35022265,0.22925308,0.020472363,-0.048206463,-0.13082254,0.033617526,0.25790155,0.22571576,0.032803997,0.12652147,0.1059108,0.19984831,0.31627524,0.25144413
234263697,234164391,1.6097826,2.014809,-2.5311105,-1.0021238,0.3677328,1.4463048,2.4831746,-0.23686446,0.14830846,0.15454027,-0.1181461,-0.33110622,-0.4105863,-0.3689621,-0.011931792,0.08975391,-0.091851756,0.1173321,0.09745739,0.20089848,0.3305716,0.25374043
235261409,235162064,1.5037031,1.8060212,-2.5571861,-0.98226255,0.37664112,1.417516,2.434636,-0.33068144,-0.023112074,0.08289552,-0.08377222,-0.29669425,-0.36256573,-0.44830853,-0.1833229,-0.029300973,-0.092608914,0.09946385,0.08813773,0.2124734,0.35429737,0.24562775
236268874,236169617,1.4926664,1.7168391,-2.565239,-0.96913165,0.39100087,1.4173989,2.4232256,-0.29433376,-0.26985162,-0.06974179,-0.013997719,-0.108110175,0.090256795,-0.13576765,-0.13284305,0.0133142695,0.13530385,0.09302254,0.082837015,0.2140815,0.36483282,0.24522616
237266389,237167290,1.5344903,1.657754,-2.5260456,-0.91395164,0.4470441,1.464127,2.4614158,0.07250834,-0.06640928,-0.066100776,0.021521255,0.09606109,0.1638057,0.15157822,0.030174434,-0.0049598143,0.049684413,0.08893683,0.0792318,0.21467482,0.3718965,0.24526003
238264315,238164964,1.5590856,1.6300805,-2.4992948,-0.8793396,0.4808498,1.4930177,2.4864812,0.13833995,0.06988045,0.0020938143,0.021246575,0.08423626,0.018415293,0.09112617,0.037219845,-0.027127132,-0.045042813,0.08686117,0.077666685,0.21538244,0.3753067,0.24478306
239261746,239162639,1.5768161,1.6256958,-2.4793358,-0.85803443,0.50150347,1.5130074,2.5057707,0.015486268,0.006263022,-0.033925034,-0.042155933,-0.021776117,-0.007828744,0.03790423,0.033318833,0.0030712,-0.01962009,0.08641902,0.07752132,0.21584107,0.3758708,0.24434787
240269530,240170193,1.6196787,1.611226,-2.4465497,-0.8214431,0.540686,1.5509999,2.540583,0.05422152,0.14057997,0.08163989,0.0077551156,-0.015802763,-0.1209996,-0.046097517,0.033799388,0.014667248,-0.05642236,0.08585092,0.07621813,0.2145974,0.3775755,0.245758
241267122,241167869,1.6482601,1.5770442,-2.4257188,-0.7917738,0.5726754,1.57828,2.562109,-0.13865793,0.042998027,0.075320676,-0.025699006,-0.13512415,-0.19709809,-0.22121465,-0.06568559,0.0017816871,-0.04531467,0.08377938,0.07386113,0.21395048,0.38173372,0.24667524
242264706,242165546,1.6329387,1.5256969,-2.4173617,-0.76889944,0.5893693,1.5833256,2.5618663,-0.12537539,-0.031888314,-0.004743982,-0.05183133,-0.11189598,-0.0834615,-0.108919024,-0.030417811,0.011386797,-0.0045139045,0.078865506,0.07174974,0.21835323,0.38865128,0.24238029
243262331,243163223,1.6404945,1.5127176,-2.4210505,-0.76889104,0.59239376,1.585161,2.560751,0.034736186,-0.097578675,-0.12825364,-0.05916041,0.022537202,0.121364,0.14864708,0.037223738,-0.016710792,0.010670366,0.078465275,0.07050292,0.2168263,0.3902079,0.24399757
244270046,244170778,1.6229435,1.4080305,-2.4501421,-0.7659826,0.59737974,1.5726852,2.530246,0.23710696,0.111584105,-0.022630528,0.0066502914,0.12112742,0.1453385,0.29794854,0.19845514,0.077299856,0.03356898,0.071190916,0.063763015,0.21688063,0.4042127,0.24395269
245267699,245168456,1.6561774,1.352781,-2.448955,-0.74847144,0.6240051,1.592421,2.5381572,0.11606631,0.32346427,0.16937295,0.00218077,-0.049526483,-0.25349864,-0.06299025,0.118097946,0.0654365,-0.098270446,0.068755835,0.0592645,0.21231236,0.41120175,0.24846555
246265374,246166134,1.6794949,1.1990585,-2.4600947,-0.7092701,0.6714934,1.6142368,2.5309534,-0.22845688,0.17381617,0.19791457,-0.01563929,-0.22599897,-0.34920985,-0.3742565,-0.039370418,0.071236506,-0.032054618,0.059060052,0.049219903,0.20850788,0.43252987,0.25068223
247263053,247163812,1.6596528,1.0882565,-2.481799,-0.6898814,0.6885648,1.6072875,2.5043166,-0.4453668,-0.13415465,0.05049339,-0.061536312,-0.27641198,-0.20813186,-0.43636745,-0.17959139,0.01167807,0.039258897,0.050758656,0.042885467,0.20976412,0.44982085,0.24677095
248260593,248161491,1.6305469,0.95036024,-2.513361,-0.6601188,0.71163195,1.5958494,2.4657028,-0.4284988,-0.49856782,-0.21961173,-0.11041868,-0.1629431,0.2502083,-0.09812756,-0.14400041,0.014127087,0.19652887,0.04017889,0.03504512,0.2119113,0.47361723,0.23924741
249268381,249169048,1.6499604,0.83014065,-2.5278075,-0.6077712,0.76391906,1.6169798,2.4562612,0.15731385,-0.2547819,-0.23438013,-0.039097317,0.14717305,0.53734994,0.53807354,0.21838088,0.13747147,0.231024,0.032164678,0.027502855,0.20770864,0.49593264,0.23669118
250265895,250166728,1.69302,0.667015,-2.543764,-0.5124833,0.85779,1.6615707,2.4507422,0.5775417,0.31044152,-0.008921176,0.030786917,0.23332235,0.17462291,0.6356785,0.3972164,0.15083346,0.011239558,0.021853328,0.017889604,0.19905418,0.5295361,0.23166676
251263672,251164407,1.7600584,0.59354913,-2.5372849,-0.4473761,0.9348924,1.7158031,2.4761493,0.3590499,0.56102186,0.11784944,-0.05135703,-0.023719907,-0.26082575,0.3160465,0.39788154,0.18555194,-0.07905851,0.01833213,0.013348342,0.18662775,0.54528135,0.23641044
252261352,252162087,1.7822002,0.33419484,-2.6156988,-0.17892787,1.1404634,1.7778091,2.4072108,1.7338756,0.2947241,-0.19597852,0.19687343,0.8360976,0.57701504,1.6898432,0.5473107,-0.00468266,-0.18331772,0.0034715906,0.003019583,0.17870755,0.6281317,0.18666953
253268898,253169645,1.8452141,0.24280615,-2.706041,-0.04208561,1.284123,1.8258318,2.3591833,0.3605324,0.9667889,0.20974916,-0.013628244,-0.092258334,-0.7380633,0.29882008,0.39479858,0.15842354,-0.18012315,0.0010671479,0.0006223888,0.14506121,0.6707437,0.18250547
254267269,254167326,1.6044774,0.0939817,2.9169774,0.2513049,1.2922503,1.6118821,1.9228808,-3.3687077,1.2741743,0.5612043,-0.23977768,-1.1797942,-0.74110043,-2.7225063,-0.08424294,0.4252572,0.579756,0.00016186565,0.00016186565,0.1274323,0.7652986,0.10694532
255264302,255165007,1.4281873,0.034124516,2.2499237,0.5892081,1.2980262,1.4356527,1.558191,-2.6172047,-0.013033867,-0.24419022,-0.3849249,-0.58094454,1.860152,-2.5482316,-0.39578998,-0.01044929,0.4597819,0.00014686906,0.00014686906,0.10847893,0.8304259,0.0608014
256262577,256162688,1.276423,0.025737908,1.9280382,0.5640079,1.1881919,1.2804031,1.3498724,-0.8378458,-0.987466,-0.80488086,-0.73338556,-0.66171694,0.9282484,-1.0069432,-0.4325949,-0.37263212,-0.172957,0.00015675978,0.00015675978,0.09274097,0.8411038,0.065841734
257269606,257170247,1.171802,0.020703588,1.7280562,0.51643306,1.0973487,1.1738534,1.2303432,0.8820671,-0.79352266,-0.36505234,-0.22497684,-0.08737968,-0.22269905,0.80720943,-0.14069903,-0.28573227,-0.2764864,0.00014662961,0.00014048633,0.083085515,0.840317,0.0763103
258267553,258167929,1.0863295,0.017289782,1.5631233,0.48733765,1.0196648,1.0878583,1.1408007,-0.27905527,0.536141,0.0200876,-0.015549064,-0.02195537,0.77125484,0.71105593,0.71081084,0.6570283,0.69254696,0.00014702504,0.00014702504,0.07900189,0.8475587,0.0731454
259264822,259165611,1.0988431,0.016037509,1.5580211,0.53125703,1.0387098,1.1009897,1.1512433,-1.408915,0.53116727,-0.4264009,-0.5380875,-0.6160587,0.47307009,-0.14488864,0.31487435,0.31121737,0.36167496,0.00014796841,0.00014979464,0.0853762,0.85095406,0.06337193
260263081,260163294,1.12317,0.015471117,1.5758959,0.5800414,1.0684415,1.1255445,1.1737516,-0.84008443,0.41768658,-0.21762466,-0.28294468,-0.32619846,0.2660358,-0.13888389,0.1381889,0.13133162,0.17047322,0.00013865768,0.00016318834,0.09109263,0.84947824,0.059127316
261260238,261160976,1.1598864,0.015280581,1.6056659,0.6218463,1.1075544,1.1624606,1.2080383,-0.47987476,-0.16951638,-0.45376953,-0.46320847,-0.4600282,-0.39440197,0.23623821,-0.098713994,-0.15675569,-0.16946596,0.00014363068,0.00018856136,0.09407026,0.8480002,0.05759726
262258092,262158660,1.2477431,0.014541146,1.674442,0.7282678,1.1991222,1.2503052,1.293188,0.4032311,0.24467269,0.20400576,0.21944942,0.24167189,-0.24929214,0.40858674,0.015869468,-0.03561005,-0.0515092,0.00013705558,0.0001680903,0.096811935,0.846459,0.056424018
263265461,263166221,1.2993667,0.01429901,1.7153066,0.7883904,1.2518227,1.3018655,1.3440083,0.24941835,0.38093013,0.2476366,0.24475926,0.2481015,-0.09073687,0.26780254,0.0720078,0.041673936,0.03436348,0.00013790821,0.00013784994,0.09683736,0.8469177,0.05596924
264263442,264163905,1.3384119,0.014281897,1.750976,0.82772285,1.2902704,1.3408182,1.3833728,0.03389798,0.9581148,0.47797203,0.4291649,0.3903234,0.5611994,0.5940919,0.6611778,0.649972,0.652892,0.00015729813,0.00015729813,0.09490257,0.8482781,0.05650479
265260692,265161589,1.3558875,0.0098023545,1.6468512,0.95340586,1.3211279,1.3579631,1.3874072,-1.8026772,1.862102,0.06462383,-0.13659441,-0.30784583,0.47449493,-0.52879906,0.3186388,0.35970402,0.39804077,0.00014849746,0.00014849746,0.0977454,0.8496321,0.05232548
266258821,266159274,1.2060003,0.005348649,1.3575664,0.9654873,1.1883097,1.2074546,1.2215513,-1.6988328,1.1925502,-0.33319616,-0.4756546,-0.5923364,0.5354929,-0.8745661,-0.031751633,0.027104378,0.080080986,0.00014977984,0.00014977984,0.108671494,0.84565586,0.04537303
267265946,267166836,1.1198895,0.0029993216,1.1830964,0.9975275,1.1124072,1.1206578,1.1257551,-1.4605408,0.049969196,-0.838604,-0.90183544,-0.95165014,-0.47663212,-1.5102577,-1.0286446,-0.9871626,-0.9503126,0.00021158268,0.00021158268,0.11733554,0.84054637,0.041694846
268263811,268164522,1.1426919,0.0024413837,1.1749835,1.0625471,1.1386552,1.1431657,1.14515,-1.6768494,-0.7754841,-1.3581634,-1.3905606,-1.4149795,-1.3496971,-1.9844894,-1.7508726,-1.72684,-1.7046328,0.0004347233,0.0004347233,0.11865368,0.8389116,0.04156526
269261522,269162207,1.1494906,0.0021823973,1.1624565,1.1062491,1.1479678,1.1497327,1.150711,-1.9122696,-1.5547299,-1.8313932,-1.8389635,-1.8433137,-2.7949867,-3.0983896,-3.0544739,-3.0440235,-3.0323524,0.002640111,0.002640111,0.115188725,0.83619106,0.043339953
270269086,270169771,1.5760051,0.001973085,1.5748655,1.562227,1.5776502,1.5764195,1.5754803,-2.915774,-2.8073506,-2.9379468,-2.9319177,-2.9253805,-3.4997807,-3.557581,-3.7771778,-3.7610865,-3.7273169,0.031989638,0.030916424,0.09810176,0.78935,0.049642242
271266731,271167457,1.4841317,0.0016059424,1.4853837,1.4792792,1.485922,1.4841688,1.4833624,-1.4755092,-1.4676437,-1.5173883,-1.5079722,-1.4983835,-2.4107513,-2.6154938,-2.706811,-2.6769905,-2.6361399,0.13579413,0.05714662,0.06983817,0.6813384,0.055882696
272264399,272165143,1.245167,0.0015164155,1.2470325,1.2416916,1.2461036,1.244237,1.2434068,-1.0076867,-1.0214361,-1.0468968,-1.0393542,-1.0309193,-2.6287632,-2.8314304,-2.8371449,-2.8165035,-2.791523,0.3611604,0.046499375,0.043128338,0.49888435,0.050327588
273262083,273162829,1.1475656,0.0015831072,1.1478064,1.1470299,1.1493194,1.1470608,1.1458044,-1.4946747,-1.513741,-1.5274409,-1.5240794,-1.5183574,-3.481616,-3.654399,-3.6298094,-3.6180153,-3.6046095,0.6696057,0.019526606,0.01976629,0.26046172,0.030639747
274259781,274160515,1.1120043,0.0016651562,1.111124,1.1162891,1.1200947,1.117256,1.1142809,-1.9618683,-1.9697585,-1.9823937,-1.9825666,-1.9796214,-3.557929,-3.686862,-3.6656036,-3.6577015,-3.648798,0.8516954,0.00705051,0.008228018,0.117670976,0.015355114
275267195,275168080,1.1283882,0.0017337226,1.1277827,1.1376995,1.1392667,1.136109,1.1328226,-2.1204064,-2.11211,-2.127075,-2.1301954,-2.1298292,-3.4902115,-3.5839596,-3.5715542,-3.5644226,-3.5562916,0.92794657,0.0062883208,0.0062883208,0.05205685,0.007420004
276264910,276165766,0.7161445,0.0017182449,0.7148271,0.7286891,0.72645366,0.7233117,0.72048414,-1.2523394,-1.1889124,-1.225194,-1.2404957,-1.2473049,-4.8378563,-4.842286,-4.827751,-4.8389635,-4.8515434,0.86688423,0.033015266,0.033015266,0.034070034,0.033015266
277262564,277163452,-0.055138636,0.0008912611,-0.06485042,-0.052668996,-0.051785078,-0.05378593,-0.056759715,-1.0824547,-0.84353256,-0.97657394,-1.01054,-1.0237732,-4.4429693,-4.327941,-4.3355155,-4.359821,-4.3890395,0.15165582,0.28171366,0.22948039,0.18631601,0.15083407
278260260,278161137,-0.89605135,0.00047212772,-0.90128255,-0.8947755,-0.8949926,-0.89606446,-0.8974291,0.15377522,0.3423376,0.24217606,0.2164278,0.20594311,-3.9758806,-3.956338,-3.9664564,-3.9736414,-3.979207,0.0994621,0.3316581,0.25892177,0.18325937,0.12669866
279267846,279168701,-1.6637521,0.00037533994,-1.6659974,-1.6620787,-1.6639222,-1.664565,-1.6648852,0.16159487,0.277951,0.21487364,0.198018,0.1914649,-3.4876976,-3.5428772,-3.6025848,-3.5945835,-3.5672264,0.14150976,0.36859763,0.2143631,0.15499447,0.12053499
280265536,280166386,-1.9222456,0.00038665853,-1.9259572,-1.9222916,-1.9187627,-1.9195323,-1.9214606,0.5095482,0.572937,0.5246787,0.5155511,0.51588535,-3.2580051,-3.3144207,-3.3797016,-3.370041,-3.339487,0.23884517,0.3902365,0.14583066,0.11399611,0.11109154
281263356,281164071,-1.5929247,0.00044890054,-1.5937988,-1.5914707,-1.5935585,-1.5939596,-1.5938793,1.4403257,1.4901438,1.4454613,1.4381533,1.4402857,-3.3604355,-3.389103,-3.4230175,-3.4186573,-3.4034958,0.313826,0.37373465,0.11446179,0.094164334,0.10381314
282260873,282161756,-1.3041469,0.00051628303,-1.3050662,-1.3028659,-1.304288,-1.3046819,-1.3047701,0.8528509,0.8867531,0.8559036,0.85084295,0.8523917,-3.054573,-3.04879,-3.0371704,-3.0398731,-3.0460587,0.33997753,0.34703088,0.11355992,0.094662145,0.10476951
283258699,283159440,-1.0140004,0.0005839256,-1.0153687,-1.0130532,-1.0132127,-1.0136523,-1.0141447,0.66414547,0.6876745,0.6653929,0.6619663,0.6633358,-2.7209167,-2.7028027,-2.6742516,-2.679367,-2.693245,0.32148543,0.33654588,0.12748337,0.1047708,0.109714486
284266273,284167002,-0.81353617,0.0006420813,-0.8153367,-0.812962,-0.8121495,-0.8126157,-0.8134099,0.36876392,0.38300323,0.3682766,0.36629486,0.36751938,-2.4553032,-2.434805,-2.4042397,-2.4095058,-2.424221,0.28810644,0.32935038,0.14833894,0.11890238,0.11530182
285263997,285164685,-0.722548,0.00070672814,-0.7241986,-0.7219272,-0.7215641,-0.7219889,-0.72261244,0.014198303,0.023151398,0.013354301,0.012143135,0.013077736,-2.35948,-2.3426971,-2.318325,-2.3225288,-2.3342896,0.26043078,0.3240256,0.16620567,0.13040726,0.11893077
286261639,286162368,-0.70679325,0.0007880662,-0.7088107,-0.70650977,-0.7053775,-0.70582944,-0.70669645,0.08931637,0.09601498,0.08824825,0.08733654,0.0881691,-2.0718184,-2.0600653,-2.0431776,-2.0461302,-2.0543222,0.24224223,0.31984946,0.17876528,0.13820618,0.1209368
287259154,287160050,-0.7384117,0.0008782751,-0.7403195,-0.7380832,-0.7372102,-0.73764277,-0.73841465,0.04299259,0.04878235,0.041522026,0.040719032,0.041610718,-2.0525045,-2.044671,-2.0334444,-2.035451,-2.0409174,0.23029552,0.31651038,0.18754612,0.14353307,0.12211498
288266734,288167609,-0.75657064,0.000973229,-0.7584181,-0.7562171,-0.7554922,-0.75591457,-0.7566324,0.10800648,0.11292362,0.10633564,0.10564041,0.10653305,-1.8538017,-1.8483791,-1.8406906,-1.8420753,-1.8458347,0.22165772,0.31354222,0.19428788,0.14758262,0.12292954
289264400,289165291,-0.7480269,0.0010685477,-0.74969435,-0.747515,-0.7472121,-0.74761426,-0.7481935,0.17922688,0.18354416,0.17751884,0.17688942,0.1777544,-1.6900263,-1.6859293,-1.6801443,-1.6811724,-1.68402,0.21714868,0.31171563,0.19797342,0.14980116,0.123361036
290262279,290162971,-0.7435143,0.0011652233,-0.7454182,-0.7432123,-0.7424125,-0.74283755,-0.7435786,0.18387318,0.18758488,0.18231583,0.18176746,0.18253517,-1.3888702,-1.3857422,-1.3813286,-1.3821163,-1.3843021,0.21460247,0.310601,0.20010331,0.15108748,0.12360585
291259890,291160651,-0.64929426,0.0012624328,-0.6515294,-0.64922404,-0.64784104,-0.64829797,-0.64923936,0.15795803,0.159626,0.1574688,0.15720367,0.1574831,-1.1228933,-1.1192207,-1.1141424,-1.1149988,-1.1174831,0.21214256,0.30947557,0.20217894,0.1523511,0.12385186
292267357,292168208,-0.5452724,0.0013563151,-0.5478476,-0.5454482,-0.54346323,-0.5439517,-0.54509723,0.14285278,0.14236164,0.14357185,0.14360523,0.14334965,-0.90579605,-0.90164566,-0.8959274,-0.89686966,-0.89962196,0.20958154,0.3086049,0.20420517,0.15355165,0.12405678
293265137,293165886,-0.56919014,0.001445502,-0.5702194,-0.5682709,-0.5690928,-0.569427,-0.56961226,0.11855221,0.117798805,0.11936283,0.119428635,0.11912441,-0.67401123,-0.6699457,-0.6643276,-0.66524315,-0.6679354,0.20818059,0.30818665,0.20528868,0.15418582,0.12415831
294262842,294163564,-0.55459005,0.0015376258,-0.55555975,-0.55363995,-0.55455244,-0.5548796,-0.55503064,0.08887005,0.08847904,0.08937168,0.08938122,0.08919811,-0.54929256,-0.54612446,-0.54172707,-0.5424404,-0.5445528,0.20687094,0.3077448,0.20632559,0.1547981,0.12426053
295260498,295161242,-0.5765551,0.0016328654,-0.57758987,-0.5756552,-0.5764454,-0.5767781,-0.5769696,-0.024684906,-0.024861336,-0.024380684,-0.024410248,-0.024513245,-0.7196827,-0.7177143,-0.71495724,-0.7154083,-0.71673584,0.2060307,0.30742526,0.20700979,0.15520433,0.12432981
296268133,296168796,-0.5455016,0.0017316355,-0.5464335,-0.5445326,-0.5455011,-0.54582363,-0.5459535,0.0043735504,0.004255295,0.0045928955,0.0045547485,0.0044813156,-0.41342258,-0.41208553,-0.4101963,-0.41050434,-0.41142368,0.20564154,0.307285,0.20732461,0.15539019,0.12435856
297265758,297166472,-0.56086284,0.0018294053,-0.5618435,-0.55992866,-0.56080973,-0.56113696,-0.56129646,0.0020580292,0.0019044876,0.0022802353,0.0022392273,0.002169609,-0.3141842,-0.3132162,-0.31184006,-0.3120699,-0.3127432,0.20543374,0.30721903,0.20748872,0.1554864,0.12437217
298263530,298164147,-0.5535474,0.0019275186,-0.55450344,-0.55259717,-0.55352014,-0.55384475,-0.5539894,-0.028122902,-0.028457642,-0.027806282,-0.027823448,-0.027934074,-0.16275787,-0.16200161,-0.16092968,-0.16111088,-0.16163826,0.20535341,0.307191,0.20755373,0.15552445,0.124377474
299261698,299161822,-0.57433987,0.0020252308,-0.5753638,-0.57343733,-0.5742399,-0.5745708,-0.57475674,-0.072862625,-0.07333088,-0.072473526,-0.072467804,-0.07261658,-0.109978676,-0.109666824,-0.109210014,-0.10929203,-0.109532356,0.2053332,0.30716607,0.2075786,0.15554044,0.12438164
300268666,300169374,-0.5543901,0.002125628,-0.5569236,-0.55457217,-0.55264837,-0.5531277,-0.5542437,-0.11398506,-0.11429691,-0.11372757,-0.11374378,-0.1138401,-0.06012249,-0.060361862,-0.0606699,-0.060622215,-0.060508728,0.20533556,0.30714703,0.20758669,0.15554649,0.1243842
301266512,301167047,-0.53566355,0.0022219643,-0.5382583,-0.5358876,-0.53385663,-0.53434235,-0.535495,-0.08248234,-0.083670616,-0.08162403,-0.081513405,-0.08186722,0.15928745,0.1597805,0.16048527,0.1603756,0.16001606,0.20534162,0.3071238,0.20759268,0.15555273,0.124389194
302263933,302164720,0.005607514,0.0020318625,0.002134379,0.0046236627,0.008488519,0.007939599,0.0062052794,-0.9606571,-0.97348976,-0.95085335,-0.9490948,-0.95311356,1.5696077,1.5769713,1.5874054,1.5858281,1.5809882,0.20879479,0.3067081,0.20553425,0.15454334,0.124419466
303261923,303162392,0.5029783,0.001304282,0.50027263,0.5019895,0.50531876,0.504925,0.5035305,-1.1201763,-1.134922,-1.1071672,-1.1051588,-1.110302,0.4964409,0.4986024,0.49943542,0.49905968,0.49832773,0.21074358,0.29707545,0.2082795,0.15758966,0.1263119
304259348,304160064,0.74414694,0.0009065843,0.7422019,0.7433419,0.7458466,0.7455779,0.7445638,-0.7176895,-0.7265568,-0.710392,-0.7091665,-0.7120981,-0.09601593,-0.09802532,-0.11112881,-0.11040497,-0.10594654,0.21004951,0.29035112,0.21149246,0.16043401,0.12767297
305267199,305167613,0.80669236,0.0007956996,0.80500287,0.80592287,0.80819994,0.8079765,0.8070813,-0.4387102,-0.4441185,-0.43355656,-0.4328308,-0.43483734,-0.22836399,-0.23208237,-0.2524891,-0.25127983,-0.24421692,0.21021205,0.28811944,0.21229053,0.1612474,0.12813061
306264626,306165283,1.1368542,0.0007916172,1.136351,1.1368518,1.137181,1.13708,1.1368699,-0.2979803,-0.30158615,-0.2933159,-0.29287052,-0.2945795,0.035229683,0.028684616,-0.0027151108,-0.0007276535,0.010309219,0.21171696,0.2884495,0.21116434,0.16060373,0.12806551
307262606,307162952,1.9342103,0.00067266217,1.9344865,1.934662,1.9337916,1.9337784,1.9340048,-1.2763433,-1.2784381,-1.2656107,-1.265553,-1.2689872,-0.37761116,-0.39627838,-0.4778309,-0.4724102,-0.4433899,0.21031585,0.28399566,0.2137575,0.16280448,0.12912653
308259878,308160621,2.5494187,0.00054123235,2.5486693,2.5490727,2.5501297,2.5500295,2.5496182,-0.38193035,-0.38287926,-0.38129807,-0.38117504,-0.38141632,-0.51628494,-0.5333805,-0.6073017,-0.6023731,-0.576066,0.22026679,0.29181346,0.20401661,0.15633108,0.12757209
309267428,309168168,3.1007323,0.00048072616,3.0994165,3.0999618,3.1021774,3.1020243,3.1012287,-0.1484356,-0.15422058,-0.19207764,-0.19012451,-0.17725754,-0.3912289,-0.40122867,-0.4442315,-0.44137073,-0.42606091,0.2307559,0.30060735,0.19379687,0.14932515,0.12551464
310264950,310165835,-3.0907588,0.00051548553,-3.0886693,-3.0892272,-3.0932884,-3.0930898,-3.0917263,-0.2909851,-0.29650497,-0.33229828,-0.33044052,-0.31827354,0.23311874,0.22651574,0.19717,0.19907552,0.20948336,0.23286071,0.30269945,0.1915872,0.14778568,0.12506692
311262902,311163503,2.955715,0.00059162703,2.9544976,2.9549909,2.957079,2.956938,2.9561925,-0.13948822,-0.14275742,-0.16295052,-0.16186523,-0.15497208,0.32190645,0.3169893,0.29480958,0.29623294,0.30409062,0.2325167,0.30266535,0.19178022,0.1479106,0.12512718
312260454,312161169,2.8137736,0.000684726,2.8128133,2.8132207,2.8148296,2.8147159,2.8141358,-0.14481735,-0.14592552,-0.15139008,-0.15105438,-0.14914513,0.30803442,0.3048334,0.29029608,0.29122305,0.29637384,0.23138323,0.3018188,0.1928027,0.14862187,0.12537345
313267830,313168713,2.665242,0.00078223983,2.6666648,2.6663153,2.6635273,2.6636562,2.6645832,-0.043720245,-0.043730736,-0.041991234,-0.04204178,-0.042574883,0.1801939,0.17836046,0.16997623,0.17050457,0.1734786,0.23054162,0.30111772,0.19359827,0.14917873,0.12556368
314265665,314166378,2.6424873,0.00087771605,2.6438456,2.643517,2.6408536,2.640976,2.6418605,-0.2677536,-0.26742172,-0.26359653,-0.2637577,-0.26501465,0.30355644,0.30228376,0.2964406,0.29680443,0.29887915,0.23000136,0.3006376,0.1941238,0.1495484,0.12568884
315263190,315164043,2.6966076,0.0009729351,2.6981173,2.6977415,2.6948082,2.694945,2.6959233,-0.3072939,-0.30702877,-0.30403137,-0.30416584,-0.30515766,0.25861216,0.25772524,0.25368118,0.253932,0.2553754,0.2292607,0.29996863,0.19485076,0.1500597,0.1258601
316260997,316161707,2.709364,0.0010707022,2.7109084,2.7105217,2.7075286,2.7076688,2.7086675,-0.41387272,-0.4138279,-0.41263103,-0.4126854,-0.41308117,0.16844368,0.1676445,0.16403866,0.16426086,0.16555166,0.22898157,0.29970813,0.19512974,0.1502558,0.1259248
317268356,317169249,2.7788925,0.0011702436,2.7806108,2.7801695,2.7768617,2.7770195,2.7781265,-0.31196117,-0.3120432,-0.31194973,-0.3119526,-0.31198502,-0.057187557,-0.05771351,-0.060065746,-0.059922695,-0.05907631,0.22866964,0.29941335,0.19544467,0.15047647,0.12599592
318266134,318166913,2.7177339,0.0012648734,2.7169962,2.7173293,2.71852,2.7184293,2.7179942,-0.6807804,-0.6816473,-0.6872349,-0.6869564,-0.6850891,-0.19606638,-0.1966343,-0.1991539,-0.19899845,-0.19809055,0.22913946,0.299831,0.19498938,0.15015522,0.12588497
319263722,319164576,-2.9215782,0.0013097635,-2.9196906,-2.9201953,-2.923851,-2.9236722,-2.9224412,-0.53862095,-0.541461,-0.5611954,-0.5602217,-0.55359364,-0.1428338,-0.14378594,-0.14801478,-0.14774868,-0.14623593,0.23182067,0.30234236,0.19232447,0.14827052,0.12524202
320261504,320162238,3.0191014,0.0013491601,3.017685,3.0182295,3.0207117,3.0205514,3.0196767,-0.27036476,-0.27236652,-0.28622627,-0.2855444,-0.28089428,0.15571791,0.15509905,0.15228969,0.1524604,0.15347101,0.23278275,0.30326957,0.1913559,0.14758399,0.12500782
321268927,321169779,2.3765545,0.0013755425,2.3766549,2.3767102,2.3763788,2.3763752,2.3764677,0.23240185,0.23523808,0.25566006,0.25465202,0.2477436,0.43725586,0.4379425,0.4411316,0.44091988,0.43982983,0.23350777,0.3039672,0.19062683,0.14706926,0.1248289
322266695,322167441,2.3908165,0.001326228,2.390704,2.3908184,2.3908997,2.3908753,2.3908277,0.07914734,0.08165741,0.099635124,0.098745346,0.09265995,0.25502396,0.25557423,0.25829124,0.25811768,0.25719833,0.23460603,0.30497965,0.18953763,0.14630367,0.12457298
323264297,323165102,2.7162948,0.0013814135,2.7151291,2.7155788,2.7176363,2.7175035,2.7167773,-0.00065517426,0.0001783371,0.006324768,0.0060138702,0.003914833,0.11220646,0.11116123,0.10608959,0.10639858,0.10820198,0.23441207,0.3048127,0.18972021,0.1464338,0.124621294
324261878,324162764,2.729219,0.0014650864,2.7303545,2.7300642,2.7278206,2.727925,2.728675,0.24677467,0.2468338,0.24741364,0.24736977,0.2471466,0.24437237,0.24330139,0.2381115,0.23842669,0.24027252,0.23412801,0.30459452,0.18997872,0.14661458,0.12468416
325259784,325160425,2.7953143,0.0015598399,2.7966142,2.796271,2.7937229,2.7938442,2.7946985,0.31057358,0.3105545,0.31057167,0.3105507,0.31052017,0.13354778,0.13298988,0.13031054,0.13047314,0.13144016,0.2338973,0.30441293,0.19018997,0.1467638,0.12473594
326267077,326167964,2.7407007,0.0016574974,2.7418752,2.7415724,2.739259,2.7393677,2.7401412,0.3361225,0.33605766,0.33574772,0.335742,0.33582687,0.15922832,0.15926886,0.15952015,0.15950108,0.15944195,0.23378006,0.30431265,0.19029762,0.14684299,0.12476667
327264961,327165624,2.6839643,0.0017551993,2.6829095,2.6833215,2.6851692,2.685049,2.6843944,0.22517967,0.22525883,0.22594833,0.22589493,0.22563457,0.2935362,0.29362154,0.29407835,0.29404974,0.2939186,0.23381883,0.30434895,0.19025725,0.1468164,0.124758564
328262387,328163285,2.696877,0.0018522852,2.6979373,2.6976707,2.6955693,2.6956666,2.6963673,0.19786835,0.1980505,0.19944191,0.19935131,0.1988573,0.108484745,0.10842466,0.108174324,0.10819101,0.10830736,0.2339756,0.30449754,0.19009912,0.14670627,0.12472147
329260224,329160945,2.7268825,0.0019493672,2.7280188,2.7277274,2.7254832,2.7255883,2.726338,0.3864975,0.38673973,0.38855648,0.38844776,0.38780785,0.059416294,0.059329033,0.058947563,0.058972836,0.059135914,0.23410372,0.3046225,0.18996805,0.14661472,0.12469104
330267693,330168484,2.7223294,0.002047698,2.7234528,2.7231653,2.7209444,2.7210484,2.7217898,0.4130373,0.41313362,0.41394234,0.41389275,0.41358948,-0.1399889,-0.13975525,-0.13853979,-0.13861513,-0.13900709,0.23422009,0.3047379,0.1898461,0.1465296,0.12466637
331265381,331166142,2.7395935,0.0021430277,2.7407618,2.7404597,2.7381558,2.7382643,2.7390344,0.37929916,0.3792553,0.37905884,0.37905312,0.37909412,-0.29108572,-0.2906556,-0.28847885,-0.28861284,-0.2893424,0.23414926,0.30468377,0.1899076,0.14657362,0.12468577
332263072,332163804,2.7752771,0.0022316908,2.7765355,2.7762046,2.7737365,2.773854,2.7746806,0.23379517,0.23352337,0.2317419,0.23181629,0.23239422,-0.3548913,-0.35433483,-0.35154676,-0.35171986,-0.35266304,0.23377652,0.30436304,0.1902601,0.1468228,0.124777585
333260709,333161461,2.7755032,0.00231441,2.7767684,2.7764356,2.7739587,2.774077,2.7749062,0.12525177,0.12489796,0.1225853,0.1226778,0.123441696,-0.25249386,-0.25197697,-0.24936724,-0.24953318,-0.2504115,0.23337476,0.3040176,0.19064157,0.14709139,0.12487472
334268137,334168998,2.7719178,0.0024037515,2.7731795,2.7728481,2.7703805,2.770498,2.7713244,-0.03285694,-0.03305149,-0.034272194,-0.034235,-0.03384018,-0.46030235,-0.46005297,-0.4587655,-0.458848,-0.45926762,0.23310353,0.3037906,0.19089785,0.14726919,0.12493891
335265820,335166660,2.7647479,0.0025003757,2.7659945,2.7656677,2.7632282,2.7633443,2.7641609,-0.107569695,-0.10770035,-0.10844803,-0.10843754,-0.10819435,-0.50048923,-0.5006876,-0.5016179,-0.5015645,-0.50120974,0.23313573,0.30381662,0.1908677,0.14724642,0.12493348
336263626,336164316,2.783464,0.0025896607,2.7847574,2.7844148,2.7818863,2.7820072,2.7828546,0.06029129,0.06024742,0.060108185,0.06009102,0.06011772,-0.46264935,-0.46328926,-0.4664049,-0.46621513,-0.46509743,0.23341095,0.3040433,0.19060828,0.147064,0.12487347
337261088,337161974,2.6736064,0.0026644662,2.6726093,2.6729991,2.6747482,2.6746333,2.6740131,0.3560028,0.35646248,0.35979462,0.35960197,0.35846138,-0.27607918,-0.27641392,-0.2780304,-0.27793312,-0.27733803,0.23404433,0.304582,0.18999875,0.1466394,0.124735475
338268659,338169511,2.3850148,0.002533731,2.38483,2.3849533,2.3851972,2.3851666,2.3850653,0.8547001,0.85673904,0.8709936,0.87027264,0.8654337,-0.2861843,-0.28482723,-0.27792454,-0.27835178,-0.28071785,0.23637146,0.30679658,0.18767905,0.14499238,0.12416047
339266321,339167169,2.1581228,0.0020605873,2.1585264,2.1584437,2.157597,2.1576297,2.1579068,0.82175255,0.8241644,0.8406124,0.839777,0.8342018,-0.44548988,-0.44244385,-0.42634583,-0.42730713,-0.4328575,0.23819757,0.30868357,0.18579605,0.14363933,0.12368354
340264084,340164827,1.8830343,0.0016434189,1.8841915,1.88385,1.8815857,1.8817003,1.8824664,0.72516775,0.7277484,0.7447715,0.7438884,0.738112,-0.45096397,-0.44607162,-0.41962814,-0.42117882,-0.43029594,0.23893373,0.30958453,0.1849654,0.14303635,0.12348
341261596,341162485,1.6829087,0.0011579772,1.6847314,1.6841593,1.6806532,1.6808399,1.6820346,0.4151001,0.41767323,0.43380415,0.43293333,0.4274403,-0.18660736,-0.18126678,-0.15181732,-0.15351486,-0.16367912,0.23853296,0.30952173,0.18518394,0.1431861,0.12357522
342269160,342170025,1.3299704,0.0009409615,1.3319921,1.3313442,1.327457,1.3276658,1.3289912,0.41338396,0.41506195,0.42545176,0.42487335,0.42133188,0.006959915,0.012189865,0.04115486,0.03949547,0.029476166,0.23967087,0.31063437,0.18401489,0.14236753,0.12331242
343266816,343167677,1.1770376,0.0008131613,1.1790591,1.1784047,1.1745166,1.1747261,1.176052,0.06503296,0.06539917,0.06781483,0.06766319,0.066841125,0.083761215,0.08761978,0.10899353,0.10776329,0.100372314,0.240365,0.3112841,0.18331343,0.14187965,0.12315787
344265159,344165335,0.88739556,0.00078080926,0.88873434,0.8883015,0.88572323,0.88586134,0.88673806,0.08932686,0.08800888,0.080387115,0.080779076,0.08339691,0.08679581,0.089962006,0.10748291,0.10647106,0.10041046,0.24063699,0.31153446,0.18303771,0.14168999,0.12310081
345262384,345162991,0.6281724,0.00073892006,0.6287459,0.62856334,0.62745464,0.6275132,0.6278872,-0.0041151047,-0.007902145,-0.03003788,-0.028856277,-0.021262169,0.031490326,0.03397274,0.04773903,0.046946526,0.042185783,0.2406644,0.31158188,0.18298404,0.1416591,0.12311053
346260380,346160648,0.36653146,0.0007236482,0.3663323,0.36640447,0.36678258,0.36675978,0.36662596,-0.17285728,-0.17830849,-0.21018028,-0.20846367,-0.19753265,0.09704542,0.099164486,0.110976696,0.11029482,0.106218815,0.2440287,0.31453964,0.17975695,0.1393775,0.1222972
347267554,347168182,0.13255289,0.0007168801,0.13179386,0.13205679,0.13355069,0.13346738,0.1329517,-0.33257103,-0.33971786,-0.3814926,-0.3792286,-0.36491966,0.2433083,0.24525619,0.256222,0.25559783,0.2518158,0.2490529,0.3189179,0.1749794,0.1359914,0.121058464
348265416,348165839,-0.06962215,0.0007032739,-0.070741855,-0.07034689,-0.068075374,-0.068201005,-0.06898316,-0.44154167,-0.44848633,-0.48909187,-0.4868889,-0.4729824,0.37160623,0.37316012,0.3819461,0.3814484,0.37842417,0.25634924,0.32513547,0.16817196,0.13114506,0.1191982
349262708,349163495,-0.33524683,0.0007111505,-0.3363423,-0.335952,-0.3337011,-0.33382526,-0.3346009,-0.07177925,-0.07829094,-0.116285324,-0.114234924,-0.10122299,0.65140533,0.6521654,0.65639687,0.6561537,0.65469885,0.25947252,0.327782,0.16526876,0.12907755,0.11839915
350260688,350161150,-0.5452103,0.00071593194,-0.54609805,-0.5457818,-0.54395723,-0.54405713,-0.5446869,0.15224934,0.14680862,0.115068436,0.11677837,0.12764645,0.6680851,0.66771793,0.6654177,0.6655302,0.6663208,0.25951293,0.32787472,0.16517085,0.12902144,0.11842001
351267898,351168684,-0.7636394,0.0007235654,-0.76408803,-0.763929,-0.76302004,-0.763069,-0.76338464,0.32406616,0.31958675,0.2934475,0.29485512,0.30380058,0.7571106,0.75516415,0.7437191,0.7443342,0.7482662,0.2563448,0.32531622,0.16798592,0.1310552,0.11929787
352265737,352166339,-1.0017543,0.00072765164,-1.0015607,-1.0016236,-1.0020121,-1.001989,-1.001859,0.3885355,0.38480282,0.36303616,0.36420822,0.3716507,0.8699713,0.86618996,0.8440838,0.84527874,0.85287,0.24866313,0.31893495,0.17497917,0.13607492,0.12134783
353263319,353163994,-1.2678913,0.0007475301,-1.2669915,-1.2672836,-1.2690135,-1.2689159,-1.2683256,0.47311068,0.46986246,0.45094442,0.45195913,0.4584279,1.0057812,1.0008469,0.9720192,0.9735813,0.9834709,0.2397294,0.3113032,0.18330784,0.14201763,0.1236418
354260820,354161649,-1.5056396,0.0007244452,-1.5041511,-1.5046102,-1.5073128,-1.5071616,-1.5062379,0.6443568,0.6418267,0.62712497,0.6279043,0.6329355,0.815752,0.809782,0.7749996,0.776886,0.7888241,0.22424349,0.2975595,0.19823305,0.15257803,0.12738594
355268298,355169181,-1.7507112,0.00071921654,-1.7489322,-1.7494609,-1.752561,-1.7523886,-1.7513293,0.6164079,0.6148205,0.6056824,0.6061511,0.6092825,0.66007423,0.6540718,0.6192646,0.6211605,0.6331043,0.21281132,0.28701448,0.20964876,0.1605807,0.12994476
356266111,356166835,-1.9838951,0.0007104896,-1.9822043,-1.9826959,-1.9855735,-1.9854144,-1.9844319,0.8312588,0.83111954,0.83050823,0.83050346,0.83071613,0.49419594,0.48885918,0.4578972,0.45957565,0.4702072,0.2061046,0.2806839,0.21649,0.16535482,0.13136667
357263628,357164489,-2.2386281,0.000693845,-2.237485,-2.2378168,-2.2397552,-2.239648,-2.238988,0.7215996,0.72366905,0.7360077,0.73528194,0.7310648,0.09492397,0.09033966,0.06373119,0.06517315,0.074323654,0.2052022,0.27987403,0.21736392,0.16598283,0.13157693
358261275,358162142,-2.5872912,0.0006697124,-2.5873086,-2.5873022,-2.5872736,-2.5872757,-2.587288,0.5604763,0.56526566,0.5934925,0.59189034,0.582222,0.035294533,0.03144455,0.009069443,0.0102825165,0.01798153,0.20883276,0.2834398,0.21351129,0.16333988,0.13087626
359268829,359169674,-2.9076111,0.0006434542,-2.9085627,-2.9082754,-2.906611,-2.9067044,-2.9072757,0.3941021,0.401289,0.44360352,0.4412346,0.42673683,0.27404642,0.27072883,0.25137377,0.25242233,0.25907874,0.214381,0.2888248,0.20769708,0.15932864,0.12976842
360266440,360167327,3.0868678,0.00062004244,3.085408,3.0858555,3.0884578,3.088312,3.0874188,0.27791214,0.2858143,0.33221817,0.32963753,0.3137455,-0.034934998,-0.03755045,-0.052918673,-0.052090406,-0.046811342,0.21942206,0.29369187,0.20244844,0.15569572,0.12874185
361264127,361164979,2.7592149,0.00060831575,2.7578404,2.7582614,2.7607238,2.7605853,2.7597394,-0.033071518,-0.025911331,0.016077042,0.013750076,-0.00062179565,0.12465668,0.12332153,0.11536312,0.115777016,0.11850834,0.22034292,0.29466906,0.20140028,0.15498707,0.12860072
362261768,362162632,2.4153237,0.0005953508,2.4146576,2.4148595,2.416052,2.4159832,2.4155734,-0.28795242,-0.28183365,-0.24612331,-0.24810314,-0.26032257,0.19949627,0.20060253,0.20687008,0.20649147,0.2043457,0.21918985,0.2936812,0.20246768,0.15575433,0.12890689
363269468,363170162,2.2411022,0.0005927317,2.2408602,2.240932,2.2413683,2.241342,2.241191,-0.05103016,-0.046305656,-0.018724442,-0.02025795,-0.029690742,0.19163704,0.19498634,0.21430779,0.21321106,0.20658684,0.2186389,0.2932315,0.20295098,0.15610953,0.12906918
364266935,364167814,1.8629767,0.0006055843,1.8638077,1.8635504,1.8620666,1.8621469,1.8626553,-0.093613625,-0.08974314,-0.067144394,-0.0684104,-0.07613945,0.33554077,0.34137726,0.3752365,0.37332916,0.36171532,0.22060135,0.29512697,0.20090349,0.15469456,0.12867358
365264816,365165465,1.6128631,0.00062944356,1.6141015,1.6137124,1.6114614,1.6115844,1.6123561,-0.07543659,-0.07201791,-0.052069426,-0.053194046,-0.06001568,0.41319847,0.4202652,0.46141624,0.45910454,0.44498634,0.22524115,0.2994826,0.19619872,0.15141489,0.12766267
366262301,366163116,1.3802167,0.00062605104,1.3816267,1.3811764,1.3785721,1.3787146,1.379607,0.099707365,0.10213399,0.11633396,0.11551952,0.110664606,0.37397385,0.3809662,0.4217186,0.4194374,0.405447,0.2296814,0.30364695,0.19170408,0.14827816,0.12668939
367259901,367160767,1.1133972,0.00063618534,1.1145487,1.1141729,1.1120094,1.1121277,1.1128683,-0.1410346,-0.13990879,-0.13323498,-0.1336441,-0.13591576,0.42259407,0.42909813,0.46699142,0.46486092,0.45186234,0.23472989,0.30826023,0.18671651,0.14477456,0.1255189
368267407,368168296,0.8968493,0.00065043085,0.8975995,0.8973504,0.8959238,0.89600146,0.8964892,-0.033190727,-0.03376198,-0.03694725,-0.03680992,-0.03570652,0.370018,0.3753643,0.40654564,0.4047861,0.3940916,0.23837711,0.31154764,0.18315919,0.14226653,0.124649495
369265061,369165946,0.61433476,0.0006690456,0.6143153,0.61431915,0.6143628,0.61435974,0.61434406,-0.1300621,-0.13251781,-0.14661694,-0.14587212,-0.14102554,0.2745409,0.27876282,0.30337143,0.3019781,0.2935362,0.24198513,0.3147456,0.17969343,0.1398121,0.12376374
370262746,370163596,0.42234436,0.0006853271,0.42181835,0.42199367,0.42303333,0.4229762,0.4226194,-0.29230118,-0.29639626,-0.3200283,-0.3187523,-0.31064034,0.34716797,0.35058928,0.37045717,0.36931992,0.36250734,0.2462727,0.31849217,0.17562616,0.13692157,0.12268745
371260487,371161246,0.17658477,0.00072725554,0.17557532,0.17591791,0.17792928,0.17781894,0.17712913,-0.11805534,-0.1227932,-0.15015411,-0.14866447,-0.1392746,0.08140612,0.084264755,0.10082722,0.09987068,0.094195366,0.24912746,0.32096666,0.17293635,0.13500747,0.12196214
372267923,372168774,-0.061319824,0.00072785735,-0.06261442,-0.06216841,-0.059553668,-0.05969671,-0.06059404,-0.065935135,-0.07175255,-0.105386734,-0.10354614,-0.09201813,0.32305706,0.32522845,0.33772635,0.33699137,0.3327083,0.25279462,0.32413852,0.16948682,0.13255261,0.12102737
373265559,373166423,-0.2254488,0.00074030686,-0.22682533,-0.22634709,-0.22354218,-0.22369549,-0.22465886,0.026126862,0.020643234,-0.01108551,-0.009347916,0.0015258789,0.4920559,0.49346685,0.50149107,0.50099754,0.49825048,0.25505522,0.32608506,0.16736329,0.13104492,0.12045164
374263219,374164073,-0.45354965,0.00075428165,-0.4547094,-0.45430523,-0.45193294,-0.45206243,-0.452878,0.011470795,0.006495476,-0.022255898,-0.020687103,-0.010836601,0.63799953,0.6382952,0.6397495,0.6396141,0.6391182,0.25598383,0.32689303,0.1664725,0.13042274,0.12022789
375261023,375161721,-0.6786726,0.0007818899,-0.6793667,-0.6791255,-0.67770946,-0.677786,-0.67827386,0.1167984,0.112400055,0.08699894,0.08838272,0.09708691,0.703475,0.7026653,0.69765663,0.69787216,0.6995945,0.25528225,0.32632703,0.16707808,0.13087413,0.12043857
376268453,376169247,-0.90872055,0.0007685378,-0.90885794,-0.9088106,-0.9085361,-0.9085496,-0.9086451,0.26469517,0.2610674,0.24009895,0.24123478,0.24842167,0.76707554,0.7641716,0.74699783,0.7478781,0.75377464,0.2510048,0.3227672,0.17093515,0.13367277,0.121620156
377266034,377166895,-1.137007,0.0007670865,-1.1364888,-1.1366609,-1.1376759,-1.1376182,-1.1372707,0.27025938,0.26715422,0.24922276,0.25017738,0.2563324,0.7333107,0.72870445,0.7016125,0.70303726,0.7123413,0.24381901,0.31666616,0.17754252,0.13843288,0.1235394
378263657,378164544,-1.369681,0.00076787267,-1.3685576,-1.3689185,-1.3710445,-1.370926,-1.3701973,0.3499329,0.34728718,0.332049,0.332847,0.33808196,0.63990974,0.63438416,0.6018925,0.603611,0.61475754,0.23464647,0.3086736,0.18616925,0.14461337,0.1258973
379261301,379162191,-1.5991393,0.0007624081,-1.59759,-1.598073,-1.6009134,-1.6007564,-1.5997832,0.53328943,0.5312104,0.51931095,0.5199182,0.5240102,0.6206608,0.61454964,0.5787487,0.5806656,0.5929508,0.22595751,0.30090785,0.19452955,0.15056676,0.12803838
380268816,380169717,-1.8482583,0.000756475,-1.8466154,-1.8471161,-1.8500553,-1.8498943,-1.8488878,0.6098943,0.6087537,0.60239124,0.6026902,0.60488224,0.5634117,0.55760765,0.52358437,0.52540016,0.5370865,0.21925895,0.294793,0.20109823,0.15522525,0.12962455
381266473,381167364,-2.1372995,0.00074397674,-2.136092,-2.1364553,-2.1385882,-2.138473,-2.1377432,0.32538986,0.32585144,0.32890224,0.3286829,0.32764626,0.34342384,0.33821297,0.30769253,0.30932426,0.3198166,0.21571037,0.29152903,0.20460075,0.15771063,0.13044925
382264118,382165011,-2.3805864,0.00072350894,-2.3799958,-2.3801732,-2.3812187,-2.3811643,-2.3808074,0.4094696,0.4120655,0.4276638,0.4267559,0.42142296,0.0035734177,-0.0008649826,-0.026854515,-0.025465965,-0.016526222,0.21640179,0.29223922,0.20383967,0.15719685,0.13032256
383261791,383162658,-2.7083359,0.0007177474,-2.7087579,-2.7086267,-2.7078745,-2.7079194,-2.708178,0.2974167,0.3025303,0.33280563,0.3311119,0.3207283,0.09877062,0.09484768,0.07184219,0.07307005,0.08098936,0.21886012,0.29460558,0.2013034,0.15543094,0.12980004
384269330,384170182,-2.9992192,0.00067634316,-3.000369,-3.0000043,-2.997886,-2.9980073,-2.9987335,0.6743202,0.6807556,0.71876717,0.71665,0.7036247,-0.2864591,-0.288898,-0.3033812,-0.30263746,-0.29764426,0.22765955,0.30287087,0.1924429,0.14920919,0.12781756
385266930,385167829,-2.4112716,0.00074443454,-2.4110641,-2.4111304,-2.4115236,-2.4115064,-2.4113722,1.8436852,1.8451557,1.8540154,1.8534937,1.8504715,-0.5462327,-0.5459862,-0.5448694,-0.5450182,-0.54537964,0.23619424,0.3106386,0.18411903,0.14330538,0.12574272
386264610,386165475,-1.5678184,0.0007444387,-1.5656905,-1.5663936,-1.5705062,-1.5702817,-1.5688714,2.2118123,2.2112465,2.208117,2.2082553,2.209361,1.5670424,1.5711126,1.5944357,1.5930223,1.5850439,0.24063772,0.31456187,0.17983341,0.14032413,0.124642916
387262234,387163121,-1.0237113,0.00064537034,-1.0223173,-1.0228082,-1.025687,-1.0255283,-1.0245394,1.0148263,1.0168669,1.02893,1.0282311,1.0241313,1.7824836,1.786758,1.8112884,1.8098226,1.801435,0.25801137,0.32929662,0.16376516,0.1288658,0.12006114
388259877,388160767,-0.9497134,0.0006394842,-0.9494139,-0.9495268,-0.95016795,-0.9501325,-0.949915,0.2701198,0.27602148,0.3106302,0.30867624,0.2968365,1.3140688,1.3161459,1.3278856,1.3271468,1.3231514,0.26983318,0.3388346,0.15327185,0.12130459,0.11675583
389267413,389168290,-0.5265949,0.00068148825,-0.52677447,-0.5267059,-0.5263009,-0.52632344,-0.5264626,1.2512529,1.2569313,1.2902124,1.2883284,1.2769439,0.66967195,0.67159665,0.68242884,0.68173516,0.6780531,0.27986622,0.3466804,0.14461,0.11500509,0.11383818
390265040,390165935,0.6786743,0.00075364887,0.6793932,0.6791071,0.6774349,0.6775268,0.67810184,1.994975,1.998847,2.021614,2.0203092,2.0125299,0.9679245,0.96928144,0.97676796,0.976256,0.9737249,0.28835234,0.3530793,0.13749655,0.109792806,0.11127898
391262693,391163581,0.96155983,0.00082049175,0.9614999,0.9615238,0.961673,0.9616653,0.96161413,1.7202277,1.7229843,1.7392235,1.7382774,1.7327406,0.6106166,0.61256665,0.6234942,0.6227882,0.61907774,0.30099347,0.36217743,0.12725931,0.10223599,0.107333764
392260330,392161226,1.2866389,0.00088369806,1.2880696,1.2874321,1.2837374,1.2839409,1.285207,1.940963,1.9439924,1.9618211,1.9607854,1.954704,0.5721166,0.57428646,0.58645415,0.58567595,0.5815439,0.31392813,0.37094963,0.11720313,0.09475607,0.103163056
393267892,393168749,1.0505065,0.0009477982,1.051499,1.0510365,1.0483701,1.0485175,1.0494297,1.7735469,1.7752626,1.7854636,1.7848465,1.7813795,0.8324136,0.8345361,0.8463647,0.84559596,0.84158576,0.32341912,0.37703577,0.11008644,0.089433655,0.100024976
394265567,394166394,0.53552276,0.0010142816,0.53641057,0.5359855,0.53351486,0.53365374,0.5345019,1.5724216,1.5736308,1.5808988,1.5804386,1.5779786,1.0187522,1.0204973,1.0300869,1.0294409,1.0262012,0.33060196,0.3814206,0.104851656,0.08551091,0.09761485
395263964,395164039,0.27372867,0.0010977308,0.27504295,0.27440044,0.27066493,0.27087364,0.27215573,1.2161887,1.2175009,1.2253702,1.2248738,1.2222035,1.064681,1.0661157,1.073858,1.0733128,1.0707096,0.33533433,0.38419333,0.10147862,0.08297917,0.096014485
396260999,396161685,0.22627743,0.0011764392,0.22761312,0.22694097,0.2230371,0.22325549,0.22459507,0.91943336,0.92086005,0.9294059,0.9288733,0.92596936,1.0318485,1.0329916,1.0390054,1.0385556,1.0365473,0.34157118,0.38771632,0.09712283,0.07970084,0.09388882
397268885,397169207,0.25766617,0.001264274,0.25894883,0.25829256,0.25448045,0.2546937,0.25600195,1.0587304,1.0598066,1.0663135,1.0658925,1.0636885,1.003587,1.0044681,1.0089377,1.0085735,1.0070963,0.3452192,0.3896998,0.094622836,0.07781872,0.09263951
398266152,398166853,0.2693939,0.0013551987,0.27064624,0.269997,0.2662251,0.26643625,0.26773036,0.8784871,0.87955713,0.88604164,0.8856225,0.88342714,0.9209132,0.9216284,0.92514586,0.924839,0.923687,0.3481079,0.39122754,0.092667796,0.07634884,0.09164791
399264110,399164498,0.22461979,0.0014451599,0.22590418,0.2252308,0.22131999,0.22153905,0.22288032,0.7385893,0.7396674,0.7461767,0.7457571,0.7435484,0.8587236,0.85934895,0.8623415,0.86206454,0.8610925,0.3505003,0.39246386,0.0910668,0.075143605,0.0908255
400261523,400162144,0.06538029,0.0015350634,0.06471042,0.06505908,0.06712989,0.06701909,0.06630558,0.6806412,0.68139553,0.6860266,0.6857128,0.6841469,0.8756709,0.8762226,0.8787764,0.8785226,0.8777015,0.35231343,0.39337537,0.089865334,0.07424219,0.0902037
401269272,401169667,-0.0044918857,0.0016289448,-0.005170785,-0.0048151477,-0.002702349,-0.0028153204,-0.0035433867,0.53105044,0.5317347,0.5359714,0.53567815,0.5342486,0.78758335,0.78807366,0.7902601,0.79002595,0.7893313,0.35374108,0.3940672,0.08892962,0.07354452,0.08971749
402266618,402167313,-0.047441907,0.0017227633,-0.0481149,-0.047760524,-0.045655504,-0.04576811,-0.046493508,0.4758742,0.47648358,0.48029637,0.48002887,0.47874093,0.91038394,0.91083956,0.9128126,0.91258883,0.9119681,0.35484672,0.39458203,0.0882127,0.07301399,0.08934461
403264328,403164959,0.032049365,0.0018180959,0.03341586,0.032680992,0.02842006,0.028658384,0.030118657,0.38179064,0.38242006,0.38634205,0.38606787,0.3847437,0.8811126,0.8815099,0.8831332,0.8829279,0.88242793,0.35583013,0.3950208,0.0875827,0.07255026,0.08901597
404261772,404162605,0.014784468,0.0019106219,0.01614957,0.015412758,0.011141608,0.011380519,0.012844174,0.26689124,0.26752448,0.27146506,0.2711885,0.26985908,0.87542653,0.87574947,0.8769262,0.8767445,0.8763988,0.35661206,0.39534926,0.087089136,0.07219085,0.08875873
405269494,405170130,0.03988462,0.0020036856,0.041241392,0.040507145,0.036249835,0.036487963,0.03794705,0.18168926,0.18240213,0.18680406,0.18650222,0.18501449,0.920087,0.92034376,0.9211247,0.92096376,0.9207549,0.35724074,0.395595,0.08669802,0.07191041,0.08855587
406266931,406167776,0.04747479,0.0020953985,0.04882671,0.04809353,0.043841995,0.04407975,0.045536928,0.20687985,0.2075808,0.21191573,0.21161771,0.21015263,0.94921255,0.9494312,0.94998467,0.9498358,0.9497056,0.35774705,0.39577606,0.08638833,0.07169235,0.088396266
407264638,407165424,0.030189108,0.0021782478,0.03154363,0.030809019,0.026547337,0.026785212,0.028246,0.4363718,0.4371724,0.4420898,0.44175935,0.44009137,0.91205835,0.9119536,0.91059005,0.9105444,0.91107476,0.35786787,0.39575619,0.086331405,0.0716704,0.088374205
408262305,408163072,0.14887124,0.0022435058,0.1501763,0.1494692,0.14535749,0.14558616,0.14699678,0.4466827,0.4474784,0.45237422,0.45204747,0.45038533,0.74814504,0.74788964,0.7456457,0.74564934,0.746482,0.3580266,0.39577183,0.08624224,0.071623385,0.088336
409259911,409160719,0.17327991,0.0023104767,0.17269011,0.17300768,0.1748777,0.17477469,0.17413193,0.75979376,0.7603539,0.76389515,0.7636465,0.76244795,0.5146645,0.5145061,0.5128424,0.5128146,0.5134472,0.35848355,0.39595494,0.08595206,0.0714203,0.088189214
410267409,410168244,0.19394565,0.0023809513,0.19338301,0.19368681,0.19546494,0.19536537,0.19475506,1.3206503,1.3204657,1.3196886,1.319681,1.3199618,0.64662004,0.64626,0.6434238,0.643463,0.6444968,0.35819244,0.39577863,0.08613675,0.07158745,0.08830479
411265141,411165893,0.2553353,0.002442594,0.2565624,0.2559105,0.2520871,0.2522966,0.25361055,1.7507982,1.7497547,1.7439442,1.7442129,1.7462232,1.0891585,1.0890474,1.0876777,1.087637,1.0881655,0.35517186,0.39420685,0.08809211,0.073139995,0.08938926
412262688,412163541,0.20143592,0.0025329443,0.2027149,0.20203821,0.19806199,0.1982788,0.19964534,1.578886,1.5793018,1.5820127,1.5818174,1.5809028,1.4163853,1.4166358,1.4173826,1.4172263,1.4170282,0.35463718,0.39384905,0.08844526,0.07346274,0.089605786
413260482,413161191,0.23408243,0.0026043532,0.23531458,0.23465522,0.23077585,0.23098712,0.2323206,1.3132367,1.3143034,1.320834,1.3204334,1.318207,1.3603333,1.3607931,1.3627481,1.3625244,1.3619106,0.35724828,0.3951267,0.08674423,0.072176546,0.08870426
414267879,414168718,0.35406125,0.0026051737,0.35511073,0.35453558,0.3511466,0.35133064,0.35249653,1.031097,1.0325738,1.0415088,1.0409814,1.0379282,1.0669465,1.0675408,1.0702772,1.0700102,1.0691277,0.36248124,0.39766055,0.083382845,0.069601536,0.086873904
415265520,415166368,0.3610885,0.002626049,0.3606715,0.3609074,0.36226413,0.36218524,0.36172095,0.72770745,0.72861123,0.7341835,0.7338411,0.73194164,0.55588996,0.5563148,0.5580853,0.5578749,0.5573218,0.36554572,0.39910346,0.0814441,0.06811068,0.08579596
416263176,416164018,0.2954354,0.002709621,0.29493162,0.295216,0.296854,0.29675975,0.29619905,1.0252028,1.0245458,1.02096,1.0211158,1.0223619,0.72256374,0.7227726,0.7232921,0.7231529,0.723027,0.36536458,0.39899096,0.081554785,0.068218075,0.08587161
417260875,417161669,0.21363488,0.002795955,0.21304068,0.2133758,0.2153092,0.21519893,0.21453679,0.830262,0.8308272,0.83441323,0.83418095,0.83296293,1.1891822,1.1894767,1.1904862,1.1903201,1.1900262,0.365491,0.39897302,0.08148794,0.06819758,0.08585047
418268339,418169199,0.401094,0.00281204,0.40200907,0.4014956,0.3984629,0.3986261,0.39967036,0.50213945,0.50357795,0.5122932,0.5117857,0.50880486,0.8019747,0.8024637,0.804614,0.80438596,0.8037001,0.36781925,0.40000987,0.08004182,0.06709033,0.08503877
419265990,419166850,0.511881,0.0028062114,0.5125934,0.51219046,0.50980973,0.50993705,0.51075757,0.31175184,0.31300095,0.3205913,0.32014552,0.31755129,0.44305754,0.4435774,0.44592088,0.4456836,0.4449298,0.3695407,0.40077603,0.07897773,0.06627091,0.08443469
420263656,420164503,0.5360467,0.0028416833,0.5358248,0.5359533,0.5366928,0.53664726,0.53639543,0.22441673,0.22529039,0.23066962,0.23034374,0.2285093,0.2134772,0.21388891,0.21561687,0.21541625,0.21487182,0.370331,0.4011253,0.0784904,0.06589608,0.084157236
421261339,421162156,0.5760688,0.0029090438,0.5759053,0.5759999,0.5765471,0.5765123,0.5763263,0.2357631,0.23640919,0.24044296,0.24019101,0.2388184,-0.06158237,-0.061265647,-0.06006506,-0.06023188,-0.060597807,0.37062627,0.4012603,0.07830646,0.06575439,0.08405261
422268837,422169687,0.58677816,0.0029965318,0.5866288,0.58671516,0.58721596,0.58718413,0.5870138,0.03027056,0.030573511,0.03259959,0.032456167,0.03177365,-0.076547235,-0.07629606,-0.07547404,-0.075619295,-0.07585606,0.37081128,0.40136102,0.07818535,0.06565916,0.08398314
423266536,423167341,0.5673435,0.003091521,0.5671596,0.567266,0.5678822,0.56784403,0.5676339,0.18542114,0.18555194,0.1865734,0.18648362,0.18614674,-0.028260931,-0.028023802,-0.027289137,-0.027430326,-0.027636953,0.37085193,0.40138334,0.07815817,0.065638475,0.08396806
424264164,424164995,0.52633905,0.0031886424,0.5260854,0.5262317,0.5270815,0.52703094,0.52674043,-0.04935224,-0.04923896,-0.0483167,-0.048401725,-0.048704177,0.0396723,0.039847597,0.040219057,0.040097855,0.040016018,0.37086213,0.40138397,0.07815307,0.06563535,0.083965465
425261880,425162650,0.5765051,0.0032863102,0.5770739,0.5767486,0.57484126,0.57494247,0.5755997,-0.02535,-0.025214478,-0.024158098,-0.024250798,-0.02459912,-0.016340211,-0.016228154,-0.016231969,-0.016333044,-0.016285606,0.37085432,0.40137365,0.078160375,0.065641806,0.08396987
426269391,426170184,0.5392499,0.0033834658,0.5390171,0.5391513,0.53993165,0.5398847,0.539618,-0.14212817,-0.14202917,-0.14118475,-0.14126602,-0.14154148,0.109558,0.10964188,0.10947321,0.10938129,0.10948543,0.3708383,0.4013566,0.07817363,0.06565348,0.083977945
427267044,427167840,0.5362279,0.0034802149,0.5359897,0.53612703,0.5369254,0.5368773,0.5366048,-0.03658668,-0.036462046,-0.035466686,-0.03555604,-0.03588318,0.18874045,0.18884397,0.1887863,0.1886877,0.188754,0.37084106,0.4013437,0.078176245,0.065658376,0.08398061
428264648,428165496,0.5738198,0.0035771462,0.5743925,0.5740649,0.57214516,0.5722467,0.5729087,-0.103379115,-0.103242904,-0.102179185,-0.10227233,-0.10262258,0.1548065,0.15493372,0.15501143,0.15490477,0.15492482,0.3708379,0.40132618,0.07818347,0.06566675,0.083985776
429262340,429163154,0.52097464,0.0036727914,0.52070993,0.5208627,0.52174944,0.52169615,0.52139366,0.11139522,0.11152743,0.11256902,0.112477064,0.112134606,0.18917076,0.18928646,0.18929835,0.18919538,0.18923818,0.3708658,0.4013254,0.07816983,0.06565948,0.08397943
430260025,430160812,0.513976,0.0037693183,0.5136997,0.51385915,0.51478505,0.51472974,0.51441354,0.12584093,0.12595105,0.12686493,0.12677982,0.1264818,0.1882976,0.18846393,0.188772,0.18865243,0.18859355,0.37093323,0.40134376,0.07813062,0.06563335,0.08395902
431267519,431168348,0.48230094,0.0038652075,0.48197353,0.48216242,0.48325968,0.483195,0.48281986,0.0817062,0.08186178,0.08304181,0.08294275,0.082553566,0.2731619,0.27335864,0.2738461,0.273717,0.27359608,0.37102005,0.4013649,0.07808165,0.0656003,0.08393307
432265170,432166007,0.45867285,0.003959281,0.45830908,0.45851877,0.4597387,0.45966724,0.4592504,0.09302612,0.09316179,0.094226524,0.09413391,0.09378448,0.27728677,0.27748415,0.2779774,0.2778482,0.27772522,0.37110832,0.4013831,0.07803334,0.065567896,0.0839074
433262839,433163667,0.45639032,0.0040535284,0.4560234,0.45623487,0.457466,0.45739406,0.45697337,0.052278705,0.052458107,0.053780355,0.053673886,0.053235844,0.29348278,0.29364246,0.29390833,0.29379123,0.29374674,0.37117344,0.40138492,0.07800133,0.065548934,0.08389137
434260512,434161327,0.41405258,0.0041481443,0.41362306,0.41387084,0.4153112,0.41522792,0.41473556,0.12623611,0.12638485,0.12752885,0.12743208,0.12705533,0.33943412,0.33959138,0.33984247,0.33972648,0.33968702,0.3712561,0.40139502,0.07795781,0.06552181,0.08386918
435268008,435168866,0.40889746,0.0042426805,0.408461,0.40871292,0.41017684,0.41009232,0.40959197,0.14533967,0.14553401,0.14694557,0.14683454,0.1463657,0.35142043,0.35158825,0.3518954,0.3517759,0.3517173,0.37135464,0.40140757,0.07790615,0.06548911,0.08384253
436265707,436166527,0.4073267,0.004334435,0.40688813,0.40714148,0.40861294,0.40852806,0.4080252,0.16158181,0.1617647,0.16311075,0.1630032,0.16255695,0.3190218,0.31919762,0.31954747,0.3194252,0.31935188,0.3714747,0.40143222,0.07784019,0.06544521,0.083807655
437263475,437164189,0.49671254,0.004427853,0.4974135,0.49701124,0.49465367,0.49477828,0.49559137,0.18592374,0.18610466,0.18743987,0.18733296,0.1868906,0.41874176,0.41895127,0.4194963,0.41936284,0.41922268,0.37164444,0.4014815,0.077742524,0.06537687,0.083754666
438261035,438161852,0.45456702,0.004511676,0.45419937,0.4544123,0.4556474,0.45557544,0.45515385,0.07688159,0.077159464,0.07906255,0.07892546,0.078287736,0.39924002,0.3994445,0.39995924,0.39982712,0.39969775,0.3718566,0.40153146,0.07762521,0.0652958,0.08369101
439268537,439169394,0.45202237,0.004598186,0.4516504,0.45186594,0.4531161,0.45304316,0.45261648,-0.031547368,-0.031256612,-0.029277839,-0.02941887,-0.030082926,0.32979524,0.32994598,0.33014947,0.33003497,0.33001226,0.37196338,0.40154383,0.077570096,0.065260544,0.08366224
440266233,440167061,0.442542,0.0046872073,0.4421556,0.44237962,0.44367862,0.44360277,0.4431595,0.08151546,0.081708446,0.08311832,0.083007544,0.082539275,0.3553707,0.35552078,0.35572052,0.35560536,0.35558444,0.37206966,0.4015596,0.07751369,0.06522427,0.08363287
441263906,441164723,0.5114579,0.004777033,0.512133,0.51174474,0.5094684,0.50958866,0.5103737,0.08631022,0.08654664,0.08821299,0.08808856,0.08753208,0.34251073,0.34267196,0.34293368,0.3428142,0.3427723,0.37223473,0.40160084,0.07742065,0.06516081,0.083583
442261540,442162388,0.529638,0.0048602284,0.5302823,0.52991146,0.527736,0.5278509,0.5286014,0.34542638,0.34573776,0.34784114,0.3476939,0.346987,0.47559217,0.47580555,0.47637257,0.47623625,0.47608986,0.37247792,0.401678,0.07727947,0.065059654,0.08350499
443269129,443169932,0.48561344,0.004939784,0.48529324,0.48547953,0.48655918,0.4864956,0.48612717,0.3777331,0.37799767,0.37982666,0.3796946,0.379082,0.4162537,0.41650417,0.4172873,0.41713852,0.41691828,0.37273148,0.4017617,0.07713169,0.06495249,0.083422616
444266773,444167599,0.53748643,0.0050226436,0.538115,0.5377521,0.53562486,0.53573745,0.53647107,0.15418981,0.15443751,0.15616895,0.15604213,0.15546316,0.38007274,0.38031495,0.3810464,0.38089982,0.3806976,0.37300164,0.40185156,0.07697394,0.064838246,0.08333468
445264529,445165266,0.46609902,0.005103546,0.46574953,0.4659531,0.46713513,0.46706644,0.46666268,0.39639127,0.3966419,0.39838722,0.39826018,0.39767617,0.44791493,0.44814903,0.44883642,0.4486928,0.44850543,0.37328556,0.40194827,0.07680745,0.06471714,0.083241545
