timestamp,roll,pitch,yaw,thrust_body[0],thrust_body[1],thrust_body[2]
217458528,-0.23531401,0.13637102,-0.0010846339,0.0,0.0,-0.001
217463508,-0.23530143,0.13631862,-0.0010805153,0.0,0.0,-0.001
217473711,-0.23547262,0.1361402,-0.0010419025,0.0,0.0,-0.001
217498502,-0.23527229,0.13602535,-0.0011486105,0.0,0.0,-0.001
217518501,-0.23536868,0.1361722,-0.0010936739,0.0,0.0,-0.001
217538502,-0.2354569,0.13600579,-0.0011685579,0.0,0.0,-0.001
217558507,-0.23525192,0.1361995,-0.0012031706,0.0,0.0,-0.001
217578523,-0.23540662,0.13627203,-0.001174067,0.0,0.0,-0.001
217598507,-0.2354721,0.13626668,-0.0011325022,0.0,0.0,-0.001
217618511,-0.23538372,0.13627699,-0.0012100494,0.0,0.0,-0.001
217638512,-0.23539591,0.13605279,-0.0012764499,0.0,0.0,-0.001
217658584,-0.23535188,0.1358462,-0.0011968809,0.0,0.0,-0.001
217678588,-0.23552,0.13635668,-0.0011741596,0.0,0.0,-0.001
217698525,-0.23549393,0.13639769,-0.0013242124,0.0,0.0,-0.001
217718526,-0.2355832,0.13626729,-0.0012712252,0.0,0.0,-0.001
217738525,-0.23569289,0.13631737,-0.001245585,0.0,0.0,-0.001
217758520,-0.23550661,0.1365191,-0.001318237,0.0,0.0,-0.001
217778526,-0.23558407,0.13645984,-0.0013580446,0.0,0.0,-0.001
217798528,-0.23554447,0.1364183,-0.0013015352,0.0,0.0,-0.001
217818531,-0.23551989,0.13665913,-0.0013027409,0.0,0.0,-0.001
217838582,-0.23572132,0.13695242,-0.0013265864,0.0,0.0,-0.001
217858548,-0.23569444,0.13677302,-0.0012975917,0.0,0.0,-0.001
217878639,-0.23568892,0.1366286,-0.001288673,0.0,0.0,-0.001
217898534,-0.23567355,0.13656382,-0.0012786811,0.0,0.0,-0.001
217918612,-0.2358159,0.1364741,-0.001256319,0.0,0.0,-0.001
217938538,-0.23609625,0.13692765,-0.0012401228,0.0,0.0,-0.001
217958537,-0.2362332,0.13631028,-0.0012623839,0.0,0.0,-0.001
217978566,-0.23642501,0.13639924,-0.0012067688,0.0,0.0,-0.001
217998540,-0.23646364,0.1363114,-0.0012519886,0.0,0.0,-0.001
218018544,-0.23666553,0.13626736,-0.0012833081,0.0,0.0,-0.001
218038546,-0.2368405,0.1362606,-0.0012690593,0.0,0.0,-0.001
218058576,-0.23694192,0.13614044,-0.0013383925,0.0,0.0,-0.001
218078642,-0.23692083,0.13600203,-0.0013422412,0.0,0.0,-0.001
218098586,-0.23680949,0.1362462,-0.0012958858,0.0,0.0,-0.001
218118550,-0.23704425,0.13617012,-0.0012050365,0.0,0.0,-0.001
218138587,-0.2367319,0.13606323,-0.0012583035,0.0,0.0,-0.001
218158554,-0.23692128,0.13589205,-0.001108561,0.0,0.0,-0.001
218178560,-0.23700441,0.1358334,-0.0011675721,0.0,0.0,-0.001
218198559,-0.23689441,0.13588496,-0.0012338732,0.0,0.0,-0.001
218218557,-0.23679161,0.1359946,-0.0012289637,0.0,0.0,-0.001
218238559,-0.23681971,0.13609083,-0.0012474168,0.0,0.0,-0.001
218258578,-0.2367709,0.13601284,-0.0012731833,0.0,0.0,-0.001
218278695,-0.23699693,0.13627473,-0.0011687904,0.0,0.0,-0.001
218298564,-0.23692359,0.13629675,-0.001317376,0.0,0.0,-0.001
218318565,-0.23693235,0.13637173,-0.0012795584,0.0,0.0,-0.001
218338593,-0.23690829,0.13644303,-0.0011819134,0.0,0.0,-0.001
218358560,-0.13722725,0.111639984,-0.0015285047,0.0,0.0,-0.020112313
218378506,-0.284004,0.15323363,-0.0012060958,0.0,0.0,-0.02279214
218398601,-0.21300644,0.13483886,-0.0013218899,0.0,0.0,-0.025529258
218418562,-0.21155943,0.1351819,-0.0013558349,0.0,0.0,-0.02832887
218438566,-0.20944887,0.13640262,-0.0013652741,0.0,0.0,-0.031262603
218458611,-0.20983389,0.13650613,-0.0014884045,0.0,0.0,-0.034183357
218478759,-0.21054569,0.13667768,-0.0014075397,0.0,0.0,-0.03717189
218498576,-0.2091571,0.13967282,-0.0014253069,0.0,0.0,-0.04032248
218518578,-0.20874189,0.14071627,-0.0014726496,0.0,0.0,-0.043520324
218538579,-0.20908752,0.13981524,-0.0014163805,0.0,0.0,-0.046770856
218558622,-0.20854717,0.13975507,-0.0013330046,0.0,0.0,-0.05008929
218578578,-0.20866641,0.14071119,-0.0014116021,0.0,0.0,-0.053535976
218598580,-0.20709994,0.14090024,-0.0014359995,0.0,0.0,-0.056998722
218618602,-0.20770691,0.14120555,-0.0014301601,0.0,0.0,-0.06056175
218638586,-0.20748168,0.14018874,-0.0013968388,0.0,0.0,-0.06417406
218658609,-0.20646228,0.14040448,-0.0014799209,0.0,0.0,-0.06784964
218678714,-0.20552665,0.14196117,-0.001537295,0.0,0.0,-0.07169993
218698589,-0.20544554,0.14344868,-0.0015049326,0.0,0.0,-0.07557965
218718593,-0.20477135,0.14487557,-0.00154274,0.0,0.0,-0.07946301
218738644,-0.20515645,0.14546597,-0.001553269,0.0,0.0,-0.08344385
218758595,-0.20546106,0.14717191,-0.0014486511,0.0,0.0,-0.087590575
218778604,-0.20431696,0.14775918,-0.0013621553,0.0,0.0,-0.091685966
218798604,-0.20331514,0.14836709,-0.0014486617,0.0,0.0,-0.09592705
218818603,-0.20319128,0.1480029,-0.0015653935,0.0,0.0,-0.10023532
218838602,-0.2019978,0.14851339,-0.001452156,0.0,0.0,-0.10467116
218858622,-0.20280004,0.1504919,-0.0015072287,0.0,0.0,-0.10914438
218878748,-0.20312744,0.15130067,-0.0014482879,0.0,0.0,-0.11366675
218898605,-0.20471027,0.15069173,-0.0014812498,0.0,0.0,-0.118203096
218918646,-0.20569025,0.1500506,-0.0015511209,0.0,0.0,-0.122887924
218938609,-0.20648076,0.15202534,-0.0014153633,0.0,0.0,-0.12759891
218958614,-0.20688954,0.15046303,-0.0015121258,0.0,0.0,-0.13243583
218978622,-0.20782211,0.1494781,-0.0015096187,0.0,0.0,-0.13733497
218998662,-0.20903885,0.14924118,-0.0014638109,0.0,0.0,-0.14225796
219018614,-0.20928015,0.15073685,-0.00147769,0.0,0.0,-0.14725815
219038623,-0.20817305,0.14961588,-0.0015902447,0.0,0.0,-0.15235157
219058642,-0.20784003,0.15045737,-0.0015780957,0.0,0.0,-0.15752055
219078772,-0.20837614,0.15141247,-0.0014615799,0.0,0.0,-0.16274549
219098630,-0.21007016,0.15256862,-0.0014462846,0.0,0.0,-0.16812049
219118633,-0.21120563,0.15404382,-0.0015619849,0.0,0.0,-0.17352484
219138628,-0.2116153,0.15390722,-0.0015019046,0.0,0.0,-0.17899512
219158638,-0.21084517,0.15369318,-0.0015968311,0.0,0.0,-0.18462619
219178685,-0.21260503,0.15401521,-0.0016034944,0.0,0.0,-0.19027394
219198635,-0.21296456,0.15461853,-0.0015911497,0.0,0.0,-0.19600643
219218633,-0.21191548,0.15324256,-0.0017192598,0.0,0.0,-0.20175005
219238640,-0.21333548,0.15252936,-0.0015704425,0.0,0.0,-0.20760044
219258656,-0.2113733,0.15114138,-0.0016995901,0.0,0.0,-0.2135053
219278798,-0.21371017,0.15333082,-0.0014736983,0.0,0.0,-0.21951671
219298646,-0.21049637,0.15539634,-0.0014385431,0.0,0.0,-0.22563645
219318651,-0.21242394,0.1517155,-0.0014321012,0.0,0.0,-0.23158997
219338654,-0.21178293,0.15216883,-0.0013695073,0.0,0.0,-0.23781173
219358698,-0.21267384,0.15394422,-0.001526071,0.0,0.0,-0.24411969
219378651,-0.21418916,0.15591483,-0.0016994822,0.0,0.0,-0.25058216
219398583,-0.21515095,0.15371464,-0.0016182032,0.0,0.0,-0.25698835
219418652,-0.21185629,0.15578908,-0.001636369,0.0,0.0,-0.26354223
219438658,-0.21131605,0.15510897,-0.0014944405,0.0,0.0,-0.27007577
219458674,-0.21081682,0.15330529,-0.0015133136,0.0,0.0,-0.27694985
219478825,-0.20989724,0.15592496,-0.0013953552,0.0,0.0,-0.28374484
219498659,-0.20686351,0.15471955,-0.0012809738,0.0,0.0,-0.2906188
219518691,-0.2060819,0.15682186,-0.0013805885,0.0,0.0,-0.29221267
219538725,-0.20591015,0.1544811,-0.0014852325,0.0,0.0,-0.29315504
219558662,-0.2030698,0.16040757,-0.0017262192,0.0,0.0,-0.29388538
219578666,-0.20911545,0.1587234,-0.0016291464,0.0,0.0,-0.294834
219598667,-0.20469302,0.1609744,-0.0015617964,0.0,0.0,-0.29572457
219618668,-0.19995342,0.15891294,-0.0012804199,0.0,0.0,-0.29696754
219638735,-0.21122298,0.15594459,-0.0012178998,0.0,0.0,-0.2978443
219658680,-0.20897844,0.1582738,-0.0012083661,0.0,0.0,-0.2982181
219678679,-0.20616381,0.15938218,-0.0011623006,0.0,0.0,-0.30000854
219698678,-0.20225978,0.15405883,-0.0011165862,0.0,0.0,-0.30112058
219718678,-0.20000222,0.15302205,-0.0011991502,0.0,0.0,-0.30120462
219738683,-0.20864964,0.15346803,-0.0013374516,0.0,0.0,-0.30299357
219758678,-0.20636594,0.15517353,-0.001283633,0.0,0.0,-0.30351007
219778689,-0.20365682,0.15530956,-0.0014093329,0.0,0.0,-0.3049597
219798683,-0.19724384,0.1527802,-0.0013622644,0.0,0.0,-0.3057364
219818724,-0.20384194,0.15208416,-0.0011646793,0.0,0.0,-0.30722064
219838688,-0.19610023,0.15292141,-0.0012187412,0.0,0.0,-0.3080889
219858689,-0.20421201,0.1496301,-0.0012085704,0.0,0.0,-0.3094082
219878699,-0.19931827,0.14668179,-0.001132323,0.0,0.0,-0.31011876
219898695,-0.20021176,0.14824405,-0.0012939249,0.0,0.0,-0.31145275
219918691,-0.21180688,0.14225982,-0.0014450083,0.0,0.0,-0.31242758
219938698,-0.21125232,0.15487063,-0.0014986736,0.0,0.0,-0.3138099
219958706,-0.19541976,0.15226151,-0.0016824432,0.0,0.0,-0.31464282
219978700,-0.20085137,0.14876089,-0.0016845826,0.0,0.0,-0.31542155
219998752,-0.20336808,0.14617167,-0.0015160692,0.0,0.0,-0.31704715
220018705,-0.20473625,0.14751849,-0.0013650535,0.0,0.0,-0.31783426
220038700,-0.20403011,0.14799383,-0.0011958148,0.0,0.0,-0.31925952
220058709,-0.19924517,0.14685544,-0.0011661535,0.0,0.0,-0.31981513
220078716,-0.19146158,0.14586288,-0.0013678996,0.0,0.0,-0.32097578
220098727,-0.18211523,0.15106726,-0.0012358912,0.0,0.0,-0.32301086
220118712,-0.1733959,0.15219758,-0.0012854553,0.0,0.0,-0.32373518
220138718,-0.17732328,0.14679915,-0.0009874112,0.0,0.0,-0.32529354
220158719,-0.18726613,0.14417423,-0.0007926843,0.0,0.0,-0.3262028
220178716,-0.19275676,0.1393908,-0.00079003896,0.0,0.0,-0.32761872
220198719,-0.18487033,0.13880304,-0.0009198529,0.0,0.0,-0.3284273
220218721,-0.17163333,0.13656007,-0.0009735093,0.0,0.0,-0.33008984
220238727,-0.17007801,0.13550042,-0.0011247341,0.0,0.0,-0.33152324
220258753,-0.17092738,0.12895781,-0.0010666405,0.0,0.0,-0.33282608
220278734,-0.18548529,0.12339983,-0.0010689056,0.0,0.0,-0.3335844
220298729,-0.17964329,0.12707525,-0.0011715288,0.0,0.0,-0.33524588
220318729,-0.17592065,0.1224003,-0.0012199078,0.0,0.0,-0.3371242
220338735,-0.16708922,0.123774305,-0.0012795224,0.0,0.0,-0.33817872
220358735,-0.1645426,0.120897554,-0.0012233844,0.0,0.0,-0.3397707
220378734,-0.16751319,0.12178069,-0.0012097788,0.0,0.0,-0.34102884
220398738,-0.1642864,0.121411115,-0.0012139558,0.0,0.0,-0.34279045
220418706,-0.1619044,0.11833366,-0.0011224821,0.0,0.0,-0.3442764
220438771,-0.15896699,0.116384685,-0.0011173072,0.0,0.0,-0.3453143
220458737,-0.14261684,0.11661916,-0.0011869693,0.0,0.0,-0.34700966
220478754,-0.14036894,0.115864076,-0.00096881663,0.0,0.0,-0.3485111
220498758,-0.13206007,0.111033365,-0.0008834363,0.0,0.0,-0.3498448
220518742,-0.12736824,0.0998642,-0.00066555256,0.0,0.0,-0.35137913
220538741,-0.13727307,0.10278085,-0.0006505671,0.0,0.0,-0.35293216
220558748,-0.14085734,0.101073965,-0.00043966528,0.0,0.0,-0.35474968
220578750,-0.1270339,0.09897719,-0.0006023858,0.0,0.0,-0.35620627
220598755,-0.1245294,0.108497016,-0.00049402507,0.0,0.0,-0.35765478
220618780,-0.108357236,0.10765411,-0.000475398,0.0,0.0,-0.3592568
220638757,-0.11263322,0.11075233,-0.00058669347,0.0,0.0,-0.3614115
220658751,-0.12237922,0.109276466,-0.000466889,0.0,0.0,-0.36215675
220678777,-0.1229623,0.11075607,-0.0004994595,0.0,0.0,-0.36424533
220698777,-0.12404219,0.10750391,-0.0003692677,0.0,0.0,-0.3660426
220718763,-0.10370183,0.10047286,-0.00029774875,0.0,0.0,-0.36688986
220738762,-0.09602633,0.09868327,-0.000362056,0.0,0.0,-0.36861283
220758761,-0.09828078,0.101308964,-0.00046930605,0.0,0.0,-0.37131435
220778768,-0.10085501,0.10188321,-0.00034390515,0.0,0.0,-0.37207323
220798767,-0.10073657,0.10993075,-0.00052172807,0.0,0.0,-0.37456784
220818765,-0.096147366,0.10133046,-0.0004955454,0.0,0.0,-0.3764895
220838794,-0.09325994,0.10119325,-0.00041401846,0.0,0.0,-0.37775654
220858773,-0.08229057,0.10558443,-0.00026682994,0.0,0.0,-0.37931156
220878784,-0.073687226,0.100336924,-0.00048895733,0.0,0.0,-0.38157943
220898812,-0.071676135,0.10285047,-0.000428111,0.0,0.0,-0.38331538
220918793,-0.08091962,0.103669554,-0.00043436716,0.0,0.0,-0.3851786
220938780,-0.083557084,0.111091115,-0.00030003258,0.0,0.0,-0.38734525
220958799,-0.07901214,0.107954755,-0.0005184986,0.0,0.0,-0.38938358
220978788,-0.075499624,0.10995869,-0.00039881346,0.0,0.0,-0.39097175
220998786,-0.06743893,0.10036453,-0.00033121405,0.0,0.0,-0.39255923
221018783,-0.06520909,0.09784377,-0.00029768507,0.0,0.0,-0.3950221
221038793,-0.06680343,0.095304646,-0.00032410107,0.0,0.0,-0.396318
221058796,-0.07453057,0.08654324,-0.0003070767,0.0,0.0,-0.39785758
221078867,-0.0719965,0.096881524,-0.0003318059,0.0,0.0,-0.399553
221098803,-0.05590545,0.092719406,-0.00031969385,0.0,0.0,-0.40018907
221118791,-0.057067536,0.08613756,-0.0001876596,0.0,0.0,-0.40298834
221138797,-0.053494655,0.09918417,-0.00023000017,0.0,0.0,-0.4057281
221158831,-0.063431665,0.093814604,-0.00024781475,0.0,0.0,-0.40639472
221178792,-0.069478616,0.088786304,-0.00027291756,0.0,0.0,-0.40886658
221198802,-0.071482725,0.093578316,-0.00022499941,0.0,0.0,-0.41129008
221218798,-0.058582973,0.08766114,-0.00022911624,0.0,0.0,-0.41261423
221238809,-0.056624092,0.074354224,-0.00033543518,0.0,0.0,-0.41431665
221258805,-0.04379981,0.07593481,-0.000744284,0.0,0.0,-0.41706204
221278814,-0.041547965,0.07370041,-0.00070622447,0.0,0.0,-0.4185238
221298821,-0.042608764,0.082729146,-0.0007492047,0.0,0.0,-0.42083663
221318806,-0.050716825,0.07598172,-0.00061346154,0.0,0.0,-0.4217752
221338849,-0.056459226,0.08210535,-0.0003494537,0.0,0.0,-0.42400867
221358811,-0.043510184,0.077876344,-0.00030321704,0.0,0.0,-0.44353998
221378812,-0.035121765,0.07726387,-0.000120626006,0.0,0.0,-0.44615194
221398828,-0.03324437,0.0637913,-5.5956152e-05,0.0,0.0,-0.44767773
221418820,-0.041565243,0.039109677,-9.3449824e-05,0.0,0.0,-0.4486638
221438814,-0.036744926,0.030115582,4.1316616e-05,0.0,0.0,-0.45007187
221458819,-0.036816414,0.0347775,7.671996e-05,0.0,0.0,-0.45186964
221478830,-0.03689585,0.02726646,9.916518e-05,0.0,0.0,-0.4544577
221498844,-0.022163853,0.034162506,-8.251023e-06,0.0,0.0,-0.4567464
221518851,-0.007697694,0.018601606,2.0883468e-05,0.0,0.0,-0.45888102
221538826,-0.011819168,-0.01463125,0.00028854533,0.0,0.0,-0.45981315
221558829,-0.0054874266,-0.026823942,0.0005460083,0.0,0.0,-0.46206713
221578848,-0.008939414,-0.039758936,0.00042389237,0.0,0.0,-0.46420243
221598832,-0.0017372479,-0.0478901,0.00059799623,0.0,0.0,-0.46736515
221618833,0.008361017,-0.045581512,0.00043035313,0.0,0.0,-0.46987852
221638854,0.01204633,-0.051991932,0.00049511506,0.0,0.0,-0.46962106
221658836,0.013472729,-0.04584409,0.00063312374,0.0,0.0,-0.47315797
221678848,0.0035490536,-0.048910916,0.00038097252,0.0,0.0,-0.47561073
221698908,-0.007318536,-0.04915753,0.00022386332,0.0,0.0,-0.47818437
221718847,0.008373533,-0.06762053,6.318536e-05,0.0,0.0,-0.48046586
221738846,0.0109652765,-0.080966465,2.4833951e-05,0.0,0.0,-0.48319998
221758851,0.002705792,-0.08425782,0.00014585187,0.0,0.0,-0.4859047
221778884,-0.0015507125,-0.08994164,1.5918521e-06,0.0,0.0,-0.48918697
221798848,-0.0009287693,-0.09894424,-0.0002073767,0.0,0.0,-0.49028498
221818850,-0.0011622289,-0.103148215,-0.00020342103,0.0,0.0,-0.49182126
221838858,0.010464545,-0.10896807,0.00013320806,0.0,0.0,-0.4956911
221858853,0.037959754,-0.105515935,-4.531112e-05,0.0,0.0,-0.4988234
221878867,0.06690942,-0.11438063,-0.00027465847,0.0,0.0,-0.50110847
221898902,0.041619673,-0.12565313,-0.00054381945,0.0,0.0,-0.502533
221918857,0.05391254,-0.13588646,-0.00055612065,0.0,0.0,-0.5048597
221938860,0.036342524,-0.12906182,-0.00088826235,0.0,0.0,-0.5081004
221958863,0.025618453,-0.1364779,-0.0011836875,0.0,0.0,-0.51103866
221978902,0.025139526,-0.16299264,-0.0012616377,0.0,0.0,-0.51262516
221998868,-0.0057682963,-0.13928977,-0.0015956189,0.0,0.0,-0.51679325
222018866,-0.01368877,-0.14917938,-0.0016113932,0.0,0.0,-0.5191143
222038902,-0.032130986,-0.15131526,-0.0018538944,0.0,0.0,-0.5221748
222058869,-0.033268716,-0.15048502,-0.0015702313,0.0,0.0,-0.5240481
222078885,-0.05682389,-0.13530603,-0.0015310815,0.0,0.0,-0.5263373
222098939,-0.051559858,-0.13783187,-0.0013843136,0.0,0.0,-0.52990043
222118888,-0.023407461,-0.14768463,-0.001276432,0.0,0.0,-0.5316074
222138875,-0.029358432,-0.13557607,-0.00094056514,0.0,0.0,-0.5346804
222158944,-0.040612627,-0.14997439,-0.0010454587,0.0,0.0,-0.5382796
222178879,-0.0128134405,-0.16150561,-0.0008837072,0.0,0.0,-0.5416227
222198882,0.009605251,-0.16086872,-0.00040789944,0.0,0.0,-0.5434801
222218882,0.00084444316,-0.16110961,-0.00043106772,0.0,0.0,-0.54544127
222238909,0.028967774,-0.16980384,-0.00065178785,0.0,0.0,-0.54891646
222258887,0.029806934,-0.15095855,-4.0254447e-05,0.0,0.0,-0.55182207
222278895,0.009224848,-0.12980136,-0.0009750845,0.0,0.0,-0.5542206
222298949,0.0113675725,-0.11612908,-0.0015178546,0.0,0.0,-0.5569622
222318890,-0.0023173625,-0.122425385,-0.0016236289,0.0,0.0,-0.5601982
222338899,-0.025205402,-0.12644319,-0.0017872324,0.0,0.0,-0.56282985
222358906,-0.006886372,-0.12260755,-0.0014441672,0.0,0.0,-0.56594056
222378903,0.034271177,-0.12225913,-0.0013444305,0.0,0.0,-0.56841165
222398900,0.032332607,-0.11035375,-0.0014916414,0.0,0.0,-0.57249445
222418931,0.0060986956,-0.11625877,-0.0012621196,0.0,0.0,-0.574309
222438933,0.01734528,-0.12615187,-0.0012390253,0.0,0.0,-0.5771055
222458861,0.0014824156,-0.13919173,-0.0027557171,0.0,0.0,-0.57821876
222478913,0.009177844,-0.13186762,-0.00092272914,0.0,0.0,-0.58266044
222498978,-0.025945915,-0.11899779,-0.0010771147,0.0,0.0,-0.5850614
222518910,-0.030035036,-0.11399533,-0.0011318572,0.0,0.0,-0.5885714
222538921,-0.02384579,-0.112162374,-0.0011445715,0.0,0.0,-0.59056544
222558913,0.0012560454,-0.1332091,-0.0009457231,0.0,0.0,-0.5940936
222578920,0.033315074,-0.14468178,-0.00069827907,0.0,0.0,-0.5962626
222598946,0.069483906,-0.16778316,-0.0005746826,0.0,0.0,-0.59853137
222618920,0.116817616,-0.1938735,0.0032371772,0.0,0.0,-0.59955955
222638917,0.17603938,-0.20729391,0.009385165,0.0,0.0,-0.60201895
222658925,0.15979159,-0.21353129,0.017654467,0.0,0.0,-0.6028249
222678940,0.17948633,-0.20929079,0.01427816,0.0,0.0,-0.60457784
222699005,0.16835904,-0.19925293,0.016344836,0.0,0.0,-0.60762215
222718937,0.18457453,-0.18505181,0.0128418775,0.0,0.0,-0.61049736
222738935,0.15204784,-0.17781202,0.013515829,0.0,0.0,-0.61823934
222758929,0.1729516,-0.19260952,0.0070467917,0.0,0.0,-0.6244689
222778949,0.1394339,-0.19502547,0.008939595,0.0,0.0,-0.6301715
222798930,0.12131085,-0.19099474,0.0027629207,0.0,0.0,-0.6373456
222818936,0.14282784,-0.19530353,-0.00026929527,0.0,0.0,-0.634087
222838936,0.15675932,-0.17615026,0.0015432942,0.0,0.0,-0.63992405
222858977,0.1945939,-0.19095743,0.0030535115,0.0,0.0,-0.63919824
222878953,0.17667568,-0.16704287,0.008316552,0.0,0.0,-0.6454507
222899031,0.1996505,-0.19976033,0.00610724,0.0,0.0,-0.64613104
222918942,0.21185046,-0.20155059,0.009757666,0.0,0.0,-0.65190977
222938942,0.21105532,-0.20441172,0.011649631,0.0,0.0,-0.6581541
222958946,0.24040316,-0.19628201,0.011732062,0.0,0.0,-0.66176385
222978961,0.23733637,-0.1671692,0.01641243,0.0,0.0,-0.6683759
222998963,0.24501644,-0.1465003,0.01567925,0.0,0.0,-0.66989017
223018950,0.24761157,-0.1361573,0.016803151,0.0,0.0,-0.67077494
223038989,0.26040292,-0.118528046,0.016556375,0.0,0.0,-0.6701859
223059039,0.26763466,-0.14088897,0.018030474,0.0,0.0,-0.6716877
223078969,0.30490932,-0.09409134,0.019210635,0.0,0.0,-0.6778687
223099055,0.3317688,-0.10015608,0.024003386,0.0,0.0,-0.67683977
223118956,0.39678657,-0.08333935,0.025131183,0.0,0.0,-0.6801912
223139025,0.45419693,-0.09518017,0.03164904,0.0,0.0,-0.6825585
223158962,0.49353325,-0.1175538,0.036298204,0.0,0.0,-0.6833157
223178959,0.5354397,-0.09843292,0.03956919,0.0,0.0,-0.68792564
223198970,0.5646248,-0.11488173,0.044450685,0.0,0.0,-0.68905723
223218967,0.60346276,-0.09930811,0.046992302,0.0,0.0,-0.69217414
223238978,0.6371069,-0.10132863,0.050724562,0.0,0.0,-0.69566643
223258969,0.6923232,-0.0709452,0.055540998,0.0,0.0,-0.6989891
223279012,0.7150154,-0.09551544,0.066445604,0.0,0.0,-0.69750214
223299096,0.71035236,-0.086374976,0.07185774,0.0,0.0,-0.7015064
223319028,0.70298725,-0.084605455,0.07368278,0.0,0.0,-0.70109624
223338986,0.6573346,-0.08040633,0.074971035,0.0,0.0,-0.6987096
223358982,0.61575717,-0.08665462,0.07226522,0.0,0.0,-0.6982298
223378983,0.6029535,-0.07442815,0.071043506,0.0,0.0,-0.6963748
223398985,0.57950336,-0.07825191,0.076274775,0.0,0.0,-0.69667214
223418986,0.54209024,-0.09641302,0.08169834,0.0,0.0,-0.6962003
223438987,0.46711668,-0.06864685,0.08362973,0.0,0.0,-0.7000398
223458990,0.39186662,-0.05897647,0.08125859,0.0,0.0,-0.7022076
223478936,0.32011998,-0.07259823,0.081671044,0.0,0.0,-0.7022818
223499180,0.2608748,-0.051739827,0.08194926,0.0,0.0,-0.70016074
223519004,0.14163265,-0.05346715,0.08413308,0.0,0.0,-0.6933751
223539035,0.100301534,-0.064516395,0.0757511,0.0,0.0,-0.6867204
223559013,0.019204872,-0.05962848,0.07786607,0.0,0.0,-0.6829086
223579022,-0.10368505,-0.06106323,0.07285349,0.0,0.0,-0.6809772
223599009,-0.14917424,-0.05458602,0.060449317,0.0,0.0,-0.6794294
223619005,-0.20772494,-0.04506657,0.05957292,0.0,0.0,-0.68160975
223639002,-0.24716417,-0.061541226,0.056028944,0.0,0.0,-0.68323976
223659007,-0.30589265,-0.04114722,0.053086378,0.0,0.0,-0.6844422
223679019,-0.31918323,-0.062243424,0.046229567,0.0,0.0,-0.6816735
223699151,-0.37366414,-0.057547987,0.04515253,0.0,0.0,-0.68352205
223719009,-0.33491156,-0.05222981,0.035071287,0.0,0.0,-0.6853226
223739012,-0.34009382,-0.05042041,0.039951913,0.0,0.0,-0.685396
223759050,-0.33475643,-0.06490459,0.03508527,0.0,0.0,-0.68443
223779036,-0.3068468,-0.07650804,0.031152407,0.0,0.0,-0.6875143
223799026,-0.23870586,-0.07812083,0.029876951,0.0,0.0,-0.6877339
223819016,-0.22029446,-0.10070914,0.034822445,0.0,0.0,-0.6880468
223839021,-0.20186698,-0.10144328,0.031165598,0.0,0.0,-0.68936634
223859023,-0.09962303,-0.09829071,0.02587412,0.0,0.0,-0.6886523
223879038,-0.108608484,-0.109176636,0.034195486,0.0,0.0,-0.6896161
223899173,-0.043589246,-0.14873013,0.024775399,0.0,0.0,-0.69089127
223919029,0.0324483,-0.1427705,0.02713391,0.0,0.0,-0.6925587
223939095,0.08664455,-0.18410496,0.032784473,0.0,0.0,-0.68988717
223959030,0.08977084,-0.19243388,0.035768095,0.0,0.0,-0.6937953
223979032,0.13727105,-0.19482139,0.031188317,0.0,0.0,-0.6923628
223999045,0.15493597,-0.23390687,0.034715902,0.0,0.0,-0.6916333
224019032,0.20692654,-0.20393816,0.034150444,0.0,0.0,-0.6968426
224039034,0.24091175,-0.21913509,0.040842917,0.0,0.0,-0.6962748
224059052,0.24214906,-0.2140313,0.04548234,0.0,0.0,-0.6986658
224079061,0.23959875,-0.2056284,0.04532894,0.0,0.0,-0.7014961
224099201,0.23765151,-0.17880335,0.045779545,0.0,0.0,-0.7032399
224119081,0.22975142,-0.1612505,0.046428923,0.0,0.0,-0.7041656
224139047,0.22285156,-0.16916364,0.04779469,0.0,0.0,-0.7035277
224159051,0.18160765,-0.12353918,0.04930407,0.0,0.0,-0.70666796
224179051,0.13919064,-0.10871175,0.04655742,0.0,0.0,-0.70385945
224199055,0.097032145,-0.108105965,0.043335192,0.0,0.0,-0.7038604
224219087,0.1362426,-0.038450535,0.038966104,0.0,0.0,-0.7068795
224239089,0.081134245,-0.024488145,0.047589384,0.0,0.0,-0.70565134
224259054,0.058994208,-0.016500335,0.043095093,0.0,0.0,-0.70545834
224279088,0.0017455725,0.020143216,0.042184718,0.0,0.0,-0.70744383
224299268,-0.016619336,0.039809454,0.035428353,0.0,0.0,-0.70430607
224319060,-0.025588118,0.053005952,0.034498375,0.0,0.0,-0.7043235
224339097,-0.07400387,0.07477936,0.034506746,0.0,0.0,-0.7024183
224359069,-0.052941237,0.08084903,0.0275774,0.0,0.0,-0.70205253
224379064,-0.09678769,0.09890107,0.031065252,0.0,0.0,-0.70198816
224399097,-0.10419381,0.07762042,0.023185866,0.0,0.0,-0.69992286
224419071,-0.10134692,0.07427392,0.020647375,0.0,0.0,-0.70125884
224439073,-0.059431665,0.09443769,0.018085625,0.0,0.0,-0.70172673
224459080,-0.035280645,0.058455322,0.02215096,0.0,0.0,-0.69995564
224479099,-0.054294772,0.07035394,0.02282708,0.0,0.0,-0.7038597
224499089,-0.0033544074,0.06446142,0.015582589,0.0,0.0,-0.7042508
224519077,0.01381928,0.045125198,0.020243175,0.0,0.0,-0.70280856
224539084,0.033333335,0.04304428,0.01981607,0.0,0.0,-0.70694655
224559083,0.07026968,0.0334757,0.02078412,0.0,0.0,-0.7072922
224579082,0.07112142,0.01727098,0.024845919,0.0,0.0,-0.708157
224599085,0.0810892,0.04581303,0.022796521,0.0,0.0,-0.71088797
224619087,0.09420128,0.0362595,0.023071485,0.0,0.0,-0.71135616
224639087,0.07610564,0.021284997,0.025250386,0.0,0.0,-0.71166015
224659136,0.07690116,0.047717627,0.022525985,0.0,0.0,-0.71248466
224679089,0.0890925,0.046866048,0.022571422,0.0,0.0,-0.71021676
224699102,0.07425442,0.018777203,0.024539549,0.0,0.0,-0.7086886
224719093,0.07378532,0.049880825,0.02169543,0.0,0.0,-0.71074426
224739112,0.08556639,0.040960286,0.02102781,0.0,0.0,-0.709235
224759094,0.07552667,0.035672966,0.022062695,0.0,0.0,-0.7088514
224779101,0.08507059,0.055993285,0.019592583,0.0,0.0,-0.71000445
224799098,0.1027727,0.056075655,0.019623695,0.0,0.0,-0.70850104
224819124,0.11357536,0.05065796,0.021065399,0.0,0.0,-0.7060575
224839144,0.11154959,0.07487662,0.021333853,0.0,0.0,-0.7056859
224859110,0.1319665,0.078074306,0.020549357,0.0,0.0,-0.70469314
224879109,0.09544115,0.067356996,0.02386099,0.0,0.0,-0.7045892
224899121,0.10373601,0.080894575,0.01746023,0.0,0.0,-0.7034788
224919113,0.12090207,0.061180998,0.018219694,0.0,0.0,-0.7018682
224939115,0.13115272,0.06390088,0.02074561,0.0,0.0,-0.7019872
224959119,0.15703256,0.058694407,0.021569636,0.0,0.0,-0.702985
224979118,0.14152135,0.029075503,0.025890466,0.0,0.0,-0.70196974
224999121,0.14971061,0.03349318,0.02333963,0.0,0.0,-0.70420575
225019198,0.15347467,0.0061769574,0.025116453,0.0,0.0,-0.70353615
225039124,0.14894359,-0.019129992,0.026789986,0.0,0.0,-0.7037333
225059125,0.14594167,0.00095300504,0.026562678,0.0,0.0,-0.70740914
225079127,0.12850861,-0.026455268,0.027964257,0.0,0.0,-0.7068532
225099153,0.09254713,-0.040266767,0.027432235,0.0,0.0,-0.7072642
225119133,0.09604726,-0.04289915,0.023670442,0.0,0.0,-0.70804936
225139134,0.06786196,-0.057413,0.026649972,0.0,0.0,-0.7074842
225159131,0.02843508,-0.071260564,0.025143474,0.0,0.0,-0.7080906
225179134,0.016703663,-0.06559055,0.021421732,0.0,0.0,-0.7092012
225199150,-0.017052876,-0.09128504,0.023022227,0.0,0.0,-0.70819306
225219135,-0.04910596,-0.08345911,0.020354351,0.0,0.0,-0.70906126
225239143,-0.068347394,-0.07523497,0.018506618,0.0,0.0,-0.710608
225259143,-0.095421635,-0.09383712,0.018363971,0.0,0.0,-0.70967716
225279174,-0.105654866,-0.08138924,0.01634923,0.0,0.0,-0.71072936
225299149,-0.15214612,-0.07280935,0.016633783,0.0,0.0,-0.71131927
225319150,-0.16662735,-0.09251964,0.011431095,0.0,0.0,-0.71086544
225339154,-0.18414927,-0.060513377,0.009506946,0.0,0.0,-0.71308064
225359148,-0.18149604,-0.07970567,0.00756885,0.0,0.0,-0.71061426
225379151,-0.19169363,-0.07364265,0.0077420003,0.0,0.0,-0.71042496
225399156,-0.19930947,-0.04380527,0.00564519,0.0,0.0,-0.71237344
225419173,-0.214092,-0.04529756,0.0032358365,0.0,0.0,-0.7100184
225439163,-0.1937889,-0.038739096,0.0016540814,0.0,0.0,-0.71009827
225459157,-0.21002617,-0.015156824,0.0013439062,0.0,0.0,-0.7114211
225479160,-0.19205217,-0.012479387,0.0014466116,0.0,0.0,-0.7088877
225499168,-0.17068866,0.013866879,0.0011603874,0.0,0.0,-0.7105303
225519164,-0.1805076,0.019266427,0.0011163831,0.0,0.0,-0.70960474
225539170,-0.12935404,0.023611348,0.0012068606,0.0,0.0,-0.707842
225559167,-0.115174584,0.03178601,0.0014214324,0.0,0.0,-0.7090885
225579213,-0.10111184,0.0342702,0.0012275283,0.0,0.0,-0.70845705
225599181,-0.06660488,0.045531098,0.0010897078,0.0,0.0,-0.70671207
225619173,-0.066380985,0.03738853,0.0013918529,0.0,0.0,-0.70816046
225639174,-0.043738775,0.032150544,0.0014541183,0.0,0.0,-0.7073009
225659177,-0.016232911,0.02810925,0.0011405251,0.0,0.0,-0.7079293
225679193,0.0114171095,0.020070285,0.0012419223,0.0,0.0,-0.706904
225699194,0.017369827,0.014312216,0.0014859138,0.0,0.0,-0.70751935
225719178,0.02881327,0.012097248,0.0014704467,0.0,0.0,-0.70862156
225739190,0.049708076,0.002158539,0.0012276629,0.0,0.0,-0.707694
225759224,0.05662703,-0.004183665,0.0012310897,0.0,0.0,-0.70846117
225779186,0.04509966,-0.008783932,0.0014482316,0.0,0.0,-0.7096262
225799191,0.04761637,-0.01954915,0.0013467569,0.0,0.0,-0.7096924
225819195,0.06852239,-0.022881046,0.0011523267,0.0,0.0,-0.7096727
225839196,0.03825592,-0.03346268,0.0014424442,0.0,0.0,-0.71112144
225859195,0.020993765,-0.02629801,0.0012826024,0.0,0.0,-0.7114923
225879192,0.037075363,-0.03680318,0.0011395463,0.0,0.0,-0.71151257
225899206,-0.0147571005,-0.045434862,0.001220255,0.0,0.0,-0.71213025
225919201,-0.041299358,-0.039360102,0.0012068456,0.0,0.0,-0.71282214
225939265,-0.05781766,-0.03796021,0.001151277,0.0,0.0,-0.71279347
225959211,-0.071414925,-0.03781443,0.0009235105,0.0,0.0,-0.7124699
225979222,-0.103693,-0.029232068,0.00086574105,0.0,0.0,-0.7132819
225999201,-0.09925945,-0.0242456,0.001147454,0.0,0.0,-0.7126472
226019227,-0.099245235,-0.040383577,0.0010801763,0.0,0.0,-0.7120054
226039219,-0.1302371,-0.012497576,0.00092868716,0.0,0.0,-0.7122407
226059211,-0.10747848,-0.004195521,0.00097594585,0.0,0.0,-0.7115516
226079221,-0.10550993,-0.007208717,0.00092269166,0.0,0.0,-0.7103077
226099223,-0.114398986,0.013259566,0.0010525495,0.0,0.0,-0.71170586
226119300,-0.11917041,-0.0048390944,0.0008697497,0.0,0.0,-0.7094537
226139214,-0.10573766,0.0043892977,0.00080233027,0.0,0.0,-0.7084665
226159223,-0.1032256,0.0124344975,0.0010781052,0.0,0.0,-0.70908535
226179217,-0.07084627,0.011949878,0.00085079117,0.0,0.0,-0.70722705
226199266,-0.044932574,0.010328441,0.0008541863,0.0,0.0,-0.70624125
226219225,-0.06890105,0.01216406,0.00113673,0.0,0.0,-0.7055744
226239223,-0.022786338,0.018645361,0.00091373257,0.0,0.0,-0.7046219
226259227,-0.009233339,0.006328328,0.00079313054,0.0,0.0,-0.704067
226279231,-0.04694639,0.021497507,0.00095890404,0.0,0.0,-0.7046113
226299235,-0.038112096,0.015531125,0.000941591,0.0,0.0,-0.7028815
226319252,0.0064830254,0.011060932,0.00074245274,0.0,0.0,-0.70249766
226339237,-0.024050072,0.013326826,0.00082226354,0.0,0.0,-0.7034705
226359249,-0.0100153005,0.009183462,0.00046621848,0.0,0.0,-0.7015908
226379263,-0.0070094657,-0.0022033066,0.0007714986,0.0,0.0,-0.7020414
226399240,0.0033418252,-0.00059176685,0.000559159,0.0,0.0,-0.7023672
226419236,0.0060905893,0.0010566419,0.0005697549,0.0,0.0,-0.7013313
226439239,1.4216712e-05,-0.014758144,0.0004321077,0.0,0.0,-0.70188695
226459242,0.023343686,-0.009685038,0.00035676878,0.0,0.0,-0.7011913
226479247,0.035633523,-0.011591566,0.00025814457,0.0,0.0,-0.7013805
226499255,-0.007053698,-0.016099995,0.00030354882,0.0,0.0,-0.7022138
226519279,0.041094657,-0.022905458,-7.583838e-05,0.0,0.0,-0.7012926
226539257,0.044000722,-0.009811991,0.00038017,0.0,0.0,-0.7018334
226559185,0.02587619,-0.01387411,0.0003227088,0.0,0.0,-0.70322114
226579259,0.015347202,-0.012273334,0.00028377597,0.0,0.0,-0.70272756
226599255,0.023353627,0.005897609,0.0006202398,0.0,0.0,-0.70231736
226619262,0.023814835,0.003474135,0.00032101295,0.0,0.0,-0.7029347
226639261,0.020200925,0.0089813685,0.00040022878,0.0,0.0,-0.70273256
226659304,0.00073470926,0.01604421,0.00058424816,0.0,0.0,-0.7035345
226679262,0.027354036,0.02454365,0.00055116205,0.0,0.0,-0.7019548
226699277,0.026623854,0.024847696,0.00055431447,0.0,0.0,-0.7024784
226719303,0.0134720085,0.040863093,0.00073437236,0.0,0.0,-0.70345545
226739268,0.02398041,0.04780507,0.0006368427,0.0,0.0,-0.70127445
226759269,0.016894067,0.04932325,0.0009925923,0.0,0.0,-0.70293725
226779272,0.020828268,0.063115895,0.0009612161,0.0,0.0,-0.70330775
226799274,0.037972342,0.057730176,0.00088442967,0.0,0.0,-0.7007584
226819286,0.03451983,0.06308743,0.0010487135,0.0,0.0,-0.7021282
226839319,0.056776848,0.054512568,0.0009715972,0.0,0.0,-0.7012489
226859280,0.03500988,0.052590784,0.0011545985,0.0,0.0,-0.70005685
226879281,0.041374423,0.058437657,0.0010870857,0.0,0.0,-0.7021773
226899292,0.057046045,0.055784985,0.0011758736,0.0,0.0,-0.7003281
226919355,0.06064955,0.028695328,0.0010273688,0.0,0.0,-0.7007816
226939306,0.030521639,0.050933436,0.0012249235,0.0,0.0,-0.70206046
226959286,0.04751512,0.028833397,0.0010013357,0.0,0.0,-0.7005524
226979285,0.05557439,0.018721133,0.001165117,0.0,0.0,-0.70117486
226999290,0.0500175,0.03363187,0.0010891581,0.0,0.0,-0.7021105
227019304,0.023173021,0.00015460912,0.00096331874,0.0,0.0,-0.7010736
227039298,0.041075204,0.0015275326,0.0009973206,0.0,0.0,-0.7023774
227059292,0.05577577,0.0055315215,0.0010665924,0.0,0.0,-0.702516
227079297,0.010254387,-0.019060075,0.0009617419,0.0,0.0,-0.7015855
227099326,0.005142763,0.020441435,0.0009951087,0.0,0.0,-0.7043339
227119366,0.03297277,0.0009657536,0.00070233294,0.0,0.0,-0.7025442
227139299,-0.0006579592,-0.010696576,0.000844719,0.0,0.0,-0.7018627
227159306,-0.015012523,0.0163093,0.0009472764,0.0,0.0,-0.7044082
227179304,-0.010699249,0.003935079,0.0008948404,0.0,0.0,-0.7020121
227199309,-0.015108117,0.012884937,0.00069914194,0.0,0.0,-0.70441973
227219304,-0.020868275,0.02181487,0.00074148056,0.0,0.0,-0.704163
227239313,-0.015210408,0.0039930707,0.0006633854,0.0,0.0,-0.70192164
227259309,-0.010599622,0.02793813,0.0005729398,0.0,0.0,-0.70384926
227279347,0.004301972,0.02299491,0.0005144922,0.0,0.0,-0.70243794
227299327,-0.021687943,0.016998995,0.00056379195,0.0,0.0,-0.7009847
227319390,-0.008536918,0.034629893,0.00047118086,0.0,0.0,-0.70268196
227339330,0.015969561,0.031291444,0.00024060208,0.0,0.0,-0.70146525
227359356,0.011852987,0.03139372,0.00033118873,0.0,0.0,-0.7010646
227379324,-0.012858798,0.03512646,0.00036261525,0.0,0.0,-0.6999483
227399325,0.012071003,0.03252403,-3.7988822e-05,0.0,0.0,-0.6993526
227419344,0.020466136,0.03309017,-4.992692e-05,0.0,0.0,-0.6982684
227439330,-0.018695865,0.045034003,0.00040181726,0.0,0.0,-0.7003229
227459330,-0.018323097,0.033504575,0.00010562621,0.0,0.0,-0.697327
227479330,0.016096,0.042427428,-0.00013365474,0.0,0.0,-0.6960362
227499347,-0.015469497,0.03618603,-0.00020046307,0.0,0.0,-0.6990982
227519420,-0.019906651,0.026472518,-0.0002645617,0.0,0.0,-0.6966153
227539384,-0.035481744,0.026283711,-0.0003004408,0.0,0.0,-0.6985391
227559336,-0.021215899,0.04313999,-0.00059374823,0.0,0.0,-0.69771194
227579343,-0.040689047,0.017809786,-0.00041746226,0.0,0.0,-0.6965558
227599340,-0.059878238,0.024574885,-0.00057874795,0.0,0.0,-0.699194
227619344,-0.053506248,0.019358942,-0.0008169749,0.0,0.0,-0.69633484
227634341,-0.04181467,0.0096590705,-0.0004846063,0.0,0.0,-0.69636905
227659348,-0.07309939,0.035452474,-0.0007089818,0.0,0.0,-0.69890016
227679354,-0.067224436,0.010259218,-0.00092137896,0.0,0.0,-0.6942322
227699366,-0.05327699,0.023002012,-0.0010687612,0.0,0.0,-0.694757
227719446,-0.04763019,0.035460666,-0.0012523385,0.0,0.0,-0.6968032
227739360,-0.07865364,0.019382965,-0.0010159069,0.0,0.0,-0.69549304
227759352,-0.076759055,0.035489164,-0.0011392343,0.0,0.0,-0.6965397
227779360,-0.07735037,0.04867482,-0.0013487574,0.0,0.0,-0.69695246
227799358,-0.08577735,0.034001496,-0.0014603372,0.0,0.0,-0.6951855
227819391,-0.086497866,0.055001132,-0.0012881211,0.0,0.0,-0.6971679
227839377,-0.07482349,0.060332198,-0.0013425617,0.0,0.0,-0.6941264
227859368,-0.07378246,0.03871289,-0.0013763423,0.0,0.0,-0.69215924
227879362,-0.05077611,0.08612481,-0.0016112922,0.0,0.0,-0.693811
227899386,-0.06730304,0.06640202,-0.0013609501,0.0,0.0,-0.6920633
227919466,-0.089754984,0.0776974,-0.0016087338,0.0,0.0,-0.6934515
227939375,-0.014086047,0.090180874,-0.0018258963,0.0,0.0,-0.691589
227959370,-0.02881549,0.07332874,-0.0015915078,0.0,0.0,-0.6895003
227979374,-0.06640284,0.09341764,-0.001478008,0.0,0.0,-0.6904026
227999418,-0.04601432,0.09400761,-0.0014609692,0.0,0.0,-0.6889902
228019391,-0.030387582,0.07343901,-0.0016124386,0.0,0.0,-0.6877075
228039382,-0.02298069,0.07784966,-0.00141596,0.0,0.0,-0.6877743
228059436,-0.013871936,0.0745386,-0.0016011081,0.0,0.0,-0.6877736
228079437,-0.010115154,0.08169072,-0.0017026782,0.0,0.0,-0.6884775
228099395,-0.011977711,0.06872262,-0.0016889701,0.0,0.0,-0.6859101
228119496,-0.0036181717,0.06480946,-0.0014377354,0.0,0.0,-0.6870216
228139398,0.026660185,0.07453328,-0.0019582082,0.0,0.0,-0.6887467
228159395,0.019597884,0.047096457,-0.0018689211,0.0,0.0,-0.68784577
228179390,-0.01947101,0.061352048,-0.0016321279,0.0,0.0,-0.6900717
228199398,-0.0077822083,0.031559993,-0.0017018449,0.0,0.0,-0.68796587
228219403,-0.0053920913,0.020752314,-0.0016847055,0.0,0.0,-0.6888875
228239403,-0.0024457842,0.028058857,-0.0019199196,0.0,0.0,-0.6900178
228259442,-0.016916111,-0.0010080731,-0.001703088,0.0,0.0,-0.68974566
228279400,-0.008996565,0.023035724,-0.0019832866,0.0,0.0,-0.6914523
228299438,-0.04212164,0.019073602,-0.0017962703,0.0,0.0,-0.6915175
228319525,-0.045651186,0.013240666,-0.0020154454,0.0,0.0,-0.692447
228339414,-0.04597119,0.020611402,-0.0018347055,0.0,0.0,-0.69417655
228359410,-0.0659812,0.0044990215,-0.0018073589,0.0,0.0,-0.69328904
228379414,-0.050365847,0.031638272,-0.0021196767,0.0,0.0,-0.69476557
228399413,-0.062771425,0.026553258,-0.0020213025,0.0,0.0,-0.6947743
228419425,-0.083482265,0.030723669,-0.0017633544,0.0,0.0,-0.6963647
228439431,-0.08023729,0.030095093,-0.0019499015,0.0,0.0,-0.6960452
228459414,-0.07507747,0.032444566,-0.0017844283,0.0,0.0,-0.6948187
228479417,-0.052414775,0.04308355,-0.0022576188,0.0,0.0,-0.6949732
228499438,-0.07393505,0.035397455,-0.0017044598,0.0,0.0,-0.69570535
228519589,-0.091937914,0.054312374,-0.0018868173,0.0,0.0,-0.6958094
228539440,-0.04870613,0.054599624,-0.002033153,0.0,0.0,-0.6933763
228559429,-0.04174374,0.040110018,-0.0018024306,0.0,0.0,-0.69236857
228579423,-0.07389654,0.062077474,-0.0017641662,0.0,0.0,-0.69527274
228599429,-0.053132184,0.05602766,-0.001959365,0.0,0.0,-0.6926563
228619435,-0.03812502,0.07551763,-0.0018420471,0.0,0.0,-0.6940438
228639434,-0.022150492,0.059008464,-0.0017471281,0.0,0.0,-0.6932775
228659470,-0.004611302,0.050825924,-0.0016982553,0.0,0.0,-0.69008684
228679434,0.013209086,0.070172,-0.0018324186,0.0,0.0,-0.69219714
228699486,-0.0115158325,0.06161706,-0.0016026271,0.0,0.0,-0.6900239
228719585,0.035080276,0.040297933,-0.0014322795,0.0,0.0,-0.68717253
228739438,0.044325635,0.058572106,-0.0015953748,0.0,0.0,-0.69006765
228759454,0.046409935,0.05076218,-0.0014779882,0.0,0.0,-0.6885177
228779442,0.069159456,0.056357823,-0.0015391784,0.0,0.0,-0.68874973
228799463,0.058334954,0.04229018,-0.0012889387,0.0,0.0,-0.68822837
228819450,0.057898767,0.02865608,-0.0010784636,0.0,0.0,-0.6872417
228839453,0.091613665,0.04010984,-0.001556192,0.0,0.0,-0.6881157
228859448,0.0646696,0.048767965,-0.0008733071,0.0,0.0,-0.68719643
228879452,0.07933493,0.066750884,-0.0014644746,0.0,0.0,-0.68997514
228899451,0.07994906,0.056977633,-0.00136012,0.0,0.0,-0.6872105
228919627,0.059424344,0.05619083,-0.000714803,0.0,0.0,-0.68947303
228939460,0.06363137,0.09116116,-0.0015560323,0.0,0.0,-0.6903361
228959463,0.05541052,0.08365033,-0.0012645463,0.0,0.0,-0.68804604
228979504,0.044527132,0.09688633,-0.0013327856,0.0,0.0,-0.6898887
228999462,0.05411645,0.099168785,-0.0015948834,0.0,0.0,-0.6886678
229019483,0.036155302,0.1217436,-7.456149e-05,0.0,0.0,-0.68866533
229039472,0.04927389,0.10677919,-0.0013253761,0.0,0.0,-0.68815476
229059470,0.036744393,0.11259481,0.00081471226,0.0,0.0,-0.6885039
229079468,0.037444036,0.1290545,-0.0004200251,0.0,0.0,-0.6881899
229099471,0.056315277,0.11751749,0.000108599204,0.0,0.0,-0.6866676
229119646,0.04710444,0.12363953,0.0038172477,0.0,0.0,-0.6888218
229139474,0.042817887,0.1388647,0.0024040558,0.0,0.0,-0.6878351
229159518,0.044967543,0.101103924,0.0021709977,0.0,0.0,-0.6864687
229179475,0.047686078,0.116228305,0.002836966,0.0,0.0,-0.6875258
229199485,0.08128806,0.12243202,0.0034527485,0.0,0.0,-0.68814296
229219480,0.075939186,0.10638993,0.008575727,0.0,0.0,-0.6866109
229239510,0.07683003,0.10071093,0.0073526246,0.0,0.0,-0.68688786
229259483,0.10422522,0.098725766,0.007250364,0.0,0.0,-0.68507177
229279526,0.10022173,0.09201788,0.011624522,0.0,0.0,-0.6880398
229299489,0.09332697,0.08819138,0.011384911,0.0,0.0,-0.68572736
229319503,0.10019992,0.08479763,0.010428053,0.0,0.0,-0.6881299
229339512,0.10994488,0.061657418,0.011496387,0.0,0.0,-0.685967
229359494,0.12519667,0.059960425,0.013582447,0.0,0.0,-0.6856073
229379493,0.12758477,0.07675089,0.016100556,0.0,0.0,-0.6880922
229399497,0.11561971,0.059807323,0.017832445,0.0,0.0,-0.6872553
229419527,0.09533569,0.06948665,0.016522562,0.0,0.0,-0.68805707
229439498,0.12530237,0.06108582,0.013884819,0.0,0.0,-0.68738574
229459499,0.10203746,0.043260153,0.01954971,0.0,0.0,-0.68658936
229479503,0.120904595,0.037494004,0.016536195,0.0,0.0,-0.68885946
229499506,0.11907618,0.031759676,0.020602062,0.0,0.0,-0.6882569
229519519,0.10664708,0.030303586,0.021717098,0.0,0.0,-0.68970126
229539521,0.088993795,0.015648013,0.02040521,0.0,0.0,-0.6875663
229559510,0.10991509,0.012733547,0.018346956,0.0,0.0,-0.68672353
229579512,0.09932494,0.027579308,0.022335084,0.0,0.0,-0.68752563
229599518,0.116002694,0.008921065,0.02175647,0.0,0.0,-0.6851956
229619517,0.07273183,0.012260749,0.025167992,0.0,0.0,-0.68741316
229639523,0.08371302,0.007869214,0.01857038,0.0,0.0,-0.6872803
229659546,0.07626106,-0.008510579,0.020959167,0.0,0.0,-0.68523216
229679564,0.122539215,0.013107278,0.019714184,0.0,0.0,-0.6865799
229699521,0.11386298,0.012484528,0.027477443,0.0,0.0,-0.68664557
229719536,0.10769319,0.001648707,0.026365468,0.0,0.0,-0.68675107
229739529,0.11094861,0.014652086,0.025456488,0.0,0.0,-0.6869086
229759534,0.09508166,6.89043e-05,0.02665089,0.0,0.0,-0.68609107
229779530,0.10684635,-0.0036207184,0.02465424,0.0,0.0,-0.686336
229799535,0.12704833,-0.007715202,0.027199415,0.0,0.0,-0.68501025
229819536,0.12746511,0.008495315,0.031170603,0.0,0.0,-0.687596
229839540,0.13498327,-0.007107233,0.032068074,0.0,0.0,-0.6856484
229859603,0.12149872,0.0007646282,0.034064922,0.0,0.0,-0.68750215
229879544,0.12912181,0.00084895524,0.032816164,0.0,0.0,-0.68787587
229899541,0.13484605,-0.023178205,0.035658922,0.0,0.0,-0.68444073
229919552,0.123253725,-0.0020673347,0.037281368,0.0,0.0,-0.687395
229939546,0.10176451,-0.00946479,0.036771607,0.0,0.0,-0.68597215
229959582,0.10745406,0.0024311715,0.034305654,0.0,0.0,-0.68666744
229979548,0.105987035,0.008995918,0.03629256,0.0,0.0,-0.6863531
229999552,0.12738802,0.0024105636,0.037515383,0.0,0.0,-0.68697697
230019552,0.113319315,0.01089383,0.04155241,0.0,0.0,-0.6868553
230039561,0.10199588,0.004471867,0.04077055,0.0,0.0,-0.6875992
230059552,0.07851415,0.016290704,0.040367723,0.0,0.0,-0.6886155
230079556,0.08958538,0.007330069,0.037495855,0.0,0.0,-0.6875473
230099558,0.08357263,0.0075859893,0.04065372,0.0,0.0,-0.6859606
230119568,0.08667738,0.01743354,0.040600237,0.0,0.0,-0.6881619
230139663,0.078955226,0.013986211,0.042314455,0.0,0.0,-0.68632203
230159565,0.027219169,0.0121218795,0.042013846,0.0,0.0,-0.68688905
230179565,0.044272415,0.030762779,0.034449562,0.0,0.0,-0.68910915
230199585,0.053097274,0.01158856,0.038280327,0.0,0.0,-0.6846091
230219585,0.054361746,0.02815002,0.04017477,0.0,0.0,-0.6874116
230239569,0.029651249,0.021861017,0.04137827,0.0,0.0,-0.68701005
230259569,0.030847168,-0.000625987,0.038247027,0.0,0.0,-0.6846385
230279575,0.045201264,0.021046696,0.038762864,0.0,0.0,-0.68642867
230299577,0.054517783,0.003366729,0.041781202,0.0,0.0,-0.6848191
230319598,0.052957106,0.001262978,0.04373067,0.0,0.0,-0.6866379
230339583,0.022402836,-0.003542805,0.043720376,0.0,0.0,-0.68595713
230359581,0.014761861,-0.02034211,0.039786384,0.0,0.0,-0.68607694
230379581,0.037970293,-0.02656548,0.038617495,0.0,0.0,-0.6859086
230399661,0.04583294,-0.028355723,0.04231453,0.0,0.0,-0.68628633
230419587,0.022241654,-0.022047313,0.043913,0.0,0.0,-0.6880153
230439586,0.027979972,-0.036770377,0.040498294,0.0,0.0,-0.6877789
230459596,0.030088589,-0.03928841,0.041249458,0.0,0.0,-0.6885888
230479599,0.05559603,-0.038779214,0.04133416,0.0,0.0,-0.6884716
230499608,0.058198486,-0.045451988,0.04553813,0.0,0.0,-0.68850935
230519622,0.02594573,-0.037960336,0.04577554,0.0,0.0,-0.6904769
230539605,0.02905011,-0.039691113,0.040606067,0.0,0.0,-0.6896244
230559622,0.01771805,-0.050588846,0.04101761,0.0,0.0,-0.6890369
230579646,0.034323316,-0.024482625,0.03866764,0.0,0.0,-0.69133973
230599612,0.056789372,-0.029484268,0.04108012,0.0,0.0,-0.6907555
230619612,0.052528925,-0.0230864,0.044495218,0.0,0.0,-0.6908344
230639624,0.039410267,-0.006292766,0.04330571,0.0,0.0,-0.6916167
230659651,0.037617408,-0.028504476,0.041866697,0.0,0.0,-0.6888522
230679622,0.0345024,-0.0074393246,0.0411247,0.0,0.0,-0.688648
230699660,0.046373866,0.0113974335,0.040084567,0.0,0.0,-0.68899506
230719626,0.03116773,0.010434442,0.042144112,0.0,0.0,-0.6880561
230739625,0.027057214,0.03016223,0.039487243,0.0,0.0,-0.68775314
230759620,0.023575487,0.027828733,0.039184824,0.0,0.0,-0.68596745
230779621,0.037708126,0.046352323,0.038187727,0.0,0.0,-0.6865569
230799623,0.033479217,0.0508714,0.04055162,0.0,0.0,-0.6844652
230819650,0.0076875263,0.04893092,0.040540118,0.0,0.0,-0.6851748
230839679,0.021395056,0.044870052,0.03676737,0.0,0.0,-0.6830248
230859629,-0.0025136545,0.05068229,0.03943403,0.0,0.0,-0.6814354
230879630,-0.0030204845,0.050770283,0.036284853,0.0,0.0,-0.68382776
230899636,-0.0019451971,0.053111464,0.036184005,0.0,0.0,-0.68196124
230919658,-0.013539294,0.04931692,0.036710046,0.0,0.0,-0.6820276
230939666,-0.014384064,0.054285705,0.034795154,0.0,0.0,-0.68310755
230959639,-0.0064288103,0.035504334,0.035256773,0.0,0.0,-0.6821606
230979652,-0.005345694,0.03355813,0.0366635,0.0,0.0,-0.6834499
230999640,-0.017239504,0.035368163,0.03639317,0.0,0.0,-0.68380904
231019653,-0.031729575,0.000493694,0.035165213,0.0,0.0,-0.68286043
231039647,-0.01166045,0.014998014,0.032672778,0.0,0.0,-0.68608695
231059644,-0.018480798,-0.00862281,0.036221404,0.0,0.0,-0.6845885
231079647,-0.03162348,-0.014377973,0.035098914,0.0,0.0,-0.6859368
231099650,-0.0159195,-0.021045392,0.032982588,0.0,0.0,-0.6869536
231119700,-0.02670305,-0.057017475,0.03562759,0.0,0.0,-0.6852581
231139674,-0.016437432,-0.059060566,0.033334237,0.0,0.0,-0.6868496
231159655,-0.011447485,-0.062440548,0.034640133,0.0,0.0,-0.68804574
231179654,-0.02023087,-0.08252764,0.035331205,0.0,0.0,-0.68794477
231199665,-0.011011552,-0.070231006,0.033107895,0.0,0.0,-0.68918097
231219666,-0.021003937,-0.09246166,0.034193058,0.0,0.0,-0.68849707
231239688,-0.024020083,-0.10512391,0.032116607,0.0,0.0,-0.68873787
231259663,-0.013420479,-0.093278565,0.031047124,0.0,0.0,-0.68962145
231279668,-0.024475964,-0.11182945,0.032278884,0.0,0.0,-0.6886313
231299701,-0.0070826695,-0.10100377,0.02969385,0.0,0.0,-0.6896092
231319681,-0.041638337,-0.09604486,0.031517476,0.0,0.0,-0.69002193
231339711,-0.025470333,-0.10141069,0.025462743,0.0,0.0,-0.6883443
231359699,-0.017242221,-0.0819391,0.027094662,0.0,0.0,-0.68808573
231379714,-0.029222649,-0.084279165,0.027627867,0.0,0.0,-0.68798816
231399677,-0.03516787,-0.07569469,0.025016975,0.0,0.0,-0.6864097
231419681,-0.037095573,-0.0603438,0.02341961,0.0,0.0,-0.68708724
231439683,-0.03150777,-0.04956654,0.022072472,0.0,0.0,-0.68555564
231459688,-0.03867264,-0.044402275,0.02235188,0.0,0.0,-0.68438286
231479685,-0.026955409,-0.024825303,0.020373957,0.0,0.0,-0.68566227
231499685,-0.0453487,-0.020352924,0.021516109,0.0,0.0,-0.6841671
231519699,-0.057563834,-0.02672935,0.018111985,0.0,0.0,-0.68236125
231539732,-0.054014534,-0.005767247,0.015015362,0.0,0.0,-0.6836634
231559735,-0.051815894,-0.028030986,0.015422,0.0,0.0,-0.67939866
231579691,-0.038848072,-0.003228762,0.0146836685,0.0,0.0,-0.6795433
231599694,-0.04111767,0.012084696,0.015835954,0.0,0.0,-0.68082047
231619696,-0.045676447,-0.016264185,0.015118992,0.0,0.0,-0.67872167
231639679,-0.03883077,0.009304394,0.013387733,0.0,0.0,-0.6803653
231659704,-0.033046927,-0.0034581574,0.013891292,0.0,0.0,-0.6778347
231679701,-0.030387003,-0.014639682,0.013850276,0.0,0.0,-0.67912686
231699702,-0.012114922,-0.008144517,0.013150269,0.0,0.0,-0.67963743
231719735,-0.008435492,-0.027703337,0.015436045,0.0,0.0,-0.6793718
231739830,0.0061008264,-0.027689861,0.014676179,0.0,0.0,-0.6802422
231759706,0.009245881,-0.04259306,0.01625616,0.0,0.0,-0.680683
231779715,0.020077629,-0.05384762,0.015641868,0.0,0.0,-0.680685
231799713,0.040719405,-0.053665303,0.016770422,0.0,0.0,-0.6820946
231819754,0.033646237,-0.0634519,0.019493602,0.0,0.0,-0.6838544
231839710,0.030815115,-0.06727772,0.017670685,0.0,0.0,-0.6837172
231859720,0.024620546,-0.06357322,0.017273793,0.0,0.0,-0.6871786
231879761,0.03896606,-0.07252109,0.016000438,0.0,0.0,-0.68643713
231899723,0.02733959,-0.07778667,0.018228509,0.0,0.0,-0.6873241
231919728,0.04668086,-0.06879055,0.016544659,0.0,0.0,-0.68848747
231939789,0.04689914,-0.08682069,0.020168846,0.0,0.0,-0.68693835
231959722,0.044485707,-0.07372752,0.02052706,0.0,0.0,-0.6893959
231979729,0.0457481,-0.071084134,0.020679,0.0,0.0,-0.6884716
231999769,0.027572539,-0.06792505,0.021453556,0.0,0.0,-0.6883885
232019730,0.020617506,-0.056653406,0.019562691,0.0,0.0,-0.68861216
232039743,0.010486114,-0.06501328,0.019662062,0.0,0.0,-0.68652964
232059735,-0.0005025853,-0.056421887,0.018727314,0.0,0.0,-0.6871484
232079770,-0.004327358,-0.04979393,0.017925803,0.0,0.0,-0.6866453
232099735,-0.020020263,-0.051593296,0.018413603,0.0,0.0,-0.68434405
232119748,-0.026940828,-0.040199257,0.016608413,0.0,0.0,-0.68503225
232139814,-0.042219102,-0.04419703,0.016578315,0.0,0.0,-0.6840766
232159777,-0.028929511,-0.04529808,0.014601803,0.0,0.0,-0.68289626
232179752,-0.028994031,-0.034562353,0.016824944,0.0,0.0,-0.6822991
232199755,-0.06441122,-0.038222503,0.016846316,0.0,0.0,-0.681968
232219756,-0.059909057,-0.03523201,0.010863818,0.0,0.0,-0.6809195
232239755,-0.057799954,-0.031264745,0.011501457,0.0,0.0,-0.6811633
232259756,-0.038368028,-0.03308022,0.010937265,0.0,0.0,-0.6801142
232279773,-0.01994957,-0.030192275,0.013054928,0.0,0.0,-0.6798634
232299754,-0.039381217,-0.025315478,0.01463898,0.0,0.0,-0.68231636
232319775,-0.023721898,-0.032956474,0.010537785,0.0,0.0,-0.6805605
232339851,-0.0072897095,-0.030432822,0.0115716,0.0,0.0,-0.6815553
232359809,0.006187095,-0.029389866,0.012650975,0.0,0.0,-0.68072927
232379759,0.016254505,-0.02724184,0.013245115,0.0,0.0,-0.6790895
232399770,0.026608588,-0.014482709,0.013675065,0.0,0.0,-0.682867
232419767,0.034477267,-0.03604787,0.01390634,0.0,0.0,-0.6805488
232439800,0.043489665,-0.025024196,0.014169203,0.0,0.0,-0.68285453
232459772,0.054641042,-0.028066164,0.014756237,0.0,0.0,-0.6815945
232479776,0.048372384,-0.050304282,0.015977835,0.0,0.0,-0.6800716
232499775,0.06712818,-0.021949658,0.014325126,0.0,0.0,-0.6839477
232519792,0.065844655,-0.050119404,0.017076366,0.0,0.0,-0.68026644
232539911,0.081936955,-0.030441238,0.01696323,0.0,0.0,-0.68384546
232559783,0.054730464,-0.03148718,0.019833282,0.0,0.0,-0.68284667
232579779,0.04759879,-0.059563667,0.016121743,0.0,0.0,-0.6813714
232599793,0.05379863,-0.039887868,0.015427299,0.0,0.0,-0.6841892
232619784,0.05090181,-0.06462873,0.017536575,0.0,0.0,-0.6812146
232639786,0.04330862,-0.044080332,0.017764637,0.0,0.0,-0.6822371
232659784,0.031852126,-0.03235705,0.017594147,0.0,0.0,-0.6839164
232679787,0.017321177,-0.055583905,0.017111791,0.0,0.0,-0.6828052
232699792,0.021549549,-0.038936425,0.015619111,0.0,0.0,-0.6848002
232719812,-0.0061715776,-0.07136183,0.017736062,0.0,0.0,-0.68247145
232739897,0.0070993816,-0.04430097,0.014238822,0.0,0.0,-0.68443
232759791,-0.018116115,-0.038625937,0.017325804,0.0,0.0,-0.6842139
232779799,-0.034360748,-0.044939075,0.014476947,0.0,0.0,-0.68403244
232799826,-0.03422314,-0.031435024,0.012613841,0.0,0.0,-0.6849588
232819799,-0.032630675,-0.05062966,0.013296371,0.0,0.0,-0.682049
232839801,-0.023762539,-0.029588813,0.013984584,0.0,0.0,-0.6846572
232859801,-0.038515054,-0.03529288,0.015750745,0.0,0.0,-0.6834745
232879802,-0.046338733,-0.036890063,0.013352551,0.0,0.0,-0.68369675
232899803,-0.05245407,-0.028630598,0.01177423,0.0,0.0,-0.68377095
232919822,-0.051187843,-0.058091678,0.01066544,0.0,0.0,-0.68079656
232939930,-0.042153303,-0.033910964,0.009924156,0.0,0.0,-0.6843118
232959829,-0.04525485,-0.057032157,0.010637368,0.0,0.0,-0.6809436
232979853,-0.03881539,-0.0427323,0.009171894,0.0,0.0,-0.6837693
232999821,-0.04367822,-0.033063654,0.009001028,0.0,0.0,-0.684281
233019836,-0.041069884,-0.072640345,0.007478688,0.0,0.0,-0.68129593
233039829,-0.025966508,-0.04104319,0.0063765612,0.0,0.0,-0.6858239
233059827,-0.026226629,-0.069303945,0.007660217,0.0,0.0,-0.6819237
233079823,-0.015629297,-0.042481896,0.00645727,0.0,0.0,-0.68628937
233099823,-0.009453337,-0.05409617,0.007012322,0.0,0.0,-0.6848538
233119842,-0.011387175,-0.083338514,0.0074265366,0.0,0.0,-0.68365353
233139962,-0.0066266535,-0.058551356,0.006489362,0.0,0.0,-0.68647045
233159875,-0.0054382333,-0.08237394,0.006715724,0.0,0.0,-0.6837936
233179834,-0.0049692136,-0.06337207,0.00653719,0.0,0.0,-0.68627644
233199846,-8.7845096e-05,-0.06316115,0.0060609565,0.0,0.0,-0.6854461
233219852,-0.011110008,-0.070000574,0.0070294417,0.0,0.0,-0.6859162
233239917,-0.005536839,-0.04595456,0.005073956,0.0,0.0,-0.6864124
233259839,-0.0035010537,-0.051111214,0.005834749,0.0,0.0,-0.6841646
233279845,-0.010317303,-0.040222015,0.0063428255,0.0,0.0,-0.68809295
233299846,-0.00010792591,-0.046807796,0.0055060987,0.0,0.0,-0.6857264
233319861,-0.02251411,-0.04145351,0.0074900193,0.0,0.0,-0.6873454
233340007,-0.018209668,-0.038348965,0.0041515385,0.0,0.0,-0.6861737
233359854,-0.0030232186,-0.03424365,0.00498637,0.0,0.0,-0.6855442
233379855,-0.014572394,-0.023456672,0.00776547,0.0,0.0,-0.6876594
233399855,-0.006687323,-0.024378948,0.006110054,0.0,0.0,-0.68519366
233419853,-0.02663195,-0.01661879,0.0077239824,0.0,0.0,-0.6862647
233439907,-0.029340526,-0.016220527,0.004684654,0.0,0.0,-0.6855191
233459855,-0.010303156,-0.003714212,0.004895767,0.0,0.0,-0.68430257
233479879,-0.032585453,-0.010666637,0.007994969,0.0,0.0,-0.68569297
233499862,-0.036450207,0.0005715325,0.0046879533,0.0,0.0,-0.68555033
233519886,-0.05822194,-0.00286714,0.0047433847,0.0,0.0,-0.68542945
233540041,-0.050766945,-0.0010374987,0.0017805563,0.0,0.0,-0.68492055
233559867,-0.03956728,0.027021218,0.0022659411,0.0,0.0,-0.6868487
233579866,-0.064717524,0.00058533234,0.00431461,0.0,0.0,-0.6852242
233599870,-0.04995927,0.023598017,0.0014930547,0.0,0.0,-0.68739355
233619873,-0.055618376,0.007727099,0.0023285989,0.0,0.0,-0.6851116
233639873,-0.07166776,0.008975584,0.0015799091,0.0,0.0,-0.686331
233659877,-0.05968738,0.0323644,0.0012698346,0.0,0.0,-0.68848264
233679878,-0.065143466,8.5639134e-05,0.0017139802,0.0,0.0,-0.68577147
233699911,-0.049835507,0.020211417,0.0015445824,0.0,0.0,-0.68943584
233719876,-0.049745087,0.011357941,0.0014422592,0.0,0.0,-0.6859025
233740043,-0.054285984,-0.0055655115,0.0016827708,0.0,0.0,-0.6871239
233759900,-0.048248056,0.009506167,0.0016405797,0.0,0.0,-0.6897813
233779889,-0.043958798,-0.021718623,0.001683549,0.0,0.0,-0.6874521
233799884,-0.028030217,0.0034888538,0.0015011511,0.0,0.0,-0.69153434
233819889,-0.021836523,-0.0065654814,0.0014971686,0.0,0.0,-0.68961334
233839891,-0.025554514,-0.0070800213,0.001683273,0.0,0.0,-0.69077337
233859893,-0.013434132,0.0018772715,0.0015471946,0.0,0.0,-0.69169724
233879924,-0.008940828,-0.01818774,0.0016031496,0.0,0.0,-0.6904952
233899902,-0.017691584,-0.0055583147,0.0017765106,0.0,0.0,-0.6931935
233919894,-0.010366932,-0.021153588,0.001689635,0.0,0.0,-0.6903507
233939910,-0.007597077,-0.012640273,0.001736579,0.0,0.0,-0.6918925
233959943,0.0058290376,-0.00751197,0.0014864227,0.0,0.0,-0.69113237
233979918,0.0028897526,-0.0070469873,0.001656561,0.0,0.0,-0.6887518
233999904,-0.0043751295,0.012412166,0.0016852802,0.0,0.0,-0.69195247
234019908,0.0053633447,0.0010546466,0.0014863713,0.0,0.0,-0.6898708
234039915,0.011439434,0.006596167,0.0014896357,0.0,0.0,-0.69053495
234059910,0.01861818,0.011170813,0.0013422844,0.0,0.0,-0.68955153
234079910,0.009359249,0.022842431,0.0013501232,0.0,0.0,-0.68903464
234099922,-0.010036631,0.027055237,0.0014472961,0.0,0.0,-0.6908439
234119927,0.0011358366,0.02463734,0.00116911,0.0,0.0,-0.68943995
234139930,0.0028750957,0.034688093,0.00121461,0.0,0.0,-0.68953097
234159919,-0.005191818,0.03800541,0.001089403,0.0,0.0,-0.68879473
234179925,-0.014127841,0.037492413,0.0011847557,0.0,0.0,-0.68871874
234199922,-0.02443635,0.043606255,0.0012158535,0.0,0.0,-0.68954885
234219935,-0.014327963,0.03845553,0.0011474736,0.0,0.0,-0.6882445
234239926,-0.014600079,0.056204103,0.00096870644,0.0,0.0,-0.68856525
234259926,-0.021390866,0.042713497,0.0010127114,0.0,0.0,-0.6879278
234279926,-0.023114717,0.047546767,0.0009817388,0.0,0.0,-0.68946683
234299929,-0.025947226,0.042178113,0.0011047742,0.0,0.0,-0.68891335
234319932,-0.03326504,0.034074973,0.0011596212,0.0,0.0,-0.68962044
234339945,-0.02958572,0.049325395,0.0006888218,0.0,0.0,-0.6916663
234359938,-0.02806187,0.028005507,0.0012044805,0.0,0.0,-0.68868977
234379938,-0.023574406,0.035507582,0.0011942008,0.0,0.0,-0.6912392
234399968,-0.0257284,0.029882751,0.0009847987,0.0,0.0,-0.690381
234419956,-0.027007734,0.010611768,0.0011673709,0.0,0.0,-0.6885076
234439942,-0.028045762,0.026335407,0.0011167963,0.0,0.0,-0.69261897
234459946,-0.016547142,0.008954775,0.0011688112,0.0,0.0,-0.68970853
234479944,-0.023181954,0.017218856,0.0010471097,0.0,0.0,-0.69244695
234499946,-0.020926544,0.014233558,0.0011396236,0.0,0.0,-0.6915732
234519948,0.0044326303,0.0038303938,0.0011472139,0.0,0.0,-0.69086754
234539956,-0.010496472,0.014654762,0.0010446372,0.0,0.0,-0.6933458
234559954,0.006865549,0.0076617156,0.0009522046,0.0,0.0,-0.6913223
234579957,0.0014321501,0.011193353,0.0012427038,0.0,0.0,-0.69336
234599959,0.008759761,0.002550188,0.0010831174,0.0,0.0,-0.69246763
234619961,0.023421122,0.0068008797,0.0010150813,0.0,0.0,-0.69218576
234639998,0.007922901,0.015879182,0.0010433337,0.0,0.0,-0.69394326
234659974,0.016905302,0.012015419,0.0008422838,0.0,0.0,-0.69277227
234680004,0.01757956,0.017442612,0.0009193546,0.0,0.0,-0.693716
234699967,0.028249994,0.013808058,0.0007012723,0.0,0.0,-0.6925789
234719971,0.03374752,0.027666515,0.0018721082,0.0,0.0,-0.6926399
234739979,0.016877297,0.020043803,0.003380375,0.0,0.0,-0.6926249
234759971,0.010791871,0.025044326,0.001106892,0.0,0.0,-0.69247216
234779972,0.02043306,0.030893195,0.0008063787,0.0,0.0,-0.6920885
234799982,0.013893167,0.024462618,0.0030839862,0.0,0.0,-0.69157356
234819974,0.012763681,0.037887122,0.0029127058,0.0,0.0,-0.69224876
234839985,-0.008557924,0.030051744,0.00373508,0.0,0.0,-0.6908987
234860022,-0.010521302,0.035568777,0.0011870564,0.0,0.0,-0.691127
234879985,-0.0051923892,0.04577526,0.0017829335,0.0,0.0,-0.6914012
234899988,-0.02619953,0.023184128,0.0034016,0.0,0.0,-0.69047046
234919999,-0.023581833,0.042002704,0.00071335695,0.0,0.0,-0.6986169
234939995,-0.03534525,0.03327109,0.0018806641,0.0,0.0,-0.70461905
234960003,-0.036528416,0.021238463,0.000634901,0.0,0.0,-0.71064866
234979991,-0.024308655,0.042019166,0.00032094645,0.0,0.0,-0.7208909
234999993,-0.031634837,0.012083046,0.0023325034,0.0,0.0,-0.72517216
235019993,-0.033836056,0.02870388,0.001106631,0.0,0.0,-0.73439634
235040023,-0.040864985,0.024059378,0.00052031985,0.0,0.0,-0.7399098
235059999,-0.019827235,0.003721827,0.00043207192,0.0,0.0,-0.7428487
235079998,-0.026312672,0.032449584,0.0017144947,0.0,0.0,-0.7518701
235100005,-0.034738924,0.019829812,0.0002959126,0.0,0.0,-0.7573166
235120039,-0.026943376,0.017315937,0.00036134268,0.0,0.0,-0.7612707
235140013,-0.024751224,0.026352271,0.00034240898,0.0,0.0,-0.7648544
235160019,-0.010397042,0.027427752,0.00023057644,0.0,0.0,-0.77022004
235180011,-0.009388294,0.024852999,0.00040033317,0.0,0.0,-0.7740408
235200015,0.0017801195,0.024498818,0.0002339048,0.0,0.0,-0.77559525
235220011,0.0058266665,0.023614043,0.00024866022,0.0,0.0,-0.7770981
235240012,0.023090389,0.024516359,0.00029097157,0.0,0.0,-0.7829828
235260013,0.025965331,0.023880493,0.002312082,0.0,0.0,-0.78458947
235280019,0.023502707,0.01844904,0.0020593004,0.0,0.0,-0.78601867
