timestamp,timestamp_sample,gps_hvel[0],gps_hvel[1],gps_vvel,gps_hpos[0],gps_hpos[1],gps_vpos,ev_hvel[0],ev_hvel[1],ev_vvel,ev_hpos[0],ev_hpos[1],ev_vpos,rng_vpos,baro_vpos,aux_hvel[0],aux_hvel[1],aux_vvel,flow[0],flow[1],heading,mag_field[0],mag_field[1],mag_field[2],drag[0],drag[1],airspeed,beta,hagl,hagl_rate
217787335,217688052,0.10057,0.100580886,0.21413915,1.2339665,1.2339867,0.0,0.0,0.0,0.0,0.0,0.0,0.0,0.0,12.406697,0.0,0.0,nan,0.0,0.0,0.090342976,0.0,0.0,0.0,0.0,0.0,0.0,0.0,0.0,0.0
218291178,218191822,0.100587204,0.100591935,0.2141524,1.2163594,1.2163757,0.0,0.0,0.0,0.0,0.0,0.0,0.0,0.0,12.408199,0.0,0.0,nan,0.0,0.0,0.09034322,0.0,0.0,0.0,0.0,0.0,0.0,0.0,0.0,0.0
218784950,218685715,0.10060075,0.10060265,0.21419115,1.2033213,1.2033352,0.0,0.0,0.0,0.0,0.0,0.0,0.0,0.0,12.4056425,0.0,0.0,nan,0.0,0.0,0.090343684,0.0,0.0,0.0,0.0,0.0,0.0,0.0,0.0,0.0
219289287,219189486,0.10060924,0.10060845,0.21420337,1.1859053,1.1859156,0.0,0.0,0.0,0.0,0.0,0.0,0.0,0.0,12.404897,0.0,0.0,nan,0.0,0.0,0.09034409,0.0,0.0,0.0,0.0,0.0,0.0,0.0,0.0,0.0
219792470,219693257,0.100559935,0.10055819,0.21420068,1.1748734,1.1748815,0.0,0.0,0.0,0.0,0.0,0.0,0.0,0.0,12.405957,0.0,0.0,nan,0.0,0.0,0.09034447,0.0,0.0,0.0,0.0,0.0,0.0,0.0,0.0,0.0
220286499,220187151,0.10055141,0.10054911,0.21421087,1.1576428,1.1576481,0.0,0.0,0.0,0.0,0.0,0.0,0.0,0.0,12.404131,0.0,0.0,nan,0.0,0.0,0.09034473,0.0,0.0,0.0,0.0,0.0,0.0,0.0,0.0,0.0
220790136,220690922,0.100499876,0.10049774,0.21414721,1.1446538,1.1446575,0.0,0.0,0.0,0.0,0.0,0.0,0.0,0.0,12.405765,0.0,0.0,nan,0.0,0.0,0.0903451,0.0,0.0,0.0,0.0,0.0,0.0,0.0,0.0,0.0
221284440,221184816,0.10050995,0.10050834,0.21416664,1.1297457,1.1297475,0.0,0.0,0.0,0.0,0.0,0.0,0.0,0.0,12.403672,0.0,0.0,nan,0.0,0.0,0.090345465,0.0,0.0,0.0,0.0,0.0,0.0,0.0,0.0,0.0
221787856,221688587,0.100471266,0.10047046,0.21416633,1.1189835,1.1189843,0.0,0.0,0.0,0.0,0.0,0.0,0.0,0.0,12.405398,0.0,0.0,nan,0.0,0.0,0.09034579,0.0,0.0,0.0,0.0,0.0,0.0,0.0,0.0,0.0
222291734,222192359,0.10041711,0.10041749,0.21417004,1.1041709,1.1041706,0.0,0.0,0.0,0.0,0.0,0.0,0.0,0.0,12.403673,0.0,0.0,nan,0.0,0.0,0.090345986,0.0,0.0,0.0,0.0,0.0,0.0,0.0,0.0,0.0
222785478,222686255,0.100502014,0.10050343,0.21419041,1.0940421,1.0940411,0.0,0.0,0.0,0.0,0.0,0.0,0.0,0.0,12.404874,0.0,0.0,nan,0.0,0.0,0.09034632,0.0,0.0,0.0,0.0,0.0,0.0,0.0,0.0,0.0
223289539,223190025,0.10046756,0.10046478,0.21415943,1.0812432,1.0812417,0.0,0.0,0.0,0.0,0.0,0.0,0.0,0.0,12.406673,0.0,0.0,nan,0.0,0.0,0.09034663,0.0,0.0,0.0,0.0,0.0,0.0,0.0,0.0,0.0
223783141,223683921,0.10056084,0.100558795,0.21415943,1.0687275,1.0687257,0.0,0.0,0.0,0.0,0.0,0.0,0.0,0.0,12.404423,0.0,0.0,nan,0.0,0.0,0.09034691,0.0,0.0,0.0,0.0,0.0,0.0,0.0,0.0,0.0
224286925,224187692,0.10048417,0.10049758,0.21412914,1.0540736,1.0540715,0.0,0.0,0.0,0.0,0.0,0.0,0.0,0.0,12.403452,0.0,0.0,nan,0.0,0.0,0.09034696,0.0,0.0,0.0,0.0,0.0,0.0,0.0,0.0,0.0
224790742,224691465,0.10060118,0.10061105,0.21415721,1.0482181,1.048216,0.0,0.0,0.0,0.0,0.0,0.0,0.0,0.0,12.404732,0.0,0.0,nan,0.0,0.0,0.09034708,0.0,0.0,0.0,0.0,0.0,0.0,0.0,0.0,0.0
225284665,225185359,0.100528255,0.10052443,0.2141255,1.033715,1.0337135,0.0,0.0,0.0,0.0,0.0,0.0,0.0,0.0,12.406059,0.0,0.0,nan,0.0,0.0,0.09034728,0.0,0.0,0.0,0.0,0.0,0.0,0.0,0.0,0.0
225788483,225689132,0.1004864,0.100486055,0.21413203,1.0254525,1.0254512,0.0,0.0,0.0,0.0,0.0,0.0,0.0,0.0,12.405101,0.0,0.0,nan,0.0,0.0,0.09034736,0.0,0.0,0.0,0.0,0.0,0.0,0.0,0.0,0.0
226292181,226192905,0.1005314,0.10053221,0.2141955,1.0156122,1.0156112,0.0,0.0,0.0,0.0,0.0,0.0,0.0,0.0,12.402979,0.0,0.0,nan,0.0,0.0,0.100346096,0.0,0.0,0.0,0.0,0.0,0.0,0.0,0.0,0.0
226786063,226686801,0.09899937,0.09900627,0.21413647,1.0074579,1.007457,0.0,0.0,0.0,0.0,0.0,0.0,0.0,0.0,12.404293,0.0,0.0,nan,0.0,0.0,0.096119925,0.0,0.0,0.0,0.0,0.0,0.0,0.0,0.0,0.0
227289984,227190574,0.09889048,0.09885709,0.21416111,0.9953252,0.99532413,0.0,0.0,0.0,0.0,0.0,0.0,0.0,0.0,12.4062195,0.0,0.0,nan,0.0,0.0,0.09413873,0.0,0.0,0.0,0.0,0.0,0.0,0.0,0.0,0.0
227783750,227684470,0.09947765,0.099342525,0.2141634,0.98893213,0.98892975,0.0,0.0,0.0,0.0,0.0,0.0,0.0,0.0,12.404737,0.0,0.0,nan,0.0,0.0,0.09311819,0.0,0.0,0.0,0.0,0.0,0.0,0.0,0.0,0.0
228287585,228188243,0.10059518,0.10037733,0.21414173,0.9784795,0.978469,0.0,0.0,0.0,0.0,0.0,0.0,0.0,0.0,12.403678,0.0,0.0,nan,0.0,0.0,0.09250363,0.0,0.0,0.0,0.0,0.0,0.0,0.0,0.0,0.0
228791342,228692017,0.1012735,0.10100447,0.21417607,0.9705304,0.9705107,0.0,0.0,0.0,0.0,0.0,0.0,0.0,0.0,12.405999,0.0,0.0,nan,0.0,0.0,0.09214482,0.0,0.0,0.0,0.0,0.0,0.0,0.0,0.0,0.0
229285196,229185913,0.101911515,0.10166928,0.21423528,0.95876235,0.9587232,0.0,0.0,0.0,0.0,0.0,0.0,0.0,0.0,12.406045,0.0,0.0,nan,0.0,0.0,0.091838814,0.0,0.0,0.0,0.0,0.0,0.0,0.0,0.0,0.0
229788944,229689687,0.1020225,0.1018127,0.21421956,0.9508887,0.95084095,0.0,0.0,0.0,0.0,0.0,0.0,0.0,0.0,12.407006,0.0,0.0,nan,0.0,0.0,0.091610074,0.0,0.0,0.0,0.0,0.0,0.0,0.0,0.0,0.0
230292752,230193461,0.1019482,0.10180869,0.2142079,0.93942094,0.93936354,0.0,0.0,0.0,0.0,0.0,0.0,0.0,0.0,12.405469,0.0,0.0,nan,0.0,0.0,0.091455385,0.0,0.0,0.0,0.0,0.0,0.0,0.0,0.0,0.0
230786629,230687357,0.10170575,0.10163306,0.21413393,0.93352926,0.9334704,0.0,0.0,0.0,0.0,0.0,0.0,0.0,0.0,12.40645,0.0,0.0,nan,0.0,0.0,0.09130879,0.0,0.0,0.0,0.0,0.0,0.0,0.0,0.0,0.0
231290361,231191131,0.10146396,0.10147046,0.21417797,0.92810875,0.92804956,0.0,0.0,0.0,0.0,0.0,0.0,0.0,0.0,12.408555,0.0,0.0,nan,0.0,0.0,0.091189094,0.0,0.0,0.0,0.0,0.0,0.0,0.0,0.0,0.0
231784254,231685028,0.101098746,0.10112713,0.21412195,0.92198837,0.9219346,0.0,0.0,0.0,0.0,0.0,0.0,0.0,0.0,12.405949,0.0,0.0,nan,0.0,0.0,0.09110134,0.0,0.0,0.0,0.0,0.0,0.0,0.0,0.0,0.0
232288024,232188803,0.10087078,0.100878686,0.21416886,0.9129071,0.9128608,0.0,0.0,0.0,0.0,0.0,0.0,0.0,0.0,12.408534,0.0,0.0,nan,0.0,0.0,0.09101599,0.0,0.0,0.0,0.0,0.0,0.0,0.0,0.0,0.0
232791801,232692578,0.10070562,0.10069892,0.21420184,0.90733,0.9072899,0.0,0.0,0.0,0.0,0.0,0.0,0.0,0.0,12.406454,0.0,0.0,nan,0.0,0.0,0.09094349,0.0,0.0,0.0,0.0,0.0,0.0,0.0,0.0,0.0
233285803,233186475,0.10043276,0.100411974,0.21415928,0.89949954,0.8994686,0.0,0.0,0.0,0.0,0.0,0.0,0.0,0.0,12.407459,0.0,0.0,nan,0.0,0.0,0.090880826,0.0,0.0,0.0,0.0,0.0,0.0,0.0,0.0,0.0
233789469,233690250,0.10037456,0.100341566,0.2141985,0.89762795,0.8976021,0.0,0.0,0.0,0.0,0.0,0.0,0.0,0.0,12.406163,0.0,0.0,nan,0.0,0.0,0.09083377,0.0,0.0,0.0,0.0,0.0,0.0,0.0,0.0,0.0
234283465,234184147,0.10024007,0.10021652,0.21416631,0.89355135,0.89353144,0.0,0.0,0.0,0.0,0.0,0.0,0.0,0.0,12.404805,0.0,0.0,nan,0.0,0.0,0.09078522,0.0,0.0,0.0,0.0,0.0,0.0,0.0,0.0,0.0
234787239,234687922,0.10015065,0.1001454,0.21415809,0.88958573,0.8895687,0.0,0.0,0.0,0.0,0.0,0.0,0.0,0.0,12.405858,0.0,0.0,nan,0.0,0.0,0.09074213,0.0,0.0,0.0,0.0,0.0,0.0,0.0,0.0,0.0
235290914,235191698,0.10028027,0.10029402,0.21417756,0.8821999,0.8821868,0.0,0.0,0.0,0.0,0.0,0.0,0.0,0.0,12.404034,0.0,0.0,nan,0.0,0.0,0.090709604,0.0,0.0,0.0,0.0,0.0,0.0,0.0,0.0,0.0
235784864,235685596,0.10081177,0.100831516,0.21416135,0.87854517,0.8785348,0.0,0.0,0.0,0.0,0.0,0.0,0.0,0.0,12.405666,0.0,0.0,nan,0.0,0.0,0.090675704,0.0,0.0,0.0,0.0,0.0,0.0,0.0,0.0,0.0
236288586,236189372,0.101070546,0.101081766,0.21417443,0.8730254,0.8730203,0.0,0.0,0.0,0.0,0.0,0.0,0.0,0.0,12.4073715,0.0,0.0,nan,0.0,0.0,0.090645306,0.0,0.0,0.0,0.0,0.0,0.0,0.0,0.0,0.0
236792454,236693147,0.10073411,0.10073279,0.21417107,0.8691709,0.8691688,0.0,0.0,0.0,0.0,0.0,0.0,0.0,0.0,12.406169,0.0,0.0,nan,0.0,0.0,0.09062181,0.0,0.0,0.0,0.0,0.0,0.0,0.0,0.0,0.0
237286340,237187046,0.10045084,0.10044813,0.2141011,0.8631596,0.8631601,0.0,0.0,0.0,0.0,0.0,0.0,0.0,0.0,12.403874,0.0,0.0,nan,0.0,0.0,0.09059695,0.0,0.0,0.0,0.0,0.0,0.0,0.0,0.0,0.0
237790067,237690822,0.10056963,0.100567736,0.21417838,0.86014664,0.86014813,0.0,0.0,0.0,0.0,0.0,0.0,0.0,0.0,12.405602,0.0,0.0,nan,0.0,0.0,0.09057436,0.0,0.0,0.0,0.0,0.0,0.0,0.0,0.0,0.0
238283975,238184720,0.1003583,0.10036287,0.21420169,0.8543412,0.85434306,0.0,0.0,0.0,0.0,0.0,0.0,0.0,0.0,12.403826,0.0,0.0,nan,0.0,0.0,0.09055674,0.0,0.0,0.0,0.0,0.0,0.0,0.0,0.0,0.0
238787833,238688497,0.100360945,0.1003648,0.21418093,0.85253584,0.8525378,0.0,0.0,0.0,0.0,0.0,0.0,0.0,0.0,12.405006,0.0,0.0,nan,0.0,0.0,0.09053793,0.0,0.0,0.0,0.0,0.0,0.0,0.0,0.0,0.0
239291599,239192273,0.10035658,0.1003598,0.21419235,0.84884554,0.8488475,0.0,0.0,0.0,0.0,0.0,0.0,0.0,0.0,12.4039545,0.0,0.0,nan,0.0,0.0,0.09052073,0.0,0.0,0.0,0.0,0.0,0.0,0.0,0.0,0.0
239785905,239686172,0.10026271,0.10026324,0.21414724,0.8465474,0.8465493,0.0,0.0,0.0,0.0,0.0,0.0,0.0,0.0,12.40572,0.0,0.0,nan,0.0,0.0,0.090505086,0.0,0.0,0.0,0.0,0.0,0.0,0.0,0.0,0.0
240289225,240189949,0.10037629,0.10037239,0.21420579,0.8449746,0.8449763,0.0,0.0,0.0,0.0,0.0,0.0,0.0,0.0,12.403482,0.0,0.0,nan,0.0,0.0,0.09049281,0.0,0.0,0.0,0.0,0.0,0.0,0.0,0.0,0.0
240793055,240693726,0.10044245,0.10043646,0.21422361,0.8416678,0.84166926,0.0,0.0,0.0,0.0,0.0,0.0,0.0,0.0,12.404699,0.0,0.0,nan,0.0,0.0,0.09047953,0.0,0.0,0.0,0.0,0.0,0.0,0.0,0.0,0.0
241286991,241187625,0.100307934,0.100302495,0.21414523,0.83749086,0.83749187,0.0,0.0,0.0,0.0,0.0,0.0,0.0,0.0,12.406521,0.0,0.0,nan,0.0,0.0,0.09046734,0.0,0.0,0.0,0.0,0.0,0.0,0.0,0.0,0.0
241791073,241691402,0.10027398,0.100270085,0.21414603,0.83549345,0.83549404,0.0,0.0,0.0,0.0,0.0,0.0,0.0,0.0,12.404294,0.0,0.0,nan,0.0,0.0,0.09045765,0.0,0.0,0.0,0.0,0.0,0.0,0.0,0.0,0.0
242284537,242185302,0.1003612,0.100358956,0.21420152,0.83042544,0.8304255,0.0,0.0,0.0,0.0,0.0,0.0,0.0,0.0,12.406583,0.0,0.0,nan,0.0,0.0,0.090447284,0.0,0.0,0.0,0.0,0.0,0.0,0.0,0.0,0.0
242788414,242689081,0.10031792,0.100312695,0.21419662,0.828424,0.82842386,0.0,0.0,0.0,0.0,0.0,0.0,0.0,0.0,12.404965,0.0,0.0,nan,0.0,0.0,0.09043779,0.0,0.0,0.0,0.0,0.0,0.0,0.0,0.0,0.0
243292111,243192857,0.100334726,0.10032934,0.2141541,0.82484543,0.82484525,0.0,0.0,0.0,0.0,0.0,0.0,0.0,0.0,12.406303,0.0,0.0,nan,0.0,0.0,0.09043019,0.0,0.0,0.0,0.0,0.0,0.0,0.0,0.0,0.0
243786410,243686756,0.10020773,0.100206226,0.21411468,0.82261056,0.8226103,0.0,0.0,0.0,0.0,0.0,0.0,0.0,0.0,12.40412,0.0,0.0,nan,0.0,0.0,0.09042197,0.0,0.0,0.0,0.0,0.0,0.0,0.0,0.0,0.0
244289751,244190534,0.100271285,0.10027419,0.21417744,0.8193237,0.8193233,0.0,0.0,0.0,0.0,0.0,0.0,0.0,0.0,12.4031925,0.0,0.0,nan,0.0,0.0,0.09041446,0.0,0.0,0.0,0.0,0.0,0.0,0.0,0.0,0.0
244783754,244684434,0.10022085,0.100222535,0.21411696,0.8155926,0.8155922,0.0,0.0,0.0,0.0,0.0,0.0,0.0,0.0,12.404508,0.0,0.0,nan,0.0,0.0,0.09040865,0.0,0.0,0.0,0.0,0.0,0.0,0.0,0.0,0.0
245287487,245188212,0.1002595,0.10024791,0.21414295,0.8138507,0.81385064,0.0,0.0,0.0,0.0,0.0,0.0,0.0,0.0,12.405896,0.0,0.0,nan,0.0,0.0,0.09040218,0.0,0.0,0.0,0.0,0.0,0.0,0.0,0.0,0.0
245791678,245691990,0.1001482,0.100133836,0.21410891,0.8134253,0.81342536,0.0,0.0,0.0,0.0,0.0,0.0,0.0,0.0,12.405013,0.0,0.0,nan,0.0,0.0,0.09039623,0.0,0.0,0.0,0.0,0.0,0.0,0.0,0.0,0.0
246285158,246185890,0.10018059,0.10017374,0.21413507,0.811725,0.8117248,0.0,0.0,0.0,0.0,0.0,0.0,0.0,0.0,12.402936,0.0,0.0,nan,0.0,0.0,0.09039071,0.0,0.0,0.0,0.0,0.0,0.0,0.0,0.0,0.0
246788939,246689668,0.1001616,0.100170195,0.21411438,0.81176084,0.8117601,0.0,0.0,0.0,0.0,0.0,0.0,0.0,0.0,12.404282,0.0,0.0,nan,0.0,0.0,0.09038651,0.0,0.0,0.0,0.0,0.0,0.0,0.0,0.0,0.0
247292736,247193448,0.10007435,0.10009602,0.21413505,0.81003726,0.8100363,0.0,0.0,0.0,0.0,0.0,0.0,0.0,0.0,12.406238,0.0,0.0,nan,0.0,0.0,0.09038191,0.0,0.0,0.0,0.0,0.0,0.0,0.0,0.0,0.0
247786858,247687347,0.09989831,0.099915005,0.21409653,0.8078912,0.8078906,0.0,0.0,0.0,0.0,0.0,0.0,0.0,0.0,12.404794,0.0,0.0,nan,0.0,0.0,0.090377726,0.0,0.0,0.0,0.0,0.0,0.0,0.0,0.0,0.0
248290342,248191125,0.09979898,0.099785075,0.21420157,0.80841464,0.8084158,0.0,0.0,0.0,0.0,0.0,0.0,0.0,0.0,12.403213,0.0,0.0,nan,0.0,0.0,0.090374306,0.0,0.0,0.0,0.0,0.0,0.0,0.0,0.0,0.0
248784298,248685026,0.099687815,0.09965742,0.2141997,0.8064699,0.8064715,0.0,0.0,0.0,0.0,0.0,0.0,0.0,0.0,12.404555,0.0,0.0,nan,0.0,0.0,0.09037066,0.0,0.0,0.0,0.0,0.0,0.0,0.0,0.0,0.0
249288091,249188804,0.09968914,0.09966582,0.21421275,0.80296636,0.80296713,0.0,0.0,0.0,0.0,0.0,0.0,0.0,0.0,12.403454,0.0,0.0,nan,0.0,0.0,0.09036734,0.0,0.0,0.0,0.0,0.0,0.0,0.0,0.0,0.0
249791940,249692583,0.0996868,0.099693686,0.21420835,0.8010193,0.80101883,0.0,0.0,0.0,0.0,0.0,0.0,0.0,0.0,12.405762,0.0,0.0,nan,0.0,0.0,0.09036465,0.0,0.0,0.0,0.0,0.0,0.0,0.0,0.0,0.0
250285729,250186484,0.099700466,0.09973262,0.21417287,0.80249363,0.80249184,0.0,0.0,0.0,0.0,0.0,0.0,0.0,0.0,12.403507,0.0,0.0,nan,0.0,0.0,0.090361916,0.0,0.0,0.0,0.0,0.0,0.0,0.0,0.0,0.0
250789484,250690262,0.09979281,0.099820845,0.21415195,0.8043145,0.80431306,0.0,0.0,0.0,0.0,0.0,0.0,0.0,0.0,12.4047365,0.0,0.0,nan,0.0,0.0,0.090359546,0.0,0.0,0.0,0.0,0.0,0.0,0.0,0.0,0.0
251293370,251194041,0.09998895,0.09998589,0.21416153,0.8043563,0.80435705,0.0,0.0,0.0,0.0,0.0,0.0,0.0,0.0,12.404241,0.0,0.0,nan,0.0,0.0,0.09035742,0.0,0.0,0.0,0.0,0.0,0.0,0.0,0.0,0.0
251787157,251687942,0.09990926,0.09998564,0.21414559,0.80422425,0.8042255,0.0,0.0,0.0,0.0,0.0,0.0,0.0,0.0,12.405457,0.0,0.0,nan,0.0,0.0,0.09035638,0.0,0.0,0.0,0.0,0.0,0.0,0.0,0.0,0.0
252290948,252191721,0.10016881,0.1002285,0.21415351,0.8077952,0.80780053,0.0,0.0,0.0,0.0,0.0,0.0,0.0,0.0,12.403716,0.0,0.0,nan,0.0,0.0,0.09035234,0.0,0.0,0.0,0.0,0.0,0.0,0.0,0.0,0.0
252784940,252685622,0.10018461,0.10020395,0.21415372,0.80990386,0.80991286,0.0,0.0,0.0,0.0,0.0,0.0,0.0,0.0,12.404905,0.0,0.0,nan,0.0,0.0,0.09034983,0.0,0.0,0.0,0.0,0.0,0.0,0.0,0.0,0.0
253288709,253189401,0.10035976,0.10017264,0.21411616,0.8150325,0.8150425,0.0,0.0,0.0,0.0,0.0,0.0,0.0,0.0,12.406718,0.0,0.0,nan,0.0,0.0,0.090348095,0.0,0.0,0.0,0.0,0.0,0.0,0.0,0.0,0.0
253792422,253693181,0.100888394,0.10055272,0.21412411,0.8187188,0.8187304,0.0,0.0,0.0,0.0,0.0,0.0,0.0,0.0,12.405905,0.0,0.0,nan,0.0,0.0,0.09034665,0.00313542,0.0032135572,0.003210648,0.0,0.0,0.0,0.0,0.0,0.0
254286436,254187082,0.10134583,0.101983204,0.21414544,0.82391703,0.82391256,0.0,0.0,0.0,0.0,0.0,0.0,0.0,0.0,12.404577,0.0,0.0,nan,0.0,0.0,0.09034665,0.0027735075,0.0027467234,0.002753936,0.0,0.0,0.0,0.0,0.0,0.0
254790076,254690861,0.1003805,0.1022215,0.21407302,0.8258971,0.8258742,0.0,0.0,0.0,0.0,0.0,0.0,0.0,0.0,12.407085,0.0,0.0,nan,0.0,0.0,0.09034665,0.002670521,0.0026590377,0.0026610168,0.0,0.0,0.0,0.0,0.0,0.0
255284064,255184763,0.10013822,0.10172716,0.2140576,0.8205372,0.820555,0.0,0.0,0.0,0.0,0.0,0.0,0.0,0.0,12.405527,0.0,0.0,nan,0.0,0.0,0.09034665,0.002665045,0.002609035,0.0026228833,0.0,0.0,0.0,0.0,0.0,0.0
255787763,255688542,0.10049352,0.1009274,0.21407583,0.8172001,0.81728065,0.0,0.0,0.0,0.0,0.0,0.0,0.0,0.0,12.406929,0.0,0.0,nan,0.0,0.0,0.09034665,0.0026537916,0.0026089717,0.0026484593,0.0,0.0,0.0,0.0,0.0,0.0
256291543,256192323,0.10087393,0.100174725,0.2140026,0.8152362,0.8153711,0.0,0.0,0.0,0.0,0.0,0.0,0.0,0.0,12.40443,0.0,0.0,nan,0.0,0.0,0.09034665,0.0026282812,0.0026192649,0.0026631153,0.0,0.0,0.0,0.0,0.0,0.0
256785440,256686224,0.10084056,0.10097034,0.21393867,0.8168304,0.81694394,0.0,0.0,0.0,0.0,0.0,0.0,0.0,0.0,12.405906,0.0,0.0,nan,0.0,0.0,0.09034665,0.0025987332,0.0025861762,0.0026069456,0.0,0.0,0.0,0.0,0.0,0.0
257289300,257190003,0.100993894,0.102025054,0.21406834,0.8207185,0.8207239,0.0,0.0,0.0,0.0,0.0,0.0,0.0,0.0,12.404139,0.0,0.0,nan,0.0,0.0,0.09034665,0.0025864125,0.0025587094,0.0025576104,0.0,0.0,0.0,0.0,0.0,0.0
257793142,257693783,0.10064858,0.101537034,0.21406868,0.82059693,0.8205687,0.0,0.0,0.0,0.0,0.0,0.0,0.0,0.0,12.405727,0.0,0.0,nan,0.0,0.0,0.09034665,0.0026271883,0.0025539561,0.0025496285,0.0,0.0,0.0,0.0,0.0,0.0
258286906,258187685,0.10031156,0.10042871,0.2139413,0.82403475,0.824003,0.0,0.0,0.0,0.0,0.0,0.0,0.0,0.0,12.403942,0.0,0.0,nan,0.0,0.0,0.09034665,0.0026451126,0.0025512308,0.0025548756,0.0,0.0,0.0,0.0,0.0,0.0
258790714,258691465,0.1007275,0.1002314,0.21389353,0.8276812,0.8276726,0.0,0.0,0.0,0.0,0.0,0.0,0.0,0.0,12.405018,0.0,0.0,nan,0.0,0.0,0.09034665,0.0025772436,0.0025415858,0.0025430862,0.0,0.0,0.0,0.0,0.0,0.0
259284937,259185367,0.10082207,0.10026708,0.21390603,0.832879,0.83289284,0.0,0.0,0.0,0.0,0.0,0.0,0.0,0.0,12.406177,0.0,0.0,nan,0.0,0.0,0.09034665,0.002547874,0.0025372943,0.002536382,0.0,0.0,0.0,0.0,0.0,0.0
259788447,259689147,0.100756094,0.10031131,0.2139782,0.836657,0.8366708,0.0,0.0,0.0,0.0,0.0,0.0,0.0,0.0,12.405125,0.0,0.0,nan,0.0,0.0,0.09034665,0.002539127,0.0025321809,0.0025312651,0.0,0.0,0.0,0.0,0.0,0.0
260292599,260192928,0.1004449,0.1003238,0.2140314,0.8422592,0.8422664,0.0,0.0,0.0,0.0,0.0,0.0,0.0,0.0,12.403464,0.0,0.0,nan,0.0,0.0,0.09034665,0.0025349578,0.0025296938,0.0025288705,0.0,0.0,0.0,0.0,0.0,0.0
260786217,260686830,0.10020683,0.100222036,0.21404314,0.84398586,0.8439857,0.0,0.0,0.0,0.0,0.0,0.0,0.0,0.0,12.40471,0.0,0.0,nan,0.0,0.0,0.09034665,0.0025404703,0.0025364037,0.002542137,0.0,0.0,0.0,0.0,0.0,0.0
261289966,261190611,0.10012546,0.1008045,0.2140471,0.8480521,0.8480537,0.0,0.0,0.0,0.0,0.0,0.0,0.0,0.0,12.406032,0.0,0.0,nan,0.0,0.0,0.09034665,0.0025387134,0.0025319625,0.0025386412,0.0,0.0,0.0,0.0,0.0,0.0
261793618,261694391,0.10014552,0.100814246,0.21406709,0.84976864,0.84978265,0.0,0.0,0.0,0.0,0.0,0.0,0.0,0.0,12.404357,0.0,0.0,nan,0.0,0.0,0.09034665,0.0025253464,0.0025241675,0.0025240283,0.0,0.0,0.0,0.0,0.0,0.0
262288061,262188294,0.10009341,0.10038697,0.2140995,0.85174096,0.8517839,0.0,0.0,0.0,0.0,0.0,0.0,0.0,0.0,12.40339,0.0,0.0,nan,0.0,0.0,0.09034665,0.0025243696,0.0025267391,0.002525666,0.0,0.0,0.0,0.0,0.0,0.0
262791308,262692074,0.10004549,0.10021839,0.21410021,0.85338026,0.85343474,0.0,0.0,0.0,0.0,0.0,0.0,0.0,0.0,12.405174,0.0,0.0,nan,0.0,0.0,0.09034665,0.0025246853,0.0025242462,0.0025224846,0.0,0.0,0.0,0.0,0.0,0.0
263285329,263185977,0.09998127,0.10006786,0.21409148,0.8532991,0.85335803,0.0,0.0,0.0,0.0,0.0,0.0,0.0,0.0,12.402544,0.0,0.0,nan,0.0,0.0,0.09034665,0.0025247878,0.002523174,0.0025212648,0.0,0.0,0.0,0.0,0.0,0.0
263788997,263689759,0.09997138,0.100028716,0.21408528,0.85349,0.8535459,0.0,0.0,0.0,0.0,0.0,0.0,0.0,0.0,12.404847,0.0,0.0,nan,0.0,0.0,0.09034665,0.0025235922,0.0025228234,0.0025209428,0.0,0.0,0.0,0.0,0.0,0.0
264293340,264193539,0.10099147,0.100188896,0.2141625,0.8554038,0.8554571,0.0,0.0,0.0,0.0,0.0,0.0,0.0,0.0,12.406166,0.0,0.0,nan,0.0,0.0,0.09034665,0.002525342,0.0025232043,0.002521588,0.0,0.0,0.0,0.0,0.0,0.0
264786663,264687442,0.103575215,0.100929834,0.21438155,0.8554975,0.85553086,0.0,0.0,0.0,0.0,0.0,0.0,0.0,0.0,12.404457,0.0,0.0,nan,0.0,0.0,0.09034665,0.0025281212,0.002520486,0.0025183926,0.0,0.0,0.0,0.0,0.0,0.0
265290618,265191223,0.10535344,0.102239884,0.21468273,0.8538422,0.85379905,0.0,0.0,0.0,0.0,0.0,0.0,0.0,0.0,12.403495,0.0,0.0,nan,0.0,0.0,0.09034665,0.002526048,0.0025194404,0.0025180005,0.0,0.0,0.0,0.0,0.0,0.0
265784547,265685126,0.105076276,0.10255616,0.21478204,0.85021687,0.850114,0.0,0.0,0.0,0.0,0.0,0.0,0.0,0.0,12.40432,0.0,0.0,nan,0.0,0.0,0.09034665,0.0025230525,0.002517417,0.0025174636,0.0,0.0,0.0,0.0,0.0,0.0
266288580,266188908,0.104172796,0.10281686,0.21500935,0.8447625,0.8445812,0.0,0.0,0.0,0.0,0.0,0.0,0.0,0.0,12.406315,0.0,0.0,nan,0.0,0.0,0.09034665,0.0025188401,0.0025169791,0.0025163002,0.0,0.0,0.0,0.0,0.0,0.0
266791912,266692689,0.1035208,0.10284595,0.21516746,0.8430707,0.8428543,0.0,0.0,0.0,0.0,0.0,0.0,0.0,0.0,12.405161,0.0,0.0,nan,0.0,0.0,0.09034665,0.002517767,0.002516249,0.00251554,0.0,0.0,0.0,0.0,0.0,0.0
267285919,267186593,0.10248067,0.10247213,0.21518147,0.8428812,0.84265447,0.0,0.0,0.0,0.0,0.0,0.0,0.0,0.0,12.403239,0.0,0.0,nan,0.0,0.0,0.09034665,0.0025171328,0.0025172515,0.0025161204,0.0,0.0,0.0,0.0,0.0,0.0
267789604,267690375,0.10188989,0.10197115,0.2151098,0.84481245,0.8445952,0.0,0.0,0.0,0.0,0.0,0.0,0.0,0.0,12.40473,0.0,0.0,nan,0.0,0.0,0.09034665,0.002516842,0.0025190862,0.0025172788,0.0,0.0,0.0,0.0,0.0,0.0
268293649,268194156,0.101348735,0.10114165,0.2149561,0.8430757,0.8428838,0.0,0.0,0.0,0.0,0.0,0.0,0.0,0.0,12.406257,0.0,0.0,nan,0.0,0.0,0.09034665,0.0025164804,0.0025181423,0.002515819,0.0,0.0,0.0,0.0,0.0,0.0
268787415,268688060,0.10090287,0.100790486,0.21484445,0.8449923,0.8448047,0.0,0.0,0.0,0.0,0.0,0.0,0.0,0.0,12.405354,0.0,0.0,nan,0.0,0.0,0.09034665,0.0025159058,0.0025171374,0.0025150303,0.0,0.0,0.0,0.0,0.0,0.0
269291201,269191841,0.10039708,0.10042409,0.21438684,0.84477174,0.84461343,0.0,0.0,0.0,0.0,0.0,0.0,0.0,0.0,12.403227,0.0,0.0,nan,0.0,0.0,0.09034665,0.0025165284,0.0025347443,0.002529646,0.0,0.0,2.513414,0.09365285,0.0,0.0
269785113,269685745,0.09978685,0.10009908,0.21415162,0.85171926,0.85163647,0.0,0.0,0.0,0.0,0.0,0.0,0.0,0.0,12.404109,0.0,0.0,nan,0.0,0.0,0.09034665,0.0025228914,0.0026633472,0.002657125,0.0,0.0,2.3222165,0.091716036,0.0,0.0
270289039,270189528,0.10067889,0.109847665,0.21478818,0.86432403,0.8642478,0.0,0.0,0.0,0.0,0.0,0.0,0.0,0.0,12.406417,0.0,0.0,nan,0.0,0.0,0.09034665,0.0025619005,0.0025894428,0.0025781656,0.0,0.0,2.331041,0.091536544,0.0,0.0
270792798,270693309,0.10003789,0.109179564,0.21494192,0.86630714,0.8661781,0.0,0.0,0.0,0.0,0.0,0.0,0.0,0.0,12.404748,0.0,0.0,nan,0.0,0.0,0.09034665,0.002554323,0.002524847,0.002514808,0.0,0.0,2.2755282,0.09192096,0.0,0.0
271286529,271187213,0.099294186,0.103050075,0.21444988,0.8736619,0.87372077,0.0,0.0,0.0,0.0,0.0,0.0,0.0,0.0,12.403091,0.0,0.0,nan,0.0,0.0,0.09034665,0.0025458222,0.0025260316,0.0025170527,0.0,0.0,2.2147264,0.091946326,0.0,0.0
271790333,271690995,0.09938534,0.10083372,0.21403094,0.8789952,0.8792015,0.0,0.0,0.0,0.0,0.0,0.0,0.0,0.0,12.404365,0.0,0.0,nan,0.0,0.0,0.09034665,0.0025361215,0.0025300374,0.0025222113,0.0,0.0,2.1803682,0.091725335,0.0,0.0
272294155,272194781,0.10004173,0.099856205,0.21365434,0.8827454,0.8830853,0.0,0.0,0.0,0.0,0.0,0.0,0.0,0.0,12.402889,0.0,0.0,nan,0.0,0.0,0.09034665,0.0025227012,0.0025238192,0.0025199428,0.0,0.0,2.1641817,0.091558725,0.0,0.0
272788079,272688681,0.10044757,0.10026425,0.21361883,0.88266134,0.8829832,0.0,0.0,0.0,0.0,0.0,0.0,0.0,0.0,12.404548,0.0,0.0,nan,0.0,0.0,0.09034665,0.002519775,0.0025173367,0.0025150217,0.0,0.0,2.1598196,0.091492094,0.0,0.0
273291778,273192463,0.10089387,0.10089111,0.21372546,0.8810591,0.8812853,0.0,0.0,0.0,0.0,0.0,0.0,0.0,0.0,12.402393,0.0,0.0,nan,0.0,0.0,0.09034665,0.0025175828,0.0025140382,0.002512436,0.0,0.0,2.1568487,0.09142557,0.0,0.0
273785676,273686367,0.10101706,0.10102808,0.2137618,0.8789656,0.8791339,0.0,0.0,0.0,0.0,0.0,0.0,0.0,0.0,12.403614,0.0,0.0,nan,0.0,0.0,0.09034665,0.002516432,0.0025123444,0.0025109535,0.0,0.0,2.152626,0.09134918,0.0,0.0
274289506,274190150,0.101302296,0.10120353,0.21386012,0.87947035,0.8795703,0.0,0.0,0.0,0.0,0.0,0.0,0.0,0.0,12.405426,0.0,0.0,nan,0.0,0.0,0.09034665,0.0025159325,0.0025119511,0.002510477,0.0,0.0,2.1488996,0.091275916,0.0,0.0
274793267,274693932,0.10118786,0.1010139,0.21394862,0.877844,0.8779146,0.0,0.0,0.0,0.0,0.0,0.0,0.0,0.0,12.404008,0.0,0.0,nan,0.0,0.0,0.09034665,0.002515779,0.0025117362,0.0025102175,0.0,0.0,2.144077,0.09121376,0.0,0.0
275287188,275187836,0.10114982,0.10079243,0.21397887,0.8740963,0.8741393,0.0,0.0,0.0,0.0,0.0,0.0,0.0,0.0,12.402526,0.0,0.0,nan,0.0,0.0,0.09034665,0.0025159302,0.0025113777,0.0025100193,0.0,0.0,2.1403704,0.0911547,0.0,0.0
275791050,275691618,0.1009849,0.10072016,0.21398306,0.87246215,0.8724859,0.0,0.0,0.0,0.0,0.0,0.0,0.0,0.0,12.403874,0.0,0.0,nan,0.0,0.0,0.09034665,0.002514829,0.0025524118,0.0025429928,0.0,0.0,2.142545,0.090797074,0.0,0.0
276284827,276185522,0.1023192,0.10410874,0.21425252,0.8701348,0.87015516,0.0,0.0,0.0,0.0,0.0,0.0,0.0,0.0,12.402346,0.0,0.0,nan,0.0,0.0,0.09034665,0.0025205726,0.0025797475,0.0025588092,0.0,0.0,2.184777,0.09038437,0.0,0.0
276788635,276689307,0.10867612,0.109316945,0.2157141,0.87225986,0.8723386,0.0,0.0,0.0,0.0,0.0,0.0,0.0,0.0,12.403573,0.0,0.0,nan,0.0,0.0,0.09034665,0.00253937,0.0025806967,0.002539619,0.0,0.0,2.251392,0.09021763,0.0,0.0
277292527,277193086,0.12917179,0.11994758,0.2501343,0.8834082,0.8835177,0.0,0.0,0.0,0.0,0.0,0.0,0.0,0.0,12.403094,0.0,0.0,nan,0.0,0.0,0.09034665,0.0025519785,0.002586377,0.0025306349,0.0,0.0,2.2404678,0.09011963,0.0,0.0
277786274,277686990,0.11617844,0.10312716,0.21928728,0.90078497,0.9006944,0.0,0.0,0.0,0.0,0.0,0.0,0.0,0.0,12.40505,0.0,0.0,nan,0.0,0.0,0.09034665,0.002554798,0.0025882802,0.0025283855,0.0,0.0,2.2009506,0.09009657,0.0,0.0
278290071,278190772,0.11148351,0.10133888,0.22002244,0.9383773,0.93784016,0.0,0.0,0.0,0.0,0.0,0.0,0.0,0.0,12.4030075,0.0,0.0,nan,0.0,0.0,0.09034665,0.0025550157,0.002584206,0.002528246,0.0,0.0,2.164797,0.090105,0.0,0.0
278793870,278694554,0.1079766,0.10201539,0.22033663,0.9674401,0.96649975,0.0,0.0,0.0,0.0,0.0,0.0,0.0,0.0,12.405355,0.0,0.0,nan,0.0,0.0,0.09034665,0.0025566048,0.0025746943,0.0025260272,0.0,0.0,2.14205,0.090114325,0.0,0.0
279287718,279188457,0.14513315,0.14524819,0.31448132,0.99992114,0.9982888,0.0,0.0,0.0,0.0,0.0,0.0,0.0,0.0,12.403486,0.0,0.0,nan,0.0,0.0,0.09034665,0.002557184,0.00256449,0.0025238083,0.0,0.0,2.1332984,0.090107925,0.0,0.0
279791511,279692239,0.13387178,0.13640952,0.2924459,1.0151055,1.0131671,0.0,0.0,0.0,0.0,0.0,0.0,0.0,0.0,12.407159,0.0,0.0,nan,0.0,0.0,0.09034665,0.0025544618,0.002566293,0.0025143905,0.0,0.0,2.1356916,0.090151265,0.0,0.0
280285399,280186143,0.101342775,0.10315353,0.2211703,1.0214634,1.0198002,0.0,0.0,0.0,0.0,0.0,0.0,0.0,0.0,12.408849,0.0,0.0,nan,0.0,0.0,0.09034665,0.0025453835,0.0025991427,0.0025089234,0.0,0.0,2.135596,0.09019925,0.0,0.0
280789813,280689924,0.11790469,0.1186817,0.25750232,1.0234822,1.0220699,0.0,0.0,0.0,0.0,0.0,0.0,0.0,0.0,12.407667,0.0,0.0,nan,0.0,0.0,0.09034665,0.002541385,0.0026124713,0.0025174464,0.0,0.0,2.1326675,0.09014264,0.0,0.0
281292938,281193705,0.10023339,0.10048467,0.21410647,1.0334097,1.0323315,0.0,0.0,0.0,0.0,0.0,0.0,0.0,0.0,12.404217,0.0,0.0,nan,0.0,0.0,0.09034665,0.0025334137,0.0025846842,0.002517098,0.0,0.0,2.130619,0.09016023,0.0,0.0
281786967,281687609,0.10049033,0.101257436,0.21347402,1.0371022,1.036177,0.0,0.0,0.0,0.0,0.0,0.0,0.0,0.0,12.404518,0.0,0.0,nan,0.0,0.0,0.09034665,0.0025293936,0.002564479,0.0025139172,0.0,0.0,2.1341689,0.09018937,0.0,0.0
282291038,282191390,0.10105833,0.10233731,0.21328399,1.0387046,1.0379945,0.0,0.0,0.0,0.0,0.0,0.0,0.0,0.0,12.40267,0.0,0.0,nan,0.0,0.0,0.09034665,0.0025261939,0.0025530804,0.0025130718,0.0,0.0,2.137237,0.090203755,0.0,0.0
282794742,282695171,0.10156769,0.10299891,0.21351476,1.0428948,1.0423368,0.0,0.0,0.0,0.0,0.0,0.0,0.0,0.0,12.402884,0.0,0.0,nan,0.0,0.0,0.09034665,0.0025236222,0.0025441516,0.002511891,0.0,0.0,2.144531,0.09022966,0.0,0.0
283288310,283189074,0.101734675,0.10262552,0.21377918,1.0646207,1.0642853,0.0,0.0,0.0,0.0,0.0,0.0,0.0,0.0,12.400945,0.0,0.0,nan,0.0,0.0,0.09034665,0.0025217126,0.0025357925,0.0025102845,0.0,0.0,2.1455722,0.090251975,0.0,0.0
283792495,283692855,0.101718016,0.10217001,0.21392623,1.0728767,1.0726734,0.0,0.0,0.0,0.0,0.0,0.0,0.0,0.0,12.401555,0.0,0.0,nan,0.0,0.0,0.09034665,0.0025200725,0.0025303236,0.0025095192,0.0,0.0,2.1455722,0.09026401,0.0,0.0
284286127,284186758,0.10168093,0.101631284,0.21413563,1.083229,1.0831683,0.0,0.0,0.0,0.0,0.0,0.0,0.0,0.0,12.40244,0.0,0.0,nan,0.0,0.0,0.09034665,0.0025188902,0.002526253,0.0025088214,0.0,0.0,2.1455722,0.090275586,0.0,0.0
284790186,284690539,0.10151626,0.101260304,0.21417663,1.0852201,1.0852149,0.0,0.0,0.0,0.0,0.0,0.0,0.0,0.0,12.401564,0.0,0.0,nan,0.0,0.0,0.09034665,0.002518108,0.0025230928,0.0025081371,0.0,0.0,2.1455722,0.090279736,0.0,0.0
285293542,285194319,0.101061784,0.100751124,0.21417804,1.0834415,1.0834758,0.0,0.0,0.0,0.0,0.0,0.0,0.0,0.0,12.400222,0.0,0.0,nan,0.0,0.0,0.09034665,0.0025172727,0.0025212907,0.002507859,0.0,0.0,2.1455722,0.09029689,0.0,0.0
285787584,285688221,0.10093394,0.10069884,0.21415946,1.0857055,1.085743,0.0,0.0,0.0,0.0,0.0,0.0,0.0,0.0,12.401956,0.0,0.0,nan,0.0,0.0,0.09034665,0.0025168727,0.0025204131,0.0025077004,0.0,0.0,2.1455722,0.090290576,0.0,0.0
286291407,286192002,0.10063574,0.10056631,0.21413161,1.0835938,1.0836198,0.0,0.0,0.0,0.0,0.0,0.0,0.0,0.0,12.403331,0.0,0.0,nan,0.0,0.0,0.09034665,0.0025163882,0.0025196087,0.0025076228,0.0,0.0,2.1455722,0.090298116,0.0,0.0
286785496,286685904,0.10044292,0.10046872,0.21413256,1.0814726,1.0814894,0.0,0.0,0.0,0.0,0.0,0.0,0.0,0.0,12.40151,0.0,0.0,nan,0.0,0.0,0.09034665,0.0025163728,0.0025192676,0.0025074387,0.0,0.0,2.1455722,0.09027192,0.0,0.0
287289046,287189684,0.10057707,0.100715324,0.21420528,1.0778152,1.0778232,0.0,0.0,0.0,0.0,0.0,0.0,0.0,0.0,12.400869,0.0,0.0,nan,0.0,0.0,0.09034665,0.002515911,0.002518615,0.0025074086,0.0,0.0,2.1455722,0.09028185,0.0,0.0
287792815,287693464,0.1003689,0.10051395,0.21421672,1.0715861,1.0715935,0.0,0.0,0.0,0.0,0.0,0.0,0.0,0.0,12.402277,0.0,0.0,nan,0.0,0.0,0.09034665,0.0025154322,0.0025180257,0.002507367,0.0,0.0,2.1455722,0.09028116,0.0,0.0
288286608,288187368,0.10034911,0.10048122,0.21415818,1.0673165,1.06733,0.0,0.0,0.0,0.0,0.0,0.0,0.0,0.0,12.403785,0.0,0.0,nan,0.0,0.0,0.09034665,0.0025151614,0.0025175987,0.00250729,0.0,0.0,2.1455722,0.09027383,0.0,0.0
288790858,288691145,0.10046532,0.100579396,0.21420689,1.0653487,1.0653689,0.0,0.0,0.0,0.0,0.0,0.0,0.0,0.0,12.40314,0.0,0.0,nan,0.0,0.0,0.0900589,0.0025150569,0.0025174331,0.0025072845,0.0,0.0,2.1455722,0.0902735,0.0,0.0
289294154,289194924,0.1004385,0.10049669,0.21419638,1.0591065,1.0591351,0.0,0.0,0.0,0.0,0.0,0.0,0.0,0.0,12.401827,0.0,0.0,nan,0.0,0.0,0.09006228,0.0025150569,0.0025174331,0.0025072845,0.0,0.0,2.1455722,0.09027337,0.0,0.0
289788133,289688826,0.10058028,0.10061166,0.2142297,1.0574634,1.0574989,0.0,0.0,0.0,0.0,0.0,0.0,0.0,0.0,12.403308,0.0,0.0,nan,0.0,0.0,0.09006628,0.0025150569,0.0025174331,0.0025072845,0.0,0.0,2.1455722,0.09027222,0.0,0.0
290291914,290192605,0.100704275,0.10071198,0.21425791,1.0531869,1.0532252,0.0,0.0,0.0,0.0,0.0,0.0,0.0,0.0,12.401935,0.0,0.0,nan,0.0,0.0,0.09007032,0.0025150569,0.0025174331,0.0025072845,0.0,0.0,2.1455722,0.09027612,0.0,0.0
290785917,290686506,0.100764416,0.100785136,0.2141859,1.0529679,1.0530058,0.0,0.0,0.0,0.0,0.0,0.0,0.0,0.0,12.403869,0.0,0.0,nan,0.0,0.0,0.09007414,0.0025150569,0.0025174331,0.0025072845,0.0,0.0,2.1455722,0.0902933,0.0,0.0
291289598,291190285,0.10074811,0.10077172,0.2142066,1.051052,1.0510895,0.0,0.0,0.0,0.0,0.0,0.0,0.0,0.0,12.402632,0.0,0.0,nan,0.0,0.0,0.09007872,0.0025150569,0.0025174331,0.0025072845,0.0,0.0,2.1455722,0.09030412,0.0,0.0
291793374,291694063,0.10063419,0.1006491,0.2141877,1.0491358,1.0491722,0.0,0.0,0.0,0.0,0.0,0.0,0.0,0.0,12.404099,0.0,0.0,nan,0.0,0.0,0.09008335,0.0025150569,0.0025174331,0.0025072845,0.0,0.0,2.1455722,0.09032821,0.0,0.0
292287211,292187964,0.100555316,0.10056989,0.21423015,1.0489008,1.0489359,0.0,0.0,0.0,0.0,0.0,0.0,0.0,0.0,12.4021435,0.0,0.0,nan,0.0,0.0,0.090085976,0.002521995,0.002523433,0.0025751074,0.0,0.0,2.1455722,0.09034401,0.0,0.0
292791078,292691745,0.1003817,0.1004204,0.21424876,1.0472183,1.0472575,0.0,0.0,0.0,0.0,0.0,0.0,0.0,0.0,12.403579,0.0,0.0,nan,0.0,0.0,0.090085976,0.002520842,0.0025222008,0.00256214,0.0,0.0,2.1455722,0.090328984,0.0,0.0
293294825,293195521,0.10036679,0.10042543,0.21420906,1.0429503,1.0429912,0.0,0.0,0.0,0.0,0.0,0.0,0.0,0.0,12.402811,0.0,0.0,nan,0.0,0.0,0.090085976,0.0025198532,0.0025211815,0.0025530155,0.0,0.0,2.1455722,0.09030953,0.0,0.0
293788704,293689420,0.10044387,0.10049716,0.21419923,1.0407844,1.0408274,0.0,0.0,0.0,0.0,0.0,0.0,0.0,0.0,12.404756,0.0,0.0,nan,0.0,0.0,0.090085976,0.0025190879,0.002520529,0.0025471062,0.0,0.0,2.1455722,0.09030983,0.0,0.0
294292567,294193198,0.10059628,0.10063569,0.21420267,1.0387925,1.0388379,0.0,0.0,0.0,0.0,0.0,0.0,0.0,0.0,12.402689,0.0,0.0,nan,0.0,0.0,0.090085976,0.002518296,0.0025199002,0.0025417148,0.0,0.0,2.1455722,0.0903153,0.0,0.0
294786383,294687098,0.1006845,0.10071234,0.21413217,1.0365882,1.036634,0.0,0.0,0.0,0.0,0.0,0.0,0.0,0.0,12.404063,0.0,0.0,nan,0.0,0.0,0.090085976,0.0025176932,0.0025191437,0.0025373956,0.0,0.0,2.1455722,0.0902992,0.0,0.0
295290332,295190875,0.1002859,0.100264795,0.21414115,1.0386267,1.0386735,0.0,0.0,0.0,0.0,0.0,0.0,0.0,0.0,12.403206,0.0,0.0,nan,0.0,0.0,0.090085976,0.002516975,0.0025185887,0.0025339217,0.0,0.0,2.1455722,0.090309985,0.0,0.0
295793880,295694655,0.100157216,0.1001359,0.21414523,1.0384909,1.0385337,0.0,0.0,0.0,0.0,0.0,0.0,0.0,0.0,12.404603,0.0,0.0,nan,0.0,0.0,0.09011296,0.0025167724,0.0025185228,0.0025331166,0.0,0.0,2.1455722,0.09032337,0.0,0.0
296287774,296188552,0.1003708,0.100355126,0.21414602,1.0368284,1.0368631,0.0,0.0,0.0,0.0,0.0,0.0,0.0,0.0,12.406038,0.0,0.0,nan,0.0,0.0,0.09011806,0.0025167724,0.0025185228,0.0025331166,0.0,0.0,2.1455722,0.090330385,0.0,0.0
296791620,296692329,0.1003714,0.100364,0.21414122,1.0346427,1.0346724,0.0,0.0,0.0,0.0,0.0,0.0,0.0,0.0,12.4039,0.0,0.0,nan,0.0,0.0,0.09012315,0.0025167724,0.0025185228,0.0025331166,0.0,0.0,2.1455722,0.09032646,0.0,0.0
297285447,297186228,0.100548014,0.10052172,0.21416213,1.0347332,1.034757,0.0,0.0,0.0,0.0,0.0,0.0,0.0,0.0,12.405854,0.0,0.0,nan,0.0,0.0,0.090127684,0.0025167724,0.0025185228,0.0025331166,0.0,0.0,2.1455722,0.09033345,0.0,0.0
297789227,297690005,0.10050741,0.100491144,0.21415743,1.0305984,1.0306178,0.0,0.0,0.0,0.0,0.0,0.0,0.0,0.0,12.404399,0.0,0.0,nan,0.0,0.0,0.09013302,0.0025167724,0.0025185228,0.0025331166,0.0,0.0,2.1455722,0.09033677,0.0,0.0
298293044,298193781,0.10041169,0.10040857,0.21417469,1.026665,1.0266794,0.0,0.0,0.0,0.0,0.0,0.0,0.0,0.0,12.402845,0.0,0.0,nan,0.0,0.0,0.09013821,0.0025167724,0.0025185228,0.0025331166,0.0,0.0,2.1455722,0.090345696,0.0,0.0
298786900,298687680,0.10038698,0.10038621,0.21415526,1.0247469,1.0247587,0.0,0.0,0.0,0.0,0.0,0.0,0.0,0.0,12.404178,0.0,0.0,nan,0.0,0.0,0.090142824,0.0025167724,0.0025185228,0.0025331166,0.0,0.0,2.1455722,0.09034536,0.0,0.0
299290819,299191457,0.10042929,0.10042968,0.21413067,1.0185711,1.0185803,0.0,0.0,0.0,0.0,0.0,0.0,0.0,0.0,12.40331,0.0,0.0,nan,0.0,0.0,0.090148345,0.0025167724,0.0025185228,0.0025331166,0.0,0.0,2.1455722,0.09034561,0.0,0.0
299794472,299695232,0.100098774,0.100093044,0.21408845,1.0141836,1.0141916,0.0,0.0,0.0,0.0,0.0,0.0,0.0,0.0,12.404688,0.0,0.0,nan,0.0,0.0,0.0901538,0.0025167724,0.0025185228,0.0025331166,0.0,0.0,2.1455722,0.09035025,0.0,0.0
300288341,300189130,0.10032013,0.1003147,0.21415308,1.0085506,1.0085554,0.0,0.0,0.0,0.0,0.0,0.0,0.0,0.0,12.402622,0.0,0.0,nan,0.0,0.0,0.090158634,0.0025167724,0.0025185228,0.0025331166,0.0,0.0,2.1455722,0.09037146,0.0,0.0
300782251,300683028,0.10026687,0.100268394,0.21417503,1.0049124,1.0049156,0.0,0.0,0.0,0.0,0.0,0.0,0.0,0.0,12.40396,0.0,0.0,nan,0.0,0.0,0.090164006,0.0025167724,0.0025185228,0.0025331166,0.0,0.0,2.1455722,0.09038845,0.0,0.0
301286099,301186803,0.10031036,0.10032013,0.21410039,1.00042,1.0004209,0.0,0.0,0.0,0.0,0.0,0.0,0.0,0.0,12.405894,0.0,0.0,nan,0.0,0.0,0.0901697,0.0025167724,0.0025185228,0.0025331166,0.0,0.0,2.1455722,0.090364926,0.0,0.0
301790084,301690581,0.10096073,0.10076178,0.21407981,0.9966195,0.9966223,0.0,0.0,0.0,0.0,0.0,0.0,0.0,0.0,12.404434,0.0,0.0,nan,0.0,0.0,0.0901713,0.0025197596,0.002530656,0.0025489752,0.0,0.0,2.1455722,0.09024162,0.0,0.0
302283813,302184476,0.10885106,0.10250933,0.2145756,0.9943247,0.9943334,0.0,0.0,0.0,0.0,0.0,0.0,0.0,0.0,12.402348,0.0,0.0,nan,0.0,0.0,0.0901713,0.002517676,0.002530639,0.002542951,0.0,0.0,2.1455722,0.090226926,0.0,0.0
302787473,302688251,0.116547965,0.10209368,0.21570605,1.0001965,1.0001923,0.0,0.0,0.0,0.0,0.0,0.0,0.0,0.0,12.404581,0.0,0.0,nan,0.0,0.0,0.0901713,0.0025171463,0.0025275294,0.002536535,0.0,0.0,2.1455722,0.090264775,0.0,0.0
303291735,303192026,0.10989694,0.10064172,0.2158477,1.0104496,1.0102252,0.0,0.0,0.0,0.0,0.0,0.0,0.0,0.0,12.405956,0.0,0.0,nan,0.0,0.0,0.0901713,0.0025160196,0.0025238467,0.002533609,0.0,0.0,2.1455722,0.09031853,0.0,0.0
303785259,303685923,0.10722573,0.10062121,0.21595101,1.0123564,1.0119698,0.0,0.0,0.0,0.0,0.0,0.0,0.0,0.0,12.40507,0.0,0.0,nan,0.0,0.0,0.0901713,0.0025154476,0.0025213463,0.0025320381,0.0,0.0,2.1455722,0.09036895,0.0,0.0
304289026,304189698,0.103296794,0.10053332,0.21564698,1.0165768,1.0159246,0.0,0.0,0.0,0.0,0.0,0.0,0.0,0.0,12.403014,0.0,0.0,nan,0.0,0.0,0.0901713,0.0025149966,0.002519135,0.0025304793,0.0,0.0,2.1455722,0.09043887,0.0,0.0
304782855,304683594,0.10189691,0.100660466,0.21545577,1.0170587,1.0162823,0.0,0.0,0.0,0.0,0.0,0.0,0.0,0.0,12.404999,0.0,0.0,nan,0.0,0.0,0.0901713,0.002514348,0.0025169305,0.002529674,0.0,0.0,2.1455722,0.090509385,0.0,0.0
305286964,305187368,0.100851335,0.10062725,0.21496765,1.014906,1.0141284,0.0,0.0,0.0,0.0,0.0,0.0,0.0,0.0,12.407566,0.0,0.0,nan,0.0,0.0,0.0901713,0.0025139202,0.0025160238,0.0025284416,0.0,0.0,2.1455722,0.090523325,0.0,0.0
305790409,305691143,0.10036365,0.10036639,0.21476008,1.0144167,1.0137188,0.0,0.0,0.0,0.0,0.0,0.0,0.0,0.0,12.405704,0.0,0.0,nan,0.0,0.0,0.0901713,0.0025135253,0.002518338,0.0025233384,0.0,0.0,2.1455722,0.09050427,0.0,0.0
306284390,306185039,0.10038598,0.10133976,0.21527691,1.0182694,1.0177598,0.0,0.0,0.0,0.0,0.0,0.0,0.0,0.0,12.407059,0.0,0.0,nan,0.0,0.0,0.0901713,0.0025139535,0.0025197715,0.0025211282,0.0,0.0,2.1455722,0.090379916,0.0,0.0
306788102,306688812,0.10116067,0.10437666,0.21665125,1.0258664,1.0254651,0.0,0.0,0.0,0.0,0.0,0.0,0.0,0.0,12.406049,0.0,0.0,nan,0.0,0.0,0.0901713,0.0025146068,0.0025190185,0.0025204096,0.0,0.0,2.1455722,0.09027231,0.0,0.0
307292196,307192586,0.10207557,0.10848281,0.21888793,1.0299069,1.0296994,0.0,0.0,0.0,0.0,0.0,0.0,0.0,0.0,12.403842,0.0,0.0,nan,0.0,0.0,0.0901713,0.0025148646,0.0025181407,0.0025201018,0.0,0.0,2.1455722,0.090186626,0.0,0.0
307785735,307686482,0.10267455,0.107837036,0.2194227,1.0337609,1.0337572,0.0,0.0,0.0,0.0,0.0,0.0,0.0,0.0,12.405435,0.0,0.0,nan,0.0,0.0,0.0901713,0.0025145041,0.002517214,0.0025197028,0.0,0.0,2.1455722,0.09012799,0.0,0.0
308289783,308190255,0.103679016,0.1046773,0.21947968,1.0477867,1.0481312,0.0,0.0,0.0,0.0,0.0,0.0,0.0,0.0,12.407661,0.0,0.0,nan,0.0,0.0,0.0901713,0.0025144268,0.0025164399,0.002519311,0.0,0.0,2.1455722,0.090105325,0.0,0.0
308783479,308684150,0.10435799,0.102761745,0.21937594,1.051692,1.0521876,0.0,0.0,0.0,0.0,0.0,0.0,0.0,0.0,12.405755,0.0,0.0,nan,0.0,0.0,0.0901713,0.0025145581,0.0025159426,0.0025190255,0.0,0.0,2.1455722,0.090101905,0.0,0.0
309287513,309187923,0.10380976,0.10086778,0.21860614,1.0599375,1.060497,0.0,0.0,0.0,0.0,0.0,0.0,0.0,0.0,12.404203,0.0,0.0,nan,0.0,0.0,0.0901713,0.0025148105,0.0025137488,0.0025187305,0.0,0.0,2.1455722,0.090133905,0.0,0.0
309790970,309691696,0.10253442,0.100392886,0.21766646,1.0559647,1.0564408,0.0,0.0,0.0,0.0,0.0,0.0,0.0,0.0,12.406251,0.0,0.0,nan,0.0,0.0,0.0901713,0.0025146017,0.0025127805,0.0025182166,0.0,0.0,2.1455722,0.090168856,0.0,0.0
310284971,310185591,0.100720465,0.10023904,0.2160432,1.0522398,1.0525197,0.0,0.0,0.0,0.0,0.0,0.0,0.0,0.0,12.403961,0.0,0.0,nan,0.0,0.0,0.0901713,0.0025143186,0.0025137437,0.0025172927,0.0,0.0,2.1455722,0.090175316,0.0,0.0
310788649,310689364,0.10013033,0.100380294,0.21503724,1.0464382,1.0466068,0.0,0.0,0.0,0.0,0.0,0.0,0.0,0.0,12.406022,0.0,0.0,nan,0.0,0.0,0.0901713,0.0025135914,0.002514506,0.0025166324,0.0,0.0,2.1455722,0.09017477,0.0,0.0
311282934,311183258,0.10027407,0.10086992,0.21408035,1.0365397,1.0366315,0.0,0.0,0.0,0.0,0.0,0.0,0.0,0.0,12.404126,0.0,0.0,nan,0.0,0.0,0.0901713,0.0025130212,0.002514097,0.0025160257,0.0,0.0,2.1455722,0.09019063,0.0,0.0
311786427,311687031,0.10070066,0.10120872,0.21380478,1.0323414,1.032425,0.0,0.0,0.0,0.0,0.0,0.0,0.0,0.0,12.405121,0.0,0.0,nan,0.0,0.0,0.0901713,0.0025126066,0.0025139381,0.0025156513,0.0,0.0,2.1455722,0.090205975,0.0,0.0
312290108,312190803,0.10100688,0.101382524,0.21365437,1.0263458,1.0264542,0.0,0.0,0.0,0.0,0.0,0.0,0.0,0.0,12.406068,0.0,0.0,nan,0.0,0.0,0.0901713,0.0025123714,0.0025134017,0.0025150045,0.0,0.0,2.1455722,0.09021917,0.0,0.0
312783986,312684697,0.1013385,0.10164781,0.21372017,1.0224171,1.0225408,0.0,0.0,0.0,0.0,0.0,0.0,0.0,0.0,12.403658,0.0,0.0,nan,0.0,0.0,0.0901713,0.0025120298,0.0025129411,0.0025145458,0.0,0.0,2.1455722,0.09024055,0.0,0.0
313287777,313188469,0.10095535,0.10134509,0.21377213,1.0162287,1.0163667,0.0,0.0,0.0,0.0,0.0,0.0,0.0,0.0,12.402558,0.0,0.0,nan,0.0,0.0,0.0901713,0.0025120084,0.0025128184,0.0025140399,0.0,0.0,2.1455722,0.09026366,0.0,0.0
313791490,313692240,0.10080732,0.10119598,0.21387641,1.0143298,1.0144798,0.0,0.0,0.0,0.0,0.0,0.0,0.0,0.0,12.403676,0.0,0.0,nan,0.0,0.0,0.0901713,0.002511858,0.0025127372,0.002513693,0.0,0.0,2.1455722,0.09026553,0.0,0.0
314285441,314186134,0.10079755,0.10114016,0.21391422,1.0123626,1.0125248,0.0,0.0,0.0,0.0,0.0,0.0,0.0,0.0,12.405432,0.0,0.0,nan,0.0,0.0,0.0901713,0.0025118967,0.002512656,0.0025131041,0.0,0.0,2.1455722,0.090266205,0.0,0.0
314789437,314689905,0.10072589,0.10102501,0.21395046,1.0121641,1.0123279,0.0,0.0,0.0,0.0,0.0,0.0,0.0,0.0,12.403997,0.0,0.0,nan,0.0,0.0,0.0901713,0.002511731,0.0025127206,0.0025128303,0.0,0.0,2.1455722,0.09026188,0.0,0.0
315283180,315183799,0.100614,0.10083541,0.21397541,1.0119053,1.0120678,0.0,0.0,0.0,0.0,0.0,0.0,0.0,0.0,12.402506,0.0,0.0,nan,0.0,0.0,0.0901713,0.0025116862,0.0025128508,0.0025124715,0.0,0.0,2.1455722,0.09024277,0.0,0.0
315786805,315687575,0.1005584,0.10072065,0.2140499,1.0120536,1.0122163,0.0,0.0,0.0,0.0,0.0,0.0,0.0,0.0,12.403826,0.0,0.0,nan,0.0,0.0,0.0901713,0.0025114764,0.0025129865,0.002512202,0.0,0.0,2.1455722,0.090237975,0.0,0.0
316290566,316191341,0.10058471,0.100662865,0.21405233,1.010192,1.0103471,0.0,0.0,0.0,0.0,0.0,0.0,0.0,0.0,12.405216,0.0,0.0,nan,0.0,0.0,0.0901713,0.0025114438,0.002512967,0.00251179,0.0,0.0,2.1455722,0.090246476,0.0,0.0
316784462,316685234,0.1006493,0.10068813,0.2140759,1.0119975,1.0121412,0.0,0.0,0.0,0.0,0.0,0.0,0.0,0.0,12.403183,0.0,0.0,nan,0.0,0.0,0.09006115,0.0025113947,0.0025130138,0.0025117572,0.0,0.0,2.1455722,0.09024632,0.0,0.0
317288368,317189005,0.10062658,0.10061871,0.2141185,1.0121236,1.0122423,0.0,0.0,0.0,0.0,0.0,0.0,0.0,0.0,12.402903,0.0,0.0,nan,0.0,0.0,0.090064526,0.0025113947,0.0025130138,0.0025117572,0.0,0.0,2.1455722,0.0902389,0.0,0.0
317792109,317692776,0.10056893,0.100528456,0.21413338,1.0120234,1.0121257,0.0,0.0,0.0,0.0,0.0,0.0,0.0,0.0,12.404799,0.0,0.0,nan,0.0,0.0,0.09006863,0.0025113947,0.0025130138,0.0025117572,0.0,0.0,2.1455722,0.0902505,0.0,0.0
318285933,318186668,0.10064685,0.10047365,0.21411288,1.0141143,1.0141943,0.0,0.0,0.0,0.0,0.0,0.0,0.0,0.0,12.402728,0.0,0.0,nan,0.0,0.0,0.09007133,0.0025148438,0.002519519,0.002528547,0.0,0.0,2.1455722,0.09025594,0.0,0.0
318789749,318690439,0.101123095,0.100527234,0.21398818,1.0139376,1.0140094,0.0,0.0,0.0,0.0,0.0,0.0,0.0,0.0,12.404016,0.0,0.0,nan,0.0,0.0,0.09007133,0.002513564,0.0025189254,0.0025270164,0.0,0.0,2.1455722,0.09021775,0.0,0.0
319293460,319194209,0.101993024,0.10082309,0.21420668,1.0140604,1.0141073,0.0,0.0,0.0,0.0,0.0,0.0,0.0,0.0,12.402959,0.0,0.0,nan,0.0,0.0,0.09007133,0.002514222,0.0025173072,0.0025249831,0.0,0.0,2.1455722,0.09021651,0.0,0.0
319787522,319688102,0.10171854,0.100854635,0.2141905,1.0103184,1.0103371,0.0,0.0,0.0,0.0,0.0,0.0,0.0,0.0,12.404888,0.0,0.0,nan,0.0,0.0,0.09007133,0.0025133283,0.0025174564,0.0025236902,0.0,0.0,2.1455722,0.0902144,0.0,0.0
320291147,320191872,0.10035989,0.1003402,0.21380807,1.0025939,1.0025619,0.0,0.0,0.0,0.0,0.0,0.0,0.0,0.0,12.402787,0.0,0.0,nan,0.0,0.0,0.09007133,0.0025125626,0.0025174443,0.002523538,0.0,0.0,2.1455722,0.09016405,0.0,0.0
320784989,320685764,0.10112278,0.10026447,0.21353316,0.9968342,0.99678546,0.0,0.0,0.0,0.0,0.0,0.0,0.0,0.0,12.403967,0.0,0.0,nan,0.0,0.0,0.09007133,0.002512758,0.0025157772,0.0025228413,0.0,0.0,2.1455722,0.090155944,0.0,0.0
321288926,321189534,0.103309184,0.100703046,0.21377628,0.9964015,0.9963755,0.0,0.0,0.0,0.0,0.0,0.0,0.0,0.0,12.405585,0.0,0.0,nan,0.0,0.0,0.09007133,0.0025139232,0.002513785,0.00252088,0.0,0.0,2.1455722,0.09026988,0.0,0.0
321782727,321683426,0.103503436,0.10132008,0.21393076,1.0000525,1.000026,0.0,0.0,0.0,0.0,0.0,0.0,0.0,0.0,12.404063,0.0,0.0,nan,0.0,0.0,0.09007133,0.0025141179,0.0025135216,0.0025196013,0.0,0.0,2.1455722,0.09031388,0.0,0.0
322286453,322187196,0.10210085,0.10127854,0.21384594,1.009949,1.0098976,0.0,0.0,0.0,0.0,0.0,0.0,0.0,0.0,12.402522,0.0,0.0,nan,0.0,0.0,0.09007133,0.0025133563,0.0025140028,0.0025185954,0.0,0.0,2.1455722,0.09025374,0.0,0.0
322790329,322690966,0.10116212,0.10097925,0.21375345,1.0138476,1.0137817,0.0,0.0,0.0,0.0,0.0,0.0,0.0,0.0,12.404312,0.0,0.0,nan,0.0,0.0,0.09007133,0.0025120103,0.0025141865,0.0025181132,0.0,0.0,2.1455722,0.09019329,0.0,0.0
323284162,323184858,0.101132505,0.10141125,0.21376064,1.0159966,1.0159267,0.0,0.0,0.0,0.0,0.0,0.0,0.0,0.0,12.402692,0.0,0.0,nan,0.0,0.0,0.09007133,0.0025113083,0.0025141537,0.0025175195,0.0,0.0,2.1455722,0.09017765,0.0,0.0
323787875,323688628,0.10119715,0.101378545,0.21381985,1.0142488,1.0141978,0.0,0.0,0.0,0.0,0.0,0.0,0.0,0.0,12.40388,0.0,0.0,nan,0.0,0.0,0.09007133,0.002510714,0.0025138156,0.0025166532,0.0,0.0,2.1455722,0.090183295,0.0,0.0
324291630,324192397,0.100823715,0.10077025,0.21386977,1.0160466,1.0160283,0.0,0.0,0.0,0.0,0.0,0.0,0.0,0.0,12.402459,0.0,0.0,nan,0.0,0.0,0.09007133,0.002510509,0.002513394,0.0025159742,0.0,0.0,2.1455722,0.090200126,0.0,0.0
324785540,324686289,0.10073271,0.100647606,0.21393733,1.016147,1.0161473,0.0,0.0,0.0,0.0,0.0,0.0,0.0,0.0,12.404253,0.0,0.0,nan,0.0,0.0,0.09007133,0.0025102845,0.002513357,0.0025154802,0.0,0.0,2.1455722,0.09020708,0.0,0.0
325289287,325190058,0.10067152,0.10054095,0.21400629,1.0162513,1.0162683,0.0,0.0,0.0,0.0,0.0,0.0,0.0,0.0,12.402212,0.0,0.0,nan,0.0,0.0,0.09007133,0.0025100037,0.002513494,0.0025149658,0.0,0.0,2.1455722,0.09021222,0.0,0.0
325783563,325683950,0.1000452,0.0999421,0.21393871,1.0139377,1.01396,0.0,0.0,0.0,0.0,0.0,0.0,0.0,0.0,12.403573,0.0,0.0,nan,0.0,0.0,0.09007133,0.0025099223,0.0025133109,0.0025144522,0.0,0.0,2.1455722,0.09022838,0.0,0.0
326287101,326187719,0.09970027,0.09971422,0.21403277,1.0122979,1.0123255,0.0,0.0,0.0,0.0,0.0,0.0,0.0,0.0,12.405486,0.0,0.0,nan,0.0,0.0,0.09007133,0.0025098324,0.00251333,0.0025139258,0.0,0.0,2.1455722,0.09024125,0.0,0.0
326791089,326691488,0.09973413,0.09979208,0.21409248,1.014274,1.0143039,0.0,0.0,0.0,0.0,0.0,0.0,0.0,0.0,12.404598,0.0,0.0,nan,0.0,0.0,0.09007133,0.0025097574,0.0025133812,0.0025136245,0.0,0.0,2.1455722,0.0902483,0.0,0.0
327284656,327185380,0.100022614,0.100095935,0.21414077,1.0142869,1.014322,0.0,0.0,0.0,0.0,0.0,0.0,0.0,0.0,12.402552,0.0,0.0,nan,0.0,0.0,0.09007133,0.0025098077,0.0025133619,0.0025132783,0.0,0.0,2.1455722,0.09025082,0.0,0.0
327788834,327689149,0.0998808,0.09994473,0.2140992,1.0121822,1.0122213,0.0,0.0,0.0,0.0,0.0,0.0,0.0,0.0,12.404447,0.0,0.0,nan,0.0,0.0,0.090104185,0.002509761,0.0025133952,0.0025129188,0.0,0.0,2.1455722,0.09025012,0.0,0.0
328292140,328192918,0.10005574,0.10008075,0.21410894,1.0117161,1.0117552,0.0,0.0,0.0,0.0,0.0,0.0,0.0,0.0,12.402844,0.0,0.0,nan,0.0,0.0,0.09010781,0.002509761,0.0025133952,0.0025129188,0.0,0.0,2.1455722,0.09024823,0.0,0.0
328786234,328686809,0.10044642,0.10045332,0.21414581,1.0101308,1.0101676,0.0,0.0,0.0,0.0,0.0,0.0,0.0,0.0,12.404143,0.0,0.0,nan,0.0,0.0,0.0901125,0.002509761,0.0025133952,0.0025129188,0.0,0.0,2.1455722,0.09024065,0.0,0.0
329289914,329190578,0.10071835,0.100713596,0.21416673,1.0082643,1.0082966,0.0,0.0,0.0,0.0,0.0,0.0,0.0,0.0,12.403744,0.0,0.0,nan,0.0,0.0,0.09011686,0.002509761,0.0025133952,0.0025129188,0.0,0.0,2.1455722,0.09024002,0.0,0.0
329784245,329684469,0.10050306,0.100495435,0.21416527,1.0062115,1.0062395,0.0,0.0,0.0,0.0,0.0,0.0,0.0,0.0,12.405581,0.0,0.0,nan,0.0,0.0,0.090120845,0.002509761,0.0025133952,0.0025129188,0.0,0.0,2.1455722,0.09025227,0.0,0.0
330287459,330188238,0.100519896,0.1005138,0.21417333,1.002363,1.0023855,0.0,0.0,0.0,0.0,0.0,0.0,0.0,0.0,12.403374,0.0,0.0,nan,0.0,0.0,0.09012563,0.002509761,0.0025133952,0.0025129188,0.0,0.0,2.1455722,0.09025579,0.0,0.0
330791334,330692007,0.100456215,0.10045491,0.21410285,1.0021363,1.0021559,0.0,0.0,0.0,0.0,0.0,0.0,0.0,0.0,12.404653,0.0,0.0,nan,0.0,0.0,0.09013005,0.002509761,0.0025133952,0.0025129188,0.0,0.0,2.1455722,0.090262465,0.0,0.0
331285138,331185898,0.10029408,0.10029047,0.21416776,1.000554,1.0005705,0.0,0.0,0.0,0.0,0.0,0.0,0.0,0.0,12.406016,0.0,0.0,nan,0.0,0.0,0.09013403,0.002509761,0.0025133952,0.0025129188,0.0,0.0,2.1455722,0.09027307,0.0,0.0
331789299,331689667,0.100076154,0.10006871,0.21416986,1.0003783,1.0003923,0.0,0.0,0.0,0.0,0.0,0.0,0.0,0.0,12.405569,0.0,0.0,nan,0.0,0.0,0.090138584,0.002509761,0.0025133952,0.0025129188,0.0,0.0,2.1455722,0.09028067,0.0,0.0
332282796,332183558,0.10013698,0.100115746,0.21419214,0.9984579,0.9984693,0.0,0.0,0.0,0.0,0.0,0.0,0.0,0.0,12.402901,0.0,0.0,nan,0.0,0.0,0.09014322,0.002509761,0.0025133952,0.0025129188,0.0,0.0,2.1455722,0.09028782,0.0,0.0
332786738,332687326,0.0998943,0.09988338,0.21412945,0.99630773,0.9963171,0.0,0.0,0.0,0.0,0.0,0.0,0.0,0.0,12.404226,0.0,0.0,nan,0.0,0.0,0.09014788,0.002509761,0.0025133952,0.0025129188,0.0,0.0,2.1455722,0.090294294,0.0,0.0
333290420,333191095,0.100006185,0.09998209,0.21414067,0.996275,0.9962822,0.0,0.0,0.0,0.0,0.0,0.0,0.0,0.0,12.40331,0.0,0.0,nan,0.0,0.0,0.090152115,0.002509761,0.0025133952,0.0025129188,0.0,0.0,2.1455722,0.090297185,0.0,0.0
333784529,333684985,0.10014798,0.100126244,0.21414584,0.99420136,0.99420625,0.0,0.0,0.0,0.0,0.0,0.0,0.0,0.0,12.405199,0.0,0.0,nan,0.0,0.0,0.09015693,0.002509761,0.0025133952,0.0025129188,0.0,0.0,2.1455722,0.090299815,0.0,0.0
334288109,334188754,0.10024958,0.10023085,0.21415968,0.9922889,0.9922912,0.0,0.0,0.0,0.0,0.0,0.0,0.0,0.0,12.4030905,0.0,0.0,nan,0.0,0.0,0.0901617,0.002509761,0.0025133952,0.0025129188,0.0,0.0,2.1455722,0.09029806,0.0,0.0
334791924,334692524,0.10012266,0.1001292,0.21409687,0.9921118,0.9921123,0.0,0.0,0.0,0.0,0.0,0.0,0.0,0.0,12.40443,0.0,0.0,nan,0.0,0.0,0.09016578,0.002509761,0.0025133952,0.0025129188,0.0,0.0,2.1455722,0.090290666,0.0,0.0
335285713,335186413,0.10027931,0.10037075,0.21411633,0.9921433,0.9921402,0.0,0.0,0.0,0.0,0.0,0.0,0.0,0.0,12.405824,0.0,0.0,nan,0.0,0.0,0.090170346,0.002509761,0.0025133952,0.0025129188,0.0,0.0,2.1455722,0.09028476,0.0,0.0
335789688,335690183,0.10050739,0.100683294,0.21416959,0.9903198,0.9903149,0.0,0.0,0.0,0.0,0.0,0.0,0.0,0.0,12.404901,0.0,0.0,nan,0.0,0.0,0.09017422,0.002509761,0.0025133952,0.0025129188,0.0,0.0,2.1455722,0.09027401,0.0,0.0
336283357,336184073,0.10136092,0.10165487,0.21420567,0.98847854,0.98847497,0.0,0.0,0.0,0.0,0.0,0.0,0.0,0.0,12.4028225,0.0,0.0,nan,0.0,0.0,0.09017713,0.002509761,0.0025133952,0.0025129188,0.0,0.0,2.1455722,0.09025865,0.0,0.0
336787085,336687840,0.10081125,0.101042256,0.2141337,0.986381,0.986381,0.0,0.0,0.0,0.0,0.0,0.0,0.0,0.0,12.404676,0.0,0.0,nan,0.0,0.0,0.090180345,0.002509761,0.0025133952,0.0025129188,0.0,0.0,2.1455722,0.090266,0.0,0.0
337290926,337191608,0.10094978,0.10071117,0.21407567,0.9823168,0.98232514,0.0,0.0,0.0,0.0,0.0,0.0,0.0,0.0,12.4032755,0.0,0.0,nan,0.0,0.0,0.09018095,0.0025131146,0.0025238942,0.002522326,0.0,0.0,2.1455722,0.09025404,0.0,0.0
337784775,337685498,0.10162971,0.100609176,0.21410047,0.9766492,0.97666204,0.0,0.0,0.0,0.0,0.0,0.0,0.0,0.0,12.404614,0.0,0.0,nan,0.0,0.0,0.09018095,0.002514255,0.0025208788,0.0025214995,0.0,0.0,2.1455722,0.09024358,0.0,0.0
338288535,338189271,0.103836425,0.10160904,0.21423307,0.9727509,0.97274756,0.0,0.0,0.0,0.0,0.0,0.0,0.0,0.0,12.403023,0.0,0.0,nan,0.0,0.0,0.09018095,0.0025158282,0.0025181896,0.0025199484,0.0,0.0,2.1455722,0.09025202,0.0,0.0
338792266,338693034,0.10350765,0.10158308,0.21425234,0.9723369,0.97230655,0.0,0.0,0.0,0.0,0.0,0.0,0.0,0.0,12.404833,0.0,0.0,nan,0.0,0.0,0.09018095,0.0025164932,0.0025159277,0.0025187219,0.0,0.0,2.1455722,0.090248816,0.0,0.0
339286362,339186924,0.103277124,0.10239558,0.21437106,0.97846526,0.9783767,0.0,0.0,0.0,0.0,0.0,0.0,0.0,0.0,12.406171,0.0,0.0,nan,0.0,0.0,0.09018095,0.002518008,0.0025130971,0.0025178115,0.0,0.0,2.1455722,0.09025184,0.0,0.0
339789982,339690692,0.10283352,0.10326364,0.2145462,0.98248684,0.98237514,0.0,0.0,0.0,0.0,0.0,0.0,0.0,0.0,12.405207,0.0,0.0,nan,0.0,0.0,0.09018095,0.0025187437,0.002511347,0.0025174688,0.0,0.0,2.1455722,0.090278685,0.0,0.0
340283811,340184582,0.10204173,0.104624465,0.21479979,0.99226654,0.9921725,0.0,0.0,0.0,0.0,0.0,0.0,0.0,0.0,12.403087,0.0,0.0,nan,0.0,0.0,0.09018095,0.0025189444,0.0025101632,0.0025171484,0.0,0.0,2.1455722,0.09029781,0.0,0.0
340787592,340688350,0.10157959,0.10488144,0.21493597,1.0021806,1.0021542,0.0,0.0,0.0,0.0,0.0,0.0,0.0,0.0,12.405001,0.0,0.0,nan,0.0,0.0,0.09018095,0.0025188576,0.0025092573,0.0025167065,0.0,0.0,2.1455722,0.09032291,0.0,0.0
341291352,341192118,0.100477174,0.10337407,0.2149158,1.0115921,1.0116956,0.0,0.0,0.0,0.0,0.0,0.0,0.0,0.0,12.402885,0.0,0.0,nan,0.0,0.0,0.09018095,0.0025186494,0.0025089935,0.002516249,0.0,0.0,2.1455722,0.09032811,0.0,0.0
341785266,341686008,0.10038448,0.10328989,0.21500665,1.015735,1.0159428,0.0,0.0,0.0,0.0,0.0,0.0,0.0,0.0,12.4042845,0.0,0.0,nan,0.0,0.0,0.09018095,0.0025180827,0.0025088747,0.0025160327,0.0,0.0,2.1455722,0.09034922,0.0,0.0
342289185,342189776,0.10085911,0.10369514,0.2154135,1.0119872,1.0123594,0.0,0.0,0.0,0.0,0.0,0.0,0.0,0.0,12.403428,0.0,0.0,nan,0.0,0.0,0.09018095,0.0025171547,0.0025093127,0.0025155742,0.0,0.0,2.1455722,0.09040961,0.0,0.0
342782971,342683665,0.10106945,0.103088506,0.21549387,1.004016,1.0044837,0.0,0.0,0.0,0.0,0.0,0.0,0.0,0.0,12.404916,0.0,0.0,nan,0.0,0.0,0.09018095,0.0025166625,0.0025095295,0.0025150254,0.0,0.0,2.1455722,0.0904186,0.0,0.0
343286662,343187433,0.10090244,0.10186504,0.21539864,0.9865218,0.9871103,0.0,0.0,0.0,0.0,0.0,0.0,0.0,0.0,12.403326,0.0,0.0,nan,0.0,0.0,0.09018095,0.00251616,0.0025096724,0.0025145994,0.0,0.0,2.1455722,0.09040675,0.0,0.0
343790488,343691200,0.10097335,0.10149977,0.21537934,0.9730149,0.973634,0.0,0.0,0.0,0.0,0.0,0.0,0.0,0.0,12.405566,0.0,0.0,nan,0.0,0.0,0.09018095,0.0025151626,0.0025101844,0.0025143737,0.0,0.0,2.1455722,0.090378426,0.0,0.0
344284386,344185090,0.10146253,0.10141458,0.21553363,0.9537193,0.95433134,0.0,0.0,0.0,0.0,0.0,0.0,0.0,0.0,12.403934,0.0,0.0,nan,0.0,0.0,0.09018095,0.002514251,0.002511068,0.0025139381,0.0,0.0,2.1455722,0.090370186,0.0,0.0
344788157,344688857,0.10156064,0.10121158,0.21555477,0.9400968,0.940669,0.0,0.0,0.0,0.0,0.0,0.0,0.0,0.0,12.405968,0.0,0.0,nan,0.0,0.0,0.09018095,0.002513201,0.0025119937,0.0025133758,0.0,0.0,2.1455722,0.09034728,0.0,0.0
345291921,345192625,0.10169047,0.101095185,0.21555755,0.92657626,0.9270634,0.0,0.0,0.0,0.0,0.0,0.0,0.0,0.0,12.403718,0.0,0.0,nan,0.0,0.0,0.09018095,0.0025123567,0.0025128515,0.002512841,0.0,0.0,2.1455722,0.090318434,0.0,0.0
345785917,345686514,0.101614386,0.10100399,0.21545658,0.91871,0.9191208,0.0,0.0,0.0,0.0,0.0,0.0,0.0,0.0,12.405179,0.0,0.0,nan,0.0,0.0,0.09018095,0.0025115577,0.0025133635,0.0025123744,0.0,0.0,2.1455722,0.090293035,0.0,0.0
346289562,346190282,0.101454794,0.10090414,0.21541654,0.9109996,0.911292,0.0,0.0,0.0,0.0,0.0,0.0,0.0,0.0,12.404248,0.0,0.0,nan,0.0,0.0,0.09018095,0.002510875,0.0025139719,0.002512106,0.0,0.0,2.1455722,0.090267934,0.0,0.0
346783444,346684171,0.10182957,0.10120614,0.21550858,0.9069504,0.9071679,0.0,0.0,0.0,0.0,0.0,0.0,0.0,0.0,12.405719,0.0,0.0,nan,0.0,0.0,0.09018095,0.002510242,0.0025144096,0.002511564,0.0,0.0,2.1455722,0.09023934,0.0,0.0
347287186,347187938,0.101864785,0.10144651,0.21547745,0.90150636,0.90159786,0.0,0.0,0.0,0.0,0.0,0.0,0.0,0.0,12.407231,0.0,0.0,nan,0.0,0.0,0.09018095,0.002509805,0.0025146853,0.0025109034,0.0,0.0,2.1455722,0.09022837,0.0,0.0
347790991,347691705,0.101185,0.10102992,0.21525028,0.9009782,0.9010046,0.0,0.0,0.0,0.0,0.0,0.0,0.0,0.0,12.404907,0.0,0.0,nan,0.0,0.0,0.09018095,0.002509596,0.0025145155,0.0025107386,0.0,0.0,2.1455722,0.09021597,0.0,0.0
348285259,348185594,0.1010491,0.101003826,0.21521124,0.89721876,0.8971719,0.0,0.0,0.0,0.0,0.0,0.0,0.0,0.0,12.407462,0.0,0.0,nan,0.0,0.0,0.09018095,0.0025093788,0.0025146974,0.002510421,0.0,0.0,2.1455722,0.09020664,0.0,0.0
348788700,348689361,0.10089129,0.10089728,0.21519683,0.8954078,0.89532036,0.0,0.0,0.0,0.0,0.0,0.0,0.0,0.0,12.406329,0.0,0.0,nan,0.0,0.0,0.09018095,0.0025091951,0.0025145991,0.0025100908,0.0,0.0,2.1455722,0.09019914,0.0,0.0
349292535,349193128,0.100893974,0.10092547,0.21518523,0.8914232,0.8912989,0.0,0.0,0.0,0.0,0.0,0.0,0.0,0.0,12.404014,0.0,0.0,nan,0.0,0.0,0.09018095,0.0025092647,0.0025146059,0.0025097488,0.0,0.0,2.1455722,0.09019986,0.0,0.0
349786269,349687017,0.10087882,0.10093595,0.2152255,0.8896557,0.88950795,0.0,0.0,0.0,0.0,0.0,0.0,0.0,0.0,12.40589,0.0,0.0,nan,0.0,0.0,0.09018095,0.0025092973,0.0025142953,0.0025093686,0.0,0.0,2.1455722,0.09020247,0.0,0.0
350290334,350190784,0.100421704,0.10048198,0.21509781,0.88935184,0.88918775,0.0,0.0,0.0,0.0,0.0,0.0,0.0,0.0,12.404116,0.0,0.0,nan,0.0,0.0,0.09018095,0.0025092566,0.0025138732,0.002509182,0.0,0.0,2.1455722,0.090211205,0.0,0.0
350783936,350684673,0.100399986,0.10052251,0.21509358,0.88753736,0.8873689,0.0,0.0,0.0,0.0,0.0,0.0,0.0,0.0,12.405444,0.0,0.0,nan,0.0,0.0,0.09018095,0.0025094147,0.0025135432,0.0025089865,0.0,0.0,2.1455722,0.090218805,0.0,0.0
351287876,351188439,0.10016022,0.10033765,0.21508403,0.8838309,0.8836679,0.0,0.0,0.0,0.0,0.0,0.0,0.0,0.0,12.404426,0.0,0.0,nan,0.0,0.0,0.09018095,0.002509759,0.0025131663,0.002508762,0.0,0.0,2.1455722,0.09022975,0.0,0.0
351791534,351692206,0.1001019,0.100407936,0.21509758,0.8797022,0.87955284,0.0,0.0,0.0,0.0,0.0,0.0,0.0,0.0,12.405308,0.0,0.0,nan,0.0,0.0,0.09018095,0.0025100969,0.0025125928,0.0025085004,0.0,0.0,2.1455722,0.09024129,0.0,0.0
352286008,352186095,0.10010837,0.10054247,0.21517083,0.87235385,0.87223536,0.0,0.0,0.0,0.0,0.0,0.0,0.0,0.0,12.403647,0.0,0.0,nan,0.0,0.0,0.09018095,0.0025103835,0.0025119719,0.0025082864,0.0,0.0,2.1455722,0.090246215,0.0,0.0
352789192,352689861,0.10025574,0.1007653,0.21524808,0.8689574,0.8688679,0.0,0.0,0.0,0.0,0.0,0.0,0.0,0.0,12.405792,0.0,0.0,nan,0.0,0.0,0.09018095,0.00251075,0.0025115144,0.0025080885,0.0,0.0,2.1455722,0.09024805,0.0,0.0
353283107,353183749,0.10029782,0.10090208,0.21531506,0.86159474,0.86155874,0.0,0.0,0.0,0.0,0.0,0.0,0.0,0.0,12.407607,0.0,0.0,nan,0.0,0.0,0.09018095,0.002511148,0.0025110743,0.0025078906,0.0,0.0,2.1455722,0.09024739,0.0,0.0
353786806,353687516,0.10020062,0.10080734,0.21527444,0.8592704,0.859272,0.0,0.0,0.0,0.0,0.0,0.0,0.0,0.0,12.406501,0.0,0.0,nan,0.0,0.0,0.09018095,0.0025112077,0.0025105404,0.002507748,0.0,0.0,2.1455722,0.090249866,0.0,0.0
354290835,354191282,0.10030305,0.100884445,0.21528828,0.85715353,0.85721844,0.0,0.0,0.0,0.0,0.0,0.0,0.0,0.0,12.40422,0.0,0.0,nan,0.0,0.0,0.09018095,0.002511315,0.0025101597,0.0025076873,0.0,0.0,2.1455722,0.090254314,0.0,0.0
354784396,354685170,0.10049214,0.101038605,0.21537867,0.85717547,0.85728294,0.0,0.0,0.0,0.0,0.0,0.0,0.0,0.0,12.405598,0.0,0.0,nan,0.0,0.0,0.09018095,0.0025111872,0.0025097926,0.0025075898,0.0,0.0,2.1455722,0.090251066,0.0,0.0
355288305,355188936,0.10066,0.101040766,0.21543269,0.8589969,0.8591642,0.0,0.0,0.0,0.0,0.0,0.0,0.0,0.0,12.403881,0.0,0.0,nan,0.0,0.0,0.09018095,0.002510905,0.0025095816,0.002507493,0.0,0.0,2.1455722,0.09024623,0.0,0.0
355791928,355692703,0.10093619,0.10117696,0.21547571,0.8627071,0.86290395,0.0,0.0,0.0,0.0,0.0,0.0,0.0,0.0,12.40602,0.0,0.0,nan,0.0,0.0,0.09018095,0.0025106994,0.0025095472,0.0025074298,0.0,0.0,2.1455722,0.09024314,0.0,0.0
356286242,356186590,0.100857586,0.10088142,0.21543607,0.86796236,0.86818206,0.0,0.0,0.0,0.0,0.0,0.0,0.0,0.0,12.403787,0.0,0.0,nan,0.0,0.0,0.09018095,0.0025104138,0.0025096876,0.0025074,0.0,0.0,2.1455722,0.09023697,0.0,0.0
356789646,356690356,0.10109945,0.10092935,0.215575,0.8735744,0.87379897,0.0,0.0,0.0,0.0,0.0,0.0,0.0,0.0,12.406292,0.0,0.0,nan,0.0,0.0,0.09018095,0.0025098645,0.0025098112,0.0025074184,0.0,0.0,2.1455722,0.09022118,0.0,0.0
357283581,357184244,0.101294436,0.10078723,0.21562546,0.8735354,0.8737485,0.0,0.0,0.0,0.0,0.0,0.0,0.0,0.0,12.404522,0.0,0.0,nan,0.0,0.0,0.09018095,0.0025094575,0.0025099893,0.0025074538,0.0,0.0,2.1455722,0.09021831,0.0,0.0
357787289,357688010,0.10143565,0.10069992,0.21564175,0.8737409,0.8739337,0.0,0.0,0.0,0.0,0.0,0.0,0.0,0.0,12.405376,0.0,0.0,nan,0.0,0.0,0.09018095,0.0025088375,0.0025102405,0.0025075462,0.0,0.0,2.1455722,0.09021011,0.0,0.0
358291310,358191776,0.10192087,0.10067949,0.21578883,0.8666428,0.8667774,0.0,0.0,0.0,0.0,0.0,0.0,0.0,0.0,12.4043865,0.0,0.0,nan,0.0,0.0,0.09018095,0.0025083441,0.002510435,0.00250758,0.0,0.0,2.1455722,0.09020298,0.0,0.0
