timestamp,timestamp_sample,baro_device_id,bias,bias_var,innov,innov_var,innov_test_ratio
217658901,217540052,4028193,3.5626152,0.031978853,3.446202,14.883734,0.08865987
218268979,218147274,4028193,3.5845187,0.031985693,3.3952112,14.84197,0.086297765
218668984,218522975,4028193,3.5990396,0.03201448,3.2974474,14.816464,0.081539616
219269015,219123408,4028193,3.6210268,0.03180825,3.418401,14.77196,0.087895244
219659086,219556075,4028193,3.634872,0.03167196,3.3838277,14.74664,0.08627419
220259083,220104583,4028193,3.6567087,0.031469148,3.4136631,14.705787,0.088046186
220659081,220547601,4028193,3.6713018,0.03133519,3.365313,14.680803,0.08571535
221269135,221125030,4028193,3.6928248,0.031135855,3.3519347,14.6466465,0.08523351
221659249,221510372,4028193,3.7065694,0.031004151,3.3257582,14.6250305,0.08403149
222259196,222109001,4028193,3.728353,0.030808356,3.402589,14.594315,0.08814401
222669320,222548320,4028193,3.7424335,0.030679036,3.1337607,14.575969,0.074860334
223269334,223140584,4028193,3.7669077,0.030486701,3.8914776,14.5516,0.1156314
223669446,223522471,4028193,3.783851,0.030359615,4.382003,14.530423,0.14683329
224259376,224116973,4028193,3.8048675,0.030170636,3.5390341,14.500334,0.09597298
224669434,224549309,4028193,3.818798,0.030045828,3.38296,14.485333,0.0877855
225269466,225143434,4028193,3.8400288,0.029860193,3.512871,14.455547,0.09485219
225669588,225521813,4028193,3.8543124,0.029737521,3.3673136,14.443641,0.087226406
226269529,226116550,4028193,3.8753886,0.029555235,3.3573694,14.425841,0.08681897
226669638,226548858,4028193,3.8877196,0.029434858,3.0708542,14.411096,0.072707444
227269788,227143536,4028193,3.9040525,0.029255847,3.0905504,14.390525,0.07374839
227659636,227518316,4028193,3.9177513,0.029137587,3.4549234,14.381697,0.09221981
228259728,228117615,4028193,3.9363916,0.028961865,2.9299538,14.364157,0.066404715
228659774,228515635,4028193,3.9504616,0.028845785,4.0261235,14.349625,0.1255137
229259773,229122126,4028193,3.9670904,0.028673287,2.1571689,14.329355,0.036082707
229660034,229556028,4028193,3.9813752,0.028559256,3.763319,14.314946,0.109928384
230269928,230166394,4028193,3.998763,0.028389664,2.7865329,14.292007,0.060366027
230659932,230537897,4028193,4.010237,0.028277522,2.5785828,14.280559,0.051733807
231269943,231151779,4028193,4.0277195,0.028110955,2.96669,14.266267,0.06854747
231659990,231536474,4028193,4.0384183,0.028000833,3.0286407,14.252082,0.071511306
232270081,232156547,4028193,4.055063,0.027837165,2.5689569,14.232297,0.051522404
232670006,232541905,4028193,4.0662456,0.02772894,2.584765,14.218232,0.052210037
233260128,233136582,4028193,4.0805893,0.027568033,1.9717588,14.206943,0.030406361
233670185,233569177,4028193,4.0904875,0.027461829,2.5644407,14.206837,0.051433425
234260261,234124317,4028193,4.1060348,0.027303962,2.422494,14.206678,0.045897637
234660283,234558410,4028193,4.115111,0.027199818,2.2943168,14.2093525,0.041161384
235260325,235153472,4028193,4.1289225,0.027045008,3.2925653,14.209197,0.08477284
235670328,235535697,4028193,4.1384244,0.026942767,2.4994931,14.209094,0.048853423
236260460,236144918,4028193,4.1536674,0.026790928,3.5951667,14.208941,0.10107269
236660499,236527210,4028193,4.1609373,0.026690612,2.4602203,14.208841,0.04733113
237250492,237118140,4028193,4.1774344,0.026541553,3.4569268,14.208692,0.09345096
237670567,237548311,4028193,4.1889577,0.026443154,3.1637173,14.208592,0.07827116
238260719,238156397,4028193,4.201082,0.02629689,1.812819,14.2056675,0.025704239
238670628,238538353,4028193,4.2041354,0.026200233,0.97942257,14.20557,0.007503071
239270674,239136614,4028193,4.2204604,0.02605661,2.9714732,14.205426,0.069063224
239660711,239514757,4028193,4.2283173,0.025961705,2.7438269,14.205331,0.058887016
240270814,240165621,4028193,4.2413116,0.025820753,2.6531415,14.205189,0.05505938
240680874,240547565,4028193,4.2479873,0.025727574,1.1291723,14.205095,0.009973183
241270919,241139362,4028193,4.257181,0.02558908,1.1565614,14.204957,0.010462969
241660885,241514207,4028193,4.265498,0.025497554,1.3668809,14.2048645,0.014614426
242070984,241969647,4028193,4.2703667,0.025406834,1.46591,14.204774,0.01680884
242671072,242560922,4028193,4.2764063,0.025271785,1.5239363,14.2046385,0.018166067
243271042,243146979,4028193,4.283149,0.025138142,2.2719617,14.204504,0.040376943
243661094,243527551,4028193,4.289109,0.02504982,1.8830643,14.201638,0.02774274
243861095,243744219,4028193,4.2906065,0.025005916,0.848609,14.198819,0.005635345
244671199,244555168,4028193,4.296226,0.02483175,1.6043549,14.198645,0.020142412
245261252,245142688,4028193,4.2989955,0.02470267,-1.2552814,14.195742,0.012333366
245651308,245523914,4028193,4.302492,0.024617372,0.66069555,14.198429,0.0034160165
246061325,245956265,4028193,4.304016,0.024532735,0.4116087,14.198344,0.0013258331
246661395,246551208,4028193,4.307709,0.0244068,1.4576297,14.198218,0.016627159
247261434,247146223,4028193,4.309959,0.02428216,0.43874788,14.198092,0.0015064599
247461453,247308557,4028193,4.3121123,0.024240848,1.2591367,14.198051,0.01240722
248271605,248128050,4028193,4.3150687,0.024077266,0.58289003,14.200663,0.0026584112
250251693,250097615,4028193,4.3139434,0.023677744,-0.31947422,14.194713,0.0007989186
250661753,250530688,4028193,4.3123903,0.023599483,-0.82277393,14.200183,0.005296935
251061770,250906945,4028193,4.3102174,0.023521695,-0.7692838,14.205661,0.0046288082
251861892,251733970,4028193,4.3116007,0.02336782,1.2371793,14.205506,0.011971982
252061882,251951524,4028193,4.31288,0.023329673,0.7776556,14.205468,0.004730168
252491931,252384254,4028193,4.3117833,0.023253758,-0.49653053,14.205392,0.0019283959
253071954,252925303,4028193,4.31025,0.023140678,-0.605618,14.210842,0.0028677098
253271977,253141601,4028193,4.313258,0.023103286,1.8475718,14.210805,0.026689565
253481993,253325014,4028193,4.3116436,0.023066025,-0.99351025,14.21634,0.0077146175
253872090,253765664,4028193,4.3105216,0.02299194,-0.080545425,14.227434,5.066554e-05
255862187,255722944,4028193,4.312832,0.02262911,1.2535415,14.257946,0.01224554
256072192,255939273,4028193,4.314472,0.02259347,1.0330772,14.252279,0.008320296
256482264,256376313,4028193,4.315624,0.022522526,0.962255,14.246584,0.007221495
257062291,256917361,4028193,4.317579,0.022416772,0.86913204,14.243669,0.0058926023
257272302,257133573,4028193,4.3199153,0.022381779,1.4843545,14.240827,0.017190859
257862420,257732520,4028193,4.320502,0.022277372,-0.70671463,14.237916,0.0038976173
258262479,258117674,4028193,4.321994,0.022208337,1.7881927,14.24908,0.024934424
258662506,258550673,4028193,4.3246737,0.022139836,1.836576,14.260274,0.026281334
259462631,259308070,4028193,4.3223023,0.022004152,-1.9729176,14.2856,0.030274492
259862703,259740759,4028193,4.3212137,0.021937069,-1.2981849,14.291212,0.013102721
260652680,260498560,4028193,4.3240933,0.021804068,1.3939047,14.302463,0.015094294
260862817,260715042,4028193,4.325496,0.02177111,0.9200969,14.299581,0.0065781125
262062880,261915178,4028193,4.32809,0.021575268,1.5596056,14.29085,0.018911634
263062961,262942974,4028193,4.3297086,0.021414788,0.4220729,14.299223,0.0013842674
263252914,263105296,4028193,4.3319473,0.021382941,1.4950747,14.30204,0.017365422
264263038,264140746,4028193,4.333604,0.021225518,0.6277089,14.310442,0.0030592927
264493131,264356896,4028193,4.334991,0.021194322,0.9348631,14.307555,0.0067871604
264663144,264522707,4028193,4.3435197,0.021163162,5.7584233,14.310379,0.25746223
265263098,265121198,4028193,4.3437862,0.021070292,1.4576397,14.29603,0.016513623
265663202,265553498,4028193,4.350304,0.02100883,2.080433,14.28744,0.03365972
266263196,266144796,4028193,4.3599024,0.020917183,2.5907025,14.278836,0.052227568
266663201,266533957,4028193,4.3638153,0.020856516,2.814238,14.273112,0.06165389
267253291,267113303,4028193,4.378186,0.020766106,3.2801967,14.270193,0.08377751
267663288,267546185,4028193,4.3889794,0.020706346,3.6192594,14.270133,0.10199265
268263391,268137608,4028193,4.406839,0.020617241,4.1974425,14.264391,0.13723782
268663393,268519990,4028193,4.4193425,0.020558251,4.6065245,14.264332,0.16529238
269063470,268952935,4028193,4.431841,0.020499663,3.2635794,14.264273,0.082965255
269653479,269536368,4028193,4.444098,0.020412289,3.7670245,14.261363,0.11055881
270263533,270143124,4028193,4.4652667,0.020325743,3.6362548,14.264099,0.102996334
270663767,270518882,4028193,4.4743214,0.020268403,3.4615088,14.264041,0.09333527
271263628,271109994,4028193,4.4902306,0.020183073,4.5001116,14.275268,0.1576231
271663720,271542510,4028193,4.498174,0.020126702,2.05977,14.286555,0.03299647
272263752,272140850,4028193,4.5143294,0.020042762,3.789003,14.303547,0.11152279
272663767,272522860,4028193,4.528156,0.01998721,6.2364345,14.309199,0.30200553
273263847,273113508,4028193,4.546079,0.019904505,4.421717,14.314832,0.15175855
273643872,273488168,4028193,4.556456,0.019849738,2.947762,14.317639,0.067432754
274263928,274145155,4028193,4.576984,0.01976834,3.729989,14.326152,0.107905366
274664064,274519802,4028193,4.5883207,0.019714369,3.5772219,14.328967,0.099228024
275264024,275113158,4028193,4.605648,0.019634005,2.924306,14.323151,0.06633833
275664101,275545581,4028193,4.615541,0.019580835,4.5333652,14.323097,0.15942705
276244155,276096548,4028193,4.635271,0.019501545,4.9446106,14.337373,0.18947507
276654163,276528784,4028193,4.654693,0.019449161,9.463495,14.340197,0.69391376
277254222,277126989,4028193,4.676185,0.019371072,5.394425,14.345879,0.22538273
277654268,277501730,4028193,4.6856246,0.019319337,1.7506347,14.348709,0.023732075
278254408,278145617,4028193,4.7001977,0.01924241,5.790291,14.360185,0.25941688
278654361,278524026,4028193,4.711295,0.019191477,4.856139,14.386243,0.18213457
279254421,279107709,4028193,4.72406,0.019115843,3.1181264,14.444766,0.07478843
279654496,279541959,4028193,4.730127,0.01906601,1.6994929,14.483235,0.022158004
280254699,280143413,4028193,4.7449503,0.01899181,4.150146,14.507032,0.13191848
280654555,280521575,4028193,4.754823,0.018942673,4.4188824,14.512972,0.14949478
281254625,281107942,4028193,4.771567,0.018869473,3.7032146,14.509903,0.10501486
281654718,281538301,4028193,4.78234,0.018821014,4.231609,14.500882,0.13720632
282254718,282136789,4028193,4.8028383,0.01874871,4.900278,14.494838,0.1840711
282664760,282514046,4028193,4.8151054,0.018700793,4.1155353,14.503751,0.1297567
283264853,283163937,4028193,4.8305016,0.018629607,4.474629,14.527663,0.15313548
283664852,283538354,4028193,4.839947,0.018582433,4.2409782,14.545688,0.13739006
283864898,283754575,4028193,4.845349,0.018558992,4.2288585,14.548682,0.1365778
284664948,284521341,4028193,4.8548985,0.018465785,3.8842502,14.566745,0.11508252
285264998,285112793,4028193,4.872995,0.018396523,4.459729,14.563645,0.15174149
285665085,285545141,4028193,4.8812594,0.018350706,2.763805,14.569663,0.058253597
286265112,286142735,4028193,4.8945465,0.018282363,6.2225876,14.57263,0.29523075
286655198,286526059,4028193,4.9062014,0.018237086,3.4592419,14.57866,0.09120145
287265247,287124494,4028193,4.9185743,0.01816963,4.399045,14.578592,0.14748868
287665315,287556772,4028193,4.9246097,0.018124986,1.4208703,14.581589,0.015383726
288255460,288147607,4028193,4.9359956,0.018058365,3.650653,14.584565,0.1015325
288665318,288522319,4028193,4.941549,0.018014198,1.78795,14.581478,0.024359407
289255374,289127578,4028193,4.95383,0.01794846,3.7106795,14.590548,0.10485588
289665459,289558102,4028193,4.96031,0.017904948,3.61173,14.596603,0.09929703
290065610,289940393,4028193,4.961408,0.017861607,0.117558956,14.599612,0.00010517865
290655559,290539809,4028193,4.9705844,0.017797057,3.5787168,14.611779,0.09738881
291255628,291125007,4028193,4.9811954,0.017732937,2.1077132,14.5994835,0.033809833
291665651,291551098,4028193,4.98988,0.017690469,4.930338,14.593337,0.18507862
292265658,292149964,4028193,4.999714,0.0176271,3.3854046,14.590225,0.087280385
292675703,292531816,4028193,5.009037,0.017585073,5.2740927,14.587136,0.21187659
293265759,293124981,4028193,5.013067,0.01752245,2.0435967,14.593169,0.03179789
293665823,293564385,4028193,5.0171065,0.017481035,1.8013754,14.599231,0.02469653
294265919,294158762,4028193,5.032502,0.017419202,3.1267414,14.605281,0.07437578
294665875,294537094,4028193,5.036281,0.0173782,3.5275764,14.602183,0.09468748
295265930,295131673,4028193,5.050229,0.017317144,6.4519916,14.617427,0.31642747
295656040,295510072,4028193,5.0561833,0.01727669,2.0367594,14.626593,0.031513292
296266104,296158348,4028193,5.06293,0.01721649,2.1789408,14.629606,0.036059167
296666080,296539980,4028193,5.067203,0.017176552,1.1405044,14.635717,0.009875006
297056093,296914714,4028193,5.0764327,0.017136807,4.033422,14.64492,0.123429164
297666244,297565431,4028193,5.0798516,0.017077662,1.9648747,14.635618,0.029310023
298256222,298100166,4028193,5.0930977,0.017018702,2.437273,14.623263,0.04513584
298666238,298532527,4028193,5.100089,0.016979717,3.1978645,14.620155,0.07771872
299066407,298964872,4028193,5.1089945,0.016940892,3.7263055,14.610921,0.105593406
299646428,299508527,4028193,5.1185637,0.016882801,2.6394606,14.592527,0.053046573
300256447,300106770,4028193,5.1276,0.016825082,1.9282303,14.565101,0.028363628
300676424,300539087,4028193,5.134068,0.01678681,3.1633558,14.549928,0.076417476
301256587,301129984,4028193,5.1415224,0.016729584,2.548668,14.528765,0.049676992
301666560,301562367,4028193,5.144563,0.016691629,1.7463465,14.498748,0.023371568
302246707,302102866,4028193,5.156978,0.01663479,4.352819,14.480798,0.14538051
302656779,302541869,4028193,5.1656203,0.016597223,2.8363976,14.483737,0.06171789
303066685,302919804,4028193,5.172571,0.016559752,3.4783812,14.48966,0.092779845
303666755,303517968,4028193,5.186554,0.016503897,5.4695945,14.477692,0.22959818
304266873,304116145,4028193,5.2010956,0.016448326,3.3935122,14.447996,0.088562265
304676788,304559248,4028193,5.2060757,0.016411485,3.0250273,14.424391,0.07048856
305076870,304933932,4028193,5.214016,0.016374655,4.2486424,14.40969,0.13918845
305486955,305381507,4028193,5.2171783,0.016338099,0.8934555,14.400878,0.0061590592
306266945,306139007,4028193,5.2209573,0.016265163,4.5840573,14.380401,0.16236283
306656988,306520812,4028193,5.224662,0.01622892,2.3602667,14.371649,0.04306982
307257041,307111705,4028193,5.231977,0.016174862,1.1101131,14.371594,0.009527678
307447015,307327819,4028193,5.2308087,0.016156955,-1.038301,14.374479,0.008333202
307857140,307709739,4028193,5.2326293,0.016121231,1.1507678,14.391903,0.010223854
308657120,308527287,4028193,5.2372212,0.01605044,2.78443,14.42991,0.059698924
309057172,308905689,4028193,5.238359,0.01601531,0.16076422,14.44461,0.00019880645
310857350,310742933,4028193,5.236968,0.015859272,-0.4521718,14.429718,0.0015743693
311257407,311120761,4028193,5.2352633,0.015824966,-0.70810556,14.432627,0.0038601847
312257434,312144137,4028193,5.2339754,0.01574003,-0.2936983,14.447287,0.0006633979
314877652,314738152,4028193,5.2353187,0.015523472,0.36974716,14.438216,0.001052092
315247748,315119762,4028193,5.2363415,0.015490626,0.5767174,14.426408,0.0025616826
315657725,315556609,4028193,5.237499,0.015457967,0.615777,14.414631,0.0029228122
316057754,315935041,4028193,5.2394433,0.015425338,0.98238945,14.402885,0.007445182
316267741,316151324,4028193,5.2404776,0.015409106,0.96538687,14.399947,0.007191167
316857875,316749498,4028193,5.243087,0.015360523,0.8805542,14.385313,0.0059889457
317257812,317124184,4028193,5.245584,0.015328235,1.2437234,14.373649,0.011957436
317847943,317729775,4028193,5.249782,0.015280108,1.381782,14.362,0.014771399
318257893,318107780,4028193,5.252443,0.015248127,1.3999372,14.356181,0.015168256
318848006,318698654,4028193,5.256796,0.015200416,1.7004395,14.3474655,0.022392605
319257978,319146126,4028193,5.2598968,0.015168858,1.5620079,14.338785,0.018906519
319858032,319741253,4028193,5.265612,0.01512161,1.4584837,14.3387375,0.01648351
320258064,320112100,4028193,5.2694077,0.015090243,2.2587194,14.341587,0.03952618
320858110,320708619,4028193,5.275723,0.015043507,3.3680797,14.338659,0.08790502
321058125,320924807,4028193,5.2774367,0.015028018,1.6339641,14.341525,0.020684602
321858192,321735543,4028193,5.2897267,0.014966355,2.7802367,14.358791,0.05981404
322258226,322113794,4028193,5.2986064,0.014935696,5.0940557,14.358761,0.20080194
322658274,322550278,4028193,5.305746,0.01490525,2.5405984,14.35873,0.04994747
323258324,323156550,4028193,5.311504,0.014859743,1.2904677,14.347124,0.0128969485
323858370,323748366,4028193,5.327801,0.014814434,5.716051,14.33555,0.25324175
324258371,324128718,4028193,5.3370624,0.014784347,9.296797,14.326897,0.6703043
324858414,324726777,4028193,5.3529763,0.014739458,4.728756,14.315378,0.17355953
325258456,325101593,4028193,5.362396,0.01470962,6.493904,14.303909,0.32757783
325858553,325753574,4028193,5.3678865,0.014665174,4.9421577,14.286764,0.18995768
326058550,325916780,4028193,5.3765683,0.014650336,8.454447,14.281066,0.5561184
326858575,326729194,4028193,5.398332,0.014591458,9.403463,14.266831,0.6886612
327258628,327107535,4028193,5.402737,0.01456214,4.849513,14.261147,0.18323116
327858659,327720477,4028193,5.4168997,0.014518442,7.2683,14.244183,0.4120839
328248681,328102844,4028193,5.428789,0.014489374,3.146514,14.230108,0.07730518
328858806,328751552,4028193,5.4389706,0.014446026,4.9557514,14.204909,0.19210473
329258763,329126376,4028193,5.4483914,0.014417158,5.222358,14.193753,0.21349788
329878830,329734974,4028193,5.4630914,0.014374101,4.0205226,14.16603,0.12678689
330058848,329951336,4028193,5.467695,0.014359799,4.5344577,14.157751,0.1613667
330858906,330758216,4028193,5.4730854,0.014302737,2.1373634,14.135741,0.035908367
331258939,331132929,4028193,5.48927,0.014274309,7.745803,14.127514,0.47187245
331859018,331731086,4028193,5.5040636,0.014231919,3.5685997,14.113846,0.10025541
332258992,332112753,4028193,5.5116906,0.014203744,2.7198634,14.100244,0.058294162
332869066,332761381,4028193,5.518416,0.01416175,1.7662673,14.086677,0.024607178
333259092,333135389,4028193,5.524591,0.014133788,2.3318667,14.078557,0.04291477
333449270,333297481,4028193,5.530613,0.01411981,5.996014,14.073159,0.2838515
334059135,333946090,4028193,5.532253,0.014078218,1.7122707,14.046317,0.02319209
334859232,334756734,4028193,5.5436544,0.014022985,-1.2034316,14.030278,0.0114692245
335259294,335135027,4028193,5.5520825,0.013995481,4.4668465,14.024939,0.1580733
335859273,335729391,4028193,5.561385,0.013954413,2.9072118,14.001093,0.06707318
336259297,336107566,4028193,5.5728703,0.013927116,3.499075,13.990537,0.09723656
336859378,336755864,4028193,5.585969,0.013886414,3.2841558,13.964316,0.08581937
337259384,337134113,4028193,5.5876713,0.0138593335,1.4084024,13.966898,0.015780147
337859435,337728542,4028193,5.602414,0.013818827,3.6867156,13.894563,0.108690575
338259477,338106875,4028193,5.6142945,0.013791879,7.4934044,13.89709,0.4489438
338849607,338711912,4028193,5.628263,0.013751758,2.7286787,13.91499,0.059453763
339259561,339144367,4028193,5.6350117,0.0137252025,3.3666663,13.927839,0.09042195
339859582,339738620,4028193,5.6435966,0.013685542,1.8715329,13.948503,0.027901327
340259666,340113115,4028193,5.6543217,0.013659227,3.8254204,13.958877,0.116483755
340859737,340716109,4028193,5.6670938,0.013620074,4.064059,13.979734,0.13127394
341259705,341148850,4028193,5.6782656,0.013594154,7.4901166,13.9875765,0.4456482
341859736,341743476,4028193,5.6913667,0.01355537,5.1590414,13.974433,0.21162224
342259803,342121813,4028193,5.7047195,0.01352958,7.597329,13.958747,0.45944437
342869816,342716324,4028193,5.713449,0.013491097,4.326162,13.950905,0.14905985
343259848,343148892,4028193,5.7211633,0.013465597,4.054245,13.940503,0.13100837
343849933,343743487,4028193,5.7381425,0.013427414,6.367264,13.919809,0.32361594
344259987,344122408,4028193,5.744145,0.013402026,4.348184,13.9069395,0.15105733
344880012,344772666,4028193,5.7541666,0.013364207,3.3303232,13.894107,0.0886951
345260047,345154675,4028193,5.7667365,0.013339036,6.6936016,13.888977,0.35843214
345850171,345694993,4028193,5.776551,0.0133013865,4.246615,13.881298,0.1443488
346260068,346127369,4028193,5.7842507,0.013276498,4.038941,13.878731,0.13059987
346860113,346718208,4028193,5.7940826,0.013239247,3.5785723,13.871077,0.10258099
347260187,347150719,4028193,5.801087,0.013214581,3.7846026,13.871052,0.11473309
348060241,347914395,4028193,5.803374,0.013165418,3.0298333,13.876078,0.07350692
348260388,348145917,4028193,5.8046975,0.013153265,1.3952384,13.876065,0.015587914
348660374,348524172,4028193,5.8098297,0.013128864,3.8386798,13.878583,0.117971234
349250374,349118337,4028193,5.813931,0.013092479,2.7075496,13.883634,0.058668796
349660491,349557770,4028193,5.820121,0.013068415,3.723445,13.886157,0.11093416
350250517,350098184,4028193,5.822191,0.01303234,2.2423482,13.901444,0.040188674
350860459,350746758,4028193,5.8302817,0.012996649,1.6954541,13.914234,0.02295463
351260592,351125126,4028193,5.832646,0.0129729025,-1.6507874,13.91421,0.021761118
351860592,351713774,4028193,5.8404984,0.01293746,1.8371687,13.9090395,0.026962392
352250631,352148712,4028193,5.8444567,0.012914002,2.1386442,13.909016,0.036537446
352660609,352531034,4028193,5.8485374,0.012890566,2.5055513,13.908992,0.050149716
353260645,353136121,4028193,5.8507247,0.012855621,2.6295147,13.906392,0.055245157
353450727,353302284,4028193,5.8539124,0.012843969,3.448977,13.908945,0.095026314
354040671,353902276,4028193,5.8557677,0.012809297,1.266511,13.926922,0.012797356
354840729,354709272,4028193,5.8633447,0.012763436,4.142065,13.952776,0.13662516
355040731,354925403,4028193,5.868164,0.012752061,5.2720923,13.963181,0.2211766
355450788,355300225,4028193,5.8700724,0.012729314,2.2673545,13.9814625,0.04085486
356250857,356108646,4028193,5.874426,0.012684264,1.5184808,14.031595,0.018258667
356460901,356325168,4028193,5.875671,0.012673098,1.3781948,14.039574,0.015032278
357250905,357097784,4028193,5.8757687,0.012628575,-2.8636909,14.060921,0.06480313
357850990,357746533,4028193,5.8839273,0.01259549,4.896307,14.060887,0.18944451
358250965,358121341,4028193,5.8854513,0.012573408,1.8138771,14.023514,0.02606852
358861046,358713469,4028193,5.880849,0.012540321,-2.9688034,13.960361,0.07014937
359251118,359145714,4028193,5.883795,0.012518394,3.4027863,13.962946,0.09214034
359871248,359740498,4028193,5.8866243,0.012485531,2.2307339,13.926598,0.039701596
360261127,360123546,4028193,5.884005,0.0124637,-3.1345296,13.936912,0.07833136
360661199,360556024,4028193,5.880644,0.012441984,-1.5969901,13.908543,0.020374188
361251218,361096689,4028193,5.8834276,0.0124092875,2.8479009,13.852542,0.065054566
361851242,361748489,4028193,5.8839808,0.012376833,2.8093343,13.834905,0.06338524
362651273,362522174,4028193,5.8815317,0.012333828,-3.7478576,13.89052,0.112358294
362851329,362738764,4028193,5.877048,0.01232318,-5.0551577,13.905858,0.20418747
363461322,363333346,4028193,5.875943,0.012291344,-0.5114193,13.949703,0.0020832757
363861381,363711479,4028193,5.870835,0.012270243,-5.2391386,13.978382,0.21818274
364261385,364143833,4028193,5.872192,0.012249342,3.716639,14.012589,0.10953171
364471404,364360089,4028193,5.873703,0.012238929,1.7294812,14.017875,0.02370866
365261459,365116750,4028193,5.8745613,0.012197338,3.549406,14.031108,0.099764705
365651531,365549196,4028193,5.8740726,0.01217673,-3.3585234,14.028428,0.08933985
366251548,366100146,4028193,5.8773074,0.012145838,3.8254013,14.031056,0.11588337
366651594,366532473,4028193,5.8790007,0.012125383,3.6412287,14.007176,0.10517264
367661685,367555347,4028193,5.877712,0.0120743755,-1.5953012,13.972949,0.020237403
367861636,367721183,4028193,5.878923,0.012064159,1.4002004,13.957278,0.015607636
368061653,367937965,4028193,5.877808,0.012054017,-1.288877,13.946868,0.013234385
368861845,368746700,4028193,5.879957,0.012013513,1.4396253,13.933873,0.01652664
369851775,369710301,4028193,5.8842134,0.011963185,3.8722954,13.933823,0.11957054
370051863,369926505,4028193,5.8813705,0.011953207,-3.311883,13.9364,0.0874494
370251878,370142764,4028193,5.8792205,0.011943245,-2.5065155,13.93639,0.05008965
370461860,370359041,4028193,5.881237,0.0119333025,2.3527703,13.93638,0.044133317
371261931,371115587,4028193,5.889462,0.0118935555,3.937654,13.938929,0.123595655
371652107,371548008,4028193,5.8966503,0.011873865,4.26476,13.944093,0.14492936
372051997,371926366,4028193,5.8977847,0.011854175,1.0381608,13.9492655,0.008584904
372851989,372713456,4028193,5.8903594,0.011815106,-4.165712,13.959635,0.1381217
373852080,373746790,4028193,5.8892555,0.011766714,-1.3743687,13.977878,0.01501491
374252115,374121592,4028193,5.8861613,0.011747434,-2.7679276,13.990982,0.060844142
374472109,374348210,4028193,5.882926,0.011737897,-3.8555179,13.998872,0.117985845
374652105,374513954,4028193,5.884293,0.011728291,1.631753,14.009422,0.021117674
375262160,375119765,4028193,5.880544,0.011699754,-1.7881374,14.033271,0.025316307
375662215,375552999,4028193,5.879698,0.0116808405,-3.0499988,14.027931,0.0736823
376052250,375931265,4028193,5.8808017,0.011661907,0.13177443,14.022601,0.00013759137
376852336,376742165,4028193,5.883373,0.01162429,4.2203345,14.017259,0.14118488
377062315,376958395,4028193,5.8801913,0.011614939,-3.8357463,14.014601,0.11664779
377852364,377715360,4028193,5.883027,0.011577555,2.3563395,14.019863,0.04400372
378252405,378147566,4028193,5.881588,0.011559041,-1.5158334,14.030469,0.018196514
378472439,378363689,4028193,5.8831787,0.011549812,1.9317932,14.035784,0.02954215
379252432,379120165,4028193,5.884246,0.011512945,-3.00491,14.062487,0.07134414
379442527,379336470,4028193,5.8874683,0.011503815,3.9374933,14.06785,0.122453
380242495,380093004,4028193,5.8888097,0.011467366,1.3441753,14.111076,0.014226865
380642673,380525561,4028193,5.8883696,0.011449337,-3.9038925,14.124683,0.11988766
381262569,381121519,4028193,5.88835,0.011422397,2.179873,14.163073,0.037278842
381642607,381503938,4028193,5.8871813,0.011404524,-0.27130318,14.176869,0.00057688187
383272776,383125135,4028193,5.8885164,0.0113337,2.7533212,14.119112,0.05965734
383662914,383557681,4028193,5.8862476,0.011316047,-2.2385945,14.062289,0.039596092
383852821,383716586,4028193,5.8842525,0.011307137,-2.4747295,14.038205,0.048473164
384252839,384146153,4028193,5.8793993,0.011289505,-3.1184835,14.027539,0.07703053
384652806,384525834,4028193,5.873251,0.011271856,-3.8181868,14.02221,0.115519516
385252888,385121669,4028193,5.8654914,0.011245524,-3.3631659,14.027495,0.08959296
385642872,385500720,4028193,5.860126,0.011228034,-3.4140248,14.040793,0.09223573
386242857,386109472,4028193,5.851528,0.011202019,-3.5018091,14.072927,0.09681841
386642874,386494592,4028193,5.8455434,0.011184751,-3.8465948,14.0972185,0.11662105
387252976,387144020,4028193,5.8355803,0.0111591,-4.3195386,14.132591,0.14669333
387652917,387519587,4028193,5.8283696,0.011142007,-4.3316107,14.138051,0.14745747
388258018,388110790,4028193,5.8194623,0.011116488,-3.8593683,14.138026,0.11705802
388663053,388554000,4028193,5.8133225,0.01109962,-4.2104354,14.129798,0.1394041
389253065,389152391,4028193,5.805516,0.011074321,-4.7626886,14.132506,0.1783375
389643082,389534985,4028193,5.8018565,0.011057467,-2.1679988,14.102516,0.037032153
390253101,390127285,4028193,5.797943,0.011032317,-1.9585671,14.116085,0.030193964
390643126,390502171,4028193,5.7935414,0.011015576,-2.8918853,14.110624,0.06585267
391253206,391151205,4028193,5.7878566,0.010990683,-1.7382097,14.102449,0.023804951
391653190,391533424,4028193,5.7839174,0.010974093,-3.3279662,14.107863,0.08722763
392253281,392131843,4028193,5.7798834,0.010949336,-1.5041733,14.110558,0.017815953
392653304,392507430,4028193,5.7761383,0.010932867,-2.1985464,14.115986,0.03804675
393253458,393098848,4028193,5.7697053,0.010908311,-2.1802874,14.126873,0.037388574
393663516,393531563,4028193,5.7663317,0.010892068,-2.545261,14.132324,0.050934084
394253539,394127398,4028193,5.7610855,0.010867726,-1.84937,14.126832,0.026900498
394663622,394509223,4028193,5.75697,0.0108515415,-2.5523014,14.126816,0.051236227
395263635,395158127,4028193,5.75229,0.010827447,-1.662447,14.126792,0.021737497
395653716,395532964,4028193,5.7486386,0.010811365,-2.8285294,14.126776,0.06292682
396253750,396131820,4028193,5.74326,0.010787398,-2.4371085,14.126752,0.04671592
396653835,396507488,4028193,5.7408113,0.010771436,-1.4824862,14.124004,0.017289443
397253869,397104979,4028193,5.737411,0.010747638,-1.5799613,14.121252,0.019641615
397653981,397537768,4028193,5.73401,0.010731877,-2.1908345,14.121237,0.037766255
398253853,398137577,4028193,5.728778,0.010708263,-3.114221,14.118485,0.07632525
398643917,398520619,4028193,5.7253523,0.010692555,-2.1994472,14.115745,0.03807858
399253948,399111915,4028193,5.719388,0.010669088,-2.5664067,14.115722,0.05184482
399643952,399497488,4028193,5.7149577,0.0106534995,-3.0336366,14.112983,0.072454564
400254003,400102887,4028193,5.7094083,0.010630244,-2.3894854,14.11296,0.04495191
400654060,400536018,4028193,5.7050395,0.010614831,-3.1051846,14.115667,0.075898096
401254106,401131044,4028193,5.699941,0.010591729,-1.6468182,14.115644,0.021347553
401654076,401513735,4028193,5.6952896,0.01057637,-3.103333,14.1129055,0.07582244
402244224,402108382,4028193,5.6884704,0.010553432,-3.7481675,14.112883,0.11060627
402654154,402540927,4028193,5.68427,0.010538242,-2.5799894,14.110146,0.052415755
403254184,403139267,4028193,5.6774945,0.010515481,-3.3532286,14.110124,0.088542745
403644223,403514222,4028193,5.673585,0.010500318,-3.1792297,14.107389,0.07960762
404254251,404106277,4028193,5.667326,0.010477702,-2.8373737,14.101935,0.06343251
404644288,404539158,4028193,5.6630607,0.0104627265,-2.9746957,14.096496,0.06974794
405244324,405137285,4028193,5.654723,0.010440267,-4.228198,14.088353,0.14099635
405654355,405519311,4028193,5.6501803,0.010425323,-2.870439,14.082933,0.065007135
406244389,406110503,4028193,5.643462,0.010402988,-3.3281827,14.07482,0.08744379
406654420,406542753,4028193,5.639309,0.010388203,-2.4532971,14.072112,0.047522414
407254422,407133712,4028193,5.63299,0.010366009,-2.5900097,14.058655,0.053017166
407644483,407515738,4028193,5.6305,0.010351248,-1.3740358,14.050603,0.0149299605
408254508,408114199,4028193,5.624318,0.010329206,-2.8728666,14.039893,0.06531676
408654543,408547116,4028193,5.620248,0.010314594,-2.8649979,14.026564,0.06502117
409254551,409138940,4028193,5.613708,0.0102926465,-3.26552,14.005342,0.084599644
409654577,409513707,4028193,5.6093793,0.010278021,-3.055286,13.992142,0.0741271
410254645,410111917,4028193,5.603437,0.0102561945,-2.3307543,13.9711275,0.043203507
410654697,410544421,4028193,5.599654,0.010241723,-3.325778,13.960666,0.088031456
411254693,411143124,4028193,5.593705,0.010220019,-2.52311,13.950228,0.050704736
411654742,411518732,4028193,5.5899777,0.010205558,-2.6761131,13.942422,0.057072673
412244790,412110115,4028193,5.584182,0.010183962,-2.7788801,13.929455,0.061597485
412644823,412542546,4028193,5.5803404,0.010169653,-2.9949417,13.913973,0.07162805
413264845,413140767,4028193,5.5735817,0.010148171,-2.6781592,13.888331,0.0573826
413654874,413523258,4028193,5.569001,0.010133863,-3.1039543,13.873041,0.07716431
414254906,414114711,4028193,5.561854,0.010112438,-2.8911443,13.832636,0.06714166
414654964,414547856,4028193,5.5564137,0.010098233,-3.7441134,13.807642,0.11280698
415254987,415139139,4028193,5.548121,0.01007688,-3.7931318,13.790254,0.11592607
415655003,415521488,4028193,5.5450153,0.010062683,-1.9669919,13.785295,0.03118506
416255030,416126516,4028193,5.536462,0.010041513,-3.7468772,13.782805,0.11317715
416645075,416508504,4028193,5.5317225,0.010027411,-3.0400438,13.780324,0.07451741
417255098,417099704,4028193,5.5250983,0.010006319,-3.256803,13.743538,0.08575154
417645181,417532483,4028193,5.5193524,0.009992315,-4.0448213,13.707209,0.13261943
418245172,418124130,4028193,5.509612,0.009971241,-4.8273287,13.659468,0.18955596
418655198,418506727,4028193,5.5030003,0.009957209,-4.534853,13.647649,0.16742723
419245252,419105626,4028193,5.4930053,0.009936262,-4.2266836,13.645273,0.14547044
419655277,419538717,4028193,5.4867225,0.009922392,-4.2805624,13.647614,0.1491772
420255424,420130525,4028193,5.476845,0.009901584,-4.382446,13.652308,0.15630919
420675366,420562954,4028193,5.4703627,0.009887818,-4.3848143,13.654656,0.15645128
421255421,421154108,4028193,5.4615355,0.00986717,-3.9955559,13.656999,0.1298843
421645454,421536556,4028193,5.4552917,0.009853446,-4.8070292,13.656985,0.18799928
422255487,422134761,4028193,5.4453588,0.009832969,-4.24276,13.664065,0.14637758
422655510,422509514,4028193,5.439322,0.009819333,-4.62639,13.671171,0.17395473
423255582,423149571,4028193,5.430041,0.009799069,-4.449069,13.678287,0.16079186
423645595,423532072,4028193,5.4238505,0.009785565,-4.5147967,13.683042,0.1655203
424245625,424123620,4028193,5.4146757,0.009765406,-4.3514595,13.690188,0.15368022
424645677,424505976,4028193,5.4090395,0.009752009,-4.0113397,13.694963,0.13054958
425255730,425154705,4028193,5.400172,0.009732081,-3.9078493,13.694943,0.12390044
425645765,425537518,4028193,5.394819,0.009718788,-3.6095438,13.697327,0.105688155
426245779,426129698,4028193,5.3867226,0.009698929,-3.6469436,13.697307,0.10788981
426645845,426504553,4028193,5.3816104,0.009685709,-3.4859405,13.699693,0.0985568
427255903,427153755,4028193,5.374161,0.009666076,-3.6346269,13.702074,0.107125
427655998,427536547,4028193,5.3688354,0.009652975,-3.4506745,13.704464,0.09653914
428255940,428135213,4028193,5.3614745,0.009633424,-3.5209103,13.706849,0.1004916
428646006,428509961,4028193,5.3572927,0.009620395,-3.1338658,13.706837,0.07961246
429256019,429101287,4028193,5.3506875,0.0096009625,-3.0183606,13.709224,0.07383918
429646080,429533959,4028193,5.3461037,0.009588111,-3.1118731,13.71162,0.07847159
430246104,430133283,4028193,5.339004,0.009568844,-3.369216,13.709192,0.09200328
430656113,430515406,4028193,5.334375,0.009556018,-3.2849617,13.709179,0.08745944
431246199,431106481,4028193,5.3286743,0.0095368605,-2.7758727,13.71398,0.06242996
431646231,431539133,4028193,5.324688,0.009524192,-2.7762136,13.71638,0.06243437
432236297,432129974,4028193,5.3192554,0.009505177,-2.2896004,13.721193,0.042450715
432656266,432532993,4028193,5.3150983,0.0094926,-3.08209,13.723599,0.07690951
433256358,433127887,4028193,5.3094754,0.009473734,-3.176652,13.726002,0.08168696
433656347,433507018,4028193,5.3061714,0.009461182,-2.6702256,13.730837,0.057697423
434066400,433940377,4028193,5.3027945,0.009448742,-2.3352976,13.733252,0.04412336
434656436,434535381,4028193,5.2991433,0.009430072,-2.5389514,13.7356615,0.05214548
435246476,435129696,4028193,5.2936873,0.009411475,-2.2983036,13.735642,0.042729057
435646517,435508096,4028193,5.29058,0.0093991,-2.3543406,13.740494,0.044822257
436256573,436102804,4028193,5.2863936,0.009380641,-1.940238,13.742911,0.030436082
436656592,436535575,4028193,5.28348,0.009368431,-1.9919653,13.745336,0.03207493
437056620,436914778,4028193,5.2810116,0.009356185,-2.023551,13.747763,0.033094343
437646671,437509751,4028193,5.278071,0.009337913,-1.6900778,13.750185,0.023081409
438246761,438104284,4028193,5.2742004,0.009319714,-2.0172944,13.750167,0.03288426
438476858,438374940,4028193,5.272957,0.009313764,-1.8349266,13.750161,0.027207404
439256833,439132474,4028193,5.2691092,0.009289603,-1.890409,13.750136,0.02887766
439646956,439511116,4028193,5.2665563,0.00927757,-2.1012917,13.750125,0.03567989
440246911,440106506,4028193,5.2632484,0.009259624,-1.5215025,13.75255,0.018703358
440647022,440539250,4028193,5.2608185,0.009247749,-1.7629542,13.754983,0.025106115
441056980,440917835,4028193,5.258033,0.009235834,-2.2404456,13.7549715,0.040547736
441657035,441512672,4028193,5.255966,0.009218055,-1.518333,13.754953,0.018622262
442057042,441946032,4028193,5.2539864,0.009206295,-1.7157183,13.754942,0.023778839
442637271,442487127,4028193,5.2510295,0.009188565,-1.5788631,13.754924,0.0201367
443047164,442920060,4028193,5.249328,0.009176884,-1.2862167,13.7573595,0.013361361
443447229,443298671,4028193,5.247758,0.009165159,-0.99333906,13.757348,0.0079692565
444257222,444125154,4028193,5.244822,0.00914193,-1.2502651,13.764677,0.012618151
444647361,444503758,4028193,5.243394,0.0091303075,-1.2905607,13.769577,0.01343983
445047465,444936276,4028193,5.2419896,0.00911879,-1.3802562,13.772025,0.015370185
445447475,445315494,4028193,5.2405043,0.00910724,-1.1805286,13.7769375,0.011239781
446247489,446140813,4028193,5.237827,0.009084351,-0.83123255,13.784315,0.005569515
446647512,446515797,4028193,5.2366743,0.0090728905,-0.9333949,13.789248,0.007020172
447247550,447106856,4028193,5.235421,0.009055803,-0.8753395,13.794183,0.006171839
447837587,447704967,4028193,5.2342405,0.00903881,-0.74404,13.801609,0.0044567715
448247651,448137549,4028193,5.2331557,0.009027564,-0.9439478,13.804082,0.007172093
448857729,448736090,4028193,5.2319713,0.009010691,-0.50414324,13.806553,0.0020454088
449647869,449545027,4028193,5.230697,0.0089883,-0.4924698,13.799075,0.0019528401
450047808,449915502,4028193,5.2296658,0.008977087,-0.76397276,13.799064,0.0046996297
450467982,450354275,4028193,5.2284803,0.0089660175,-0.7619157,13.796572,0.0046751993
450847866,450730431,4028193,5.2274013,0.008954872,-0.77068377,13.791605,0.004785145
451257969,451150206,4028193,5.226183,0.008943801,-1.0545077,13.789119,0.008960258
451647915,451525148,4028193,5.22518,0.008932707,-1.1476798,13.786635,0.010615505
452057958,451907558,4028193,5.2240076,0.008921662,-0.97184944,13.786624,0.0076119783
452467994,452340265,4028193,5.222921,0.008910709,-0.74094105,13.786613,0.0044245305
452848046,452723088,4028193,5.221689,0.008899725,-0.91556454,13.786602,0.006755822
453448104,453314550,4028193,5.220313,0.008883309,-0.66673946,13.786586,0.0035827218
454058192,453906136,4028193,5.218924,0.008866957,-1.1733108,13.78657,0.011095001
456468435,456343987,4028193,5.217851,0.00880229,-0.18040514,13.786505,0.0002623017
460248699,460140991,4028193,5.2188673,0.008701827,0.8281436,13.786404,0.0055273604
461048764,460898973,4028193,5.219941,0.008680929,0.44710588,13.786383,0.0016111201
461648860,461504361,4028193,5.221479,0.008665387,0.94807386,13.786367,0.007244226
462248859,462102938,4028193,5.2225037,0.008649881,0.5395136,13.788825,0.0023454975
463248959,463127589,4028193,5.223808,0.008624203,0.5282736,13.788799,0.0022487894
464059039,463935360,4028193,5.2250185,0.008603757,0.6207671,13.791253,0.0031046395
464859148,464749726,4028193,5.226151,0.008583433,0.56920433,13.79371,0.0026098334
465459231,465351815,4028193,5.2277493,0.008568253,1.248939,13.7936945,0.01256491
465849207,465719546,4028193,5.2288213,0.0085581,0.6750717,13.793684,0.0036709378
466459269,466318283,4028193,5.230282,0.00854301,0.8790312,13.796148,0.0062231203
467049445,466917454,4028193,5.231489,0.008527979,0.5754576,13.7986145,0.0026665432
467639395,467508432,4028193,5.2328134,0.00851298,0.78163576,13.801083,0.004918732
468049453,467940931,4028193,5.233877,0.008503071,0.71112967,13.803557,0.0040706526
468639530,468533214,4028193,5.235293,0.008488181,0.96758795,13.806029,0.007534763
469049538,468916039,4028193,5.2368383,0.008478279,1.2024426,13.808509,0.011634279
469659656,469515688,4028193,5.2387476,0.008463493,1.6110406,13.801033,0.020895794
470239686,470114191,4028193,5.240102,0.008448753,0.8614316,13.796054,0.0059764627
470649720,470547001,4028193,5.241343,0.008438997,1.308886,13.798525,0.013795217
471039761,470921762,4028193,5.2428603,0.008429182,1.3994908,13.798515,0.015771218
471659810,471513520,4028193,5.2440853,0.008414551,0.6692357,13.79602,0.0036071308
472049908,471946640,4028193,5.2450995,0.00840488,0.61655664,13.793531,0.0030621607
474460102,474329004,4028193,5.2463446,0.00834689,0.40976334,13.756529,0.0013561721
475230215,475100025,4028193,5.2473755,0.008327737,0.3272667,13.76141,0.00086476514
476240288,476126513,4028193,5.2483993,0.008303984,0.23698282,13.758934,0.00045353046
477230433,477107743,4028193,5.2494154,0.008280319,0.2930441,13.75157,0.0006938589
482250961,482128351,4028193,5.248355,0.008163661,-0.10780859,13.64821,9.4621224e-05
483051041,482936179,4028193,5.2473044,0.008145238,-0.46634388,13.631734,0.0017726335
484061130,483917121,4028193,5.246056,0.008122279,-0.49262238,13.613024,0.0019807569
484841212,484725184,4028193,5.2447643,0.008104012,-0.5733714,13.603709,0.0026851727
485441298,485316390,4028193,5.243605,0.008090337,-0.92678356,13.599059,0.0070178695
486251391,486124430,4028193,5.2424417,0.00807221,-0.6254883,13.601357,0.0031960502
487051457,486934331,4028193,5.241301,0.008054193,-0.5815215,13.619947,0.0027587581
487641581,487537988,4028193,5.240205,0.008040742,-0.6022768,13.615271,0.0029602167
488241664,488083910,4028193,5.238841,0.008027257,-0.6425214,13.605953,0.0033713486
488651674,488516446,4028193,5.237723,0.008018363,-0.8879571,13.582825,0.006449876
489251718,489107122,4028193,5.2360954,0.008004956,-1.0625567,13.555331,0.009254472
489651898,489542352,4028193,5.2347827,0.007996093,-1.0586877,13.54169,0.009196453
490051844,489917471,4028193,5.233305,0.007987155,-1.2180681,13.534892,0.01217996
490461832,490349967,4028193,5.2318044,0.007978317,-1.2871618,13.530367,0.013605491
490841929,490724741,4028193,5.2304516,0.007969417,-1.1581349,13.532615,0.011012707
491252059,491106760,4028193,5.228857,0.00796056,-1.5095329,13.541655,0.018696956
491662009,491546748,4028193,5.2275343,0.007951825,-1.1280518,13.557557,0.010428795
492042091,491929165,4028193,5.2262754,0.007943033,-0.98151636,13.573557,0.007886039
492462152,492311143,4028193,5.224953,0.007934271,-1.0584278,13.589656,0.009159495
493242215,493130654,4028193,5.2225227,0.007916924,-0.96738625,13.624482,0.0076319813
493652268,493532185,4028193,5.2211103,0.007908314,-1.2574377,13.638537,0.012881388
494262294,494127642,4028193,5.2195673,0.007895414,-0.9519949,13.671621,0.007365576
494642364,494503083,4028193,5.218456,0.007886816,-1.1831965,13.695493,0.011357784
495052408,494937343,4028193,5.217138,0.007878333,-1.3232207,13.7074995,0.014192662
495452491,495312070,4028193,5.2157974,0.007869788,-1.238853,13.717138,0.012431785
496252552,496127772,4028193,5.212873,0.007852877,-1.3990188,13.721957,0.015848512
496442562,496308169,4028193,5.211736,0.007848654,-1.9865928,13.721953,0.0319565
497247748,497123446,4028193,5.2088857,0.0078318445,-1.258481,13.743797,0.012803953
497652690,497498301,4028193,5.207381,0.007823445,-1.3936629,13.785524,0.015654879
498052737,497931228,4028193,5.205819,0.007815184,-1.3351502,13.84542,0.0143057825
498452792,498320657,4028193,5.204519,0.007806943,-1.242794,13.914181,0.012333836
