timestamp,timestamp_sample,output_tracking_error[0],output_tracking_error[1],output_tracking_error[2],control_mode_flags,filter_fault_flags,pos_horiz_accuracy,pos_vert_accuracy,mag_test_ratio,vel_test_ratio,pos_test_ratio,hgt_test_ratio,tas_test_ratio,hagl_test_ratio,beta_test_ratio,time_slip,accel_device_id,gyro_device_id,baro_device_id,mag_device_id,gps_check_fail_flags,innovation_check_flags,solution_status_flags,reset_count_vel_ne,reset_count_vel_d,reset_count_pos_ne,reset_count_pod_d,reset_count_quat,pre_flt_fail_innov_heading,pre_flt_fail_innov_vel_horiz,pre_flt_fail_innov_vel_vert,pre_flt_fail_innov_height,pre_flt_fail_mag_field_disturbed,health_flags,timeout_flags
217453773,217353250,0.0002884254,0.0035211854,0.00776558,67109399,0,0.3684293,0.3965385,0.067909494,0.02799435,0.010501324,0.01749902,0.0,0.0,0.0,0.0,4259850,4325386,4028193,396809,0,0,895,2,1,2,0,3,0,0,0,0,0,0,0
217463950,217363250,0.00035081728,0.008968111,0.01485638,67109399,0,0.35284665,0.39285123,0.067909494,0.033627886,0.010336212,0.01749902,0.0,0.0,0.0,0.0,4259850,4325386,4028193,396809,0,0,895,2,1,2,0,3,0,0,0,0,0,0,0
217653793,217553266,0.00059973745,0.0048386166,0.0102179665,67109399,0,0.3680102,0.39552623,0.081016235,0.033627886,0.010336212,0.01842687,0.0,0.0,0.0,0.0,4259850,4325386,4028193,396809,0,0,895,2,1,2,0,3,0,0,0,0,0,0,0
217853802,217753282,0.0006914638,0.0039115897,0.00864305,67109399,0,0.36760107,0.39705366,0.0841618,0.017485853,0.009083063,0.003551883,0.0,0.0,0.0,0.0,4259850,4325386,4028193,396809,0,0,895,2,1,2,0,3,0,0,0,0,0,0,0
218053826,217953298,0.0005677386,0.0016399721,0.0054900507,67109399,0,0.3671979,0.39604127,0.07672357,0.0060170363,0.008712696,0.020078216,0.0,0.0,0.0,0.0,4259850,4325386,4028193,396809,0,0,895,2,1,2,0,3,0,0,0,0,0,0,0
218253824,218153315,0.0006306114,0.0022035062,0.006328642,67109399,0,0.36678472,0.39505455,0.08062184,0.016889626,0.009035011,0.017754342,0.0,0.0,0.0,0.0,4259850,4325386,4028193,396809,0,0,895,2,1,2,0,3,0,0,0,0,0,0,0
218453842,218353331,0.0006330967,0.002267977,0.00626783,67109399,0,0.36636442,0.3966157,0.08222027,0.017787348,0.009503127,0.01579399,0.0,0.0,0.0,0.0,4259850,4325386,4028193,396809,0,0,895,2,1,2,0,3,0,0,0,0,0,0,0
218653877,218553348,0.0006517861,0.00081538124,0.0035413848,67109399,0,0.3658618,0.39564288,0.072013825,0.0066721626,0.007791132,0.011745454,0.0,0.0,0.0,0.0,4259850,4325386,4028193,396809,0,0,895,2,1,2,0,3,0,0,0,0,0,0,0
218853776,218753364,0.00049667555,0.0014559008,0.004537217,67109399,0,0.36542922,0.39470148,0.08443513,0.020082409,0.009208925,0.016931007,0.0,0.0,0.0,0.0,4259850,4325386,4028193,396809,0,0,895,2,1,2,0,3,0,0,0,0,0,0,0
219053850,218953381,0.00057503994,0.00240823,0.003700529,67109399,0,0.36498582,0.39629802,0.04317069,0.030956753,0.008838558,0.017724711,0.0,0.0,0.0,0.0,4259850,4325386,4028193,396809,0,0,895,2,1,2,0,3,0,0,0,0,0,0,0
219253824,219153397,0.0007145228,0.0012166608,0.0017128652,1049239,0,0.3645342,0.3953549,0.072913386,0.0106833475,0.009042956,0.019815555,0.0,0.0,0.0,0.0,4259850,4325386,4028193,396809,0,0,895,2,1,2,0,3,0,0,0,0,0,0,0
219453923,219353414,0.0004885965,0.0007891724,0.0033586966,1049239,0,0.3640948,0.39444932,0.06893159,0.011399937,0.008347549,1.1754944e-38,0.0,0.0,0.0,0.0,4259850,4325386,4028193,396809,0,0,895,2,1,2,0,3,0,0,0,0,0,0,0
219653852,219553430,0.0004103309,0.0011298388,0.003960211,1049239,0,0.3636448,0.39606705,0.042234592,0.011464551,0.008734308,0.010980649,0.0,0.0,0.0,0.0,4259850,4325386,4028193,396809,0,0,895,2,1,2,0,3,0,0,0,0,0,0,0
219853903,219753447,0.00041746866,0.0038963903,0.008244288,1049239,0,0.36320552,0.39516458,0.061774753,0.043160386,0.0070297825,0.013427564,0.0,0.0,0.0,0.0,4259850,4325386,4028193,396809,0,0,895,2,1,2,0,3,0,0,0,0,0,0,0
220053906,219953463,0.00046356308,0.0030530908,0.0098216105,1049239,0,0.36268926,0.39426392,0.0571668,0.029205615,0.0073661287,0.02060511,0.0,0.0,0.0,0.0,4259850,4325386,4028193,396809,0,0,895,2,1,2,0,3,0,0,0,0,0,0,0
220253932,220153480,0.0004183666,0.003510618,0.008451278,1049239,0,0.36223835,0.39588737,0.05908643,0.032070708,0.0055116606,0.018763669,0.0,0.0,0.0,0.0,4259850,4325386,4028193,396809,0,0,895,2,1,2,0,3,0,0,0,0,0,0,0
220453905,220353496,0.0002339957,0.0022960068,0.007170713,1049239,0,0.36179993,0.39502034,0.014504352,0.012321794,0.007038254,0.020731688,0.0,0.0,0.0,0.0,4259850,4325386,4028193,396809,0,0,895,2,1,2,0,3,0,0,0,0,0,0,0
220653996,220553513,0.00014227841,0.0017746105,0.0046518007,1049239,0,0.36127946,0.39413536,0.02046817,0.026248386,0.006605134,0.016214877,0.0,0.0,0.0,0.0,4259850,4325386,4028193,396809,0,0,895,2,1,2,0,3,0,0,0,0,0,0,0
220853981,220753530,0.00020269955,0.002120566,0.0033868402,1049239,0,0.36082342,0.3932732,0.022015821,0.013777479,0.00751931,0.0047466215,0.0,0.0,0.0,0.0,4259850,4325386,4028193,396809,0,0,895,2,1,2,0,3,0,0,0,0,0,0,0
221053983,220953546,0.00025200288,0.002131091,0.0042380863,1049239,0,0.3603803,0.39495075,0.03338284,0.018226102,0.006972933,0.015371266,0.0,0.0,0.0,0.0,4259850,4325386,4028193,396809,0,0,895,2,1,2,0,3,0,0,0,0,0,0,0
221254042,221153563,0.00023471334,0.003528545,0.008122744,1049239,0,0.35992813,0.3941414,0.033613916,0.0240846,0.008363541,0.017497085,0.0,0.0,0.0,0.0,4259850,4325386,4028193,396809,0,0,895,2,1,2,0,3,0,0,0,0,0,0,0
221454048,221353580,0.00027784117,0.004105586,0.01047499,1049239,0,0.3594869,0.3933093,0.034699827,0.02000823,0.00874234,0.0049917554,0.0,0.0,0.0,0.0,4259850,4325386,4028193,396809,0,0,895,2,1,2,0,3,0,0,0,0,0,0,0
221654214,221553596,0.00041507746,0.0052830945,0.010710905,1049239,0,0.34248286,0.39061734,0.051191073,0.015819842,0.009133597,0.01590828,0.0,0.0,0.0,0.0,4259850,4325386,4028193,396809,0,0,895,2,1,2,0,3,0,0,0,0,0,0,0
221854019,221753613,0.00035960932,0.0026376725,0.0069464804,1049239,0,0.35868135,0.39415154,0.05243745,0.015819842,0.009133597,0.031199826,0.0,0.0,0.0,0.0,4259850,4325386,4028193,396809,0,0,895,2,1,2,0,3,0,0,0,0,0,0,0
222054038,221953630,0.00044432312,0.0033933108,0.009370603,1049239,0,0.35824203,0.39333293,0.06113451,0.039621517,0.0067006163,0.02532007,0.0,0.0,0.0,0.0,4259850,4325386,4028193,396809,0,0,895,2,1,2,0,3,0,0,0,0,0,0,0
222254135,222153646,0.0006012354,0.0031975657,0.0062151323,1049239,0,0.35750303,0.39498445,0.074805446,0.021508478,0.006987874,0.018854383,0.0,0.0,0.0,0.0,4259850,4325386,4028193,396809,0,0,895,2,1,2,0,3,0,0,0,0,0,0,0
222454040,222353663,0.0005265907,0.0030171548,0.0065148915,1049239,0,0.35707846,0.39417222,0.08075165,0.022933865,0.007357675,0.014389531,0.0,0.0,0.0,0.0,4259850,4325386,4028193,396809,0,0,895,2,1,2,0,3,0,0,0,0,0,0,0
222654166,222553680,0.00075598754,0.0022134932,0.0065687853,1049239,0,0.35650277,0.39333764,0.10748508,0.03322709,0.009625557,0.0026394553,0.0,0.0,0.0,0.0,4259850,4325386,4028193,396809,0,0,895,2,1,2,0,3,0,0,0,0,0,0,0
222854151,222753697,0.00096658047,0.002972252,0.004266189,1049239,0,0.35601935,0.39502108,0.115377665,0.03027499,0.009833872,0.030657178,0.0,0.0,0.0,0.0,4259850,4325386,4028193,396809,0,0,895,2,1,2,0,3,0,0,0,0,0,0,0
223059308,222953714,0.0012447071,0.0031363498,0.014068337,1049239,0,0.35561532,0.39418983,0.14271213,0.010050625,0.008690515,0.056441683,0.0,0.0,0.0,0.0,4259850,4325386,4028193,396809,0,0,895,2,1,2,0,3,0,0,0,0,0,0,0
223254139,223153731,0.0011142853,0.007199332,0.029660393,1049239,0,0.3552262,0.39337936,0.15641153,0.04049053,0.008426621,0.041989513,0.0,0.0,0.0,0.0,4259850,4325386,4028193,396809,0,0,895,2,1,2,0,3,0,0,0,0,0,0,0
223454169,223353748,0.0013931819,0.005748668,0.025092151,1049239,0,0.35483968,0.3950627,0.16743672,0.030373724,0.009903275,0.05110415,0.0,0.0,0.0,0.0,4259850,4325386,4028193,396809,0,0,895,2,1,2,0,3,0,0,0,0,0,0,0
223654248,223553764,0.0015225763,0.0033705488,0.013799555,1049239,0,0.35445163,0.39425635,0.16384076,0.055358317,0.008271656,0.0678759,0.0,0.0,0.0,0.0,4259850,4325386,4028193,396809,0,0,895,2,1,2,0,3,0,0,0,0,0,0,0
223854223,223753781,0.0011453346,0.0051368657,0.007224638,1049239,0,0.3540438,0.393458,0.15901288,0.059157807,0.010895452,1.1754944e-38,0.0,0.0,0.0,0.0,4259850,4325386,4028193,396809,0,0,895,2,1,2,0,3,0,0,0,0,0,0,0
224054209,223953798,0.0014035521,0.004778185,0.011913906,1049239,0,0.3536479,0.3951737,0.1612771,0.05062568,0.011447975,0.004473326,0.0,0.0,0.0,0.0,4259850,4325386,4028193,396809,0,0,895,2,1,2,0,3,0,0,0,0,0,0,0
224254452,224153815,0.0015638052,0.00754749,0.017105848,1049239,0,0.33653533,0.3900153,0.16587742,0.036925305,0.010185729,0.019527832,0.0,0.0,0.0,0.0,4259850,4325386,4028193,396809,0,0,831,2,1,2,0,3,0,0,0,0,0,0,0
224454266,224353832,0.0012413472,0.0032465453,0.014920494,1049239,0,0.35289386,0.3935925,0.17150663,0.036925305,0.010185729,0.0076846047,0.0,0.0,0.0,0.0,4259850,4325386,4028193,396809,0,0,831,2,1,2,0,3,0,0,0,0,0,0,0
224654355,224553849,0.0014485635,0.0053871525,0.009506516,1049239,0,0.35241598,0.3928059,0.17394677,0.07263358,0.011453555,0.011549137,0.0,0.0,0.0,0.0,4259850,4325386,4028193,396809,0,0,831,2,1,2,0,3,0,0,0,0,0,0,0
224854334,224753866,0.0015660101,0.0051265773,0.00856867,1049239,0,0.3520409,0.3945174,0.17774616,0.06513636,0.010537037,0.020109942,0.0,0.0,0.0,0.0,4259850,4325386,4028193,396809,0,0,831,2,1,2,0,3,0,0,0,0,0,0,0
225054287,224953883,0.0012068409,0.0050672023,0.012007735,1049239,0,0.35159877,0.39373237,0.15609941,0.054376494,0.012297502,0.008523387,0.0,0.0,0.0,0.0,4259850,4325386,4028193,396809,0,0,831,2,1,2,0,3,0,0,0,0,0,0,0
225254297,225153900,0.0013557497,0.0007764006,0.0027844193,1049239,0,0.35120955,0.39295313,0.1659477,0.021908648,0.011945071,0.018588,0.0,0.0,0.0,0.0,4259850,4325386,4028193,396809,0,0,831,2,1,2,0,3,0,0,0,0,0,0,0
225454332,225353918,0.00152754,0.0029575175,0.0136695085,1049239,0,0.35082155,0.39467457,0.17358887,0.017500587,0.01135499,0.0042787287,0.0,0.0,0.0,0.0,4259850,4325386,4028193,396809,0,0,831,2,1,2,0,3,0,0,0,0,0,0,0
225654342,225553934,0.0012409291,0.0080511235,0.01702659,1049239,0,0.35044137,0.3939116,0.15510285,0.092562556,0.013045959,0.01090783,0.0,0.0,0.0,0.0,4259850,4325386,4028193,396809,0,0,831,2,1,2,0,3,0,0,0,0,0,0,0
225854355,225753952,0.0012959295,0.0037044901,0.014366293,1049239,0,0.3500624,0.3931459,0.16014165,0.028223723,0.011398948,1.1754944e-38,0.0,0.0,0.0,0.0,4259850,4325386,4028193,396809,0,0,831,2,1,2,0,3,0,0,0,0,0,0,0
226054376,225953969,0.0013951878,0.008071037,0.017882288,1049239,0,0.3496778,0.39487734,0.15241948,0.083074085,0.013093652,0.0039006392,0.0,0.0,0.0,0.0,4259850,4325386,4028193,396809,0,0,831,2,1,2,0,3,0,0,0,0,0,0,0
226254393,226153986,0.0010363292,0.007947917,0.014802132,1049239,0,0.34931898,0.3941103,0.15025814,0.036022246,0.012200313,0.012743212,0.0,0.0,0.0,0.0,4259850,4325386,4028193,396809,0,0,831,2,1,2,0,3,0,0,0,0,0,0,0
226454418,226354003,0.0005440195,0.0069227316,0.013292685,9437847,0,0.34874895,0.39334935,0.004803053,0.0684965,0.013787439,1.1754944e-38,0.0,0.0,0.0,0.0,4259850,4325386,4028193,396809,0,0,831,2,1,2,0,4,0,0,0,0,0,0,0
226654504,226554020,0.0015106844,0.0040101726,0.010369711,9437847,0,0.34803244,0.39257848,0.011955161,0.029037802,0.011435128,1.1754944e-38,0.0,0.0,0.0,0.0,4259850,4325386,4028193,396809,0,0,831,2,1,2,0,4,0,0,0,0,0,0,0
226854595,226754037,0.0011112279,0.012501679,0.026826272,9437847,0,0.33152595,0.3899402,0.0001259592,0.058765944,0.015327902,1.1754944e-38,0.0,0.0,0.0,0.0,4259850,4325386,4028193,396809,0,0,831,2,1,2,0,4,0,0,0,0,0,0,0
227054460,226954055,0.0001161037,0.004191223,0.013776013,9437847,0,0.34658596,0.3935749,0.0006797605,0.058765944,0.015327902,0.009525793,0.0,0.0,0.0,0.0,4259850,4325386,4028193,396809,0,0,831,2,1,2,0,4,0,0,0,0,0,0,0
227254464,227154072,0.0010169087,0.008439202,0.015687453,9437847,0,0.34578738,0.39281297,0.007995849,0.12048393,0.01614389,1.1754944e-38,0.0,0.0,0.0,0.0,4259850,4325386,4028193,396809,0,0,831,2,1,2,0,4,0,0,0,0,0,0,0
227454532,227354089,0.00020900494,0.0066009215,0.01346142,9437847,0,0.34493756,0.39454904,0.002509567,0.062499806,0.0113993455,1.1754944e-38,0.0,0.0,0.0,0.0,4259850,4325386,4028193,396809,0,0,831,2,1,2,0,4,0,0,0,0,0,0,0
227654524,227554106,0.00012733378,0.0061087054,0.012015785,9437847,0,0.3441849,0.39379248,0.006590079,0.03631888,0.0098922765,0.016941411,0.0,0.0,0.0,0.0,4259850,4325386,4028193,396809,0,0,831,2,1,2,0,4,0,0,0,0,0,0,0
227854545,227754124,0.00064144563,0.00079453265,0.004755267,9437847,0,0.3434717,0.39303315,0.00399549,0.054911654,0.010384779,0.002046736,0.0,0.0,0.0,0.0,4259850,4325386,4028193,396809,0,0,831,2,1,2,0,4,0,0,0,0,0,0,0
228054561,227954141,0.0008019882,0.00938661,0.018076668,9437847,0,0.34281576,0.3947666,0.004555999,0.10315921,0.012977362,1.1754944e-38,0.0,0.0,0.0,0.0,4259850,4325386,4028193,396809,0,0,831,2,1,2,0,4,0,0,0,0,0,0,0
228254641,228154158,0.0006983362,0.01026358,0.023070393,9437847,0,0.34224856,0.3939942,0.010421611,0.065723926,0.013531077,1.1754944e-38,0.0,0.0,0.0,0.0,4259850,4325386,4028193,396809,0,0,831,2,1,2,0,4,0,0,0,0,0,0,0
228454627,228354176,0.0008805103,0.009561287,0.017256906,9437847,0,0.34175506,0.39319524,0.0043306793,0.1372377,0.01859556,1.1754944e-38,0.0,0.0,0.0,0.0,4259850,4325386,4028193,396809,0,0,831,2,1,2,0,4,0,0,0,0,0,0,0
228654614,228554193,0.00023874863,0.005137121,0.012342251,9437847,0,0.34114876,0.39487755,0.004475837,0.028887082,0.015723651,0.052861255,0.0,0.0,0.0,0.0,4259850,4325386,4028193,396809,0,0,831,2,1,2,0,4,0,0,0,0,0,0,0
228854624,228754210,0.0003645533,0.0089407405,0.020652741,9437847,0,0.34080592,0.39655748,0.011618417,0.035772216,0.01331722,0.011385242,0.0,0.0,0.0,0.0,4259850,4325386,4028193,396809,0,0,831,2,1,2,0,4,0,0,0,0,0,0,0
229054653,228954230,0.0005460895,0.005212973,0.017725918,9437847,0,0.3405273,0.39564076,0.0037304822,0.039616477,0.015549658,0.011437853,0.0,0.0,0.0,0.0,4259850,4325386,4028193,396809,0,0,831,2,1,2,0,4,0,0,0,0,0,0,0
229254760,229154245,0.0004269759,0.0038953396,0.007925121,9437847,0,0.340306,0.39721388,0.005341484,0.031786263,0.0147057045,1.1754944e-38,0.0,0.0,0.0,0.0,4259850,4325386,4028193,396809,0,0,831,2,1,2,0,4,0,0,0,0,0,0,0
229454835,229354263,0.00034361222,0.0135525465,0.016010428,9437847,0,0.32430297,0.3917708,0.008888604,0.05721281,0.014387284,0.012665273,0.0,0.0,0.0,0.0,4259850,4325386,4028193,396809,0,0,831,2,1,2,0,4,0,0,0,0,0,0,0
229654704,229554280,0.00020635211,0.01030187,0.016833987,9437847,0,0.34005505,0.3977574,0.000981754,0.05721281,0.014387284,1.1754944e-38,0.0,0.0,0.0,0.0,4259850,4325386,4028193,396809,0,0,831,2,1,2,0,4,0,0,0,0,0,0,0
229854807,229754298,0.00038139685,0.012565062,0.021195281,9437847,0,0.33993056,0.3967603,0.004107061,0.056754205,0.015824558,0.010388572,0.0,0.0,0.0,0.0,4259850,4325386,4028193,396809,0,0,831,2,1,2,0,4,0,0,0,0,0,0,0
230054770,229954315,0.00041183934,0.008695098,0.015827576,9437847,0,0.33982146,0.3957331,0.0047744773,0.06984223,0.02016654,1.1754944e-38,0.0,0.0,0.0,0.0,4259850,4325386,4028193,396809,0,0,831,2,1,2,0,4,0,0,0,0,0,0,0
230254759,230154333,0.00019794323,0.0067899167,0.017155444,9437847,0,0.33971453,0.39728224,0.0024568764,0.05566424,0.020419491,0.005070666,0.0,0.0,0.0,0.0,4259850,4325386,4028193,396809,0,0,831,2,1,2,0,4,0,0,0,0,0,0,0
230454848,230354350,0.00030075555,0.010942473,0.02243838,9437847,0,0.33960503,0.39628062,0.003320757,0.080059335,0.019965962,0.0016030419,0.0,0.0,0.0,0.0,4259850,4325386,4028193,396809,0,0,831,2,1,2,0,4,0,0,0,0,0,0,0
230654995,230554368,0.00036081485,0.012962436,0.025422646,9437847,0,0.32284033,0.39093006,0.0026529566,0.06495051,0.01949639,1.1754944e-38,0.0,0.0,0.0,0.0,4259850,4325386,4028193,396809,0,0,831,2,1,2,0,4,0,0,0,0,0,0,0
230854830,230754385,0.00022192455,0.003174764,0.009270899,9437847,0,0.33939335,0.39689395,0.0010461593,0.06495051,0.01949639,1.1754944e-38,0.0,0.0,0.0,0.0,4259850,4325386,4028193,396809,0,0,831,2,1,2,0,4,0,0,0,0,0,0,0
231054878,230954403,0.00018320268,0.0055954005,0.009299733,9437847,0,0.33929515,0.39591834,0.008403717,0.0627349,0.020538913,1.1754944e-38,0.0,0.0,0.0,0.0,4259850,4325386,4028193,396809,0,0,831,2,1,2,0,4,0,0,0,0,0,0,0
231254875,231154420,0.00014624943,0.0049880412,0.0071288315,9437847,0,0.33919436,0.3949542,0.0034578633,0.045217518,0.018288571,1.1754944e-38,0.0,0.0,0.0,0.0,4259850,4325386,4028193,396809,0,0,831,2,1,2,0,4,0,0,0,0,0,0,0
231454885,231354438,0.00026691865,0.012675795,0.019557932,9437847,0,0.3390914,0.39651322,0.009356334,0.09100125,0.016014548,1.1754944e-38,0.0,0.0,0.0,0.0,4259850,4325386,4028193,396809,0,0,831,2,1,2,0,4,0,0,0,0,0,0,0
231654901,231554456,0.00017520321,0.013630756,0.022530923,9437847,0,0.3389073,0.39552847,0.0032033077,0.06659289,0.016512712,1.1754944e-38,0.0,0.0,0.0,0.0,4259850,4325386,4028193,396809,0,0,831,2,1,2,0,4,0,0,0,0,0,0,0
231854910,231754474,0.00018394353,0.0052269,0.012538258,9437847,0,0.33877563,0.39709666,0.00089874235,0.06130112,0.019150892,1.1754944e-38,0.0,0.0,0.0,0.0,4259850,4325386,4028193,396809,0,0,831,2,1,2,0,4,0,0,0,0,0,0,0
232054919,231954491,0.0001486389,0.008230931,0.01616703,9437847,0,0.3386342,0.3960848,0.0036785207,0.05672376,0.019754687,1.1754944e-38,0.0,0.0,0.0,0.0,4259850,4325386,4028193,396809,0,0,831,2,1,2,0,4,0,0,0,0,0,0,0
232254914,232154509,0.00021592897,0.012428849,0.022574922,9437847,0,0.3384659,0.39763632,0.0031650853,0.072958075,0.01790712,1.1754944e-38,0.0,0.0,0.0,0.0,4259850,4325386,4028193,396809,0,0,831,2,1,2,0,4,0,0,0,0,0,0,0
232455000,232354526,9.9871475e-05,0.008863219,0.017676575,9437847,0,0.33818966,0.39663386,0.00088233524,0.041136958,0.019861056,1.1754944e-38,0.0,0.0,0.0,0.0,4259850,4325386,4028193,396809,0,0,831,2,1,2,0,4,0,0,0,0,0,0,0
232654993,232554544,0.00012410768,0.007838699,0.015266734,9437847,0,0.33791593,0.3956541,0.00061812,0.05162038,0.017898925,1.1754944e-38,0.0,0.0,0.0,0.0,4259850,4325386,4028193,396809,0,0,831,2,1,2,0,4,0,0,0,0,0,0,0
232854981,232754562,0.00020542955,0.009006622,0.01723921,9437847,0,0.3376217,0.3972032,0.009210481,0.057753336,0.017699692,1.1754944e-38,0.0,0.0,0.0,0.0,4259850,4325386,4028193,396809,0,0,831,2,1,2,0,4,0,0,0,0,0,0,0
233055007,232954580,0.00016034926,0.00911698,0.017295685,9437847,0,0.33738887,0.39622995,0.003409974,0.054348644,0.0152417375,1.1754944e-38,0.0,0.0,0.0,0.0,4259850,4325386,4028193,396809,0,0,831,2,1,2,0,4,0,0,0,0,0,0,0
233255002,233154598,0.00024567256,0.011461187,0.021404676,9437847,0,0.33715436,0.39527735,0.007752898,0.10684717,0.015703723,1.1754944e-38,0.0,0.0,0.0,0.0,4259850,4325386,4028193,396809,0,0,831,2,1,2,0,4,0,0,0,0,0,0,0
233455052,233354618,0.00022148342,0.007954903,0.020305434,8389271,0,0.3369178,0.39433768,0.0010257884,0.07621863,0.01619062,0.030148633,0.0,0.0,0.0,0.0,4259850,4325386,4028193,396809,0,0,831,2,1,2,0,4,0,0,0,0,0,0,0
233655062,233554633,8.217189e-05,0.005449051,0.028507458,8389271,0,0.33670434,0.3959343,0.0030847823,0.038135983,0.017073208,0.019487532,0.0,0.0,0.0,0.0,4259850,4325386,4028193,396809,0,0,831,2,1,2,0,4,0,0,0,0,0,0,0
233855060,233754651,0.0002163846,0.010560076,0.04564544,8389271,0,0.33648974,0.3950224,0.002877347,0.074580185,0.015481838,0.039011795,0.0,0.0,0.0,0.0,4259850,4325386,4028193,396809,0,0,831,2,1,2,0,4,0,0,0,0,0,0,0
234055145,233954669,0.00019059012,0.0074658124,0.036960512,8389271,0,0.3362963,0.39411885,0.0024963876,0.07109284,0.015601814,0.021730727,0.0,0.0,0.0,0.0,4259850,4325386,4028193,396809,0,0,831,2,1,2,0,4,0,0,0,0,0,0,0
234255090,234154689,0.00015851438,0.008576045,0.037320986,8389271,0,0.33610368,0.395722,0.010487992,0.027825216,0.017527254,0.02812836,0.0,0.0,0.0,0.0,4259850,4325386,4028193,396809,0,0,831,2,1,2,0,4,0,0,0,0,0,0,0
234455111,234354705,9.369209e-05,0.007975699,0.032417107,8389271,0,0.3359037,0.39479423,0.0063566207,0.03596924,0.0144809615,0.029581591,0.0,0.0,0.0,0.0,4259850,4325386,4028193,396809,0,0,831,2,1,2,0,4,0,0,0,0,0,0,0
234655295,234554723,0.00040948173,0.016332312,0.04830849,8389271,0,0.3188352,0.3919921,0.0015691501,0.03297392,0.016271617,0.052754954,0.0,0.0,0.0,0.0,4259850,4325386,4028193,396809,0,0,831,2,1,2,0,4,0,0,0,0,0,0,0
234855189,234754741,0.00010599078,0.008236713,0.029121267,8389271,0,0.33543408,0.395486,0.00317199,0.03297392,0.016271617,0.025337832,0.0,0.0,0.0,0.0,4259850,4325386,4028193,396809,0,0,831,2,1,2,0,4,0,0,0,0,0,0,0
235055342,234954758,0.00022783423,0.017931813,0.048120346,8389271,0,0.3185049,0.39024463,0.0073632253,0.054688293,0.017585492,0.07456212,0.0,0.0,0.0,0.0,4259850,4325386,4028193,396809,0,0,831,2,1,2,0,4,0,0,0,0,0,0,0
235255220,235154776,0.00071986305,0.010211601,0.022149129,8389271,0,0.33513165,0.39370963,0.058587275,0.054688293,0.017585492,0.023999892,0.0,0.0,0.0,0.0,4259850,4325386,4028193,396809,0,0,831,2,1,2,0,4,0,0,0,0,0,0,0
235455251,235354794,0.0014246331,0.008234217,0.019185899,8389271,0,0.33495724,0.39534795,0.068636134,0.09266174,0.015752565,0.015461651,0.0,0.0,0.0,0.0,4259850,4325386,4028193,396809,0,0,831,2,1,2,0,4,0,0,0,0,0,0,0
235655215,235554816,0.0011563076,0.007870824,0.022050828,8389271,0,0.33481753,0.39446858,0.08622653,0.059047315,0.01469482,0.015897797,0.0,0.0,0.0,0.0,4259850,4325386,4028193,396809,0,0,831,2,1,2,0,4,0,0,0,0,0,0,0
235855241,235754830,0.0014381409,0.0135575915,0.031496055,8389271,0,0.3347011,0.3960921,0.055513963,0.14979662,0.014559426,0.05401118,0.0,0.0,0.0,0.0,4259850,4325386,4028193,396809,0,0,831,2,1,2,0,4,0,0,0,0,0,0,0
236055306,235954848,0.0007370066,0.008986206,0.025191586,8389271,0,0.33457422,0.3952103,0.040260576,0.080393545,0.012384534,0.0049955673,0.0,0.0,0.0,0.0,4259850,4325386,4028193,396809,0,0,831,2,1,2,0,4,0,0,0,0,0,0,0
236255378,236154866,0.0002935359,0.0065391883,0.014447151,8389271,0,0.33442396,0.39431816,0.019261522,0.02060371,0.012380799,0.052014664,0.0,0.0,0.0,0.0,4259850,4325386,4028193,396809,0,0,831,2,1,2,0,4,0,0,0,0,0,0,0
236455371,236354884,0.000102460515,0.0060682134,0.019800171,8389271,0,0.3342442,0.39595017,0.010632901,0.015958413,0.0098846285,0.006632914,0.0,0.0,0.0,0.0,4259850,4325386,4028193,396809,0,0,831,2,1,2,0,4,0,0,0,0,0,0,0
236655368,236554902,0.00023657139,0.008713427,0.017156048,8389271,0,0.33396795,0.39506423,0.027724402,0.042235993,0.011536857,0.0067628245,0.0,0.0,0.0,0.0,4259850,4325386,4028193,396809,0,0,831,2,1,2,0,4,0,0,0,0,0,0,0
236855336,236754921,0.00034715072,0.010343024,0.021109657,8389271,0,0.33377776,0.39419216,0.024200164,0.05098642,0.0130065065,0.008205805,0.0,0.0,0.0,0.0,4259850,4325386,4028193,396809,0,0,831,2,1,2,0,4,0,0,0,0,0,0,0
237055537,236954939,0.00035438422,0.0141304685,0.038472988,8389271,0,0.31662536,0.3890309,0.021446759,0.045899726,0.011229303,0.0016141247,0.0,0.0,0.0,0.0,4259850,4325386,4028193,396809,0,0,831,2,1,2,0,4,0,0,0,0,0,0,0
237255452,237154957,0.0003846701,0.014556543,0.047412887,8389271,0,0.31656116,0.3906512,0.018910805,0.036677253,0.012286915,0.056385696,0.0,0.0,0.0,0.0,4259850,4325386,4028193,396809,0,0,831,2,1,2,0,4,0,0,0,0,0,0,0
237455536,237354975,0.00037207457,0.01514409,0.054328416,8389271,0,0.316421,0.38983494,0.03149489,0.03386196,0.008930287,0.030202651,0.0,0.0,0.0,0.0,4259850,4325386,4028193,396809,0,0,831,2,1,2,0,4,0,0,0,0,0,0,0
237655451,237554993,0.0004965529,0.0094099,0.038953893,8389271,0,0.33327836,0.3933542,0.040025428,0.03386196,0.008930287,0.036217153,0.0,0.0,0.0,0.0,4259850,4325386,4028193,396809,0,0,831,2,1,2,0,4,0,0,0,0,0,0,0
237855462,237755011,0.0006548239,0.008870385,0.0346379,8389271,0,0.333046,0.39503068,0.047193866,0.04263075,0.009530828,0.02359682,0.0,0.0,0.0,0.0,4259850,4325386,4028193,396809,0,0,831,2,1,2,0,4,0,0,0,0,0,0,0
238055451,237955030,0.00051834906,0.011378706,0.046063405,8389271,0,0.33281082,0.39417627,0.04722942,0.053790472,0.011496395,0.034095332,0.0,0.0,0.0,0.0,4259850,4325386,4028193,396809,0,0,831,2,1,2,0,4,0,0,0,0,0,0,0
238255506,238155048,0.00075998454,0.008396841,0.03407737,8389271,0,0.3325744,0.3958159,0.059815995,0.048052266,0.00882723,0.036583968,0.0,0.0,0.0,0.0,4259850,4325386,4028193,396809,0,0,831,2,1,2,0,4,0,0,0,0,0,0,0
238455480,238355066,0.000885349,0.0025787104,0.0032231817,8389271,0,0.33233935,0.3949634,0.05114177,0.0325061,0.010815096,0.096870475,0.0,0.0,0.0,0.0,4259850,4325386,4028193,396809,0,0,831,2,1,2,0,4,0,0,0,0,0,0,0
238655501,238555084,0.0006407248,0.003961778,0.0046970723,8389271,0,0.33213374,0.39411506,0.057413146,0.037388425,0.010317006,0.08004836,0.0,0.0,0.0,0.0,4259850,4325386,4028193,396809,0,0,831,2,1,2,0,4,0,0,0,0,0,0,0
238855539,238755103,0.0007575008,0.0044587483,0.0049336604,8389271,0,0.33192417,0.3932785,0.0622136,0.07353978,0.010604419,0.035082735,0.0,0.0,0.0,0.0,4259850,4325386,4028193,396809,0,0,831,2,1,2,0,4,0,0,0,0,0,0,0
239055535,238955121,0.0008164818,0.0073398077,0.026769688,8389271,0,0.3317404,0.39495155,0.056844663,0.073585495,0.009699137,0.039031435,0.0,0.0,0.0,0.0,4259850,4325386,4028193,396809,0,0,831,2,1,2,0,4,0,0,0,0,0,0,0
239255544,239155139,0.00065607805,0.0062829345,0.020339105,8389271,0,0.33155316,0.39412174,0.06627029,0.073073745,0.012139298,0.03932225,0.0,0.0,0.0,0.0,4259850,4325386,4028193,396809,0,0,831,2,1,2,0,4,0,0,0,0,0,0,0
239455593,239355158,0.0008182716,0.0053082258,0.008091692,8389271,0,0.3313678,0.393295,0.07106708,0.097214565,0.012170909,0.042107392,0.0,0.0,0.0,0.0,4259850,4325386,4028193,396809,0,0,831,2,1,2,0,4,0,0,0,0,0,0,0
239655582,239555176,0.00085466955,0.008614795,0.018089376,8389271,0,0.3312054,0.39498693,0.07009356,0.102696076,0.01182143,0.034625717,0.0,0.0,0.0,0.0,4259850,4325386,4028193,396809,0,0,831,2,1,2,0,4,0,0,0,0,0,0,0
239855631,239755195,0.00063296815,0.007982858,0.03349526,8389271,0,0.33104274,0.3941638,0.06400739,0.05098875,0.00964817,0.05763967,0.0,0.0,0.0,0.0,4259850,4325386,4028193,396809,0,0,831,2,1,2,0,4,0,0,0,0,0,0,0
240055650,239955213,0.00066638034,0.0051078675,0.021077456,8389271,0,0.3309032,0.39334345,0.0622351,0.07786864,0.011006341,0.0550104,0.0,0.0,0.0,0.0,4259850,4325386,4028193,396809,0,0,831,2,1,2,0,4,0,0,0,0,0,0,0
240255637,240155231,0.00070148834,0.0057619023,0.026861906,8389271,0,0.33075294,0.39503437,0.053036142,0.031231862,0.010526054,0.04267529,0.0,0.0,0.0,0.0,4259850,4325386,4028193,396809,0,0,831,2,1,2,0,4,0,0,0,0,0,0,0
240455657,240355249,0.0005041728,0.004235499,0.011398834,8389271,0,0.3306227,0.3942182,0.052353363,0.03294855,0.011343512,0.030807925,0.0,0.0,0.0,0.0,4259850,4325386,4028193,396809,0,0,831,2,1,2,0,4,0,0,0,0,0,0,0
240655751,240555268,0.0006692845,0.0053091813,0.011159947,8389271,0,0.3303262,0.39339566,0.06410747,0.050207622,0.0098888045,0.059921525,0.0,0.0,0.0,0.0,4259850,4325386,4028193,396809,0,0,831,2,1,2,0,4,0,0,0,0,0,0,0
240855697,240755286,0.00078926916,0.0020186834,0.003948794,8389271,0,0.33002883,0.3950744,0.065374896,0.02907853,0.012114686,0.045045473,0.0,0.0,0.0,0.0,4259850,4325386,4028193,396809,0,0,831,2,1,2,0,4,0,0,0,0,0,0,0
241055717,240955305,0.00057293964,0.00770205,0.030918807,8389271,0,0.32992426,0.3942889,0.06436081,0.031675253,0.009689584,0.033740453,0.0,0.0,0.0,0.0,4259850,4325386,4028193,396809,0,0,831,2,1,2,0,4,0,0,0,0,0,0,0
241255739,241155323,0.00063283293,0.005177983,0.015290861,8389271,0,0.32981455,0.39349276,0.06194304,0.020584773,0.01185277,0.050214518,0.0,0.0,0.0,0.0,4259850,4325386,4028193,396809,0,0,831,2,1,2,0,4,0,0,0,0,0,0,0
241455759,241355341,0.0006660978,0.0036591997,0.016068358,8389271,0,0.3297017,0.39519224,0.059269555,0.05810446,0.011185713,0.0011790772,0.0,0.0,0.0,0.0,4259850,4325386,4028193,396809,0,0,831,2,1,2,0,4,0,0,0,0,0,0,0
241655830,241555360,0.0006946899,0.008873379,0.01914728,8389271,0,0.32949573,0.39439934,0.05005757,0.09090408,0.012801363,0.027565096,0.0,0.0,0.0,0.0,4259850,4325386,4028193,396809,0,0,831,2,1,2,0,4,0,0,0,0,0,0,0
241855819,241755378,0.0005178166,0.009562157,0.016530855,8389271,0,0.32939363,0.39359632,0.053323675,0.06927022,0.015816607,0.0383756,0.0,0.0,0.0,0.0,4259850,4325386,4028193,396809,0,0,831,2,1,2,0,4,0,0,0,0,0,0,0
242055822,241955397,0.00054648786,0.0052644988,0.01129065,8389271,0,0.3292879,0.3952659,0.05119555,0.04192065,0.014437137,0.09839291,0.0,0.0,0.0,0.0,4259850,4325386,4028193,396809,0,0,831,2,1,2,0,4,0,0,0,0,0,0,0
242255945,242155415,0.0005391549,0.004530116,0.019499047,8389271,0,0.32917088,0.3944155,0.04376389,0.04265258,0.015665792,0.075911686,0.0,0.0,0.0,0.0,4259850,4325386,4028193,396809,0,0,831,2,1,2,0,4,0,0,0,0,0,0,0
242455854,242355434,0.00040118714,0.004937938,0.018862555,8389271,0,0.32896194,0.39357835,0.04177226,0.020439949,0.01712598,0.031049285,0.0,0.0,0.0,0.0,4259850,4325386,4028193,396809,0,0,831,2,1,2,0,4,0,0,0,0,0,0,0
242655877,242555453,0.00048791908,0.006773529,0.021878844,8389271,0,0.3288595,0.39525566,0.04370563,0.04889302,0.018962955,0.048284687,0.0,0.0,0.0,0.0,4259850,4325386,4028193,396809,0,0,831,2,1,2,0,4,0,0,0,0,0,0,0
242855955,242755471,0.0004630971,0.009861035,0.039850354,8389271,0,0.32867056,0.39444032,0.03746549,0.058639687,0.021109834,0.09547955,0.0,0.0,0.0,0.0,4259850,4325386,4028193,396809,0,0,831,2,1,2,0,4,0,0,0,0,0,0,0
243055928,242955490,0.00036365757,0.006398098,0.025341095,8389271,0,0.3285589,0.39364955,0.03690144,0.04166806,0.02251456,0.012525914,0.0,0.0,0.0,0.0,4259850,4325386,4028193,396809,0,0,831,2,1,2,0,4,0,0,0,0,0,0,0
243256019,243155508,0.00042744196,0.0020581188,0.009650651,8389271,0,0.3284408,0.3928754,0.04393724,0.054188658,0.022861678,0.030686274,0.0,0.0,0.0,0.0,4259850,4325386,4028193,396809,0,0,831,2,1,2,0,4,0,0,0,0,0,0,0
243455986,243355527,0.00042791408,0.0039979545,0.0057386807,8389271,0,0.32833454,0.394593,0.03737131,0.04171026,0.020086868,0.01691779,0.0,0.0,0.0,0.0,4259850,4325386,4028193,396809,0,0,831,2,1,2,0,4,0,0,0,0,0,0,0
243655938,243555546,0.00038021524,0.009347021,0.016499069,8389271,0,0.32822168,0.3938195,0.040807497,0.07211899,0.018420331,0.012800721,0.0,0.0,0.0,0.0,4259850,4325386,4028193,396809,0,0,831,2,1,2,0,4,0,0,0,0,0,0,0
243855994,243755564,0.00043630428,0.011861941,0.03282806,8389271,0,0.32812333,0.39304435,0.046980474,0.040106453,0.018544802,0.045316644,0.0,0.0,0.0,0.0,4259850,4325386,4028193,396809,0,0,831,2,1,2,0,4,0,0,0,0,0,0,0
244056022,243955583,0.0005087525,0.012027233,0.028493,8389271,0,0.32801247,0.3947626,0.05138461,0.052082367,0.016579593,0.058533322,0.0,0.0,0.0,0.0,4259850,4325386,4028193,396809,0,0,831,2,1,2,0,4,0,0,0,0,0,0,0
244256007,244155602,0.00048886973,0.009587524,0.032270405,8389271,0,0.32789564,0.3939951,0.057107642,0.032317434,0.015664382,0.053907853,0.0,0.0,0.0,0.0,4259850,4325386,4028193,396809,0,0,831,2,1,2,0,4,0,0,0,0,0,0,0
244456031,244355620,0.00058688567,0.0071573104,0.018602928,8389271,0,0.32779208,0.39322576,0.061710663,0.030535739,0.015178607,0.021469312,0.0,0.0,0.0,0.0,4259850,4325386,4028193,396809,0,0,831,2,1,2,0,4,0,0,0,0,0,0,0
244656080,244555639,0.0006007831,0.0072940253,0.015036688,8389271,0,0.3275974,0.39245355,0.053442538,0.061982084,0.014561441,0.004738246,0.0,0.0,0.0,0.0,4259850,4325386,4028193,396809,0,0,831,2,1,2,0,4,0,0,0,0,0,0,0
244856094,244755657,0.0004745104,0.0059750974,0.025476111,8389271,0,0.32748052,0.3941809,0.060557224,0.044584718,0.01345783,0.08477179,0.0,0.0,0.0,0.0,4259850,4325386,4028193,396809,0,0,831,2,1,2,0,4,0,0,0,0,0,0,0
245056104,244955676,0.00048765403,0.0075529483,0.01767174,8389271,0,0.3105107,0.38907558,0.04817326,0.029609304,0.010937491,0.0897767,0.0,0.0,0.0,0.0,4259850,4325386,4028193,396809,0,0,831,2,1,2,0,4,0,0,0,0,0,0,0
245256096,245155694,0.00052978634,0.008245728,0.040677167,8389271,0,0.32743043,0.39268082,0.0531374,0.029609304,0.010937491,0.15063973,0.0,0.0,0.0,0.0,4259850,4325386,4028193,396809,0,0,831,2,1,2,0,4,0,0,0,0,0,0,0
245456291,245355713,0.0005738601,0.017718295,0.027557757,8389271,0,0.31036875,0.39004102,0.057869926,0.0725832,0.009315276,0.0050559184,0.0,0.0,0.0,0.0,4259850,4325386,4028193,396809,0,0,831,2,1,2,0,4,0,0,0,0,0,0,0
245656316,245555732,0.0005348186,0.015041687,0.02935934,8389271,0,0.3103434,0.38933146,0.055074587,0.051998653,0.010486219,0.031940177,0.0,0.0,0.0,0.0,4259850,4325386,4028193,396809,0,0,831,2,1,2,0,4,0,0,0,0,0,0,0
245856310,245755751,0.00056950597,0.00860499,0.026562277,8389271,0,0.3103214,0.38861144,0.057531413,0.033926748,0.0124083,0.044004023,0.0,0.0,0.0,0.0,4259850,4325386,4028193,396809,0,0,831,2,1,2,0,4,0,0,0,0,0,0,0
246056178,245955769,0.00042577917,0.008200189,0.032758266,8389271,0,0.32728052,0.39470738,0.05541494,0.033926748,0.0124083,0.14161047,0.0,0.0,0.0,0.0,4259850,4325386,4028193,396809,0,0,831,2,1,2,0,4,0,0,0,0,0,0,0
246256353,246155788,0.00043330685,0.005778242,0.011557519,8389271,0,0.31021044,0.38958538,0.055478033,0.022013832,0.0090518305,0.054373957,0.0,0.0,0.0,0.0,4259850,4325386,4028193,396809,0,0,831,2,1,2,0,4,0,0,0,0,0,0,0
246456212,246355807,0.0005011405,0.0071864873,0.027744988,8389271,0,0.32717735,0.3932251,0.0510836,0.022013832,0.0090518305,0.029714914,0.0,0.0,0.0,0.0,4259850,4325386,4028193,396809,0,0,831,2,1,2,0,4,0,0,0,0,0,0,0
246656416,246555825,0.00032369714,0.0072134384,0.011403682,8389271,0,0.30998504,0.3881357,0.0460006,0.018569613,0.009411332,0.019106569,0.0,0.0,0.0,0.0,4259850,4325386,4028193,396809,0,0,831,2,1,2,0,4,0,0,0,0,0,0,0
246856402,246755844,0.00021134924,0.010505582,0.020031143,8389271,0,0.3099682,0.38983572,0.00025590396,0.037817497,0.008904528,0.017973233,0.0,0.0,0.0,0.0,4259850,4325386,4028193,396809,0,0,831,2,1,2,0,4,0,0,0,0,0,0,0
247056436,246955863,0.00033118154,0.014641433,0.030611148,8389271,0,0.30994743,0.3891219,0.040749125,0.05080268,0.01021604,0.046823423,0.0,0.0,0.0,0.0,4259850,4325386,4028193,396809,0,0,831,2,1,2,0,4,0,0,0,0,0,0,0
247256341,247155882,0.00033214752,0.0076326095,0.020635484,8389271,0,0.32686082,0.39274406,0.042258937,0.05080268,0.01021604,0.03489073,0.0,0.0,0.0,0.0,4259850,4325386,4028193,396809,0,0,831,2,1,2,0,4,0,0,0,0,0,0,0
247456523,247355900,0.00048425133,0.022043174,0.04281866,8389271,0,0.3098384,0.3900925,0.012707266,0.06230029,0.012194133,0.020088412,0.0,0.0,0.0,0.0,4259850,4325386,4028193,396809,0,0,831,2,1,2,0,4,0,0,0,0,0,0,0
247656333,247555919,0.00038553885,0.016078409,0.03322492,8389271,0,0.30988562,0.38938498,0.028989019,0.07581181,0.011970672,0.026221093,0.0,0.0,0.0,0.0,4259850,4325386,4028193,396809,0,0,831,2,1,2,0,4,0,0,0,0,0,0,0
247856396,247755938,0.00026116334,0.0059316806,0.011609195,8389271,0,0.32675064,0.3930185,0.025668798,0.07581181,0.011970672,0.038256645,0.0,0.0,0.0,0.0,4259850,4325386,4028193,396809,0,0,831,2,1,2,0,4,0,0,0,0,0,0,0
248056372,247955961,0.0002605927,0.0049799606,0.00962842,8389271,0,0.32659394,0.39476043,0.027163291,0.049249563,0.011826754,0.020222427,0.0,0.0,0.0,0.0,4259850,4325386,4028193,396809,0,0,831,2,1,2,0,4,0,0,0,0,0,0,0
248256415,248155976,0.00042147518,0.007931065,0.013539498,8389271,0,0.32644427,0.3939955,0.036863316,0.0638314,0.01387205,0.012422889,0.0,0.0,0.0,0.0,4259850,4325386,4028193,396809,0,0,831,2,1,2,0,4,0,0,0,0,0,0,0
248456456,248355994,0.00035122337,0.005764809,0.010457264,8389271,0,0.3263049,0.393228,0.032600813,0.05154495,0.011491253,0.03919841,0.0,0.0,0.0,0.0,4259850,4325386,4028193,396809,0,0,831,2,1,2,0,4,0,0,0,0,0,0,0
248656432,248556013,0.0002985772,0.0031125946,0.0069802515,8389271,0,0.32616886,0.39496544,0.034869846,0.07256577,0.011658902,0.034282528,0.0,0.0,0.0,0.0,4259850,4325386,4028193,396809,0,0,831,2,1,2,0,4,0,0,0,0,0,0,0
248856447,248756032,0.0004138383,0.0038602308,0.0063612266,8389271,0,0.32602105,0.394203,0.04441062,0.044904437,0.012021515,0.033858173,0.0,0.0,0.0,0.0,4259850,4325386,4028193,396809,0,0,831,2,1,2,0,4,0,0,0,0,0,0,0
249056568,248956051,0.00042618185,0.0073092235,0.019363604,8389271,0,0.32588577,0.39341873,0.022716718,0.06916339,0.012726305,0.07164676,0.0,0.0,0.0,0.0,4259850,4325386,4028193,396809,0,0,831,2,1,2,0,4,0,0,0,0,0,0,0
249256482,249156069,0.00029813763,0.00842254,0.019627733,8389271,0,0.32574493,0.39512724,0.03177395,0.0559149,0.013408608,0.030556794,0.0,0.0,0.0,0.0,4259850,4325386,4028193,396809,0,0,831,2,1,2,0,4,0,0,0,0,0,0,0
249456503,249356088,0.0002644219,0.004771945,0.008830402,8389271,0,0.32559592,0.39432588,0.02202548,0.03715021,0.011009006,0.0018614861,0.0,0.0,0.0,0.0,4259850,4325386,4028193,396809,0,0,831,2,1,2,0,4,0,0,0,0,0,0,0
249656766,249556107,0.0003201856,0.014586946,0.024648499,8389271,0,0.308768,0.38914683,0.028620092,0.102877945,0.006069401,0.036285553,0.0,0.0,0.0,0.0,4259850,4325386,4028193,396809,0,0,831,2,1,2,0,4,0,0,0,0,0,0,0
249856535,249756126,0.00021223526,0.0063247597,0.01303941,8389271,0,0.3254107,0.3951895,0.028515626,0.102877945,0.006069401,0.026908241,0.0,0.0,0.0,0.0,4259850,4325386,4028193,396809,0,0,831,2,1,2,0,4,0,0,0,0,0,0,0
250056577,249956145,0.00024394161,0.0049308524,0.010133357,8389271,0,0.32528728,0.39435405,0.026343398,0.08530162,0.00843076,0.047493357,0.0,0.0,0.0,0.0,4259850,4325386,4028193,396809,0,0,831,2,1,2,0,4,0,0,0,0,0,0,0
250256836,250156164,0.00064963504,0.022801684,0.03605265,8389271,0,0.30853158,0.3891669,0.020156689,0.09619847,0.007219529,0.027560934,0.0,0.0,0.0,0.0,4259850,4325386,4028193,396809,0,0,831,2,1,2,0,4,0,0,0,0,0,0,0
250456593,250356182,0.0002843092,0.010621313,0.019523494,8389271,0,0.32521236,0.39521906,0.01181908,0.09619847,0.007219529,0.018889664,0.0,0.0,0.0,0.0,4259850,4325386,4028193,396809,0,0,831,2,1,2,0,4,0,0,0,0,0,0,0
250656609,250556201,0.00013000025,0.008546479,0.018575171,8389271,0,0.32515433,0.3943892,0.00872971,0.07262248,0.00703681,0.06488531,0.0,0.0,0.0,0.0,4259850,4325386,4028193,396809,0,0,831,2,1,2,0,4,0,0,0,0,0,0,0
250856693,250756220,0.00025061527,0.010820776,0.030342605,8389271,0,0.32513273,0.39356723,0.003723654,0.07628493,0.010427754,0.045166604,0.0,0.0,0.0,0.0,4259850,4325386,4028193,396809,0,0,831,2,1,2,0,4,0,0,0,0,0,0,0
251056676,250956239,2.3181305e-05,0.006860657,0.02478128,8389271,0,0.32511958,0.39526036,0.0007399134,0.049520846,0.007775577,0.054881036,0.0,0.0,0.0,0.0,4259850,4325386,4028193,396809,0,0,831,2,1,2,0,4,0,0,0,0,0,0,0
251256649,251156258,0.00035199441,0.010416349,0.025681136,8389271,0,0.32512575,0.3944506,0.02610304,0.11544208,0.0057985466,0.024177019,0.0,0.0,0.0,0.0,4259850,4325386,4028193,396809,0,0,831,2,1,2,0,4,0,0,0,0,0,0,0
251456710,251356277,0.00047587545,0.006417131,0.017704356,8389271,0,0.325124,0.39360693,0.04969752,0.006763614,0.0075445105,0.022504568,0.0,0.0,0.0,0.0,4259850,4325386,4028193,396809,0,0,831,2,1,2,0,4,0,0,0,0,0,0,0
251656702,251556296,0.00046239913,0.0051729376,0.0043571754,8389271,0,0.32511953,0.39528483,0.06449896,0.048352174,0.010173815,0.003817975,0.0,0.0,0.0,0.0,4259850,4325386,4028193,396809,0,0,831,2,1,2,0,4,0,0,0,0,0,0,0
251856747,251756315,0.0006306605,0.009725136,0.015320953,8389271,0,0.32513595,0.39444223,0.069646455,0.09133957,0.010701243,0.06413412,0.0,0.0,0.0,0.0,4259850,4325386,4028193,396809,0,0,831,2,1,2,0,4,0,0,0,0,0,0,0
252056944,251956334,0.0012718871,0.023965584,0.039256122,8389271,0,0.3084137,0.38925278,0.03150412,0.06009946,0.009771006,0.038397904,0.0,0.0,0.0,0.0,4259850,4325386,4028193,396809,0,0,831,2,1,2,0,4,0,0,0,0,0,0,0
252256915,252156353,0.0009336379,0.026327772,0.038739797,8389271,0,0.30852184,0.3908817,0.0034480132,0.08523458,0.010468094,0.015942572,0.0,0.0,0.0,0.0,4259850,4325386,4028193,396809,0,0,831,2,1,2,0,4,0,0,0,0,0,0,0
252456829,252356372,0.0002446468,0.0104613695,0.019071402,8389271,0,0.32548177,0.39445382,0.011504735,0.08523458,0.010468094,0.04383888,0.0,0.0,0.0,0.0,4259850,4325386,4028193,396809,0,0,831,2,1,2,0,4,0,0,0,0,0,0,0
252656857,252556391,0.00048067037,0.014722674,0.023750938,8389271,0,0.3253065,0.39359665,0.05944837,0.15268725,0.02002593,0.018713426,0.0,0.0,0.0,0.0,4259850,4325386,4028193,396809,0,0,831,2,1,2,0,4,0,0,0,0,0,0,0
252856976,252756410,0.0009189005,0.033904817,0.05291145,8389271,0,0.3085713,0.3908817,0.047771763,0.10008128,0.0069834907,0.0030251935,0.0,0.0,0.0,0.0,4259850,4325386,4028193,396809,0,0,831,2,1,2,0,4,0,0,0,0,0,0,0
253056834,252956428,0.00036639645,0.014642179,0.028952869,8389271,0,0.32549134,0.39445776,0.048486818,0.10008128,0.0069834907,0.032368053,0.0,0.0,0.0,0.0,4259850,4325386,4028193,396809,0,0,831,2,1,2,0,4,0,0,0,0,0,0,0
253256916,253156448,0.00071620994,0.012335259,0.024146134,8389271,0,0.32560772,0.39363718,0.10754487,0.06441536,0.008549529,0.10997351,0.0,0.0,0.0,0.0,4259850,4325386,4028193,396809,0,0,831,2,1,2,0,4,0,0,0,0,0,0,0
253456990,253356467,0.0009846501,0.012706044,0.020601252,8389271,0,0.32566974,0.39528504,0.10941972,0.12216548,0.008418231,0.05092417,0.0,0.0,0.0,0.0,4259850,4325386,4028193,396809,0,0,831,2,1,2,0,4,0,0,0,0,0,0,0
253656954,253556485,0.00081400113,0.024889365,0.044196952,8389351,0,0.3257303,0.39436874,0.081127994,0.217467,0.0030811166,0.025966054,0.0,0.0,0.0,0.0,4259850,4325386,4028193,396809,0,0,831,2,1,2,0,4,0,0,0,0,0,0,0
253856919,253756504,0.0008949887,0.031896427,0.05507321,8389351,0,0.3258159,0.39597338,0.07534428,0.25428137,0.0070812297,0.029171854,0.0,0.0,0.0,0.0,4259850,4325386,4028193,396809,0,0,831,2,1,2,0,4,0,0,0,0,0,0,0
254057073,253956523,0.0010848567,0.032182693,0.05495667,8389351,0,0.32602507,0.39506984,0.05642728,0.21249008,0.0114402445,0.017811548,0.0,0.0,0.0,0.0,4259850,4325386,4028193,396809,0,0,831,2,1,2,0,4,0,0,0,0,0,0,0
254256982,254156542,0.001582447,0.037274636,0.05867804,8389351,0,0.32627162,0.39669245,0.060486175,0.24499995,0.015864862,0.013751667,0.0,0.0,0.0,0.0,4259850,4325386,4028193,396809,0,0,831,2,1,2,0,4,0,0,0,0,0,0,0
254456991,254356561,0.0033619544,0.04584836,0.07079679,8389351,0,0.32647696,0.39573783,0.22902285,0.27857837,0.020485926,0.0061718062,0.0,0.0,0.0,0.0,4259850,4325386,4028193,396809,0,0,831,2,1,2,0,4,0,0,0,0,0,0,0
254657176,254556580,0.003908344,0.050552208,0.08576445,8389351,0,0.32650295,0.3947335,0.121818416,0.24554633,0.019503344,0.019619493,0.0,0.0,0.0,0.0,4259850,4325386,4028193,396809,0,0,831,2,1,2,0,4,0,0,0,0,0,0,0
254857060,254756599,0.002888557,0.056012858,0.092242375,8389351,0,0.3267542,0.39625442,0.16288738,0.34105626,0.034271576,0.021203106,0.0,0.0,0.0,0.0,4259850,4325386,4028193,396809,0,0,831,2,1,2,0,4,0,0,0,0,0,0,0
255057096,254956619,0.002864206,0.05667286,0.09453672,8389351,0,0.32684106,0.39522845,0.15553305,0.32884184,0.0360134,0.009345845,0.0,0.0,0.0,0.0,4259850,4325386,4028193,396809,0,0,831,2,1,2,0,4,0,0,0,0,0,0,0
255257200,255156638,0.0019783035,0.042457353,0.07933338,8389351,0,0.32694584,0.39675173,0.14676358,0.2362451,0.03774601,0.031442408,0.0,0.0,0.0,0.0,4259850,4325386,4028193,396809,0,0,831,2,1,2,0,4,0,0,0,0,0,0,0
255457249,255356657,0.004547041,0.09162825,0.1483889,8389351,0,0.310043,0.39138722,0.17179364,0.18243776,0.045824617,0.040794197,0.0,0.0,0.0,0.0,4259850,4325386,4028193,396809,0,0,831,2,1,2,0,4,0,0,0,0,0,0,0
255657108,255556676,0.0006820816,0.041615695,0.077386424,8389351,0,0.3271487,0.39724547,0.19835559,0.18243776,0.045824617,0.02045351,0.0,0.0,0.0,0.0,4259850,4325386,4028193,396809,0,0,831,2,1,2,0,4,0,0,0,0,0,0,0
255857282,255756695,0.00068501337,0.038795732,0.08277391,8389351,0,0.32711262,0.39624026,0.18080264,0.22185974,0.049649782,0.093829624,0.0,0.0,0.0,0.0,4259850,4325386,4028193,396809,0,0,831,2,1,2,0,4,0,0,0,0,0,0,0
256057130,255956714,0.00078164344,0.041652326,0.09291622,8389351,0,0.32704237,0.39524823,0.17712055,0.22819552,0.04764374,0.08061309,0.0,0.0,0.0,0.0,4259850,4325386,4028193,396809,0,0,831,2,1,2,0,4,0,0,0,0,0,0,0
256257143,256156733,0.0009892838,0.044956192,0.09091585,8389351,0,0.3269664,0.39680234,0.19602272,0.26722682,0.049151544,0.06589567,0.0,0.0,0.0,0.0,4259850,4325386,4028193,396809,0,0,831,2,1,2,0,4,0,0,0,0,0,0,0
256457159,256356752,0.00094205997,0.043969184,0.079569206,8389351,0,0.32687306,0.39581418,0.15563294,0.25971678,0.043814726,0.02962133,0.0,0.0,0.0,0.0,4259850,4325386,4028193,396809,0,0,831,2,1,2,0,4,0,0,0,0,0,0,0
256657344,256556771,0.005232357,0.1043107,0.15516832,8389351,0,0.30996713,0.39057758,0.11417222,0.29921058,0.03204905,0.041646834,0.0,0.0,0.0,0.0,4259850,4325386,4028193,396809,0,0,831,2,1,2,0,4,0,0,0,0,0,0,0
256857286,256756790,0.0014825137,0.04889127,0.08247367,8389351,0,0.32668793,0.39390653,0.11234037,0.29921058,0.03204905,0.009086439,0.0,0.0,0.0,0.0,4259850,4325386,4028193,396809,0,0,831,2,1,2,0,4,0,0,0,0,0,0,0
257057246,256956810,0.0012246753,0.044115674,0.07471657,8389351,0,0.32672733,0.39547905,0.1227254,0.2004031,0.029391881,0.06262211,0.0,0.0,0.0,0.0,4259850,4325386,4028193,396809,0,0,831,2,1,2,0,4,0,0,0,0,0,0,0
257257260,257156829,0.0012103908,0.04032952,0.07464443,8389351,0,0.32679382,0.3945649,0.07683043,0.16388899,0.027507603,0.09535148,0.0,0.0,0.0,0.0,4259850,4325386,4028193,396809,0,0,831,2,1,2,0,4,0,0,0,0,0,0,0
257457319,257356848,0.0012669779,0.040122703,0.083372094,8389351,0,0.32686538,0.39366344,0.037209485,0.11951247,0.026681641,0.07991455,0.0,0.0,0.0,0.0,4259850,4325386,4028193,396809,0,0,831,2,1,2,0,4,0,0,0,0,0,0,0
257657309,257556869,0.0016336805,0.040223874,0.065779544,8389351,0,0.32686663,0.39528129,0.17430478,0.13794778,0.029219894,0.005572707,0.0,0.0,0.0,0.0,4259850,4325386,4028193,396809,0,0,831,2,1,2,0,4,0,0,0,0,0,0,0
257857447,257756886,0.0014369049,0.041784298,0.06904192,8389351,0,0.32693574,0.39440906,0.21763392,0.17974876,0.024907485,0.03411645,0.0,0.0,0.0,0.0,4259850,4325386,4028193,396809,0,0,831,2,1,2,0,4,0,0,0,0,0,0,0
258057449,257956905,0.002653493,0.06956006,0.11169672,8389351,0,0.31020382,0.38927397,0.10839681,0.17933291,0.02002634,0.02113017,0.0,0.0,0.0,0.0,4259850,4325386,4028193,396809,0,0,831,2,1,2,0,4,0,0,0,0,0,0,0
258257573,258156925,0.0026289453,0.079726465,0.12190482,8389351,0,0.31034687,0.39084807,0.13108525,0.21585722,0.017872695,0.1078255,0.0,0.0,0.0,0.0,4259850,4325386,4028193,396809,0,0,831,2,1,2,0,4,0,0,0,0,0,0,0
258457451,258356944,0.0015090181,0.041487254,0.07671485,8389351,0,0.32728598,0.39427283,0.24265778,0.21585722,0.017872695,0.021140026,0.0,0.0,0.0,0.0,4259850,4325386,4028193,396809,0,0,831,2,1,2,0,4,0,0,0,0,0,0,0
258657709,258556963,0.0020793604,0.06495217,0.10712696,8389351,0,0.31047592,0.38913196,0.07668099,0.11668546,0.016118066,0.10934241,0.0,0.0,0.0,0.0,4259850,4325386,4028193,396809,0,0,831,2,1,2,0,4,0,0,0,0,0,0,0
258857685,258756982,0.0014797752,0.051992036,0.08706372,8389351,0,0.31061512,0.39071557,0.073532075,0.12579456,0.017228348,0.0064451466,0.0,0.0,0.0,0.0,4259850,4325386,4028193,396809,0,0,831,2,1,2,0,4,0,0,0,0,0,0,0
259057538,258957002,0.0006650058,0.024482565,0.048614353,8389351,0,0.32753083,0.39415193,0.1725224,0.12579456,0.017228348,0.0026859636,0.0,0.0,0.0,0.0,4259850,4325386,4028193,396809,0,0,831,2,1,2,0,4,0,0,0,0,0,0,0
259257742,259157021,0.0007666513,0.029093465,0.05218582,8389351,0,0.31088632,0.38904703,0.033479813,0.04764736,0.016984982,0.022487199,0.0,0.0,0.0,0.0,4259850,4325386,4028193,396809,0,0,831,2,1,2,0,4,0,0,0,0,0,0,0
259457821,259357040,0.0005079833,0.024600374,0.055104844,8389351,0,0.31106225,0.39064983,0.025589464,0.07570441,0.017310232,0.115013584,0.0,0.0,0.0,0.0,4259850,4325386,4028193,396809,0,0,831,2,1,2,0,4,0,0,0,0,0,0,0
259657938,259557059,0.00029585906,0.015635544,0.033803448,8389351,0,0.3112551,0.38985142,0.15313295,0.025169848,0.0147551745,0.031151336,0.0,0.0,0.0,0.0,4259850,4325386,4028193,396809,0,0,831,2,1,2,0,4,0,0,0,0,0,0,0
259857833,259757079,0.00018345377,0.019981498,0.036720958,8389351,0,0.3114897,0.38905883,0.010666343,0.04209242,0.015120294,0.07928479,0.0,0.0,0.0,0.0,4259850,4325386,4028193,396809,0,0,831,2,1,2,0,4,0,0,0,0,0,0,0
260057854,259957098,0.00048517983,0.022249855,0.044152193,8389351,0,0.31169143,0.39069113,0.037343666,0.06677815,0.016773412,0.026085438,0.0,0.0,0.0,0.0,4259850,4325386,4028193,396809,0,0,831,2,1,2,0,4,0,0,0,0,0,0,0
260257919,260157118,0.00025804748,0.0134352865,0.033895873,8389351,0,0.3119009,0.3899082,0.04455431,0.071534395,0.015603621,0.012823793,0.0,0.0,0.0,0.0,4259850,4325386,4028193,396809,0,0,831,2,1,2,0,4,0,0,0,0,0,0,0
260457608,260357137,9.474481e-05,0.006608711,0.012671039,8389351,0,0.32897547,0.3934314,0.018391857,0.071534395,0.015603621,0.0024963839,0.0,0.0,0.0,0.0,4259850,4325386,4028193,396809,0,0,831,2,1,2,0,4,0,0,0,0,0,0,0
260657821,260557156,0.00021492186,0.016222538,0.02725348,8389351,0,0.3121624,0.3883564,0.033390585,0.09087747,0.01672033,0.014964773,0.0,0.0,0.0,0.0,4259850,4325386,4028193,396809,0,0,831,2,1,2,0,4,0,0,0,0,0,0,0
260857797,260757176,0.00016147022,0.006634955,0.012594942,8389351,0,0.32920307,0.39434412,0.08989553,0.09087747,0.01672033,0.03630767,0.0,0.0,0.0,0.0,4259850,4325386,4028193,396809,0,0,831,2,1,2,0,4,0,0,0,0,0,0,0
261057795,260957195,0.00095370604,0.038708005,0.06229203,8389351,0,0.31247172,0.38924646,0.09338949,0.15519686,0.023770938,0.010983149,0.0,0.0,0.0,0.0,4259850,4325386,4028193,396809,0,0,831,2,1,2,0,4,0,0,0,0,0,0,0
261257736,261157214,0.000316551,0.014505014,0.027806167,8389351,0,0.32946232,0.3927684,0.067697495,0.15519686,0.023770938,0.07999084,0.0,0.0,0.0,0.0,4259850,4325386,4028193,396809,0,0,831,2,1,2,0,4,0,0,0,0,0,0,0
261457849,261357234,0.00021345682,0.011906252,0.028642442,8389351,0,0.32957825,0.39447987,0.0657096,0.10978039,0.024149904,0.012218319,0.0,0.0,0.0,0.0,4259850,4325386,4028193,396809,0,0,831,2,1,2,0,4,0,0,0,0,0,0,0
261657713,261557253,0.000118446595,0.0050339764,0.014725748,8389351,0,0.32969615,0.3936962,0.11737515,0.04852397,0.02328163,0.0045212223,0.0,0.0,0.0,0.0,4259850,4325386,4028193,396809,0,0,831,2,1,2,0,4,0,0,0,0,0,0,0
261857942,261757272,0.00017102713,0.0057927156,0.012197657,8389351,0,0.31299368,0.38859397,0.039916012,0.035838675,0.015158894,0.0005564811,0.0,0.0,0.0,0.0,4259850,4325386,4028193,396809,0,0,831,2,1,2,0,4,0,0,0,0,0,0,0
262057744,261957292,0.00013208298,0.007207912,0.015436987,8389351,0,0.32996756,0.39459947,0.15527536,0.035838675,0.015158894,0.07183479,0.0,0.0,0.0,0.0,4259850,4325386,4028193,396809,0,0,831,2,1,2,0,4,0,0,0,0,0,0,0
262257795,262157311,0.0003180845,0.010769594,0.021507429,8389351,0,0.33003655,0.39379564,0.10375926,0.06713458,0.010433249,0.014971794,0.0,0.0,0.0,0.0,4259850,4325386,4028193,396809,0,0,831,2,1,2,0,4,0,0,0,0,0,0,0
262457818,262357331,0.00014282369,0.011810739,0.02134113,8389351,0,0.33007708,0.3930034,0.05142356,0.053425733,0.008847498,0.008779345,0.0,0.0,0.0,0.0,4259850,4325386,4028193,396809,0,0,831,2,1,2,0,4,0,0,0,0,0,0,0
262657830,262557350,0.00010947915,0.006483021,0.018642375,8389351,0,0.32999435,0.3946978,0.11575895,0.019378236,0.009789738,0.013150966,0.0,0.0,0.0,0.0,4259850,4325386,4028193,396809,0,0,831,2,1,2,0,4,0,0,0,0,0,0,0
262858053,262757370,0.00031953398,0.0049858186,0.018878054,8389351,0,0.31335476,0.38957566,0.0877508,0.017536793,0.008338938,0.017663687,0.0,0.0,0.0,0.0,4259850,4325386,4028193,396809,0,0,831,2,1,2,0,4,0,0,0,0,0,0,0
263058029,262957389,9.035228e-05,0.008581392,0.016526418,8389351,0,0.31347418,0.38882238,0.02688963,0.019993646,0.006643153,0.004536367,0.0,0.0,0.0,0.0,4259850,4325386,4028193,396809,0,0,831,2,1,2,0,4,0,0,0,0,0,0,0
263257868,263157409,8.3608626e-05,0.005746929,0.008845261,8389351,0,0.31363437,0.3880935,0.04292716,0.018342804,0.0077835103,0.022095446,0.0,0.0,0.0,0.0,4259850,4325386,4028193,396809,0,0,831,2,1,2,0,4,0,0,0,0,0,0,0
263458063,263357428,0.00034848243,0.007774052,0.014361502,8389351,0,0.31373075,0.3897421,0.14348897,0.029353421,0.006533372,0.025373721,0.0,0.0,0.0,0.0,4259850,4325386,4028193,396809,0,0,831,2,1,2,0,4,0,0,0,0,0,0,0
263657943,263557448,0.00013497804,0.0048017655,0.010523574,8389351,0,0.33055776,0.3932927,0.02820128,0.029353421,0.006533372,0.025323657,0.0,0.0,0.0,0.0,4259850,4325386,4028193,396809,0,0,831,2,1,2,0,4,0,0,0,0,0,0,0
263858155,263757467,0.00036315568,0.014183131,0.026022838,8389351,0,0.31382036,0.39060554,0.24875769,0.05006453,0.002366039,0.0033662717,0.0,0.0,0.0,0.0,4259850,4325386,4028193,396809,0,0,831,2,1,2,0,4,0,0,0,0,0,0,0
264057951,263957487,0.0009913112,0.017580539,0.08950772,8389351,0,0.33059797,0.39420816,0.758876,0.05006453,0.002366039,0.0035171523,0.0,0.0,0.0,0.0,4259850,4325386,4028193,396809,0,0,831,2,1,2,0,4,0,0,0,0,0,0,0
264258255,264157506,0.0014996179,0.06331805,0.14331776,8389351,0,0.31392804,0.38906533,0.9825777,0.18909451,0.0050850674,0.008475094,0.0,0.0,0.0,0.0,4259850,4325386,4028193,396809,0,0,831,2,1,2,0,4,0,0,0,0,0,0,0
264458017,264357526,0.0013896438,0.029299637,0.12832814,8389351,0,0.33070394,0.39263028,0.9295745,0.18909451,0.0050850674,0.019723943,0.0,0.0,0.0,0.0,4259850,4325386,4028193,396809,0,0,831,2,1,2,0,4,0,0,0,0,0,0,0
264658016,264557546,0.000814642,0.040766157,0.13777773,8389351,0,0.3305178,0.39432,0.83507264,0.28303212,0.032292165,0.29198694,0.0,0.0,0.0,0.0,4259850,4325386,4028193,396809,0,0,831,2,1,2,0,4,0,0,0,0,0,0,0
264858034,264757565,0.0016522009,0.026847107,0.064807154,8389351,0,0.33062652,0.39353442,0.9764355,0.24209297,0.01507758,0.050985243,0.0,0.0,0.0,0.0,4259850,4325386,4028193,396809,0,0,831,2,1,2,0,4,0,0,0,0,0,0,0
265058095,264957585,0.002699165,0.030341215,0.054122012,8389351,0,0.3307607,0.3927699,0.903211,0.26320255,0.020135924,0.10275546,0.0,0.0,0.0,0.0,4259850,4325386,4028193,396809,0,0,831,2,1,2,0,4,0,0,0,0,0,0,0
265258036,265157604,0.0034721384,0.042660143,0.058549598,8389351,0,0.33090222,0.39450678,0.85020775,0.30821902,0.025737798,0.04347362,0.0,0.0,0.0,0.0,4259850,4325386,4028193,396809,0,0,831,2,1,2,0,4,0,0,0,0,0,0,0
265458309,265357624,0.009241208,0.11927999,0.15313043,8389351,0,0.3137926,0.3893481,0.74047834,0.25204378,0.026940778,0.09140963,0.0,0.0,0.0,0.0,4259850,4325386,4028193,396809,0,0,831,2,1,2,0,4,0,0,0,0,0,0,0
265658164,265557644,0.002956104,0.046920445,0.07525983,8389351,0,0.33125198,0.39300084,0.22769582,0.25204378,0.026940778,0.074898414,0.0,0.0,0.0,0.0,4259850,4325386,4028193,396809,0,0,831,2,1,2,0,4,0,0,0,0,0,0,0
265858313,265757663,0.0066406564,0.093768954,0.12788641,8389351,0,0.31395343,0.39030254,0.22400767,0.2110884,0.025035601,0.056749474,0.0,0.0,0.0,0.0,4259850,4325386,4028193,396809,0,0,831,2,1,2,0,4,0,0,0,0,0,0,0
266058114,265957685,0.0018514862,0.033415433,0.09402418,8389351,0,0.3315306,0.39403006,0.19473219,0.2110884,0.025035601,0.063858405,0.0,0.0,0.0,0.0,4259850,4325386,4028193,396809,0,0,831,2,1,2,0,4,0,0,0,0,0,0,0
266258390,266157703,0.00499901,0.06584967,0.09339703,8389351,0,0.31393147,0.38885766,0.17775886,0.1581447,0.023754535,0.090192236,0.0,0.0,0.0,0.0,4259850,4325386,4028193,396809,0,0,831,2,1,2,0,4,0,0,0,0,0,0,0
266458358,266357723,0.0016818078,0.018736675,0.032413475,8389351,0,0.3315854,0.39509025,0.21189435,0.1581447,0.023754535,0.116984405,0.0,0.0,0.0,0.0,4259850,4325386,4028193,396809,0,0,831,2,1,2,0,4,0,0,0,0,0,0,0
266658173,266557742,0.001981349,0.009827422,0.016304756,8389351,0,0.3313412,0.394321,0.18406561,0.24598503,0.06279704,0.102920316,0.0,0.0,0.0,0.0,4259850,4325386,4028193,396809,0,0,831,2,1,2,0,4,0,0,0,0,0,0,0
266858229,266757762,0.0010752499,0.013262883,0.054661706,8389351,0,0.3313072,0.39354548,0.30371296,0.12851606,0.03115418,0.14949252,0.0,0.0,0.0,0.0,4259850,4325386,4028193,396809,0,0,831,2,1,2,0,4,0,0,0,0,0,0,0
267058601,266957782,0.0024779737,0.033430006,0.06046832,8389351,0,0.31362188,0.38833162,0.22772531,0.11932779,0.015640123,0.17365406,0.0,0.0,0.0,0.0,4259850,4325386,4028193,396809,0,0,831,2,1,2,0,4,0,0,0,0,0,0,0
267258446,267157801,0.002021891,0.031804074,0.058932938,8389351,0,0.3136645,0.3900754,0.08857548,0.08539501,0.014692101,0.11760522,0.0,0.0,0.0,0.0,4259850,4325386,4028193,396809,0,0,831,2,1,2,0,4,0,0,0,0,0,0,0
267458468,267357821,0.0013291393,0.031393226,0.085123,8389351,0,0.31372517,0.38939503,0.044692464,0.06752566,0.011938899,0.14156932,0.0,0.0,0.0,0.0,4259850,4325386,4028193,396809,0,0,831,2,1,2,0,4,0,0,0,0,0,0,0
267658606,267557841,0.00081069395,0.039202183,0.0819019,8389351,0,0.31378672,0.38871977,0.052392703,0.08105359,0.0111216605,0.12320054,0.0,0.0,0.0,0.0,4259850,4325386,4028193,396809,0,0,831,2,1,2,0,4,0,0,0,0,0,0,0
267858273,267757861,0.00021083774,0.035847936,0.06768537,8389351,0,0.33142,0.39506447,0.046398483,0.08105359,0.0111216605,0.09743518,0.0,0.0,0.0,0.0,4259850,4325386,4028193,396809,0,0,831,2,1,2,0,4,0,0,0,0,0,0,0
268058349,267957881,0.0001927953,0.037774496,0.077534795,8389351,0,0.3313084,0.39434934,0.044455685,0.053240716,0.02021612,0.13996278,0.0,0.0,0.0,0.0,4259850,4325386,4028193,396809,0,0,831,2,1,2,0,4,0,0,0,0,0,0,0
268258382,268157900,0.00014692485,0.03669849,0.07930994,8389351,0,0.33122262,0.39364234,0.035237156,0.045273583,0.019056305,0.13912886,0.0,0.0,0.0,0.0,4259850,4325386,4028193,396809,0,0,831,2,1,2,0,4,0,0,0,0,0,0,0
268458541,268357920,0.0007796057,0.04701099,0.09363811,8389351,0,0.3137344,0.38840118,0.03573322,0.09772279,0.0129252365,0.123777285,0.0,0.0,0.0,0.0,4259850,4325386,4028193,396809,0,0,831,2,1,2,0,4,0,0,0,0,0,0,0
268658371,268557940,0.00016961496,0.033111937,0.075993724,8389351,0,0.331092,0.3946992,0.045757245,0.09772279,0.0129252365,0.15005767,0.0,0.0,0.0,0.0,4259850,4325386,4028193,396809,0,0,831,2,1,2,0,4,0,0,0,0,0,0,0
268858502,268757960,0.0007263928,0.044939317,0.09759728,9077735,0,0.3137903,0.3894209,0.03179259,0.10218892,0.016776983,0.18656936,0.0,0.0,0.00059298356,0.0,4259850,4325386,4028193,396809,0,0,831,2,1,2,0,4,0,0,0,0,0,0,0
269058575,268957980,0.0011129299,0.05802001,0.09971524,9077735,0,0.31385693,0.3887297,0.8143036,0.21644229,0.016212216,0.060770564,0.23792195,0.0,0.005369821,0.0,4259850,4325386,4028193,396809,0,0,831,2,1,2,0,4,0,0,0,0,0,0,0
269258513,269158000,0.0014034152,0.0698051,0.15431221,9077735,0,0.3138795,0.39043665,0.45511022,0.20804636,0.022030031,0.15000185,0.19227634,0.0,0.008471393,0.0,4259850,4325386,4028193,396809,0,0,831,2,1,2,0,4,0,0,0,0,0,0,0
269458537,269358019,0.0007658256,0.054528598,0.08863496,9077735,0,0.31387916,0.38972086,0.142447,0.14288877,0.011858274,0.17448932,0.14447695,0.0,5.6069082e-05,0.0,4259850,4325386,4028193,396809,0,0,831,2,1,2,0,4,0,0,0,0,0,0,0
269658608,269558039,0.0012488189,0.07666474,0.1291276,9077735,0,0.31392446,0.389022,0.072341084,0.26505646,0.020437306,0.07816503,0.049678482,0.0,0.0065351017,0.0,4259850,4325386,4028193,396809,0,0,831,2,1,2,0,4,0,0,0,0,0,0,0
269858472,269758061,0.00042988587,0.04459641,0.07999271,9077735,0,0.33047688,0.3951401,0.11076425,0.26505646,0.020437306,0.15912807,0.12974326,0.0,0.0074945968,0.0,4259850,4325386,4028193,396809,0,0,831,2,1,2,0,4,0,0,0,0,0,0,0
270058673,269958079,0.0049301693,0.20428215,0.31960687,9077735,0,0.31397024,0.38995752,0.14064957,0.7678836,0.036441192,0.14408399,0.19695508,0.0,0.0024802154,0.0,4259850,4325386,4028193,396809,0,0,831,2,1,2,0,4,0,0,0,0,0,0,0
270258461,270158099,0.0015638896,0.08484154,0.15399164,9077735,0,0.3307499,0.3934367,0.15470897,0.7678836,0.036441192,0.051173083,0.04244295,0.0,0.0014848048,0.0,4259850,4325386,4028193,396809,0,0,831,2,1,2,0,4,0,0,0,0,0,0,0
270458485,270358119,0.0022061921,0.08071658,0.15822391,9077735,0,0.33091867,0.39507437,0.32501522,0.67875254,0.038900845,0.092621,0.34501922,0.0,0.009138722,0.0,4259850,4325386,4028193,396809,0,0,831,2,1,2,0,4,0,0,0,0,0,0,0
270658514,270558138,0.000776896,0.039851602,0.10145787,9077735,0,0.33084792,0.3941996,0.5095168,0.2722833,0.10357602,0.040552158,0.24028648,0.0,0.016543886,0.0,4259850,4325386,4028193,396809,0,0,831,2,1,2,0,4,0,0,0,0,0,0,0
270858518,270758158,0.0014106118,0.01978688,0.04721878,9077735,0,0.33093402,0.3933823,0.5397043,0.19312148,0.016630305,0.013809765,0.23027852,0.0,0.06618356,0.0,4259850,4325386,4028193,396809,0,0,831,2,1,2,0,4,0,0,0,0,0,0,0
271058712,270958179,0.0019767059,0.05805674,0.096440196,9077735,0,0.31441906,0.38830557,0.44628125,0.10549763,0.019704295,0.047348566,0.20872661,0.0,0.10022019,0.0,4259850,4325386,4028193,396809,0,0,831,2,1,2,0,4,0,0,0,0,0,0,0
271258732,271158198,0.0025435248,0.0846727,0.14694113,9077735,0,0.31463066,0.38994268,0.29765764,0.22586045,0.018614907,0.08960399,0.05550542,0.0,0.08028219,0.0,4259850,4325386,4028193,396809,0,0,831,2,1,2,0,4,0,0,0,0,0,0,0
271458749,271358218,0.0020447592,0.09664893,0.17737906,9077735,0,0.31480694,0.38920015,0.20572542,0.2344033,0.013919039,0.03301532,0.28079683,0.0,0.058939707,0.0,4259850,4325386,4028193,396809,0,0,831,2,1,2,0,4,0,0,0,0,0,0,0
271658669,271558238,0.00065015553,0.060068794,0.1336625,9077735,0,0.3313699,0.3927045,0.1302994,0.2344033,0.013919039,0.050904077,0.33516005,0.0,0.030443178,0.0,4259850,4325386,4028193,396809,0,0,831,2,1,2,0,4,0,0,0,0,0,0,0
271858626,271758258,0.0005085409,0.055755015,0.12488929,9077735,0,0.33142892,0.39439043,0.15824,0.16539328,0.025833663,0.05025382,0.11910385,0.0,0.031172942,0.0,4259850,4325386,4028193,396809,0,0,831,2,1,2,0,4,0,0,0,0,0,0,0
