timestamp,timestamp_sample,q[0],q[1],q[2],q[3],delta_q_reset[0],delta_q_reset[1],delta_q_reset[2],delta_q_reset[3],quat_reset_counter
217900656,217900426,-0.8603503,-0.013038785,-0.0037466965,-0.5095225,0.9999988,-1.2980095e-09,8.5929797e-10,-0.0015599533,3
218399583,218399258,-0.86001337,-0.012983087,-0.003736005,-0.5100926,0.9999988,-1.2980095e-09,8.5929797e-10,-0.0015599533,3
218898308,218898089,-0.85968864,-0.01301335,-0.0037311104,-0.5106391,0.9999988,-1.2980095e-09,8.5929797e-10,-0.0015599533,3
219402078,219401860,-0.8593663,-0.012757297,-0.0036059471,-0.51118875,0.9999988,-1.2980095e-09,8.5929797e-10,-0.0015599533,3
219901174,219900693,-0.85898906,-0.011723928,-0.0032174077,-0.5118496,0.9999988,-1.2980095e-09,8.5929797e-10,-0.0015599533,3
220399779,220399525,-0.85805416,-0.008862549,-0.0029330493,-0.51347446,0.9999988,-1.2980095e-09,8.5929797e-10,-0.0015599533,3
220899225,220898357,-0.8574744,-0.0036394692,-0.0025085201,-0.51450765,0.9999988,-1.2980095e-09,8.5929797e-10,-0.0015599533,3
221397407,221397190,-0.8569153,-0.00020515853,-0.005955053,-0.51542276,0.9999988,-1.2980095e-09,8.5929797e-10,-0.0015599533,3
221901281,221900962,-0.8548892,0.012532247,-0.016643928,-0.51839197,0.9999988,-1.2980095e-09,8.5929797e-10,-0.0015599533,3
222400131,222399795,-0.8439597,0.009872428,-0.01706406,-0.53604436,0.9999988,-1.2980095e-09,8.5929797e-10,-0.0015599533,3
222899375,222898628,-0.83392084,0.015219827,-0.010604776,-0.55157226,0.9999988,-1.2980095e-09,8.5929797e-10,-0.0015599533,3
223402628,223402400,-0.8352399,-0.0007738974,0.0026409237,-0.5498791,0.9999988,-1.2980095e-09,8.5929797e-10,-0.0015599533,3
223896685,223896297,-0.8383511,-0.018672042,-0.005834011,-0.5447798,0.9999988,-1.2980095e-09,8.5929797e-10,-0.0015599533,3
224400290,224400067,-0.8427282,-0.031506363,0.008728227,-0.5373457,0.9999988,-1.2980095e-09,8.5929797e-10,-0.0015599533,3
224899665,224898900,-0.8435146,-0.014832453,0.013759442,-0.5367251,0.9999988,-1.2980095e-09,8.5929797e-10,-0.0015599533,3
225397961,225397734,-0.8435145,-0.024016142,0.00085202407,-0.53656846,0.9999988,-1.2980095e-09,8.5929797e-10,-0.0015599533,3
225901857,225901507,-0.8477946,-0.0045990553,0.0075885784,-0.53025067,0.9999988,-1.2980095e-09,8.5929797e-10,-0.0015599533,3
226400681,226400341,0.8782895,-0.003946201,-0.014611605,0.47788954,-0.99834216,-7.7630763e-10,2.3063396e-10,0.05755918,4
226899697,226899176,0.87697506,-0.0037683188,-0.015990172,0.48025504,-0.99834216,-7.7630763e-10,2.3063396e-10,0.05755918,4
227398396,227398014,0.87687874,-0.0023734774,-0.0118218735,0.4805605,-0.99834216,-7.7630763e-10,2.3063396e-10,0.05755918,4
227897107,227896844,0.87024933,0.0014540609,-0.009684666,0.49251407,-0.99834216,-7.7630763e-10,2.3063396e-10,0.05755918,4
228400845,228400618,0.85883754,4.205689e-05,0.0034264124,0.51223683,-0.99834216,-7.7630763e-10,2.3063396e-10,0.05755918,4
228899956,228899453,0.8482687,-0.0033120636,0.00041457938,0.52955556,-0.99834216,-7.7630763e-10,2.3063396e-10,0.05755918,4
229398526,229398288,0.842782,-0.001077744,0.00746171,0.5382022,-0.99834216,-7.7630763e-10,2.3063396e-10,0.05755918,4
229902297,229902062,0.8401566,0.0073822807,0.009998879,0.5422014,-0.99834216,-7.7630763e-10,2.3063396e-10,0.05755918,4
230401253,230400897,0.837864,0.015747523,0.014973903,0.54544646,-0.99834216,-7.7630763e-10,2.3063396e-10,0.05755918,4
230900036,230899733,0.8360444,0.020180747,0.010342042,0.5481931,-0.99834216,-7.7630763e-10,2.3063396e-10,0.05755918,4
231398902,231398568,0.83475506,0.014076278,0.010280495,0.5503455,-0.99834216,-7.7630763e-10,2.3063396e-10,0.05755918,4
231897668,231897404,0.83399266,0.009600701,0.0022648117,0.55168754,-0.99834216,-7.7630763e-10,2.3063396e-10,0.05755918,4
232401396,232401178,0.83543193,0.012744724,-0.0054545635,0.54941916,-0.99834216,-7.7630763e-10,2.3063396e-10,0.05755918,4
232900350,232900015,0.84211296,0.017319664,-0.0051640915,0.53899837,-0.99834216,-7.7630763e-10,2.3063396e-10,0.05755918,4
233399070,233398850,0.84885997,0.015257447,-0.010575114,0.52829176,-0.99834216,-7.7630763e-10,2.3063396e-10,0.05755918,4
233902846,233902626,0.8540193,0.009542799,-0.011190838,0.5200335,-0.99834216,-7.7630763e-10,2.3063396e-10,0.05755918,4
234396746,234396523,0.858053,0.0092355395,-0.0070761605,0.5134294,-0.99834216,-7.7630763e-10,2.3063396e-10,0.05755918,4
234900525,234900299,0.8599431,0.008349681,-0.002196826,0.510317,-0.99834216,-7.7630763e-10,2.3063396e-10,0.05755918,4
235399567,235399135,0.8597702,0.0024598192,0.0003699626,0.5106751,-0.99834216,-7.7630763e-10,2.3063396e-10,0.05755918,4
235898232,235897972,0.8604582,0.006359531,-0.0017903688,0.5094782,-0.99834216,-7.7630763e-10,2.3063396e-10,0.05755918,4
236401967,236401748,0.85947293,0.012472381,0.011547317,0.5108988,-0.99834216,-7.7630763e-10,2.3063396e-10,0.05755918,4
236900980,236900585,0.85350186,0.017691057,0.015031541,0.5205725,-0.99834216,-7.7630763e-10,2.3063396e-10,0.05755918,4
237399643,237399422,0.84512454,0.013299583,0.0043353266,0.53438646,-0.99834216,-7.7630763e-10,2.3063396e-10,0.05755918,4
237898643,237898259,0.84197605,0.010053456,-0.00092335325,0.53942055,-0.99834216,-7.7630763e-10,2.3063396e-10,0.05755918,4
238397317,238397097,0.8418438,0.012849654,0.00408511,0.53955287,-0.99834216,-7.7630763e-10,2.3063396e-10,0.05755918,4
238901097,238900873,0.8394139,0.012356187,0.00440398,0.54333436,-0.99834216,-7.7630763e-10,2.3063396e-10,0.05755918,4
239400126,239399711,0.83564544,0.011583005,-0.00035796422,0.54914695,-0.99834216,-7.7630763e-10,2.3063396e-10,0.05755918,4
239898768,239898548,0.8308743,0.016277682,0.0016048745,0.55621976,-0.99834216,-7.7630763e-10,2.3063396e-10,0.05755918,4
240402550,240402325,0.82720816,0.012984727,-0.0009886045,0.56174463,-0.99834216,-7.7630763e-10,2.3063396e-10,0.05755918,4
240901540,240901164,0.8238636,0.010584751,-0.00067165296,0.5666889,-0.99834216,-7.7630763e-10,2.3063396e-10,0.05755918,4
241400229,241400002,0.8221436,0.008248958,0.0036955643,0.5692084,-0.99834216,-7.7630763e-10,2.3063396e-10,0.05755918,4
241899178,241898840,0.8215054,0.0055345236,0.008902375,0.5701043,-0.99834216,-7.7630763e-10,2.3063396e-10,0.05755918,4
242397902,242397683,0.8187611,0.0070294794,0.012626955,0.57395244,-0.99834216,-7.7630763e-10,2.3063396e-10,0.05755918,4
242901688,242901456,0.81910694,0.0061945072,0.013304896,0.5734531,-0.99834216,-7.7630763e-10,2.3063396e-10,0.05755918,4
243401275,243400294,0.8232317,0.005558795,0.009221229,0.5676034,-0.99834216,-7.7630763e-10,2.3063396e-10,0.05755918,4
243899355,243899133,0.8259503,0.008288874,-0.00057600753,0.5636818,-0.99834216,-7.7630763e-10,2.3063396e-10,0.05755918,4
244403157,244402911,0.82483,0.015743468,-0.0039311866,0.56514806,-0.99834216,-7.7630763e-10,2.3063396e-10,0.05755918,4
244897041,244896811,0.82321143,0.016073234,-0.0053194263,0.56748235,-0.99834216,-7.7630763e-10,2.3063396e-10,0.05755918,4
245396431,245395651,0.8217787,0.010087461,-0.006750169,0.5696775,-0.99834216,-7.7630763e-10,2.3063396e-10,0.05755918,4
245899789,245899428,0.819048,0.006388078,-0.008399273,0.5736279,-0.99834216,-7.7630763e-10,2.3063396e-10,0.05755918,4
246398612,246398267,0.81836194,-0.0012936647,-0.0047694203,0.5746819,-0.99834216,-7.7630763e-10,2.3063396e-10,0.05755918,4
246902269,246902045,0.8189095,-0.00532075,-0.0050797244,0.5738754,-0.99834216,-7.7630763e-10,2.3063396e-10,0.05755918,4
247401849,247400884,0.8212529,-0.008259545,0.0039573,0.57049096,-0.99834216,-7.7630763e-10,2.3063396e-10,0.05755918,4
247899944,247899724,0.8218917,-0.0056814463,0.010718123,0.56951463,-0.99834216,-7.7630763e-10,2.3063396e-10,0.05755918,4
248399011,248398563,0.8208622,-0.0016628949,0.015080886,0.5709248,-0.99834216,-7.7630763e-10,2.3063396e-10,0.05755918,4
248897635,248897403,0.8178434,0.0066586128,0.017351637,0.5751407,-0.99834216,-7.7630763e-10,2.3063396e-10,0.05755918,4
249401771,249401182,0.8129672,0.0154158985,0.01478963,0.58191746,-0.99834216,-7.7630763e-10,2.3063396e-10,0.05755918,4
249900352,249900021,0.80664814,0.01837874,0.005109481,0.59072405,-0.99834216,-7.7630763e-10,2.3063396e-10,0.05755918,4
250399132,250398861,0.79957795,0.022433493,-0.0034437329,0.60013336,-0.99834216,-7.7630763e-10,2.3063396e-10,0.05755918,4
250898074,250897701,0.79283386,0.024988014,-0.010812574,0.6088294,-0.99834216,-7.7630763e-10,2.3063396e-10,0.05755918,4
251402224,251401480,0.7829324,-0.015622923,0.09422388,0.6147313,-0.99834216,-7.7630763e-10,2.3063396e-10,0.05755918,4
251895742,251895381,0.77097535,-0.0118856225,0.033791028,0.63585687,-0.99834216,-7.7630763e-10,2.3063396e-10,0.05755918,4
252399490,252399160,0.7561742,0.033268124,-0.04933922,0.65165913,-0.99834216,-7.7630763e-10,2.3063396e-10,0.05755918,4
252898222,252898000,0.7423299,0.06802289,-0.007927528,0.66652566,-0.99834216,-7.7630763e-10,2.3063396e-10,0.05755918,4
253402125,253401779,0.7470927,0.01253328,-0.16026896,0.6449878,-0.99834216,-7.7630763e-10,2.3063396e-10,0.05755918,4
253900974,253900619,0.77165115,-0.010094824,-0.18451668,0.60861015,-0.99834216,-7.7630763e-10,2.3063396e-10,0.05755918,4
254399691,254399459,0.80830854,-0.13802762,-0.048124213,0.5703243,-0.99834216,-7.7630763e-10,2.3063396e-10,0.05755918,4
254898726,254898300,0.82222503,-0.12921067,-0.04557635,0.552425,-0.99834216,-7.7630763e-10,2.3063396e-10,0.05755918,4
255397398,255397140,0.84335667,-0.1028926,0.0055506215,0.52738225,-0.99834216,-7.7630763e-10,2.3063396e-10,0.05755918,4
255896310,255895981,0.8595118,-0.059595026,0.09987461,0.49770772,-0.99834216,-7.7630763e-10,2.3063396e-10,0.05755918,4
256400155,256399761,0.870532,-0.02470793,0.166262,0.46251562,-0.99834216,-7.7630763e-10,2.3063396e-10,0.05755918,4
256898826,256898604,0.89615166,-0.05631348,0.06797802,0.43487924,-0.99834216,-7.7630763e-10,2.3063396e-10,0.05755918,4
257402610,257402382,0.9131432,-0.032640312,-0.020658225,0.40580449,-0.99834216,-7.7630763e-10,2.3063396e-10,0.05755918,4
257901551,257901222,0.9138657,0.035307366,-0.1355327,0.3810956,-0.99834216,-7.7630763e-10,2.3063396e-10,0.05755918,4
258400285,258400063,0.9102943,0.048879772,-0.14971635,0.38283163,-0.99834216,-7.7630763e-10,2.3063396e-10,0.05755918,4
258899237,258898904,0.9151609,0.0037155706,-0.087447114,0.39347154,-0.99834216,-7.7630763e-10,2.3063396e-10,0.05755918,4
259397970,259397745,0.9097911,0.0059409793,-0.00485058,0.41499552,-0.99834216,-7.7630763e-10,2.3063396e-10,0.05755918,4
259896946,259896586,0.90298355,-0.054637954,-0.06416196,0.42132962,-0.99834216,-7.7630763e-10,2.3063396e-10,0.05755918,4
260400740,260400367,0.9052656,-0.049333356,0.0061754626,0.42192686,-0.99834216,-7.7630763e-10,2.3063396e-10,0.05755918,4
260899432,260899208,0.8968774,0.006092213,0.10785304,0.42888415,-0.99834216,-7.7630763e-10,2.3063396e-10,0.05755918,4
261398383,261398050,0.8900256,-0.02202938,0.02651668,0.45460525,-0.99834216,-7.7630763e-10,2.3063396e-10,0.05755918,4
261902210,261901831,0.8788127,0.00090607436,-0.030319823,0.4762019,-0.99834216,-7.7630763e-10,2.3063396e-10,0.05755918,4
262396156,262395733,0.86939347,0.0028406968,-0.018919138,0.49374995,-0.99834216,-7.7630763e-10,2.3063396e-10,0.05755918,4
262899846,262899514,0.8625042,0.009089071,-0.0007481958,0.50596774,-0.99834216,-7.7630763e-10,2.3063396e-10,0.05755918,4
263398579,263398355,0.8579901,0.011831425,-0.004455362,0.51351076,-0.99834216,-7.7630763e-10,2.3063396e-10,0.05755918,4
263898055,263897197,0.8540719,-0.0019878894,0.015145952,0.5199306,-0.99834216,-7.7630763e-10,2.3063396e-10,0.05755918,4
264401361,264400978,0.84415627,-0.019111296,0.030400742,0.53489316,-0.99834216,-7.7630763e-10,2.3063396e-10,0.05755918,4
264900043,264899820,0.8352513,-0.066894665,0.023885516,0.5452614,-0.99834216,-7.7630763e-10,2.3063396e-10,0.05755918,4
265398996,265398663,0.84994584,-0.06885895,0.02922816,0.5215327,-0.99834216,-7.7630763e-10,2.3063396e-10,0.05755918,4
265898237,265897505,0.8650538,-0.061711866,0.023321498,0.49732253,-0.99834216,-7.7630763e-10,2.3063396e-10,0.05755918,4
266396685,266396347,0.86576366,-0.04831132,0.011287692,0.49798793,-0.99834216,-7.7630763e-10,2.3063396e-10,0.05755918,4
266900698,266900129,0.87312496,-0.023012992,0.010293288,0.48684415,-0.99834216,-7.7630763e-10,2.3063396e-10,0.05755918,4
267399196,267398971,0.87236464,-0.0018632126,0.019582102,0.4884598,-0.99834216,-7.7630763e-10,2.3063396e-10,0.05755918,4
267898782,267897814,0.86202675,0.0054275156,0.019545397,0.50645685,-0.99834216,-7.7630763e-10,2.3063396e-10,0.05755918,4
268401957,268401595,0.8661938,0.008556047,0.020799996,0.4992021,-0.99834216,-7.7630763e-10,2.3063396e-10,0.05755918,4
268900776,268900438,0.8624904,-0.002927746,0.025386732,0.50542784,-0.99834216,-7.7630763e-10,2.3063396e-10,0.05755918,4
269399622,269399281,0.82684803,0.22984459,0.10120145,0.5032416,-0.99834216,-7.7630763e-10,2.3063396e-10,0.05755918,4
269898788,269898124,0.7001212,0.31594825,0.25628436,0.58679247,-0.99834216,-7.7630763e-10,2.3063396e-10,0.05755918,4
270397307,270396967,0.6461194,0.1830845,0.16778758,0.72170436,-0.99834216,-7.7630763e-10,2.3063396e-10,0.05755918,4
270901251,270900749,0.7002548,-0.008384904,-0.04959329,0.71211904,-0.99834216,-7.7630763e-10,2.3063396e-10,0.05755918,4
271399827,271399592,0.69761616,-0.06719202,-0.11943115,0.70324475,-0.99834216,-7.7630763e-10,2.3063396e-10,0.05755918,4
271898975,271898435,0.73466676,-0.09425612,-0.13926627,0.65725607,-0.99834216,-7.7630763e-10,2.3063396e-10,0.05755918,4
272402576,272402217,0.76966083,-0.07950753,-0.1044492,0.624813,-0.99834216,-7.7630763e-10,2.3063396e-10,0.05755918,4
272896518,272896121,0.7845769,-0.04950877,-0.06206917,0.6149271,-0.99834216,-7.7630763e-10,2.3063396e-10,0.05755918,4
273400267,273399903,0.7930213,-0.025807003,-0.03786848,0.6074678,-0.99834216,-7.7630763e-10,2.3063396e-10,0.05755918,4
273899069,273898746,0.79967177,-0.013897567,-0.024883501,0.59976065,-0.99834216,-7.7630763e-10,2.3063396e-10,0.05755918,4
274397929,274397589,0.8032381,0.0033851808,-0.008837763,0.595583,-0.99834216,-7.7630763e-10,2.3063396e-10,0.05755918,4
274901716,274901371,0.79935485,0.012609119,0.0037078126,0.6007155,-0.99834216,-7.7630763e-10,2.3063396e-10,0.05755918,4
275400437,275400215,0.79238445,-0.117513366,-0.08515025,0.5925092,-0.99834216,-7.7630763e-10,2.3063396e-10,0.05755918,4
275899401,275899060,0.77266514,-0.35750416,-0.20464416,0.48301154,-0.99834216,-7.7630763e-10,2.3063396e-10,0.05755918,4
276398122,276397901,0.85612106,-0.41599014,-0.10912757,0.28653118,-0.99834216,-7.7630763e-10,2.3063396e-10,0.05755918,4
276897138,276896744,0.8903447,-0.4489348,-0.018824007,0.073413275,-0.99834216,-7.7630763e-10,2.3063396e-10,0.05755918,4
277400878,277400526,0.8906885,-0.43039668,0.07457925,-0.12597892,-0.99834216,-7.7630763e-10,2.3063396e-10,0.05755918,4
277899598,277899369,0.844101,-0.40275776,0.15301988,-0.3191622,-0.99834216,-7.7630763e-10,2.3063396e-10,0.05755918,4
278398554,278398211,0.7634556,-0.36900967,0.22870691,-0.47818473,-0.99834216,-7.7630763e-10,2.3063396e-10,0.05755918,4
278902404,278901993,0.67030436,-0.31111825,0.27681753,-0.6142228,-0.99834216,-7.7630763e-10,2.3063396e-10,0.05755918,4
279401057,279400836,0.53851813,-0.26971665,0.30444372,-0.7379467,-0.99834216,-7.7630763e-10,2.3063396e-10,0.05755918,4
279900021,279899678,0.56164724,-0.12781528,0.05773779,-0.8154029,-0.99834216,-7.7630763e-10,2.3063396e-10,0.05755918,4
280398742,280398521,0.5726408,0.06537632,-0.19039562,-0.7947062,-0.99834216,-7.7630763e-10,2.3063396e-10,0.05755918,4
280897710,280897363,0.62217957,0.2025152,-0.26638964,-0.70775473,-0.99834216,-7.7630763e-10,2.3063396e-10,0.05755918,4
281401482,281401145,0.72747946,0.18565091,-0.19331299,-0.631615,-0.99834216,-7.7630763e-10,2.3063396e-10,0.05755918,4
281900208,281899987,0.7533878,0.2148435,-0.16710673,-0.5986022,-0.99834216,-7.7630763e-10,2.3063396e-10,0.05755918,4
282399207,282398829,0.8035964,0.23176469,-0.15935595,-0.52452236,-0.99834216,-7.7630763e-10,2.3063396e-10,0.05755918,4
282902967,282902610,0.8496223,0.19865954,-0.10868883,-0.4763014,-0.99834216,-7.7630763e-10,2.3063396e-10,0.05755918,4
283396856,283396513,0.8730181,0.17004894,-0.08282132,-0.44951487,-0.99834216,-7.7630763e-10,2.3063396e-10,0.05755918,4
283900647,283900294,0.903082,0.12480004,-0.05716602,-0.40693977,-0.99834216,-7.7630763e-10,2.3063396e-10,0.05755918,4
284399357,284399136,0.91803217,0.07606969,-0.031374536,-0.3878738,-0.99834216,-7.7630763e-10,2.3063396e-10,0.05755918,4
284898350,284897978,0.9260061,0.040054824,-0.016242176,-0.37502605,-0.99834216,-7.7630763e-10,2.3063396e-10,0.05755918,4
285402095,285401758,0.9311945,0.008867739,-0.0008453349,-0.3644141,-0.99834216,-7.7630763e-10,2.3063396e-10,0.05755918,4
285900865,285900599,0.9328014,-0.004765238,0.003981012,-0.36033723,-0.99834216,-7.7630763e-10,2.3063396e-10,0.05755918,4
286400435,286399441,0.9265599,-0.0069114305,0.0011567775,-0.3760819,-0.99834216,-7.7630763e-10,2.3063396e-10,0.05755918,4
286898520,286898282,0.9224743,0.0018818338,0.0015543073,-0.38605082,-0.99834216,-7.7630763e-10,2.3063396e-10,0.05755918,4
287397591,287397123,0.9257823,0.0028791148,0.00021784243,-0.37804618,-0.99834216,-7.7630763e-10,2.3063396e-10,0.05755918,4
287901247,287900902,0.9213064,0.002403986,0.005550062,-0.38879046,-0.99834216,-7.7630763e-10,2.3063396e-10,0.05755918,4
288400407,288399743,0.9200402,0.0042753727,0.008185643,-0.39171535,-0.99834216,-7.7630763e-10,2.3063396e-10,0.05755918,4
288898968,288898584,0.9214361,0.012471476,0.011365267,-0.38816357,-0.99834216,-7.7630763e-10,2.3063396e-10,0.05755918,4
289402815,289402363,0.9205655,0.017708555,0.011478979,-0.39001766,-0.99834216,-7.7630763e-10,2.3063396e-10,0.05755918,4
289901426,289901203,0.9190878,0.024372552,0.013253693,-0.39307502,-0.99834216,-7.7630763e-10,2.3063396e-10,0.05755918,4
290400880,290400043,0.9248069,0.07690473,-0.009624079,-0.37245864,-0.99834216,-7.7630763e-10,2.3063396e-10,0.05755918,4
290899107,290898883,0.9336955,0.07301707,-0.011655471,-0.3503504,-0.99834216,-7.7630763e-10,2.3063396e-10,0.05755918,4
291398272,291397723,0.94191265,0.06227303,-0.007390305,-0.32995185,-0.99834216,-7.7630763e-10,2.3063396e-10,0.05755918,4
291901869,291901502,0.9522633,0.05492275,-0.0047720093,-0.30025908,-0.99834216,-7.7630763e-10,2.3063396e-10,0.05755918,4
292400820,292400341,0.954757,0.034515154,-0.000994939,-0.29537576,-0.99834216,-7.7630763e-10,2.3063396e-10,0.05755918,4
292899543,292899183,0.95216274,0.013883315,0.011318014,-0.3050663,-0.99834216,-7.7630763e-10,2.3063396e-10,0.05755918,4
293403355,293402959,0.9515559,0.009952816,0.01735896,-0.3068241,-0.99834216,-7.7630763e-10,2.3063396e-10,0.05755918,4
293897192,293896858,0.953087,0.00783971,0.021303283,-0.30184445,-0.99834216,-7.7630763e-10,2.3063396e-10,0.05755918,4
294401216,294400640,0.95068926,0.015372172,0.016491115,-0.3093244,-0.99834216,-7.7630763e-10,2.3063396e-10,0.05755918,4
294899710,294899475,0.9480351,0.007633637,0.013281188,-0.31779677,-0.99834216,-7.7630763e-10,2.3063396e-10,0.05755918,4
295398683,295398313,0.9529423,0.01716901,0.006943543,-0.30258566,-0.99834216,-7.7630763e-10,2.3063396e-10,0.05755918,4
295897397,295897152,0.95441514,0.01962249,0.0034243169,-0.29781705,-0.99834216,-7.7630763e-10,2.3063396e-10,0.05755918,4
296401226,296400929,0.95475733,0.017724948,0.0074929316,-0.29676288,-0.99834216,-7.7630763e-10,2.3063396e-10,0.05755918,4
296900100,296899767,0.9520781,0.0108782835,0.0186068,-0.3050948,-0.99834216,-7.7630763e-10,2.3063396e-10,0.05755918,4
297398826,297398604,0.9528762,0.020169493,0.015681092,-0.30228207,-0.99834216,-7.7630763e-10,2.3063396e-10,0.05755918,4
297897780,297897442,0.9541284,0.016929878,0.017505167,-0.29840577,-0.99834216,-7.7630763e-10,2.3063396e-10,0.05755918,4
298401579,298401219,0.9537871,0.0154808285,0.013565241,-0.2997775,-0.99834216,-7.7630763e-10,2.3063396e-10,0.05755918,4
298900296,298900056,0.95192885,0.017836755,0.008733089,-0.3056749,-0.99834216,-7.7630763e-10,2.3063396e-10,0.05755918,4
299399241,299398893,0.9505856,0.005775076,0.009335209,-0.3102685,-0.99834216,-7.7630763e-10,2.3063396e-10,0.05755918,4
299897955,299897730,0.95144016,0.02181758,0.007832957,-0.30695996,-0.99834216,-7.7630763e-10,2.3063396e-10,0.05755918,4
300401745,300401506,0.9569874,0.025567545,0.009264644,-0.2888523,-0.99834216,-7.7630763e-10,2.3063396e-10,0.05755918,4
300895658,300895404,0.9588984,0.028763296,0.011136277,-0.2820684,-0.99834216,-7.7630763e-10,2.3063396e-10,0.05755918,4
301399449,301399179,0.9252168,0.25753567,-0.049318507,-0.27425724,-0.99834216,-7.7630763e-10,2.3063396e-10,0.05755918,4
301898350,301898016,0.8920636,0.42886204,-0.028088719,-0.13968176,-0.99834216,-7.7630763e-10,2.3063396e-10,0.05755918,4
302397078,302396852,0.89183915,0.44300595,0.0720979,0.056307923,-0.99834216,-7.7630763e-10,2.3063396e-10,0.05755918,4
302900848,302900627,0.92341274,0.32857057,0.08741695,0.17806888,-0.99834216,-7.7630763e-10,2.3063396e-10,0.05755918,4
303399804,303399463,0.91172266,0.3039422,0.10025666,0.25754535,-0.99834216,-7.7630763e-10,2.3063396e-10,0.05755918,4
303898520,303898299,0.9272332,0.18957683,0.05343231,0.31850332,-0.99834216,-7.7630763e-10,2.3063396e-10,0.05755918,4
304397490,304397134,0.9157001,0.12918532,0.038568933,0.3785723,-0.99834216,-7.7630763e-10,2.3063396e-10,0.05755918,4
304896191,304895970,0.91872406,0.062986,0.023141189,0.38915756,-0.99834216,-7.7630763e-10,2.3063396e-10,0.05755918,4
305399996,305399744,0.9081117,0.1602276,0.051016748,0.38348112,-0.99834216,-7.7630763e-10,2.3063396e-10,0.05755918,4
305898985,305898579,0.8191905,0.3582465,0.15321144,0.42084762,-0.99834216,-7.7630763e-10,2.3063396e-10,0.05755918,4
306397638,306397414,0.7095065,0.33126214,0.27163786,0.55953443,-0.99834216,-7.7630763e-10,2.3063396e-10,0.05755918,4
306901432,306901188,0.580977,0.26518413,0.33933374,0.6906488,-0.99834216,-7.7630763e-10,2.3063396e-10,0.05755918,4
307400361,307400022,0.45566896,0.1990246,0.3795514,0.7801896,-0.99834216,-7.7630763e-10,2.3063396e-10,0.05755918,4
307899076,307898857,0.3201369,0.15605095,0.39695323,0.84592474,-0.99834216,-7.7630763e-10,2.3063396e-10,0.05755918,4
308398029,308397691,0.19592044,0.09420989,0.41504627,0.8834457,-0.99834216,-7.7630763e-10,2.3063396e-10,0.05755918,4
308896767,308896525,0.059430078,0.057709724,0.36364242,0.927848,-0.99834216,-7.7630763e-10,2.3063396e-10,0.05755918,4
309400522,309400298,-0.035510994,0.04688745,0.20290115,0.97743124,-0.99834216,-7.7630763e-10,2.3063396e-10,0.05755918,4
309899568,309899132,-0.043446776,0.056058656,0.014946906,0.9973698,-0.99834216,-7.7630763e-10,2.3063396e-10,0.05755918,4
310398194,310397969,-0.0005645887,0.058005407,-0.10780954,0.99247783,-0.99834216,-7.7630763e-10,2.3063396e-10,0.05755918,4
310902598,310901739,0.07374952,0.03799531,-0.15746336,0.98403394,-0.99834216,-7.7630763e-10,2.3063396e-10,0.05755918,4
311395855,311395633,0.11204763,0.031755652,-0.13653573,0.9837657,-0.99834216,-7.7630763e-10,2.3063396e-10,0.05755918,4
311899774,311899405,0.1403901,0.037947617,-0.1076713,0.9834925,-0.99834216,-7.7630763e-10,2.3063396e-10,0.05755918,4
312398573,312398238,0.1864837,0.035285115,-0.09109236,0.97758937,-0.99834216,-7.7630763e-10,2.3063396e-10,0.05755918,4
312897594,312897071,0.21674556,0.035406083,-0.062768005,0.97356457,-0.99834216,-7.7630763e-10,2.3063396e-10,0.05755918,4
313401063,313400843,0.2448294,0.041430503,-0.0440621,0.967678,-0.99834216,-7.7630763e-10,2.3063396e-10,0.05755918,4
313900135,313899676,0.2449637,0.04099771,-0.025808461,0.96832114,-0.99834216,-7.7630763e-10,2.3063396e-10,0.05755918,4
314398731,314398508,0.24652399,0.04674861,-0.00069436774,0.96800834,-0.99834216,-7.7630763e-10,2.3063396e-10,0.05755918,4
314897844,314897341,0.23173763,0.041301366,-0.0037683728,0.97189385,-0.99834216,-7.7630763e-10,2.3063396e-10,0.05755918,4
315396394,315396173,0.20759402,0.048624568,0.012919727,0.97692037,-0.99834216,-7.7630763e-10,2.3063396e-10,0.05755918,4
315900194,315899944,0.20312046,0.03818053,-0.007672615,0.978379,-0.99834216,-7.7630763e-10,2.3063396e-10,0.05755918,4
316399134,316398776,0.22009462,0.03925496,-0.012584451,0.9746072,-0.99834216,-7.7630763e-10,2.3063396e-10,0.05755918,4
316897832,316897608,0.19432831,0.036584154,0.006172817,0.98023474,-0.99834216,-7.7630763e-10,2.3063396e-10,0.05755918,4
317401597,317401379,0.17517443,0.0429258,0.008428576,0.9835651,-0.99834216,-7.7630763e-10,2.3063396e-10,0.05755918,4
317900543,317900211,0.19274527,0.062089343,0.1278226,0.9709046,-0.99834216,-7.7630763e-10,2.3063396e-10,0.05755918,4
318399280,318399042,0.1543792,0.0738183,0.30450395,0.9370141,-0.99834216,-7.7630763e-10,2.3063396e-10,0.05755918,4
318898257,318897874,-0.017303843,0.07489998,0.17092085,0.98228145,-0.99834216,-7.7630763e-10,2.3063396e-10,0.05755918,4
319396927,319396705,-0.13475388,0.05018157,-0.022454938,0.9893528,-0.99834216,-7.7630763e-10,2.3063396e-10,0.05755918,4
319900722,319900475,-0.027000545,0.036700744,-0.2276489,0.9726768,-0.99834216,-7.7630763e-10,2.3063396e-10,0.05755918,4
320399651,320399307,0.15130267,-0.024281748,-0.38871488,0.9085256,-0.99834216,-7.7630763e-10,2.3063396e-10,0.05755918,4
320898386,320898138,0.30791634,-0.050036516,-0.27085635,0.9106706,-0.99834216,-7.7630763e-10,2.3063396e-10,0.05755918,4
321402129,321401908,0.40036613,-0.021184344,-0.08219244,0.91241586,-0.99834216,-7.7630763e-10,2.3063396e-10,0.05755918,4
321896021,321895800,0.3986816,0.02974724,0.0819392,0.91293716,-0.99834216,-7.7630763e-10,2.3063396e-10,0.05755918,4
322399790,322399570,0.31259918,0.042829342,0.14306873,0.93807185,-0.99834216,-7.7630763e-10,2.3063396e-10,0.05755918,4
322898741,322898401,0.23328851,0.022429071,0.14767995,0.96086633,-0.99834216,-7.7630763e-10,2.3063396e-10,0.05755918,4
323397455,323397231,0.1832625,-0.009420819,0.08251639,0.9795495,-0.99834216,-7.7630763e-10,2.3063396e-10,0.05755918,4
323901261,323901001,0.18513595,-0.024734998,0.04948632,0.9811545,-0.99834216,-7.7630763e-10,2.3063396e-10,0.05755918,4
324400234,324399832,0.20523554,-0.036746383,-0.00065586774,0.9780224,-0.99834216,-7.7630763e-10,2.3063396e-10,0.05755918,4
324898884,324898662,0.17369789,-0.022332203,0.021021081,0.9843213,-0.99834216,-7.7630763e-10,2.3063396e-10,0.05755918,4
325397831,325397493,0.17324188,-0.018989945,-0.0013092391,0.9846953,-0.99834216,-7.7630763e-10,2.3063396e-10,0.05755918,4
325896542,325896323,0.19471176,-0.03227388,-0.025576027,0.9799957,-0.99834216,-7.7630763e-10,2.3063396e-10,0.05755918,4
326400317,326400093,0.19446316,-0.03349307,-0.018094923,0.98017085,-0.99834216,-7.7630763e-10,2.3063396e-10,0.05755918,4
326899271,326898923,0.20813434,-0.022551991,-0.005080637,0.97782713,-0.99834216,-7.7630763e-10,2.3063396e-10,0.05755918,4
327397993,327397753,0.21973026,-0.022093793,-0.011167036,0.97524655,-0.99834216,-7.7630763e-10,2.3063396e-10,0.05755918,4
327901744,327901522,0.21045431,-0.034006875,0.013408811,0.97692,-0.99834216,-7.7630763e-10,2.3063396e-10,0.05755918,4
328400691,328400353,0.21358591,-0.03507021,-0.0035424104,0.97628826,-0.99834216,-7.7630763e-10,2.3063396e-10,0.05755918,4
328899406,328899183,0.19962518,-0.024569925,0.007539662,0.9795353,-0.99834216,-7.7630763e-10,2.3063396e-10,0.05755918,4
329398770,329398013,0.20264877,-0.032412626,-0.002836966,0.97871083,-0.99834216,-7.7630763e-10,2.3063396e-10,0.05755918,4
329897065,329896843,0.20473062,-0.035940334,-0.00077404996,0.978158,-0.99834216,-7.7630763e-10,2.3063396e-10,0.05755918,4
330400835,330400611,0.19788301,-0.024743127,0.0074020377,0.97988546,-0.99834216,-7.7630763e-10,2.3063396e-10,0.05755918,4
330899781,330899441,0.19349457,-0.022682227,0.005335639,0.98082465,-0.99834216,-7.7630763e-10,2.3063396e-10,0.05755918,4
331398545,331398271,0.18981664,-0.025998086,0.014855026,0.98136294,-0.99834216,-7.7630763e-10,2.3063396e-10,0.05755918,4
331902259,331902040,0.18067242,-0.024137586,-0.001280806,0.9832463,-0.99834216,-7.7630763e-10,2.3063396e-10,0.05755918,4
332396265,332395931,0.16959858,-0.018746618,-0.01599133,0.9852052,-0.99834216,-7.7630763e-10,2.3063396e-10,0.05755918,4
332899919,332899699,0.16799116,-0.019014949,0.003156781,0.98560005,-0.99834216,-7.7630763e-10,2.3063396e-10,0.05755918,4
333399236,333398529,0.1801896,-0.027093941,-0.0035742952,0.9832522,-0.99834216,-7.7630763e-10,2.3063396e-10,0.05755918,4
333897580,333897358,0.1774549,-0.018476022,0.0021050612,0.9839533,-0.99834216,-7.7630763e-10,2.3063396e-10,0.05755918,4
334401442,334401127,0.1783316,-0.017118495,0.0078071333,0.9837906,-0.99834216,-7.7630763e-10,2.3063396e-10,0.05755918,4
334900293,334899956,0.17999968,-0.028109012,0.018365119,0.9830935,-0.99834216,-7.7630763e-10,2.3063396e-10,0.05755918,4
335399413,335398786,0.17527482,-0.031860184,0.0063621504,0.98398334,-0.99834216,-7.7630763e-10,2.3063396e-10,0.05755918,4
335897968,335897615,0.16769311,-0.05532042,0.00256604,0.9842825,-0.99834216,-7.7630763e-10,2.3063396e-10,0.05755918,4
336396778,336396444,0.1785358,-0.03160687,-0.005490778,0.98341036,-0.99834216,-7.7630763e-10,2.3063396e-10,0.05755918,4
336900435,336900213,0.19009575,-0.08120052,-0.11349018,0.97179735,-0.99834216,-7.7630763e-10,2.3063396e-10,0.05755918,4
337399694,337399044,0.22986348,-0.118564405,-0.17096312,0.9507245,-0.99834216,-7.7630763e-10,2.3063396e-10,0.05755918,4
337898095,337897871,0.30360448,-0.14412521,-0.1803871,0.9243986,-0.99834216,-7.7630763e-10,2.3063396e-10,0.05755918,4
338401969,338401639,0.3574745,-0.15441276,-0.15268978,0.90832514,-0.99834216,-7.7630763e-10,2.3063396e-10,0.05755918,4
338900834,338900468,0.40293425,-0.17419249,-0.1731968,0.88164836,-0.99834216,-7.7630763e-10,2.3063396e-10,0.05755918,4
339399613,339399297,0.4844634,-0.19466215,-0.16852093,0.83606374,-0.99834216,-7.7630763e-10,2.3063396e-10,0.05755918,4
339898494,339898126,0.5422873,-0.20659983,-0.14600739,0.80120087,-0.99834216,-7.7630763e-10,2.3063396e-10,0.05755918,4
340397176,340396955,0.6077989,-0.1936468,-0.11549603,0.761408,-0.99834216,-7.7630763e-10,2.3063396e-10,0.05755918,4
340900949,340900723,0.63833445,-0.21977772,-0.115331255,0.72864646,-0.99834216,-7.7630763e-10,2.3063396e-10,0.05755918,4
341399908,341399552,0.67937285,-0.24936624,-0.12638035,0.678452,-0.99834216,-7.7630763e-10,2.3063396e-10,0.05755918,4
341898602,341898380,0.7480494,-0.24981555,-0.101084664,0.6064622,-0.99834216,-7.7630763e-10,2.3063396e-10,0.05755918,4
342402370,342402148,0.7936597,-0.22048403,-0.060507886,0.563764,-0.99834216,-7.7630763e-10,2.3063396e-10,0.05755918,4
342896260,342896038,0.81387454,-0.21653728,-0.04830703,0.5370161,-0.99834216,-7.7630763e-10,2.3063396e-10,0.05755918,4
343400026,343399805,0.8371196,-0.23657157,-0.048909113,0.49078768,-0.99834216,-7.7630763e-10,2.3063396e-10,0.05755918,4
343899063,343898636,0.8702324,-0.24429359,-0.033767033,0.42646945,-0.99834216,-7.7630763e-10,2.3063396e-10,0.05755918,4
344397685,344397463,0.9000599,-0.24077605,-0.01371622,0.36294773,-0.99834216,-7.7630763e-10,2.3063396e-10,0.05755918,4
344901450,344901230,0.92395586,-0.23157188,0.008607852,0.30431226,-0.99834216,-7.7630763e-10,2.3063396e-10,0.05755918,4
345400400,345400058,0.9420766,-0.22194938,0.021752873,0.25051332,-0.99834216,-7.7630763e-10,2.3063396e-10,0.05755918,4
345899110,345898887,0.9542239,-0.22801504,0.029475559,0.19130394,-0.99834216,-7.7630763e-10,2.3063396e-10,0.05755918,4
346398087,346397715,0.96278775,-0.23063447,0.044360995,0.13371474,-0.99834216,-7.7630763e-10,2.3063396e-10,0.05755918,4
346896763,346896543,0.97854316,-0.18700631,0.05673921,0.065288566,-0.99834216,-7.7630763e-10,2.3063396e-10,0.05755918,4
347400531,347400310,0.9824438,-0.17264745,0.06534239,0.026974125,-0.99834216,-7.7630763e-10,2.3063396e-10,0.05755918,4
347899505,347899139,0.97783446,-0.19277577,0.07716606,-0.02688383,-0.99834216,-7.7630763e-10,2.3063396e-10,0.05755918,4
348398187,348397967,0.97460836,-0.18985686,0.08790705,-0.07978347,-0.99834216,-7.7630763e-10,2.3063396e-10,0.05755918,4
348901958,348901733,0.96381885,-0.19761676,0.10228782,-0.14675856,-0.99834216,-7.7630763e-10,2.3063396e-10,0.05755918,4
349400976,349400561,0.9556529,-0.17398831,0.11051167,-0.21033978,-0.99834216,-7.7630763e-10,2.3063396e-10,0.05755918,4
349899628,349899389,0.9439109,-0.17229958,0.10171746,-0.26267594,-0.99834216,-7.7630763e-10,2.3063396e-10,0.05755918,4
350398554,350398217,0.922026,-0.1922744,0.11717582,-0.31491053,-0.99834216,-7.7630763e-10,2.3063396e-10,0.05755918,4
350897270,350897045,0.9044294,-0.18384898,0.11764108,-0.36656183,-0.99834216,-7.7630763e-10,2.3063396e-10,0.05755918,4
351401033,351400811,0.87637067,-0.18796556,0.13343883,-0.42289194,-0.99834216,-7.7630763e-10,2.3063396e-10,0.05755918,4
351899997,351899639,0.85128784,-0.17880094,0.13573912,-0.47425112,-0.99834216,-7.7630763e-10,2.3063396e-10,0.05755918,4
352398735,352398467,0.8212714,-0.17042407,0.13685557,-0.5270101,-0.99834216,-7.7630763e-10,2.3063396e-10,0.05755918,4
352902504,352902233,0.7855088,-0.1615223,0.14095303,-0.5805331,-0.99834216,-7.7630763e-10,2.3063396e-10,0.05755918,4
353396345,353396121,0.7476593,-0.14984193,0.15092029,-0.6291073,-0.99834216,-7.7630763e-10,2.3063396e-10,0.05755918,4
353900166,353899888,0.70644695,-0.1378362,0.16350672,-0.67468476,-0.99834216,-7.7630763e-10,2.3063396e-10,0.05755918,4
354399053,354398715,0.6580721,-0.1324691,0.17895584,-0.7192829,-0.99834216,-7.7630763e-10,2.3063396e-10,0.05755918,4
354897762,354897542,0.6101,-0.12121241,0.18849112,-0.75997156,-0.99834216,-7.7630763e-10,2.3063396e-10,0.05755918,4
355401527,355401308,0.56202745,-0.108466744,0.19440001,-0.7965983,-0.99834216,-7.7630763e-10,2.3063396e-10,0.05755918,4
355900820,355900135,0.51367944,-0.09972206,0.20041959,-0.82826394,-0.99834216,-7.7630763e-10,2.3063396e-10,0.05755918,4
356399185,356398962,0.4568957,-0.094012745,0.22226052,-0.856159,-0.99834216,-7.7630763e-10,2.3063396e-10,0.05755918,4
356898248,356897789,0.40254247,-0.07696253,0.23035349,-0.8825948,-0.99834216,-7.7630763e-10,2.3063396e-10,0.05755918,4
357396844,357396618,0.34024003,-0.07014882,0.24301596,-0.90568167,-0.99834216,-7.7630763e-10,2.3063396e-10,0.05755918,4
357900965,357900382,0.25422788,-0.052805293,0.24660547,-0.9336838,-0.99834216,-7.7630763e-10,2.3063396e-10,0.05755918,4
358399549,358399209,0.17401825,-0.024722673,0.25006655,-0.95214134,-0.99834216,-7.7630763e-10,2.3063396e-10,0.05755918,4
358898368,358898035,0.09572098,-0.007160446,0.2524741,-0.9628308,-0.99834216,-7.7630763e-10,2.3063396e-10,0.05755918,4
359402023,359401801,0.0031174547,0.012833092,0.2513828,-0.96779764,-0.99834216,-7.7630763e-10,2.3063396e-10,0.05755918,4
359901415,359900627,-0.06573172,0.03603513,0.23267749,-0.96966076,-0.99834216,-7.7630763e-10,2.3063396e-10,0.05755918,4
360399739,360399454,-0.13681972,0.036077872,0.24737602,-0.9585322,-0.99834216,-7.7630763e-10,2.3063396e-10,0.05755918,4
360898768,360898280,-0.21602374,0.054034386,0.24423684,-0.9438022,-0.99834216,-7.7630763e-10,2.3063396e-10,0.05755918,4
361397328,361397108,-0.27923748,0.07821085,0.22793686,-0.92949146,-0.99834216,-7.7630763e-10,2.3063396e-10,0.05755918,4
361901276,361900871,-0.36855724,0.10427153,0.24176884,-0.8915385,-0.99834216,-7.7630763e-10,2.3063396e-10,0.05755918,4
362400036,362399698,-0.4327394,0.097269125,0.18499014,-0.8769572,-0.99834216,-7.7630763e-10,2.3063396e-10,0.05755918,4
362898763,362898524,-0.44848925,0.076237045,0.16612348,-0.87489915,-0.99834216,-7.7630763e-10,2.3063396e-10,0.05755918,4
363402530,363402289,-0.5192237,0.11553724,0.21581616,-0.81882936,-0.99834216,-7.7630763e-10,2.3063396e-10,0.05755918,4
363896533,363896176,-0.6004899,0.16860346,0.21439579,-0.7516775,-0.99834216,-7.7630763e-10,2.3063396e-10,0.05755918,4
364400162,364399940,-0.65635884,0.15260656,0.17267337,-0.7183929,-0.99834216,-7.7630763e-10,2.3063396e-10,0.05755918,4
364899135,364898766,-0.7027548,0.13174495,0.14242706,-0.6844659,-0.99834216,-7.7630763e-10,2.3063396e-10,0.05755918,4
365397815,365397592,-0.7325245,0.13411777,0.13128705,-0.65435773,-0.99834216,-7.7630763e-10,2.3063396e-10,0.05755918,4
365901594,365901356,-0.7659668,0.15337035,0.12731566,-0.61119837,-0.99834216,-7.7630763e-10,2.3063396e-10,0.05755918,4
366400543,366400182,-0.80648166,0.1835044,0.11567178,-0.55003047,-0.99834216,-7.7630763e-10,2.3063396e-10,0.05755918,4
366899249,366899007,-0.8447427,0.1806221,0.0943299,-0.49486107,-0.99834216,-7.7630763e-10,2.3063396e-10,0.05755918,4
367398206,367397833,-0.87378633,0.16382073,0.07283742,-0.45205638,-0.99834216,-7.7630763e-10,2.3063396e-10,0.05755918,4
367897009,367896662,-0.89655316,0.17068985,0.061741795,-0.4040363,-0.99834216,-7.7630763e-10,2.3063396e-10,0.05755918,4
368400645,368400422,-0.912106,0.17426136,0.05385912,-0.36714435,-0.99834216,-7.7630763e-10,2.3063396e-10,0.05755918,4
368899716,368899248,-0.93414235,0.17947833,0.050215937,-0.30437502,-0.99834216,-7.7630763e-10,2.3063396e-10,0.05755918,4
369398292,369398073,-0.95707506,0.18238191,0.035451557,-0.22245748,-0.99834216,-7.7630763e-10,2.3063396e-10,0.05755918,4
369902103,369901838,-0.97388524,0.14486092,0.017753562,-0.17391892,-0.99834216,-7.7630763e-10,2.3063396e-10,0.05755918,4
370400995,370400662,-0.9762135,0.15923117,0.014179215,-0.14646347,-0.99834216,-7.7630763e-10,2.3063396e-10,0.05755918,4
370899707,370899487,-0.9769444,0.19814499,0.005318704,-0.079309516,-0.99834216,-7.7630763e-10,2.3063396e-10,0.05755918,4
371398650,371398312,-0.98252165,0.18518972,-0.003983582,-0.018442906,-0.99834216,-7.7630763e-10,2.3063396e-10,0.05755918,4
371897360,371897136,-0.9846296,0.17002809,-0.0075751278,0.03921386,-0.99834216,-7.7630763e-10,2.3063396e-10,0.05755918,4
372401121,372400900,-0.9816432,0.16669585,-0.018132651,0.09088676,-0.99834216,-7.7630763e-10,2.3063396e-10,0.05755918,4
372900059,372899725,-0.9751544,0.17602667,-0.03476102,0.12992418,-0.99834216,-7.7630763e-10,2.3063396e-10,0.05755918,4
373398769,373398549,-0.96809936,0.16646168,-0.04306037,0.18226406,-0.99834216,-7.7630763e-10,2.3063396e-10,0.05755918,4
373902537,373902313,-0.95456535,0.16842265,-0.056721516,0.23921049,-0.99834216,-7.7630763e-10,2.3063396e-10,0.05755918,4
374396435,374396198,-0.93963087,0.17380022,-0.064265214,0.28767574,-0.99834216,-7.7630763e-10,2.3063396e-10,0.05755918,4
374900187,374899962,-0.92248404,0.17348054,-0.071353555,0.3373965,-0.99834216,-7.7630763e-10,2.3063396e-10,0.05755918,4
375399122,375398786,-0.89982104,0.16960417,-0.09060667,0.3915955,-0.99834216,-7.7630763e-10,2.3063396e-10,0.05755918,4
375897841,375897610,-0.87428695,0.16390608,-0.105913855,0.444454,-0.99834216,-7.7630763e-10,2.3063396e-10,0.05755918,4
376401618,376401373,-0.8437784,0.16056807,-0.12074464,0.4976714,-0.99834216,-7.7630763e-10,2.3063396e-10,0.05755918,4
376900603,376900197,-0.8171016,0.15004629,-0.11800363,0.54397273,-0.99834216,-7.7630763e-10,2.3063396e-10,0.05755918,4
377399247,377399022,-0.78882235,0.1368737,-0.1186398,0.58732414,-0.99834216,-7.7630763e-10,2.3063396e-10,0.05755918,4
377898199,377897846,-0.75139797,0.13849725,-0.13663103,0.63051695,-0.99834216,-7.7630763e-10,2.3063396e-10,0.05755918,4
378396998,378396670,-0.70445114,0.13354944,-0.15633745,0.67931724,-0.99834216,-7.7630763e-10,2.3063396e-10,0.05755918,4
378900656,378900432,-0.66310626,0.11970737,-0.16681026,0.71981573,-0.99834216,-7.7630763e-10,2.3063396e-10,0.05755918,4
379399755,379399256,-0.6227488,0.11211752,-0.1686308,0.7557628,-0.99834216,-7.7630763e-10,2.3063396e-10,0.05755918,4
379898303,379898080,-0.576039,0.10517109,-0.17315248,0.7919194,-0.99834216,-7.7630763e-10,2.3063396e-10,0.05755918,4
380402091,380401843,-0.52238244,0.09610397,-0.18450238,0.82694596,-0.99834216,-7.7630763e-10,2.3063396e-10,0.05755918,4
380901033,380900666,-0.4538888,0.09229828,-0.20233184,0.8628603,-0.99834216,-7.7630763e-10,2.3063396e-10,0.05755918,4
381399768,381399490,-0.40382677,0.07413751,-0.21914963,0.88509953,-0.99834216,-7.7630763e-10,2.3063396e-10,0.05755918,4
381898656,381898313,-0.3441231,0.064511485,-0.2478913,0.90330917,-0.99834216,-7.7630763e-10,2.3063396e-10,0.05755918,4
382397803,382397137,-0.26471695,0.04363973,-0.24940537,0.93049324,-0.99834216,-7.7630763e-10,2.3063396e-10,0.05755918,4
382901120,382900899,-0.18924157,0.020089269,-0.24939628,0.9495186,-0.99834216,-7.7630763e-10,2.3063396e-10,0.05755918,4
383400170,383399723,-0.1278204,0.00077394216,-0.21627994,0.9679279,-0.99834216,-7.7630763e-10,2.3063396e-10,0.05755918,4
383898770,383898546,-0.043015614,-0.010781631,-0.09632041,0.99436206,-0.99834216,-7.7630763e-10,2.3063396e-10,0.05755918,4
384402929,384402308,-0.010427109,-0.03939012,0.16563144,0.98534566,-0.99834216,-7.7630763e-10,2.3063396e-10,0.05755918,4
384896412,384896192,-0.13856962,-0.09690396,0.40831926,0.8970416,-0.99834216,-7.7630763e-10,2.3063396e-10,0.05755918,4
385400293,385399954,-0.349813,-0.19594826,0.3805632,0.8333107,-0.99834216,-7.7630763e-10,2.3063396e-10,0.05755918,4
385899120,385898777,-0.5222511,-0.25946808,0.34987417,0.7331564,-0.99834216,-7.7630763e-10,2.3063396e-10,0.05755918,4
386398172,386397601,-0.64895415,-0.329371,0.26758313,0.6314844,-0.99834216,-7.7630763e-10,2.3063396e-10,0.05755918,4
386901583,386901362,-0.801618,-0.19782658,0.13969302,0.54658884,-0.99834216,-7.7630763e-10,2.3063396e-10,0.05755918,4
387400573,387400185,-0.8545455,-0.093994565,0.042079404,0.5090643,-0.99834216,-7.7630763e-10,2.3063396e-10,0.05755918,4
387899234,387899008,-0.7260918,-0.30404174,-0.4775671,0.39022958,-0.99834216,-7.7630763e-10,2.3063396e-10,0.05755918,4
388398364,388397831,-0.72122204,-0.28551435,-0.53409356,0.3362507,-0.99834216,-7.7630763e-10,2.3063396e-10,0.05755918,4
388896875,388896654,-0.8781118,0.017433938,0.32338884,0.3521866,-0.99834216,-7.7630763e-10,2.3063396e-10,0.05755918,4
389400645,389400415,-0.88750064,-0.03331271,-0.42939964,0.1638564,-0.99834216,-7.7630763e-10,2.3063396e-10,0.05755918,4
389899613,389899238,-0.98389983,0.05490729,0.09630685,-0.1401834,-0.99834216,-7.7630763e-10,2.3063396e-10,0.05755918,4
390398435,390398061,-0.9268056,-0.19496702,0.09456307,-0.30671993,-0.99834216,-7.7630763e-10,2.3063396e-10,0.05755918,4
390902065,390901822,-0.8956301,0.21465467,0.050285224,-0.38631797,-0.99834216,-7.7630763e-10,2.3063396e-10,0.05755918,4
391401006,391400645,-0.85095984,-0.22322258,0.09003926,-0.46683204,-0.99834216,-7.7630763e-10,2.3063396e-10,0.05755918,4
391899712,391899468,-0.83196694,0.18805656,0.14081527,-0.50262994,-0.99834216,-7.7630763e-10,2.3063396e-10,0.05755918,4
392398955,392398291,-0.83600724,-0.02756669,-0.011652453,-0.54790175,-0.99834216,-7.7630763e-10,2.3063396e-10,0.05755918,4
392897333,392897113,-0.85051507,0.18483405,0.058547553,-0.48890984,-0.99834216,-7.7630763e-10,2.3063396e-10,0.05755918,4
393401129,393400874,-0.91648275,0.06286691,0.06344415,-0.38997677,-0.99834216,-7.7630763e-10,2.3063396e-10,0.05755918,4
393900074,393899697,-0.95702094,0.09407513,0.042584326,-0.27101186,-0.99834216,-7.7630763e-10,2.3063396e-10,0.05755918,4
394398743,394398519,-0.98400646,-0.0013970243,0.04076291,-0.17340085,-0.99834216,-7.7630763e-10,2.3063396e-10,0.05755918,4
394902505,394902281,-0.993899,0.022070957,0.048347704,-0.096644714,-0.99834216,-7.7630763e-10,2.3063396e-10,0.05755918,4
395396384,395396165,-0.99697,0.006089263,0.044998854,-0.063158505,-0.99834216,-7.7630763e-10,2.3063396e-10,0.05755918,4
395900146,395899926,-0.9970896,-0.008670796,0.050142344,-0.056771383,-0.99834216,-7.7630763e-10,2.3063396e-10,0.05755918,4
396399156,396398749,-0.9972809,0.007115757,0.04663654,-0.056614086,-0.99834216,-7.7630763e-10,2.3063396e-10,0.05755918,4
396897792,396897571,-0.9969794,0.015137709,0.034601584,-0.06786551,-0.99834216,-7.7630763e-10,2.3063396e-10,0.05755918,4
397401552,397401333,-0.9967422,0.00029199442,0.03888285,-0.07066161,-0.99834216,-7.7630763e-10,2.3063396e-10,0.05755918,4
397900550,397900155,-0.99511546,-0.0012540366,0.06435799,-0.07484531,-0.99834216,-7.7630763e-10,2.3063396e-10,0.05755918,4
398399203,398398978,-0.99568653,0.0018155199,0.054019507,-0.07541217,-0.99834216,-7.7630763e-10,2.3063396e-10,0.05755918,4
398898179,398897801,-0.9967739,0.015979009,0.045814037,-0.063934475,-0.99834216,-7.7630763e-10,2.3063396e-10,0.05755918,4
399396864,399396624,-0.9974159,0.03944362,0.037013028,-0.047285356,-0.99834216,-7.7630763e-10,2.3063396e-10,0.05755918,4
399900604,399900385,-0.99719894,0.054187573,0.044487253,-0.026057227,-0.99834216,-7.7630763e-10,2.3063396e-10,0.05755918,4
400399590,400399208,-0.9989312,0.031573422,0.030213283,-0.015057014,-0.99834216,-7.7630763e-10,2.3063396e-10,0.05755918,4
400898251,400898031,-0.99817365,0.044311617,0.040340185,0.007653827,-0.99834216,-7.7630763e-10,2.3063396e-10,0.05755918,4
401402027,401401793,-0.9984703,0.042962506,0.032237995,0.013115268,-0.99834216,-7.7630763e-10,2.3063396e-10,0.05755918,4
401900998,401900616,-0.99779874,0.035574146,0.049270973,0.026546761,-0.99834216,-7.7630763e-10,2.3063396e-10,0.05755918,4
402399660,402399439,-0.9990351,0.01486356,0.022254976,0.034824483,-0.99834216,-7.7630763e-10,2.3063396e-10,0.05755918,4
402899148,402898262,-0.997258,0.04463223,0.03884536,0.04444716,-0.99834216,-7.7630763e-10,2.3063396e-10,0.05755918,4
403397304,403397085,-0.9986284,0.019015495,0.026539724,0.040933695,-0.99834216,-7.7630763e-10,2.3063396e-10,0.05755918,4
403901066,403900847,-0.99723476,0.04753715,0.027458906,0.0500902,-0.99834216,-7.7630763e-10,2.3063396e-10,0.05755918,4
404400050,404399670,-0.9983972,0.018047893,0.018110527,0.050490774,-0.99834216,-7.7630763e-10,2.3063396e-10,0.05755918,4
404898712,404898493,-0.9982474,0.027997948,0.030630853,0.04219057,-0.99834216,-7.7630763e-10,2.3063396e-10,0.05755918,4
405402501,405402255,-0.99801445,0.039760303,0.030585695,0.038088974,-0.99834216,-7.7630763e-10,2.3063396e-10,0.05755918,4
405896473,405896140,-0.99899006,0.017534588,0.027519602,0.030889181,-0.99834216,-7.7630763e-10,2.3063396e-10,0.05755918,4
406400126,406399902,-0.99833703,0.021795362,-0.032521367,0.042315565,-0.99834216,-7.7630763e-10,2.3063396e-10,0.05755918,4
406899582,406898726,-0.9984051,0.0051956642,-0.028819857,0.048267864,-0.99834216,-7.7630763e-10,2.3063396e-10,0.05755918,4
407397770,407397549,-0.99706066,-0.0031623382,-0.06693596,0.037144452,-0.99834216,-7.7630763e-10,2.3063396e-10,0.05755918,4
407901636,407901312,-0.9996069,0.010156175,-0.024587628,0.008852474,-0.99834216,-7.7630763e-10,2.3063396e-10,0.05755918,4
408400513,408400136,-0.9993774,-0.00060820667,-0.020171562,-0.028938964,-0.99834216,-7.7630763e-10,2.3063396e-10,0.05755918,4
408899728,408898960,-0.99766964,0.013688348,0.020317359,-0.063680924,-0.99834216,-7.7630763e-10,2.3063396e-10,0.05755918,4
409398226,409397783,-0.9888176,0.028588042,-0.12398515,-0.077783585,-0.99834216,-7.7630763e-10,2.3063396e-10,0.05755918,4
409897000,409896607,-0.99289584,0.0728556,-0.031796355,-0.08853798,-0.99834216,-7.7630763e-10,2.3063396e-10,0.05755918,4
410400623,410400370,-0.983056,0.15592948,-0.055939075,-0.07847226,-0.99834216,-7.7630763e-10,2.3063396e-10,0.05755918,4
410899913,410899195,-0.9910341,0.10894909,-0.008163953,-0.076909065,-0.99834216,-7.7630763e-10,2.3063396e-10,0.05755918,4
411398239,411398019,-0.99789304,0.019904492,0.009906767,-0.06095278,-0.99834216,-7.7630763e-10,2.3063396e-10,0.05755918,4
411902128,411901785,-0.99759716,-0.02568365,0.05078737,-0.03950781,-0.99834216,-7.7630763e-10,2.3063396e-10,0.05755918,4
412401025,412400607,-0.998213,-0.017459089,0.04726043,-0.032131538,-0.99834216,-7.7630763e-10,2.3063396e-10,0.05755918,4
412899944,412899431,-0.9982942,-0.023629531,0.03545428,-0.03991884,-0.99834216,-7.7630763e-10,2.3063396e-10,0.05755918,4
413398643,413398256,-0.99750173,-0.016014664,0.037302375,-0.057812933,-0.99834216,-7.7630763e-10,2.3063396e-10,0.05755918,4
413897301,413897081,-0.9950902,-0.025992889,0.034845892,-0.08891395,-0.99834216,-7.7630763e-10,2.3063396e-10,0.05755918,4
414401067,414400844,-0.99179894,-0.023385732,0.033577852,-0.121080786,-0.99834216,-7.7630763e-10,2.3063396e-10,0.05755918,4
414900236,414899670,-0.9878594,0.039808653,-0.041084267,-0.14443429,-0.99834216,-7.7630763e-10,2.3063396e-10,0.05755918,4
415398738,415398495,-0.97924507,0.14055564,-0.042248975,-0.13977914,-0.99834216,-7.7630763e-10,2.3063396e-10,0.05755918,4
415897701,415897320,-0.9829455,0.1267812,-0.038638618,-0.12748235,-0.99834216,-7.7630763e-10,2.3063396e-10,0.05755918,4
416396371,416396145,-0.9924256,0.047576457,0.019375991,-0.111590296,-0.99834216,-7.7630763e-10,2.3063396e-10,0.05755918,4
416900437,416899910,-0.99286777,-0.07067675,0.02258994,-0.093316905,-0.99834216,-7.7630763e-10,2.3063396e-10,0.05755918,4
417399131,417398735,-0.99119264,-0.092451915,0.032516032,-0.089064784,-0.99834216,-7.7630763e-10,2.3063396e-10,0.05755918,4
417897784,417897561,-0.9902133,-0.050229188,0.06446448,-0.11313336,-0.99834216,-7.7630763e-10,2.3063396e-10,0.05755918,4
418401548,418401325,-0.9882342,-0.027076054,0.04097106,-0.14484984,-0.99834216,-7.7630763e-10,2.3063396e-10,0.05755918,4
418900587,418900151,-0.9835169,-0.021826645,0.040386435,-0.17489175,-0.99834216,-7.7630763e-10,2.3063396e-10,0.05755918,4
419399256,419398977,-0.9795941,-0.016431043,0.018943047,-0.19941552,-0.99834216,-7.7630763e-10,2.3063396e-10,0.05755918,4
419898183,419897804,-0.9761127,-0.0069525377,0.012986191,-0.21676524,-0.99834216,-7.7630763e-10,2.3063396e-10,0.05755918,4
420396873,420396630,-0.9733454,-0.0101152,0.018711343,-0.22835597,-0.99834216,-7.7630763e-10,2.3063396e-10,0.05755918,4
420900622,420900395,-0.97136015,-0.008502839,0.018381476,-0.23674761,-0.99834216,-7.7630763e-10,2.3063396e-10,0.05755918,4
421399597,421399222,-0.9698295,0.010660587,0.0035593184,-0.24352491,-0.99834216,-7.7630763e-10,2.3063396e-10,0.05755918,4
421898267,421898049,-0.96919143,0.01391947,0.013143589,-0.24556367,-0.99834216,-7.7630763e-10,2.3063396e-10,0.05755918,4
422402037,422401814,-0.9695097,0.016280038,0.021419037,-0.24357188,-0.99834216,-7.7630763e-10,2.3063396e-10,0.05755918,4
422901019,422900641,-0.9707873,0.016244462,0.015239628,-0.23890585,-0.99834216,-7.7630763e-10,2.3063396e-10,0.05755918,4
423399693,423399468,-0.9728189,0.008091496,0.012705823,-0.23107697,-0.99834216,-7.7630763e-10,2.3063396e-10,0.05755918,4
423898677,423898296,-0.97515446,0.0049908375,0.013731922,-0.22104396,-0.99834216,-7.7630763e-10,2.3063396e-10,0.05755918,4
424397343,424397123,-0.9763753,0.00444854,0.012845864,-0.21565352,-0.99834216,-7.7630763e-10,2.3063396e-10,0.05755918,4
424901117,424900889,-0.9759992,-0.0036237398,0.006885623,-0.21763511,-0.99834216,-7.7630763e-10,2.3063396e-10,0.05755918,4
425400099,425399717,-0.975061,-0.002308814,0.0047378126,-0.22187458,-0.99834216,-7.7630763e-10,2.3063396e-10,0.05755918,4
425898778,425898545,-0.97490346,0.010699373,0.008522419,-0.22220767,-0.99834216,-7.7630763e-10,2.3063396e-10,0.05755918,4
426402537,426402312,-0.97485685,-0.003083747,0.011388435,-0.22251937,-0.99834216,-7.7630763e-10,2.3063396e-10,0.05755918,4
426896423,426896201,-0.9748976,0.0007299543,0.017958893,-0.22192729,-0.99834216,-7.7630763e-10,2.3063396e-10,0.05755918,4
427400191,427399968,-0.9752166,0.002529984,0.01625077,-0.22064005,-0.99834216,-7.7630763e-10,2.3063396e-10,0.05755918,4
427899241,427898796,-0.97560376,0.0023904361,0.016242044,-0.21892418,-0.99834216,-7.7630763e-10,2.3063396e-10,0.05755918,4
428397854,428397625,-0.9762911,0.0031091669,0.012375461,-0.2160857,-0.99834216,-7.7630763e-10,2.3063396e-10,0.05755918,4
428901611,428901392,-0.9766904,0.0014832063,0.012720158,-0.21427076,-0.99834216,-7.7630763e-10,2.3063396e-10,0.05755918,4
429401107,429400221,-0.97660416,0.008616494,0.017206877,-0.2141823,-0.99834216,-7.7630763e-10,2.3063396e-10,0.05755918,4
429899268,429899050,-0.977182,0.012668654,0.020148233,-0.21106608,-0.99834216,-7.7630763e-10,2.3063396e-10,0.05755918,4
430398412,430397879,-0.9774825,-0.007613194,0.01121836,-0.21058065,-0.99834216,-7.7630763e-10,2.3063396e-10,0.05755918,4
430896929,430896708,-0.9788579,0.01904376,0.025614636,-0.20203613,-0.99834216,-7.7630763e-10,2.3063396e-10,0.05755918,4
431400716,431400476,-0.98132885,0.016471835,0.018415047,-0.19074404,-0.99834216,-7.7630763e-10,2.3063396e-10,0.05755918,4
431899688,431899306,-0.98241675,0.0054358128,0.008478749,-0.18642944,-0.99834216,-7.7630763e-10,2.3063396e-10,0.05755918,4
432398471,432398136,-0.9826033,0.0011517142,0.009538972,-0.18546838,-0.99834216,-7.7630763e-10,2.3063396e-10,0.05755918,4
432902127,432901904,-0.98241717,0.017401371,0.01062032,-0.18558319,-0.99834216,-7.7630763e-10,2.3063396e-10,0.05755918,4
433401607,433400734,-0.98365766,0.020401787,0.0042860415,-0.17883842,-0.99834216,-7.7630763e-10,2.3063396e-10,0.05755918,4
433899794,433899564,-0.98553634,0.015803298,0.014308343,-0.16811784,-0.99834216,-7.7630763e-10,2.3063396e-10,0.05755918,4
434398875,434398395,-0.98651546,0.013458699,0.013120667,-0.16258517,-0.99834216,-7.7630763e-10,2.3063396e-10,0.05755918,4
434897446,434897225,-0.98658353,0.009503792,0.013657322,-0.16240731,-0.99834216,-7.7630763e-10,2.3063396e-10,0.05755918,4
435401639,435400995,-0.986499,0.014108546,0.0109223565,-0.16279262,-0.99834216,-7.7630763e-10,2.3063396e-10,0.05755918,4
435900221,435899825,-0.98647064,0.018810939,0.014243273,-0.16223106,-0.99834216,-7.7630763e-10,2.3063396e-10,0.05755918,4
436398976,436398656,-0.9866544,0.004297079,0.018619804,-0.16170362,-0.99834216,-7.7630763e-10,2.3063396e-10,0.05755918,4
436902656,436902427,-0.9851677,0.011863661,0.021199169,-0.16986659,-0.99834216,-7.7630763e-10,2.3063396e-10,0.05755918,4
437396828,437396319,-0.98404205,-0.00083525607,0.013567668,-0.17741624,-0.99834216,-7.7630763e-10,2.3063396e-10,0.05755918,4
437900340,437900089,-0.9827341,-0.0052842293,0.014194379,-0.18440308,-0.99834216,-7.7630763e-10,2.3063396e-10,0.05755918,4
438399323,438398921,-0.98343366,0.0015717006,0.010995848,-0.18092753,-0.99834216,-7.7630763e-10,2.3063396e-10,0.05755918,4
438898002,438897752,-0.98313296,-0.015385448,0.0050307596,-0.1821744,-0.99834216,-7.7630763e-10,2.3063396e-10,0.05755918,4
439401958,439401523,-0.98335695,-0.0027707394,0.009950048,-0.18139032,-0.99834216,-7.7630763e-10,2.3063396e-10,0.05755918,4
439900736,439900355,-0.9842482,0.00049261656,0.0065147374,-0.17667186,-0.99834216,-7.7630763e-10,2.3063396e-10,0.05755918,4
440399408,440399188,-0.98385715,-0.0048457575,0.0101715075,-0.17860056,-0.99834216,-7.7630763e-10,2.3063396e-10,0.05755918,4
440898403,440898020,-0.9835586,-0.007855474,0.008332257,-0.18022606,-0.99834216,-7.7630763e-10,2.3063396e-10,0.05755918,4
441397082,441396853,-0.982554,-0.0067170034,0.021124544,-0.18465154,-0.99834216,-7.7630763e-10,2.3063396e-10,0.05755918,4
441900847,441900624,-0.9817171,-0.011027501,0.014509424,-0.18947135,-0.99834216,-7.7630763e-10,2.3063396e-10,0.05755918,4
442399837,442399457,-0.9811534,0.0062228115,0.014497196,-0.1925854,-0.99834216,-7.7630763e-10,2.3063396e-10,0.05755918,4
442898511,442898290,-0.9806167,0.009315745,0.016110968,-0.19505034,-0.99834216,-7.7630763e-10,2.3063396e-10,0.05755918,4
443402332,443402062,-0.9805065,-0.00028419602,0.008412155,-0.19630648,-0.99834216,-7.7630763e-10,2.3063396e-10,0.05755918,4
443901274,443900896,-0.9803731,0.010321072,0.011602623,-0.19653885,-0.99834216,-7.7630763e-10,2.3063396e-10,0.05755918,4
444399976,444399729,-0.9810105,0.008196218,0.011019231,-0.19346781,-0.99834216,-7.7630763e-10,2.3063396e-10,0.05755918,4
444899001,444898563,-0.9814968,0.009380502,0.012608774,-0.19083256,-0.99834216,-7.7630763e-10,2.3063396e-10,0.05755918,4
445397623,445397397,-0.98339945,0.015145997,0.013576211,-0.1803105,-0.99834216,-7.7630763e-10,2.3063396e-10,0.05755918,4
445901388,445901170,-0.9857011,0.015486257,0.011348662,-0.16740638,-0.99834216,-7.7630763e-10,2.3063396e-10,0.05755918,4
446400410,446400005,-0.98767763,0.011285269,0.009617528,-0.15579842,-0.99834216,-7.7630763e-10,2.3063396e-10,0.05755918,4
446899066,446898839,-0.98990726,0.0049135885,0.018264776,-0.14044948,-0.99834216,-7.7630763e-10,2.3063396e-10,0.05755918,4
447402845,447402613,-0.990995,0.019273156,0.016496686,-0.13147385,-0.99834216,-7.7630763e-10,2.3063396e-10,0.05755918,4
447896735,447896508,-0.991961,0.018244551,0.008955808,-0.12490094,-0.99834216,-7.7630763e-10,2.3063396e-10,0.05755918,4
448400516,448400282,-0.9934458,0.007088771,0.0053584115,-0.11395808,-0.99834216,-7.7630763e-10,2.3063396e-10,0.05755918,4
448899514,448899118,-0.9936418,-0.0030942217,0.008981347,-0.11218629,-0.99834216,-7.7630763e-10,2.3063396e-10,0.05755918,4
449398174,449397953,-0.9924607,-0.01125516,0.0058426023,-0.1219058,-0.99834216,-7.7630763e-10,2.3063396e-10,0.05755918,4
449901949,449901727,-0.9908358,-0.014858346,0.008756972,-0.13396603,-0.99834216,-7.7630763e-10,2.3063396e-10,0.05755918,4
450400941,450400563,-0.9886094,-0.020225614,0.014250329,-0.14845684,-0.99834216,-7.7630763e-10,2.3063396e-10,0.05755918,4
450899623,450899399,-0.9871826,-0.0067065693,0.009166067,-0.15919045,-0.99834216,-7.7630763e-10,2.3063396e-10,0.05755918,4
451398618,451398235,-0.98507625,-0.006791731,0.010241615,-0.17167939,-0.99834216,-7.7630763e-10,2.3063396e-10,0.05755918,4
451897293,451897071,-0.9831732,-0.0004415055,0.0008284457,-0.1826735,-0.99834216,-7.7630763e-10,2.3063396e-10,0.05755918,4
452401069,452400847,-0.98153853,-0.002767198,0.006463885,-0.19113515,-0.99834216,-7.7630763e-10,2.3063396e-10,0.05755918,4
452900166,452899683,-0.98057306,-0.003664661,0.011245793,-0.19579731,-0.99834216,-7.7630763e-10,2.3063396e-10,0.05755918,4
453398745,453398520,-0.9799594,0.004486102,0.010664466,-0.19886102,-0.99834216,-7.7630763e-10,2.3063396e-10,0.05755918,4
453902518,453902296,-0.9797742,0.0023369477,0.013469521,-0.19963935,-0.99834216,-7.7630763e-10,2.3063396e-10,0.05755918,4
454401510,454401133,-0.9795257,-0.0141041465,0.023585958,-0.19943506,-0.99834216,-7.7630763e-10,2.3063396e-10,0.05755918,4
454900217,454899970,-0.9796802,0.008228855,0.02135287,-0.19925684,-0.99834216,-7.7630763e-10,2.3063396e-10,0.05755918,4
455399208,455398808,-0.9797433,0.016028764,0.00914263,-0.19940567,-0.99834216,-7.7630763e-10,2.3063396e-10,0.05755918,4
455898281,455897645,-0.9805557,0.00044917676,0.012141245,-0.1958647,-0.99834216,-7.7630763e-10,2.3063396e-10,0.05755918,4
456401646,456401422,-0.98214525,0.019136388,0.0025717271,-0.18713117,-0.99834216,-7.7630763e-10,2.3063396e-10,0.05755918,4
456900812,456900260,-0.9832392,0.006573971,0.00062329957,-0.182201,-0.99834216,-7.7630763e-10,2.3063396e-10,0.05755918,4
457399347,457399098,-0.9824495,0.004058772,0.008530944,-0.18628985,-0.99834216,-7.7630763e-10,2.3063396e-10,0.05755918,4
457903566,457902876,-0.9821212,0.0030814353,0.010889928,-0.18790948,-0.99834216,-7.7630763e-10,2.3063396e-10,0.05755918,4
458397024,458396775,-0.98244184,0.0070037358,0.009326256,-0.1862044,-0.99834216,-7.7630763e-10,2.3063396e-10,0.05755918,4
458896105,458895614,-0.98276544,0.0013621507,0.014254286,-0.18430161,-0.99834216,-7.7630763e-10,2.3063396e-10,0.05755918,4
459399794,459399392,-0.98288757,-0.002729602,0.015262665,-0.18355267,-0.99834216,-7.7630763e-10,2.3063396e-10,0.05755918,4
459898687,459898231,-0.98252046,0.0023921358,0.019827293,-0.18508035,-0.99834216,-7.7630763e-10,2.3063396e-10,0.05755918,4
460402249,460402009,-0.9827123,0.003947484,0.017824259,-0.18423702,-0.99834216,-7.7630763e-10,2.3063396e-10,0.05755918,4
460901260,460900848,-0.98285615,-8.3902756e-05,0.0118914265,-0.18399072,-0.99834216,-7.7630763e-10,2.3063396e-10,0.05755918,4
461399931,461399688,-0.9817699,-0.0067138267,0.00824146,-0.18977556,-0.99834216,-7.7630763e-10,2.3063396e-10,0.05755918,4
461899046,461898528,-0.9818335,0.009309371,0.018447038,-0.18861622,-0.99834216,-7.7630763e-10,2.3063396e-10,0.05755918,4
462397591,462397368,-0.98190373,0.0030354452,0.00645695,-0.18924673,-0.99834216,-7.7630763e-10,2.3063396e-10,0.05755918,4
462896607,462896208,-0.98117924,-0.0016551313,0.00918157,-0.19287392,-0.99834216,-7.7630763e-10,2.3063396e-10,0.05755918,4
463400366,463399987,-0.980938,0.007891697,0.008373264,-0.19398007,-0.99834216,-7.7630763e-10,2.3063396e-10,0.05755918,4
463899069,463898828,-0.9812704,0.01792556,0.0002698827,-0.19180007,-0.99834216,-7.7630763e-10,2.3063396e-10,0.05755918,4
