timestamp,timestamp_sample,gps_hvel[0],gps_hvel[1],gps_vvel,gps_hpos[0],gps_hpos[1],gps_vpos,ev_hvel[0],ev_hvel[1],ev_vvel,ev_hpos[0],ev_hpos[1],ev_vpos,rng_vpos,baro_vpos,aux_hvel[0],aux_hvel[1],aux_vvel,flow[0],flow[1],heading,mag_field[0],mag_field[1],mag_field[2],drag[0],drag[1],airspeed,beta,hagl,hagl_rate
217797170,217697930,6.421504e-05,0.0,7.818399e-05,5.035056e-05,0.0,0.0,0.0,0.0,0.0,0.0,0.0,0.0,0.0,0.00046123995,0.0,0.0,nan,0.0,0.0,0.0052435664,0.0,0.0,0.0,0.0,0.0,0.0,0.0,0.0,0.0
218301081,218201700,3.7245543e-05,0.0,0.0003714751,5.7627523e-05,0.0,0.0,0.0,0.0,0.0,0.0,0.0,0.0,0.0,0.00011131527,0.0,0.0,nan,0.0,0.0,0.0040621543,0.0,0.0,0.0,0.0,0.0,0.0,0.0,0.0,0.0
218794952,218695593,4.5541556e-06,0.0,0.0006333024,5.3924858e-05,0.0,0.0,0.0,0.0,0.0,0.0,0.0,0.0,0.0,5.229434e-05,0.0,0.0,nan,0.0,0.0,0.006320452,0.0,0.0,0.0,0.0,0.0,0.0,0.0,0.0,0.0
219299069,219199364,0.00035286028,0.0,0.0002675681,4.3005977e-05,0.0,0.0,0.0,0.0,0.0,0.0,0.0,0.0,0.0,0.00023854099,0.0,0.0,nan,0.0,0.0,0.0046151984,0.0,0.0,0.0,0.0,0.0,0.0,0.0,0.0,0.0
219802370,219703135,0.0023187138,0.0,0.00088632293,2.8808403e-05,0.0,0.0,0.0,0.0,0.0,0.0,0.0,0.0,0.0,0.0012665308,0.0,0.0,nan,0.0,0.0,0.0005068506,0.0,0.0,0.0,0.0,0.0,0.0,0.0,0.0,0.0
220296432,220197029,0.0012599331,0.0,2.8831187e-06,3.1483465e-05,0.0,0.0,0.0,0.0,0.0,0.0,0.0,0.0,0.0,1.5844997e-05,0.0,0.0,nan,0.0,0.0,0.0010736206,0.0,0.0,0.0,0.0,0.0,0.0,0.0,0.0,0.0
220800018,220700800,0.00048708712,0.0,3.8359294e-06,3.9084964e-05,0.0,0.0,0.0,0.0,0.0,0.0,0.0,0.0,0.0,0.0,0.0,0.0,nan,0.0,0.0,0.00072376686,0.0,0.0,0.0,0.0,0.0,0.0,0.0,0.0,0.0
221294400,221194694,0.00022334738,0.0,0.00026912102,5.8462876e-05,0.0,0.0,0.0,0.0,0.0,0.0,0.0,0.0,0.0,0.00048787994,0.0,0.0,nan,0.0,0.0,0.001800931,0.0,0.0,0.0,0.0,0.0,0.0,0.0,0.0,0.0
221797687,221698465,0.00018534849,0.0,2.8535023e-05,6.458475e-05,0.0,0.0,0.0,0.0,0.0,0.0,0.0,0.0,0.0,0.0004219878,0.0,0.0,nan,0.0,0.0,0.0028963422,0.0,0.0,0.0,0.0,0.0,0.0,0.0,0.0,0.0
222301577,222202237,0.0013713203,0.0,0.00013062282,3.8659633e-05,0.0,0.0,0.0,0.0,0.0,0.0,0.0,0.0,0.0,0.00023253524,0.0,0.0,nan,0.0,0.0,0.0053988113,0.0,0.0,0.0,0.0,0.0,0.0,0.0,0.0,0.0
222795398,222696131,0.000293277,0.0,0.00062256126,5.236956e-05,0.0,0.0,0.0,0.0,0.0,0.0,0.0,0.0,0.0,0.00087658927,0.0,0.0,nan,0.0,0.0,0.011352874,0.0,0.0,0.0,0.0,0.0,0.0,0.0,0.0,0.0
223299766,223199903,0.00181983,0.0,0.00025479947,5.4791097e-05,0.0,0.0,0.0,0.0,0.0,0.0,0.0,0.0,0.0,0.0039276574,0.0,0.0,nan,0.0,0.0,0.02408818,0.0,0.0,0.0,0.0,0.0,0.0,0.0,0.0,0.0
223793174,223693797,0.0017865447,0.0,0.0038116113,6.767818e-05,0.0,0.0,0.0,0.0,0.0,0.0,0.0,0.0,0.0,0.00035209928,0.0,0.0,nan,0.0,0.0,0.022185178,0.0,0.0,0.0,0.0,0.0,0.0,0.0,0.0,0.0
224296981,224197570,0.0011943424,0.0,0.00050847686,5.8522077e-05,0.0,0.0,0.0,0.0,0.0,0.0,0.0,0.0,0.0,0.0,0.0,0.0,nan,0.0,0.0,0.026987132,0.0,0.0,0.0,0.0,0.0,0.0,0.0,0.0,0.0
224800553,224701343,0.0067426986,0.0,0.00061953533,5.7408706e-05,0.0,0.0,0.0,0.0,0.0,0.0,0.0,0.0,0.0,0.00022525333,0.0,0.0,nan,0.0,0.0,0.02810099,0.0,0.0,0.0,0.0,0.0,0.0,0.0,0.0,0.0
225294781,225195238,0.0008687197,0.0,0.00056762627,6.27756e-05,0.0,0.0,0.0,0.0,0.0,0.0,0.0,0.0,0.0,0.0,0.0,0.0,nan,0.0,0.0,0.028660446,0.0,0.0,0.0,0.0,0.0,0.0,0.0,0.0,0.0
225798321,225699010,0.0022640296,0.0,0.00014133325,6.088636e-05,0.0,0.0,0.0,0.0,0.0,0.0,0.0,0.0,0.0,0.0,0.0,0.0,nan,0.0,0.0,0.024614941,0.0,0.0,0.0,0.0,0.0,0.0,0.0,0.0,0.0
226302103,226202784,0.0011960171,0.0,5.9847745e-05,8.559565e-05,0.0,0.0,0.0,0.0,0.0,0.0,0.0,0.0,0.0,0.0,0.0,0.0,nan,0.0,0.0,8.481491e-06,0.0,0.0,0.0,0.0,0.0,0.0,0.0,0.0,0.0
226795944,226696679,0.0021551275,0.0,0.00021444033,5.188588e-05,0.0,0.0,0.0,0.0,0.0,0.0,0.0,0.0,0.0,0.0,0.0,0.0,nan,0.0,0.0,1.5004241e-06,0.0,0.0,0.0,0.0,0.0,0.0,0.0,0.0,0.0
227299922,227200452,0.005979392,0.0,5.7195146e-05,4.1747404e-05,0.0,0.0,0.0,0.0,0.0,0.0,0.0,0.0,0.0,0.0,0.0,0.0,nan,0.0,0.0,8.581486e-05,0.0,0.0,0.0,0.0,0.0,0.0,0.0,0.0,0.0
227793618,227694348,0.0010720036,0.0,0.0004730372,5.77665e-05,0.0,0.0,0.0,0.0,0.0,0.0,0.0,0.0,0.0,5.023417e-05,0.0,0.0,nan,0.0,0.0,8.78361e-06,0.0,0.0,0.0,0.0,0.0,0.0,0.0,0.0,0.0
228297333,228198121,0.013058739,0.0,4.4226577e-05,0.00016448309,0.0,0.0,0.0,0.0,0.0,0.0,0.0,0.0,0.0,0.0004503653,0.0,0.0,nan,0.0,0.0,0.00017959283,0.0,0.0,0.0,0.0,0.0,0.0,0.0,0.0,0.0
228801115,228701895,0.003178308,0.0,0.00030069562,8.449238e-05,0.0,0.0,0.0,0.0,0.0,0.0,0.0,0.0,0.0,9.558287e-05,0.0,0.0,nan,0.0,0.0,0.00038619858,0.0,0.0,0.0,0.0,0.0,0.0,0.0,0.0,0.0
229295027,229195791,0.00053622515,0.0,0.0020761818,0.00017645807,0.0,0.0,0.0,0.0,0.0,0.0,0.0,0.0,0.0,0.0,0.0,0.0,nan,0.0,0.0,4.2392683e-05,0.0,0.0,0.0,0.0,0.0,0.0,0.0,0.0,0.0
229798837,229699565,0.0054103257,0.0,7.652192e-06,0.00016920491,0.0,0.0,0.0,0.0,0.0,0.0,0.0,0.0,0.0,0.0,0.0,0.0,nan,0.0,0.0,0.0003355652,0.0,0.0,0.0,0.0,0.0,0.0,0.0,0.0,0.0
230302682,230203339,0.00894855,0.0,0.0001244202,0.00029168176,0.0,0.0,0.0,0.0,0.0,0.0,0.0,0.0,0.0,0.0,0.0,0.0,nan,0.0,0.0,1.760713e-06,0.0,0.0,0.0,0.0,0.0,0.0,0.0,0.0,0.0
230796465,230697235,0.0029006936,0.0,0.0009277709,0.0002845752,0.0,0.0,0.0,0.0,0.0,0.0,0.0,0.0,0.0,0.0011312341,0.0,0.0,nan,0.0,0.0,1.6438962e-08,0.0,0.0,0.0,0.0,0.0,0.0,0.0,0.0,0.0
231300381,231201009,0.008673388,0.0,0.0010670782,0.00018691819,0.0,0.0,0.0,0.0,0.0,0.0,0.0,0.0,0.0,0.0,0.0,0.0,nan,0.0,0.0,1.9470705e-05,0.0,0.0,0.0,0.0,0.0,0.0,0.0,0.0,0.0
231794226,231694906,0.0030821848,0.0,0.00021374696,0.00026474622,0.0,0.0,0.0,0.0,0.0,0.0,0.0,0.0,0.0,0.0,0.0,0.0,nan,0.0,0.0,6.48274e-08,0.0,0.0,0.0,0.0,0.0,0.0,0.0,0.0,0.0
232297953,232198683,0.0014434933,0.0,0.00020179372,0.0003069981,0.0,0.0,0.0,0.0,0.0,0.0,0.0,0.0,0.0,0.0,0.0,0.0,nan,0.0,0.0,1.2859753e-05,0.0,0.0,0.0,0.0,0.0,0.0,0.0,0.0,0.0
232801677,232702456,0.003980978,0.0,6.4333064e-05,0.0002429596,0.0,0.0,0.0,0.0,0.0,0.0,0.0,0.0,0.0,0.0,0.0,0.0,nan,0.0,0.0,0.000250979,0.0,0.0,0.0,0.0,0.0,0.0,0.0,0.0,0.0
233295628,233196353,0.0045868796,0.0,0.0003238196,0.00019607156,0.0,0.0,0.0,0.0,0.0,0.0,0.0,0.0,0.0,3.2471104e-05,0.0,0.0,nan,0.0,0.0,1.3181964e-06,0.0,0.0,0.0,0.0,0.0,0.0,0.0,0.0,0.0
233799343,233700128,0.0059987246,0.0,0.00075647153,0.00018942798,0.0,0.0,0.0,0.0,0.0,0.0,0.0,0.0,0.0,0.00052974134,0.0,0.0,nan,0.0,0.0,3.77101e-05,0.0,0.0,0.0,0.0,0.0,0.0,0.0,0.0,0.0
234293279,234194025,0.00047758888,0.0,0.001236567,0.00015700876,0.0,0.0,0.0,0.0,0.0,0.0,0.0,0.0,0.0,0.007281117,0.0,0.0,nan,0.0,0.0,4.655321e-06,0.0,0.0,0.0,0.0,0.0,0.0,0.0,0.0,0.0
234797078,234697800,0.00033256988,0.0,0.001180997,0.00021164754,0.0,0.0,0.0,0.0,0.0,0.0,0.0,0.0,0.0,0.0002863464,0.0,0.0,nan,0.0,0.0,2.9169414e-06,0.0,0.0,0.0,0.0,0.0,0.0,0.0,0.0,0.0
235300796,235201576,0.0026592342,0.0,0.007194496,0.00020290792,0.0,0.0,0.0,0.0,0.0,0.0,0.0,0.0,0.0,0.00057840673,0.0,0.0,nan,0.0,0.0,0.002908913,0.0,0.0,0.0,0.0,0.0,0.0,0.0,0.0,0.0
235794693,235695474,0.0041186917,0.0,0.022353102,0.00016883352,0.0,0.0,0.0,0.0,0.0,0.0,0.0,0.0,0.0,6.7224905e-06,0.0,0.0,nan,0.0,0.0,0.009524937,0.0,0.0,0.0,0.0,0.0,0.0,0.0,0.0,0.0
236298521,236199249,0.0007044798,0.0,0.00038021212,6.5171895e-05,0.0,0.0,0.0,0.0,0.0,0.0,0.0,0.0,0.0,2.0086816e-05,0.0,0.0,nan,0.0,0.0,1.7870467e-05,0.0,0.0,0.0,0.0,0.0,0.0,0.0,0.0,0.0
236802297,236703025,0.0025612232,0.0,0.00033599001,0.00013217061,0.0,0.0,0.0,0.0,0.0,0.0,0.0,0.0,0.0,0.004086832,0.0,0.0,nan,0.0,0.0,0.00046617325,0.0,0.0,0.0,0.0,0.0,0.0,0.0,0.0,0.0
237296160,237196924,2.3960632e-05,0.0,0.0021670721,0.00011670885,0.0,0.0,0.0,0.0,0.0,0.0,0.0,0.0,0.0,0.00027793035,0.0,0.0,nan,0.0,0.0,0.00025631968,0.0,0.0,0.0,0.0,0.0,0.0,0.0,0.0,0.0
237799917,237700700,0.0011958589,0.0,0.00198892,6.129578e-05,0.0,0.0,0.0,0.0,0.0,0.0,0.0,0.0,0.0,0.00014816382,0.0,0.0,nan,0.0,0.0,0.0016159401,0.0,0.0,0.0,0.0,0.0,0.0,0.0,0.0,0.0
238293869,238194598,0.00028917156,0.0,0.0009825393,7.446553e-05,0.0,0.0,0.0,0.0,0.0,0.0,0.0,0.0,0.0,0.0016764279,0.0,0.0,nan,0.0,0.0,0.004181948,0.0,0.0,0.0,0.0,0.0,0.0,0.0,0.0,0.0
238797787,238698375,0.00071087154,0.0,0.0060388194,6.704909e-05,0.0,0.0,0.0,0.0,0.0,0.0,0.0,0.0,0.0,0.002597182,0.0,0.0,nan,0.0,0.0,0.0033519724,0.0,0.0,0.0,0.0,0.0,0.0,0.0,0.0,0.0
239301440,239202151,0.0025740298,0.0,0.009163002,9.449204e-05,0.0,0.0,0.0,0.0,0.0,0.0,0.0,0.0,0.0,0.0030932715,0.0,0.0,nan,0.0,0.0,0.004374647,0.0,0.0,0.0,0.0,0.0,0.0,0.0,0.0,0.0
239795751,239696050,0.0013305993,0.0,0.0020888862,4.959359e-05,0.0,0.0,0.0,0.0,0.0,0.0,0.0,0.0,0.0,0.00016659331,0.0,0.0,nan,0.0,0.0,0.0036177267,0.0,0.0,0.0,0.0,0.0,0.0,0.0,0.0,0.0
240299094,240199827,0.0012180539,0.0,0.00035715313,7.503555e-05,0.0,0.0,0.0,0.0,0.0,0.0,0.0,0.0,0.0,0.00055644015,0.0,0.0,nan,0.0,0.0,0.0025092578,0.0,0.0,0.0,0.0,0.0,0.0,0.0,0.0,0.0
240802848,240703604,8.594852e-05,0.0,1.3036161e-05,7.754054e-05,0.0,0.0,0.0,0.0,0.0,0.0,0.0,0.0,0.0,4.417128e-05,0.0,0.0,nan,0.0,0.0,0.0038290946,0.0,0.0,0.0,0.0,0.0,0.0,0.0,0.0,0.0
241296821,241197503,0.00023851907,0.0,0.002931755,6.345436e-05,0.0,0.0,0.0,0.0,0.0,0.0,0.0,0.0,0.0,0.002012082,0.0,0.0,nan,0.0,0.0,0.0034088036,0.0,0.0,0.0,0.0,0.0,0.0,0.0,0.0,0.0
241801143,241701280,0.00471177,0.0,0.00084897876,0.00017523859,0.0,0.0,0.0,0.0,0.0,0.0,0.0,0.0,0.0,0.00067669805,0.0,0.0,nan,0.0,0.0,0.0018581975,0.0,0.0,0.0,0.0,0.0,0.0,0.0,0.0,0.0
242294467,242195180,8.5140294e-07,0.0,0.0002622013,0.00021426374,0.0,0.0,0.0,0.0,0.0,0.0,0.0,0.0,0.0,0.00030161798,0.0,0.0,nan,0.0,0.0,0.0016218554,0.0,0.0,0.0,0.0,0.0,0.0,0.0,0.0,0.0
242798395,242698957,0.003450678,0.0,0.0001826041,0.00035605498,0.0,0.0,0.0,0.0,0.0,0.0,0.0,0.0,0.0,0.0031789623,0.0,0.0,nan,0.0,0.0,0.00091157906,0.0,0.0,0.0,0.0,0.0,0.0,0.0,0.0,0.0
243302124,243202736,0.0024954323,0.0,0.0014905416,0.00034594882,0.0,0.0,0.0,0.0,0.0,0.0,0.0,0.0,0.0,0.0127597535,0.0,0.0,nan,0.0,0.0,0.0013532998,0.0,0.0,0.0,0.0,0.0,0.0,0.0,0.0,0.0
243796359,243696634,0.0029705837,0.0,4.3330774e-06,0.0002903094,0.0,0.0,0.0,0.0,0.0,0.0,0.0,0.0,0.0,4.653934e-05,0.0,0.0,nan,0.0,0.0,0.0016727479,0.0,0.0,0.0,0.0,0.0,0.0,0.0,0.0,0.0
244299720,244200412,0.0019028992,0.0,0.0008505242,0.0001901187,0.0,0.0,0.0,0.0,0.0,0.0,0.0,0.0,0.0,0.019615415,0.0,0.0,nan,0.0,0.0,0.0032208615,0.0,0.0,0.0,0.0,0.0,0.0,0.0,0.0,0.0
244793704,244694312,0.0023816947,0.0,0.0016626607,0.00014746617,0.0,0.0,0.0,0.0,0.0,0.0,0.0,0.0,0.0,0.0022659558,0.0,0.0,nan,0.0,0.0,0.0031711387,0.0,0.0,0.0,0.0,0.0,0.0,0.0,0.0,0.0
245297362,245198090,0.0042710756,0.0,0.00407192,8.502904e-05,0.0,0.0,0.0,0.0,0.0,0.0,0.0,0.0,0.0,7.940316e-08,0.0,0.0,nan,0.0,0.0,0.0024154407,0.0,0.0,0.0,0.0,0.0,0.0,0.0,0.0,0.0
245801595,245701868,0.0037542142,0.0,0.002560564,6.5092594e-05,0.0,0.0,0.0,0.0,0.0,0.0,0.0,0.0,0.0,0.008665245,0.0,0.0,nan,0.0,0.0,0.0032476517,0.0,0.0,0.0,0.0,0.0,0.0,0.0,0.0,0.0
246294981,246195768,0.0017764306,0.0,0.00025727032,3.8902337e-05,0.0,0.0,0.0,0.0,0.0,0.0,0.0,0.0,0.0,0.005000397,0.0,0.0,nan,0.0,0.0,0.0026111463,0.0,0.0,0.0,0.0,0.0,0.0,0.0,0.0,0.0
246798986,246699546,0.00048892346,0.0,2.1812853e-05,3.9138646e-05,0.0,0.0,0.0,0.0,0.0,0.0,0.0,0.0,0.0,0.00011884249,0.0,0.0,nan,0.0,0.0,0.00027404985,0.0,0.0,0.0,0.0,0.0,0.0,0.0,0.0,0.0
247302603,247203324,0.00291084,0.0,2.079681e-05,0.00010102406,0.0,0.0,0.0,0.0,0.0,0.0,0.0,0.0,0.0,0.0052223457,0.0,0.0,nan,0.0,0.0,0.0011589016,0.0,0.0,0.0,0.0,0.0,0.0,0.0,0.0,0.0
247796729,247697225,0.00010812932,0.0,0.00636683,8.5040694e-05,0.0,0.0,0.0,0.0,0.0,0.0,0.0,0.0,0.0,0.00072597456,0.0,0.0,nan,0.0,0.0,0.00039171253,0.0,0.0,0.0,0.0,0.0,0.0,0.0,0.0,0.0
248300238,248201003,0.0017347069,0.0,0.002444923,8.48527e-05,0.0,0.0,0.0,0.0,0.0,0.0,0.0,0.0,0.0,1.874506e-05,0.0,0.0,nan,0.0,0.0,0.0013663814,0.0,0.0,0.0,0.0,0.0,0.0,0.0,0.0,0.0
248794178,248694904,0.0014736078,0.0,0.0018481619,0.000108295644,0.0,0.0,0.0,0.0,0.0,0.0,0.0,0.0,0.0,0.0005395825,0.0,0.0,nan,0.0,0.0,0.0017062633,0.0,0.0,0.0,0.0,0.0,0.0,0.0,0.0,0.0
249297897,249198682,0.0011097335,0.0,0.0010883707,0.00010082499,0.0,0.0,0.0,0.0,0.0,0.0,0.0,0.0,0.0,0.0013048486,0.0,0.0,nan,0.0,0.0,0.000903943,0.0,0.0,0.0,0.0,0.0,0.0,0.0,0.0,0.0
249802052,249702461,0.00046794984,0.0,0.010773255,3.2683536e-05,0.0,0.0,0.0,0.0,0.0,0.0,0.0,0.0,0.0,3.2125972e-05,0.0,0.0,nan,0.0,0.0,0.00072569837,0.0,0.0,0.0,0.0,0.0,0.0,0.0,0.0,0.0
250295578,250196362,0.011863819,0.0,0.007830023,4.9362116e-05,0.0,0.0,0.0,0.0,0.0,0.0,0.0,0.0,0.0,0.00078992365,0.0,0.0,nan,0.0,0.0,0.0003597904,0.0,0.0,0.0,0.0,0.0,0.0,0.0,0.0,0.0
250799478,250700140,0.007508882,0.0,2.2865486e-05,0.00010103617,0.0,0.0,0.0,0.0,0.0,0.0,0.0,0.0,0.0,0.0018546514,0.0,0.0,nan,0.0,0.0,0.00023976016,0.0,0.0,0.0,0.0,0.0,0.0,0.0,0.0,0.0
251303136,251203921,0.0002178584,0.0,1.6382402e-05,5.5161334e-05,0.0,0.0,0.0,0.0,0.0,0.0,0.0,0.0,0.0,0.00012578268,0.0,0.0,nan,0.0,0.0,0.002307992,0.0,0.0,0.0,0.0,0.0,0.0,0.0,0.0,0.0
251797033,251697820,0.0076407706,0.0,0.0014638595,8.984829e-05,0.0,0.0,0.0,0.0,0.0,0.0,0.0,0.0,0.0,0.0023771978,0.0,0.0,nan,0.0,0.0,0.0052359435,0.0,0.0,0.0,0.0,0.0,0.0,0.0,0.0,0.0
252300864,252201599,0.010943549,0.0,0.00225775,0.00014740694,0.0,0.0,0.0,0.0,0.0,0.0,0.0,0.0,0.0,0.00027072403,0.0,0.0,nan,0.0,0.0,3.362536e-05,0.0,0.0,0.0,0.0,0.0,0.0,0.0,0.0,0.0
252794826,252695500,0.015777567,0.0,0.0004110201,0.00010808752,0.0,0.0,0.0,0.0,0.0,0.0,0.0,0.0,0.0,0.0013094416,0.0,0.0,nan,0.0,0.0,0.0024883307,0.0,0.0,0.0,0.0,0.0,0.0,0.0,0.0,0.0
253298581,253199279,0.014008297,0.0,1.573368e-05,3.6635673e-05,0.0,0.0,0.0,0.0,0.0,0.0,0.0,0.0,0.0,3.0164058e-05,0.0,0.0,nan,0.0,0.0,0.011480071,0.0,0.0,0.0,0.0,0.0,0.0,0.0,0.0,0.0
253802375,253703059,0.07769947,0.0,0.0012195632,2.6895656e-05,0.0,0.0,0.0,0.0,0.0,0.0,0.0,0.0,0.0,0.00023731547,0.0,0.0,nan,0.0,0.0,0.0,0.006898742,0.0,0.0,0.0,0.0,0.0,0.0,0.0,0.0
254296199,254196960,0.099173486,0.0,0.0046892813,0.00045799007,0.0,0.0,0.0,0.0,0.0,0.0,0.0,0.0,0.0,0.003602661,0.0,0.0,nan,0.0,0.0,0.0,0.010520609,0.0,0.0,0.0,0.0,0.0,0.0,0.0,0.0
254800029,254700739,0.15244518,0.0,0.0023906908,0.0011883846,0.0,0.0,0.0,0.0,0.0,0.0,0.0,0.0,0.0,7.5615564e-05,0.0,0.0,nan,0.0,0.0,0.0,0.013091654,0.0,0.0,0.0,0.0,0.0,0.0,0.0,0.0
255293932,255194641,0.11701427,0.0,0.0030653263,0.0024711045,0.0,0.0,0.0,0.0,0.0,0.0,0.0,0.0,0.0,0.0026719407,0.0,0.0,nan,0.0,0.0,0.0,0.020565277,0.0,0.0,0.0,0.0,0.0,0.0,0.0,0.0
255797644,255698420,0.06626782,0.0,1.3965623e-05,0.0028082272,0.0,0.0,0.0,0.0,0.0,0.0,0.0,0.0,0.0,0.0012804605,0.0,0.0,nan,0.0,0.0,0.0,0.042371202,0.0,0.0,0.0,0.0,0.0,0.0,0.0,0.0
256301608,256202200,0.064345054,0.0,0.00033788203,0.0020793744,0.0,0.0,0.0,0.0,0.0,0.0,0.0,0.0,0.0,4.169566e-05,0.0,0.0,nan,0.0,0.0,0.0,0.032492742,0.0,0.0,0.0,0.0,0.0,0.0,0.0,0.0
256795324,256696102,0.10940816,0.0,0.0024860047,0.0011259404,0.0,0.0,0.0,0.0,0.0,0.0,0.0,0.0,0.0,0.00035703502,0.0,0.0,nan,0.0,0.0,0.0,0.010768056,0.0,0.0,0.0,0.0,0.0,0.0,0.0,0.0
257299102,257199881,0.027930109,0.0,4.9462327e-05,0.0007283016,0.0,0.0,0.0,0.0,0.0,0.0,0.0,0.0,0.0,0.0023594757,0.0,0.0,nan,0.0,0.0,0.0,0.0057642255,0.0,0.0,0.0,0.0,0.0,0.0,0.0,0.0
257802915,257703661,0.054141235,0.0,0.002563,0.0004710239,0.0,0.0,0.0,0.0,0.0,0.0,0.0,0.0,0.0,0.00018877177,0.0,0.0,nan,0.0,0.0,0.0,0.039367996,0.0,0.0,0.0,0.0,0.0,0.0,0.0,0.0
258296793,258197563,0.06689146,0.0,0.0050889202,0.00020319759,0.0,0.0,0.0,0.0,0.0,0.0,0.0,0.0,0.0,4.1895673e-06,0.0,0.0,nan,0.0,0.0,0.0,0.018157825,0.0,0.0,0.0,0.0,0.0,0.0,0.0,0.0
258800614,258701343,0.023761798,0.0,8.533557e-05,0.00017110191,0.0,0.0,0.0,0.0,0.0,0.0,0.0,0.0,0.0,1.8353316e-05,0.0,0.0,nan,0.0,0.0,0.0,0.009787189,0.0,0.0,0.0,0.0,0.0,0.0,0.0,0.0
259294504,259195245,0.0011409227,0.0,0.0019467875,0.00023997725,0.0,0.0,0.0,0.0,0.0,0.0,0.0,0.0,0.0,0.00053906435,0.0,0.0,nan,0.0,0.0,0.0,0.0006701179,0.0,0.0,0.0,0.0,0.0,0.0,0.0,0.0
259798298,259699026,0.00084291864,0.0,0.00036384567,0.00014405404,0.0,0.0,0.0,0.0,0.0,0.0,0.0,0.0,0.0,1.317996e-05,0.0,0.0,nan,0.0,0.0,0.0,0.0022986399,0.0,0.0,0.0,0.0,0.0,0.0,0.0,0.0
260302018,260202806,0.001944953,0.0,0.004134298,0.000137671,0.0,0.0,0.0,0.0,0.0,0.0,0.0,0.0,0.0,1.5833346e-05,0.0,0.0,nan,0.0,0.0,0.0,0.0014063356,0.0,0.0,0.0,0.0,0.0,0.0,0.0,0.0
260795938,260696708,0.00018892298,0.0,0.0073447996,0.00018326245,0.0,0.0,0.0,0.0,0.0,0.0,0.0,0.0,0.0,0.0004575877,0.0,0.0,nan,0.0,0.0,0.0,0.0023989188,0.0,0.0,0.0,0.0,0.0,0.0,0.0,0.0
261300007,261200489,0.009903127,0.0,5.4201053e-05,0.0004378111,0.0,0.0,0.0,0.0,0.0,0.0,0.0,0.0,0.0,0.006271338,0.0,0.0,nan,0.0,0.0,0.0,0.00667548,0.0,0.0,0.0,0.0,0.0,0.0,0.0,0.0
261803641,261704269,0.0006309034,0.0,0.0006180786,0.00021372609,0.0,0.0,0.0,0.0,0.0,0.0,0.0,0.0,0.0,0.0015440651,0.0,0.0,nan,0.0,0.0,0.0,0.0011154062,0.0,0.0,0.0,0.0,0.0,0.0,0.0,0.0
262297904,262198172,0.0064743944,0.0,0.0031871423,3.5442026e-05,0.0,0.0,0.0,0.0,0.0,0.0,0.0,0.0,0.0,0.0003180229,0.0,0.0,nan,0.0,0.0,0.0,0.0018427625,0.0,0.0,0.0,0.0,0.0,0.0,0.0,0.0
262801337,262701952,0.0018114054,0.0,0.00067481276,2.0029764e-05,0.0,0.0,0.0,0.0,0.0,0.0,0.0,0.0,0.0,0.0010520373,0.0,0.0,nan,0.0,0.0,0.0,0.0074488707,0.0,0.0,0.0,0.0,0.0,0.0,0.0,0.0
263295198,263195855,3.97036e-05,0.0,0.00035222401,3.584059e-05,0.0,0.0,0.0,0.0,0.0,0.0,0.0,0.0,0.0,0.00043998475,0.0,0.0,nan,0.0,0.0,0.0,0.0022589003,0.0,0.0,0.0,0.0,0.0,0.0,0.0,0.0
263798914,263699636,0.0011232785,0.0,0.00092730916,1.00996895e-05,0.0,0.0,0.0,0.0,0.0,0.0,0.0,0.0,0.0,0.00038622064,0.0,0.0,nan,0.0,0.0,0.0,0.016130755,0.0,0.0,0.0,0.0,0.0,0.0,0.0,0.0
264303171,264203417,0.047716863,0.0,0.00012438658,0.00011322007,0.0,0.0,0.0,0.0,0.0,0.0,0.0,0.0,0.0,0.002195446,0.0,0.0,nan,0.0,0.0,0.0,0.927896,0.0,0.0,0.0,0.0,0.0,0.0,0.0,0.0
264796623,264697320,0.057500932,0.0,0.0020487162,0.00028427877,0.0,0.0,0.0,0.0,0.0,0.0,0.0,0.0,0.0,0.00365088,0.0,0.0,nan,0.0,0.0,0.0,0.95372385,0.0,0.0,0.0,0.0,0.0,0.0,0.0,0.0
265300477,265201101,0.082014255,0.0,0.003080109,0.0010595291,0.0,0.0,0.0,0.0,0.0,0.0,0.0,0.0,0.0,0.040190633,0.0,0.0,nan,0.0,0.0,0.0,0.65201825,0.0,0.0,0.0,0.0,0.0,0.0,0.0,0.0
265794274,265695004,0.054292295,0.0,0.0062162606,0.0011392012,0.0,0.0,0.0,0.0,0.0,0.0,0.0,0.0,0.0,0.009726492,0.0,0.0,nan,0.0,0.0,0.0,0.072836794,0.0,0.0,0.0,0.0,0.0,0.0,0.0,0.0
266298566,266198786,0.024467656,0.0,0.0034426323,0.0006207165,0.0,0.0,0.0,0.0,0.0,0.0,0.0,0.0,0.0,0.0074258666,0.0,0.0,nan,0.0,0.0,0.0,0.031204453,0.0,0.0,0.0,0.0,0.0,0.0,0.0,0.0
266801849,266702569,0.012627415,0.0,0.0013684623,0.0006173909,0.0,0.0,0.0,0.0,0.0,0.0,0.0,0.0,0.0,0.033558466,0.0,0.0,nan,0.0,0.0,0.0,0.033505533,0.0,0.0,0.0,0.0,0.0,0.0,0.0,0.0
267295823,267196471,0.009572656,0.0,0.004465818,0.00015892318,0.0,0.0,0.0,0.0,0.0,0.0,0.0,0.0,0.0,0.011859956,0.0,0.0,nan,0.0,0.0,0.0,0.0035561458,0.0,0.0,0.0,0.0,0.0,0.0,0.0,0.0
267799662,267700252,0.006613396,0.0,0.018899176,0.00020850603,0.0,0.0,0.0,0.0,0.0,0.0,0.0,0.0,0.0,0.024028055,0.0,0.0,nan,0.0,0.0,0.0,0.0018775424,0.0,0.0,0.0,0.0,0.0,0.0,0.0,0.0
268303725,268204034,0.016939698,0.0,0.01448309,4.1962103e-05,0.0,0.0,0.0,0.0,0.0,0.0,0.0,0.0,0.0,0.02252708,0.0,0.0,nan,0.0,0.0,0.0,0.0013937271,0.0,0.0,0.0,0.0,0.0,0.0,0.0,0.0
268797263,268697938,0.012594891,0.0,0.0022563224,0.00052007695,0.0,0.0,0.0,0.0,0.0,0.0,0.0,0.0,0.0,0.057948373,0.0,0.0,nan,0.0,0.0,0.0,0.0012450884,0.0,0.0,0.0,0.0,0.0,8.345401e-06,0.0,0.0
269301219,269201719,0.043518797,0.0,0.010657224,6.948261e-05,0.0,0.0,0.0,0.0,0.0,0.0,0.0,0.0,0.0,0.00029661518,0.0,0.0,nan,0.0,0.0,0.0,0.002796777,0.0,0.0,0.0,0.0,0.08546163,0.00027643004,0.0,0.0
269794853,269695626,0.0524109,0.0,0.00011341027,0.00043754998,0.0,0.0,0.0,0.0,0.0,0.0,0.0,0.0,0.0,0.019250665,0.0,0.0,nan,0.0,0.0,0.0,0.007063411,0.0,0.0,0.0,0.0,0.00031044002,0.0014639056,0.0,0.0
270299108,270199405,0.2968706,0.0,0.026451403,0.0011233564,0.0,0.0,0.0,0.0,0.0,0.0,0.0,0.0,0.0,0.004105467,0.0,0.0,nan,0.0,0.0,0.0,0.017396502,0.0,0.0,0.0,0.0,0.012656858,0.0012650923,0.0,0.0
270802486,270703187,0.019229095,0.0,0.0040191878,9.171007e-05,0.0,0.0,0.0,0.0,0.0,0.0,0.0,0.0,0.0,0.0066859545,0.0,0.0,nan,0.0,0.0,0.0,0.32709834,0.0,0.0,0.0,0.0,0.087202765,0.0006837602,0.0,0.0
271296369,271197091,0.087780274,0.0,0.0029120718,0.0002536361,0.0,0.0,0.0,0.0,0.0,0.0,0.0,0.0,0.0,4.136231e-05,0.0,0.0,nan,0.0,0.0,0.0,0.10394284,0.0,0.0,0.0,0.0,0.088532306,0.004591184,0.0,0.0
271800225,271700873,0.04216355,0.0,0.004804829,9.7917604e-05,0.0,0.0,0.0,0.0,0.0,0.0,0.0,0.0,0.0,0.00087352376,0.0,0.0,nan,0.0,0.0,0.0,0.028105425,0.0,0.0,0.0,0.0,0.029814122,0.00054539804,0.0,0.0
272303999,272204655,0.05515953,0.0,0.009254662,0.00045717176,0.0,0.0,0.0,0.0,0.0,0.0,0.0,0.0,0.0,0.0005130471,0.0,0.0,nan,0.0,0.0,0.0,0.014213631,0.0,0.0,0.0,0.0,0.18110797,0.0010959422,0.0,0.0
272797829,272698559,0.007986035,0.0,0.0023078409,0.0005172684,0.0,0.0,0.0,0.0,0.0,0.0,0.0,0.0,0.0,0.014935838,0.0,0.0,nan,0.0,0.0,0.0,0.0109721245,0.0,0.0,0.0,0.0,0.0797215,6.900418e-05,0.0,0.0
273301605,273202341,0.0008525279,0.0,0.004357245,0.00017486257,0.0,0.0,0.0,0.0,0.0,0.0,0.0,0.0,0.0,0.009913362,0.0,0.0,nan,0.0,0.0,0.0,0.03354736,0.0,0.0,0.0,0.0,0.026327234,2.3727375e-06,0.0,0.0
273795480,273696246,0.0039784345,0.0,0.017832315,0.0029424415,0.0,0.0,0.0,0.0,0.0,0.0,0.0,0.0,0.0,0.003306053,0.0,0.0,nan,0.0,0.0,0.0,0.023395078,0.0,0.0,0.0,0.0,0.011882317,2.1670136e-05,0.0,0.0
274299755,274200028,0.017985085,0.0,0.011042202,0.00012712649,0.0,0.0,0.0,0.0,0.0,0.0,0.0,0.0,0.0,0.022661794,0.0,0.0,nan,0.0,0.0,0.0,0.011653326,0.0,0.0,0.0,0.0,0.006227932,1.943176e-05,0.0,0.0
274803174,274703810,0.0055935946,0.0,0.007024078,0.0011247845,0.0,0.0,0.0,0.0,0.0,0.0,0.0,0.0,0.0,0.00024328553,0.0,0.0,nan,0.0,0.0,0.0,0.009794343,0.0,0.0,0.0,0.0,1.702187e-05,4.0610106e-05,0.0,0.0
275297026,275197714,0.0152923595,0.0,0.008556268,0.00011267318,0.0,0.0,0.0,0.0,0.0,0.0,0.0,0.0,0.0,0.0048426143,0.0,0.0,nan,0.0,0.0,0.0,0.037596095,0.0,0.0,0.0,0.0,0.022158284,7.0280206e-05,0.0,0.0
275800764,275701496,0.015879301,0.0,0.0001385151,0.0011716977,0.0,0.0,0.0,0.0,0.0,0.0,0.0,0.0,0.0,7.031389e-05,0.0,0.0,nan,0.0,0.0,0.0,0.00679263,0.0,0.0,0.0,0.0,0.09080923,0.0011017496,0.0,0.0
276294627,276195400,0.2511505,0.0,0.075346485,0.0019023658,0.0,0.0,0.0,0.0,0.0,0.0,0.0,0.0,0.0,0.001199674,0.0,0.0,nan,0.0,0.0,0.0,0.08924537,0.0,0.0,0.0,0.0,0.05635281,0.0019939775,0.0,0.0
276798493,276699182,0.43578345,0.0,0.103059374,0.00017366436,0.0,0.0,0.0,0.0,0.0,0.0,0.0,0.0,0.0,0.0007716205,0.0,0.0,nan,0.0,0.0,0.0,0.07432728,0.0,0.0,0.0,0.0,0.48118657,7.2968e-06,0.0,0.0
277302223,277202964,0.05519444,0.0,0.018717574,0.00015511081,0.0,0.0,0.0,0.0,0.0,0.0,0.0,0.0,0.0,0.03977608,0.0,0.0,nan,0.0,0.0,0.0,0.079553805,0.0,0.0,0.0,0.0,0.81050605,0.00012298342,0.0,0.0
277796104,277696868,0.0499616,0.0,0.0034099866,0.0007157632,0.0,0.0,0.0,0.0,0.0,0.0,0.0,0.0,0.0,0.00010467663,0.0,0.0,nan,0.0,0.0,0.0,0.01567605,0.0,0.0,0.0,0.0,0.9760444,0.00010954282,0.0,0.0
278299944,278200650,0.026767306,0.0,0.0005720063,5.7811896e-05,0.0,0.0,0.0,0.0,0.0,0.0,0.0,0.0,0.0,0.0031363263,0.0,0.0,nan,0.0,0.0,0.0,0.021739936,0.0,0.0,0.0,0.0,2.2198024,1.9738141e-07,0.0,0.0
278803740,278704432,0.077581756,0.0,0.0044470564,0.00018604522,0.0,0.0,0.0,0.0,0.0,0.0,0.0,0.0,0.0,0.021265058,0.0,0.0,nan,0.0,0.0,0.0,0.023668224,0.0,0.0,0.0,0.0,4.8713703,0.00010170132,0.0,0.0
279297559,279198335,0.010266427,0.0,0.0028178785,0.0014520482,0.0,0.0,0.0,0.0,0.0,0.0,0.0,0.0,0.0,0.0023560338,0.0,0.0,nan,0.0,0.0,0.0,0.03082736,0.0,0.0,0.0,0.0,5.610963,0.00011142647,0.0,0.0
279801424,279702117,0.11081495,0.0,0.012924709,0.0025676093,0.0,0.0,0.0,0.0,0.0,0.0,0.0,0.0,0.0,0.0062676645,0.0,0.0,nan,0.0,0.0,0.0,0.03984786,0.0,0.0,0.0,0.0,7.5438294,0.0005720277,0.0,0.0
280295267,280196021,0.2343885,0.0,0.0014392075,0.004419909,0.0,0.0,0.0,0.0,0.0,0.0,0.0,0.0,0.0,0.00015780322,0.0,0.0,nan,0.0,0.0,0.0,0.15385017,0.0,0.0,0.0,0.0,6.9609475,0.006804751,0.0,0.0
280799208,280699802,0.30057406,0.0,0.005494763,0.006289281,0.0,0.0,0.0,0.0,0.0,0.0,0.0,0.0,0.0,0.0028014746,0.0,0.0,nan,0.0,0.0,0.0,0.06678548,0.0,0.0,0.0,0.0,5.73261,0.0022324321,0.0,0.0
281302852,281203584,0.700092,0.0,0.045600098,0.00829991,0.0,0.0,0.0,0.0,0.0,0.0,0.0,0.0,0.0,0.00013989944,0.0,0.0,nan,0.0,0.0,0.0,0.06037767,0.0,0.0,0.0,0.0,4.8033867,0.021909054,0.0,0.0
281796797,281697487,0.13409258,0.0,0.0310695,0.009322152,0.0,0.0,0.0,0.0,0.0,0.0,0.0,0.0,0.0,0.019080603,0.0,0.0,nan,0.0,0.0,0.0,0.06150374,0.0,0.0,0.0,0.0,3.6825082,0.024572924,0.0,0.0
282300518,282201268,0.09576963,0.0,0.008403873,0.0078150015,0.0,0.0,0.0,0.0,0.0,0.0,0.0,0.0,0.0,0.009031341,0.0,0.0,nan,0.0,0.0,0.0,0.035310626,0.0,0.0,0.0,0.0,2.5033915,0.027152019,0.0,0.0
282804328,282705049,0.117547534,0.0,0.028261833,0.008605161,0.0,0.0,0.0,0.0,0.0,0.0,0.0,0.0,0.0,0.008412674,0.0,0.0,nan,0.0,0.0,0.0,0.032603294,0.0,0.0,0.0,0.0,2.6567845,0.043127816,0.0,0.0
283298180,283198952,0.15795667,0.0,0.005358055,0.0046119737,0.0,0.0,0.0,0.0,0.0,0.0,0.0,0.0,0.0,0.0017748169,0.0,0.0,nan,0.0,0.0,0.0,0.027748758,0.0,0.0,0.0,0.0,2.191221,0.046920586,0.0,0.0
283802245,283702733,0.14070976,0.0,2.2624898e-05,0.005365436,0.0,0.0,0.0,0.0,0.0,0.0,0.0,0.0,0.0,0.008707219,0.0,0.0,nan,0.0,0.0,0.0,0.09114049,0.0,0.0,0.0,0.0,2.191221,0.047500722,0.0,0.0
284295964,284196636,0.16112302,0.0,6.499601e-05,0.004487653,0.0,0.0,0.0,0.0,0.0,0.0,0.0,0.0,0.0,0.0019094272,0.0,0.0,nan,0.0,0.0,0.0,0.08460631,0.0,0.0,0.0,0.0,2.191221,0.05945591,0.0,0.0
284800097,284700417,0.15394111,0.0,0.022173278,0.0022959532,0.0,0.0,0.0,0.0,0.0,0.0,0.0,0.0,0.0,0.0029819736,0.0,0.0,nan,0.0,0.0,0.0,0.031047015,0.0,0.0,0.0,0.0,2.191221,0.05648051,0.0,0.0
285303560,285204197,0.12932876,0.0,0.0043610786,0.002604609,0.0,0.0,0.0,0.0,0.0,0.0,0.0,0.0,0.0,0.016459031,0.0,0.0,nan,0.0,0.0,0.0,0.031121217,0.0,0.0,0.0,0.0,2.191221,0.06681139,0.0,0.0
285797429,285698100,0.12448614,0.0,0.001415134,0.0029842753,0.0,0.0,0.0,0.0,0.0,0.0,0.0,0.0,0.0,0.002117326,0.0,0.0,nan,0.0,0.0,0.0,0.031305984,0.0,0.0,0.0,0.0,2.191221,0.0635668,0.0,0.0
286301162,286201880,0.04870277,0.0,0.0024614986,0.0015649069,0.0,0.0,0.0,0.0,0.0,0.0,0.0,0.0,0.0,0.0011121902,0.0,0.0,nan,0.0,0.0,0.0,0.024752786,0.0,0.0,0.0,0.0,2.191221,0.067361705,0.0,0.0
286795480,286695782,0.044034686,0.0,0.000999613,0.0023699072,0.0,0.0,0.0,0.0,0.0,0.0,0.0,0.0,0.0,0.012841064,0.0,0.0,nan,0.0,0.0,0.0,0.024876663,0.0,0.0,0.0,0.0,2.191221,0.047453143,0.0,0.0
287298939,287199562,0.02518973,0.0,0.003908865,0.0022893099,0.0,0.0,0.0,0.0,0.0,0.0,0.0,0.0,0.0,0.0013642821,0.0,0.0,nan,0.0,0.0,0.0,0.021117736,0.0,0.0,0.0,0.0,2.191221,0.053748142,0.0,0.0
287802845,287703342,0.014598502,0.0,0.00014931607,0.0026517056,0.0,0.0,0.0,0.0,0.0,0.0,0.0,0.0,0.0,0.00028334657,0.0,0.0,nan,0.0,0.0,0.0,0.021135693,0.0,0.0,0.0,0.0,2.191221,0.05144294,0.0,0.0
288296474,288197243,0.006320208,0.0,0.00028317983,0.0054539586,0.0,0.0,0.0,0.0,0.0,0.0,0.0,0.0,0.0,0.0012289436,0.0,0.0,nan,0.0,0.0,0.0,0.012351483,0.0,0.0,0.0,0.0,2.191221,0.04443293,0.0,0.0
288800727,288701023,0.0017749242,0.0,0.00050243665,0.0042142607,0.0,0.0,0.0,0.0,0.0,0.0,0.0,0.0,0.0,0.0016363827,0.0,0.0,nan,0.0,0.0,0.0012270232,0.0,0.0,0.0,0.0,0.0,2.191221,0.046178736,0.0,0.0
289304039,289204803,0.0057165907,0.0,0.025129257,0.00827132,0.0,0.0,0.0,0.0,0.0,0.0,0.0,0.0,0.0,0.028242093,0.0,0.0,nan,0.0,0.0,0.00088667695,0.0,0.0,0.0,0.0,0.0,2.191221,0.04554206,0.0,0.0
289798106,289698704,0.0022209242,0.0,0.01321826,0.004279334,0.0,0.0,0.0,0.0,0.0,0.0,0.0,0.0,0.0,0.0006981356,0.0,0.0,nan,0.0,0.0,0.00061253086,0.0,0.0,0.0,0.0,0.0,2.191221,0.042239994,0.0,0.0
290301701,290202483,0.003168852,0.0,0.005176646,0.005409822,0.0,0.0,0.0,0.0,0.0,0.0,0.0,0.0,0.0,0.016494744,0.0,0.0,nan,0.0,0.0,0.00054584414,0.0,0.0,0.0,0.0,0.0,2.191221,0.04485706,0.0,0.0
290795841,290696384,0.00223451,0.0,5.7553157e-06,0.006796528,0.0,0.0,0.0,0.0,0.0,0.0,0.0,0.0,0.0,0.0020437576,0.0,0.0,nan,0.0,0.0,0.00033947773,0.0,0.0,0.0,0.0,0.0,2.191221,0.05373542,0.0,0.0
291299381,291200163,0.0015265427,0.0,0.0061013396,0.0038491534,0.0,0.0,0.0,0.0,0.0,0.0,0.0,0.0,0.0,0.000933026,0.0,0.0,nan,0.0,0.0,0.00011148297,0.0,0.0,0.0,0.0,0.0,2.191221,0.05595416,0.0,0.0
291803300,291703941,0.0009723347,0.0,1.9869363e-05,0.0032765255,0.0,0.0,0.0,0.0,0.0,0.0,0.0,0.0,0.0,0.048317134,0.0,0.0,nan,0.0,0.0,0.00064095657,0.0,0.0,0.0,0.0,0.0,2.191221,0.0715317,0.0,0.0
292297068,292197842,0.0028880544,0.0,0.00014825539,0.0032584136,0.0,0.0,0.0,0.0,0.0,0.0,0.0,0.0,0.0,0.0009835106,0.0,0.0,nan,0.0,0.0,0.0,0.020082599,0.0,0.0,0.0,0.0,2.191221,0.07917406,0.0,0.0
292801240,292701620,0.008315814,0.0,0.00064213335,0.004436442,0.0,0.0,0.0,0.0,0.0,0.0,0.0,0.0,0.0,0.0049972353,0.0,0.0,nan,0.0,0.0,0.0,0.009339964,0.0,0.0,0.0,0.0,2.191221,0.06760372,0.0,0.0
293304696,293205403,0.0016932542,0.0,9.6251424e-05,0.0018649207,0.0,0.0,0.0,0.0,0.0,0.0,0.0,0.0,0.0,0.0016382668,0.0,0.0,nan,0.0,0.0,0.0,0.008702705,0.0,0.0,0.0,0.0,2.191221,0.05737661,0.0,0.0
293798744,293699298,0.0017355337,0.0,0.007278476,0.0022677435,0.0,0.0,0.0,0.0,0.0,0.0,0.0,0.0,0.0,0.0017295912,0.0,0.0,nan,0.0,0.0,0.0,0.0069330926,0.0,0.0,0.0,0.0,2.191221,0.057852887,0.0,0.0
294302347,294203076,0.0022145612,0.0,0.00259814,0.0013629455,0.0,0.0,0.0,0.0,0.0,0.0,0.0,0.0,0.0,0.0007780926,0.0,0.0,nan,0.0,0.0,0.0,0.0059511764,0.0,0.0,0.0,0.0,2.191221,0.059963986,0.0,0.0
294796237,294696976,0.0010183341,0.0,0.001080415,0.0023752851,0.0,0.0,0.0,0.0,0.0,0.0,0.0,0.0,0.0,0.00035299404,0.0,0.0,nan,0.0,0.0,0.0,0.011958906,0.0,0.0,0.0,0.0,2.191221,0.0470934,0.0,0.0
295299989,295200755,0.0065284204,0.0,0.0015186525,0.00081246323,0.0,0.0,0.0,0.0,0.0,0.0,0.0,0.0,0.0,0.00060139544,0.0,0.0,nan,0.0,0.0,0.0,0.008766338,0.0,0.0,0.0,0.0,2.191221,0.051498633,0.0,0.0
295803751,295704531,0.0024788696,0.0,0.00028258312,0.0011917563,0.0,0.0,0.0,0.0,0.0,0.0,0.0,0.0,0.0,0.014671552,0.0,0.0,nan,0.0,0.0,0.00045155664,0.0,0.0,0.0,0.0,0.0,2.191221,0.060822453,0.0,0.0
296297720,296198430,0.010088754,0.0,0.0071765394,0.00048393314,0.0,0.0,0.0,0.0,0.0,0.0,0.0,0.0,0.0,0.0003184766,0.0,0.0,nan,0.0,0.0,0.000683566,0.0,0.0,0.0,0.0,0.0,2.191221,0.062338546,0.0,0.0
296801612,296702207,0.014407454,0.0,0.00042556776,0.00011932697,0.0,0.0,0.0,0.0,0.0,0.0,0.0,0.0,0.0,0.00080548774,0.0,0.0,nan,0.0,0.0,0.00039965016,0.0,0.0,0.0,0.0,0.0,2.191221,0.055984568,0.0,0.0
297295466,297196106,0.0013988655,0.0,0.0030017656,0.00011912342,0.0,0.0,0.0,0.0,0.0,0.0,0.0,0.0,0.0,0.00336615,0.0,0.0,nan,0.0,0.0,0.00038099373,0.0,0.0,0.0,0.0,0.0,2.191221,0.05709568,0.0,0.0
297799101,297699883,0.0036037813,0.0,0.0076287137,4.982036e-05,0.0,0.0,0.0,0.0,0.0,0.0,0.0,0.0,0.0,0.008989041,0.0,0.0,nan,0.0,0.0,0.00025712693,0.0,0.0,0.0,0.0,0.0,2.191221,0.05736772,0.0,0.0
298302963,298203659,0.008871931,0.0,0.005784941,0.000100922305,0.0,0.0,0.0,0.0,0.0,0.0,0.0,0.0,0.0,0.00018698045,0.0,0.0,nan,0.0,0.0,0.0007495351,0.0,0.0,0.0,0.0,0.0,2.191221,0.05782974,0.0,0.0
298796779,298697558,0.004309605,0.0,0.00030385304,0.000579394,0.0,0.0,0.0,0.0,0.0,0.0,0.0,0.0,0.0,0.006354671,0.0,0.0,nan,0.0,0.0,0.0014338159,0.0,0.0,0.0,0.0,0.0,2.191221,0.054679763,0.0,0.0
299300655,299201334,0.0065488485,0.0,0.002782303,0.00036961518,0.0,0.0,0.0,0.0,0.0,0.0,0.0,0.0,0.0,0.0009403409,0.0,0.0,nan,0.0,0.0,0.001868208,0.0,0.0,0.0,0.0,0.0,2.191221,0.049302187,0.0,0.0
299804340,299705110,0.0057949866,0.0,0.0049753184,0.003821588,0.0,0.0,0.0,0.0,0.0,0.0,0.0,0.0,0.0,9.9227356e-05,0.0,0.0,nan,0.0,0.0,0.0012746135,0.0,0.0,0.0,0.0,0.0,2.191221,0.048146464,0.0,0.0
300298277,300199008,0.0011792224,0.0,2.9160294e-06,0.0010647539,0.0,0.0,0.0,0.0,0.0,0.0,0.0,0.0,0.0,3.7787315e-05,0.0,0.0,nan,0.0,0.0,0.0004216714,0.0,0.0,0.0,0.0,0.0,2.191221,0.058469124,0.0,0.0
300802142,300702784,0.0073095975,0.0,0.004711322,0.002840819,0.0,0.0,0.0,0.0,0.0,0.0,0.0,0.0,0.0,0.0042882306,0.0,0.0,nan,0.0,0.0,0.002014956,0.0,0.0,0.0,0.0,0.0,2.191221,0.066526525,0.0,0.0
301295957,301196681,0.0048063053,0.0,0.0011356667,0.0022579697,0.0,0.0,0.0,0.0,0.0,0.0,0.0,0.0,0.0,0.007688292,0.0,0.0,nan,0.0,0.0,0.00015469268,0.0,0.0,0.0,0.0,0.0,2.191221,0.055760246,0.0,0.0
301799685,301700457,0.1141183,0.0,0.0002122649,0.0008673293,0.0,0.0,0.0,0.0,0.0,0.0,0.0,0.0,0.0,0.0054697376,0.0,0.0,nan,0.0,0.0,0.0,0.010408576,0.0,0.0,0.0,0.0,2.191221,0.021608237,0.0,0.0
302303521,302204232,0.5149314,0.0,0.00060169067,0.0039616087,0.0,0.0,0.0,0.0,0.0,0.0,0.0,0.0,0.0,0.0019032648,0.0,0.0,nan,0.0,0.0,0.0,0.001903218,0.0,0.0,0.0,0.0,2.191221,0.03673384,0.0,0.0
302797357,302698129,0.17574576,0.0,0.00034555764,0.00238193,0.0,0.0,0.0,0.0,0.0,0.0,0.0,0.0,0.0,0.0015075493,0.0,0.0,nan,0.0,0.0,0.0,0.0030293632,0.0,0.0,0.0,0.0,2.191221,0.03777465,0.0,0.0
303301874,303201904,0.02464482,0.0,0.018759586,0.0014937245,0.0,0.0,0.0,0.0,0.0,0.0,0.0,0.0,0.0,0.012888383,0.0,0.0,nan,0.0,0.0,0.0,0.025021676,0.0,0.0,0.0,0.0,2.191221,0.032227162,0.0,0.0
303805126,303705679,0.05706683,0.0,0.0065469933,0.0030766279,0.0,0.0,0.0,0.0,0.0,0.0,0.0,0.0,0.0,0.0005353719,0.0,0.0,nan,0.0,0.0,0.0,0.027820045,0.0,0.0,0.0,0.0,2.191221,0.014097918,0.0,0.0
304298803,304199576,0.042894762,0.0,0.024942419,0.002504259,0.0,0.0,0.0,0.0,0.0,0.0,0.0,0.0,0.0,0.06380499,0.0,0.0,nan,0.0,0.0,0.0,0.017159063,0.0,0.0,0.0,0.0,2.191221,0.0100807585,0.0,0.0
304802577,304703350,0.040426265,0.0,0.00021889011,0.00030425118,0.0,0.0,0.0,0.0,0.0,0.0,0.0,0.0,0.0,0.017556217,0.0,0.0,nan,0.0,0.0,0.0,0.05041014,0.0,0.0,0.0,0.0,2.191221,0.0070393113,0.0,0.0
305296944,305197246,0.06322725,0.0,0.007472733,0.0010757281,0.0,0.0,0.0,0.0,0.0,0.0,0.0,0.0,0.0,0.0017826655,0.0,0.0,nan,0.0,0.0,0.0,0.17995071,0.0,0.0,0.0,0.0,2.191221,0.0022786448,0.0,0.0
305800257,305701021,0.03753145,0.0,0.01437732,0.005283004,0.0,0.0,0.0,0.0,0.0,0.0,0.0,0.0,0.0,0.014086188,0.0,0.0,nan,0.0,0.0,0.0,0.14749086,0.0,0.0,0.0,0.0,2.191221,0.0007875239,0.0,0.0
306304042,306204795,0.289784,0.0,0.006623964,0.0019790772,0.0,0.0,0.0,0.0,0.0,0.0,0.0,0.0,0.0,0.0011248946,0.0,0.0,nan,0.0,0.0,0.0,0.026413636,0.0,0.0,0.0,0.0,2.191221,0.0064413366,0.0,0.0
306798065,306698690,0.30204058,0.0,0.016919075,0.0042155287,0.0,0.0,0.0,0.0,0.0,0.0,0.0,0.0,0.0,0.012599339,0.0,0.0,nan,0.0,0.0,0.0,0.026513021,0.0,0.0,0.0,0.0,2.191221,0.0045750574,0.0,0.0
307302313,307202464,0.101498485,0.0,0.00904529,0.0024032088,0.0,0.0,0.0,0.0,0.0,0.0,0.0,0.0,0.0,0.00040941322,0.0,0.0,nan,0.0,0.0,0.0,0.015509302,0.0,0.0,0.0,0.0,2.191221,0.0054867836,0.0,0.0
307795643,307696360,0.06033219,0.0,0.00031963305,0.0034885383,0.0,0.0,0.0,0.0,0.0,0.0,0.0,0.0,0.0,0.074676834,0.0,0.0,nan,0.0,0.0,0.0,0.028810102,0.0,0.0,0.0,0.0,2.191221,0.005545439,0.0,0.0
308299485,308200133,0.04051384,0.0,0.0090669375,0.0015537363,0.0,0.0,0.0,0.0,0.0,0.0,0.0,0.0,0.0,0.0028170198,0.0,0.0,nan,0.0,0.0,0.0,0.13313693,0.0,0.0,0.0,0.0,2.191221,0.0052262726,0.0,0.0
308803190,308703906,0.020878961,0.0,0.021939814,0.0012175643,0.0,0.0,0.0,0.0,0.0,0.0,0.0,0.0,0.0,0.005443934,0.0,0.0,nan,0.0,0.0,0.0,0.24984832,0.0,0.0,0.0,0.0,2.191221,0.0050349,0.0,0.0
309297414,309197801,0.014807232,0.0,0.0007491912,0.00054794236,0.0,0.0,0.0,0.0,0.0,0.0,0.0,0.0,0.0,0.0023474307,0.0,0.0,nan,0.0,0.0,0.0,0.2951559,0.0,0.0,0.0,0.0,2.191221,0.0017472667,0.0,0.0
309800898,309701574,0.033583026,0.0,0.0021037417,0.001748958,0.0,0.0,0.0,0.0,0.0,0.0,0.0,0.0,0.0,0.005587953,0.0,0.0,nan,0.0,0.0,0.0,0.2146694,0.0,0.0,0.0,0.0,2.191221,0.002634338,0.0,0.0
310304928,310205347,0.105138384,0.0,0.020319058,0.0011062901,0.0,0.0,0.0,0.0,0.0,0.0,0.0,0.0,0.0,0.007300827,0.0,0.0,nan,0.0,0.0,0.0,0.20416136,0.0,0.0,0.0,0.0,2.191221,0.004812348,0.0,0.0
310798481,310699242,0.13854268,0.0,0.022321729,0.00063969556,0.0,0.0,0.0,0.0,0.0,0.0,0.0,0.0,0.0,0.00944109,0.0,0.0,nan,0.0,0.0,0.0,0.1822606,0.0,0.0,0.0,0.0,2.191221,0.013132889,0.0,0.0
311302705,311203014,0.01653989,0.0,0.021046918,0.0003673326,0.0,0.0,0.0,0.0,0.0,0.0,0.0,0.0,0.0,0.0054728216,0.0,0.0,nan,0.0,0.0,0.0,0.2867097,0.0,0.0,0.0,0.0,2.191221,0.023288142,0.0,0.0
311796283,311696909,0.015811637,0.0,0.006379982,0.0014776139,0.0,0.0,0.0,0.0,0.0,0.0,0.0,0.0,0.0,0.003105281,0.0,0.0,nan,0.0,0.0,0.0,0.31788656,0.0,0.0,0.0,0.0,2.191221,0.022275561,0.0,0.0
312300079,312200681,0.0024299507,0.0,0.004003575,0.001092789,0.0,0.0,0.0,0.0,0.0,0.0,0.0,0.0,0.0,0.002032668,0.0,0.0,nan,0.0,0.0,0.0,0.27318862,0.0,0.0,0.0,0.0,2.191221,0.033014137,0.0,0.0
312803690,312704453,0.0059342324,0.0,1.4267735e-05,0.00026561925,0.0,0.0,0.0,0.0,0.0,0.0,0.0,0.0,0.0,0.0005451514,0.0,0.0,nan,0.0,0.0,0.0,0.15228134,0.0,0.0,0.0,0.0,2.191221,0.0424136,0.0,0.0
313297992,313198346,0.020899337,0.0,0.038237307,0.0019460188,0.0,0.0,0.0,0.0,0.0,0.0,0.0,0.0,0.0,0.0015629183,0.0,0.0,nan,0.0,0.0,0.0,0.18630517,0.0,0.0,0.0,0.0,2.191221,0.057559438,0.0,0.0
313801354,313702118,0.006088708,0.0,0.0072048674,0.0011481859,0.0,0.0,0.0,0.0,0.0,0.0,0.0,0.0,0.0,0.0006003478,0.0,0.0,nan,0.0,0.0,0.0,0.23407567,0.0,0.0,0.0,0.0,2.191221,0.06214201,0.0,0.0
314305373,314205890,0.026473839,0.0,0.015259602,0.0014010883,0.0,0.0,0.0,0.0,0.0,0.0,0.0,0.0,0.0,7.427298e-05,0.0,0.0,nan,0.0,0.0,0.0,0.061645404,0.0,0.0,0.0,0.0,2.191221,0.059416667,0.0,0.0
314799012,314699783,0.020645034,0.0,0.00022757128,0.0020465646,0.0,0.0,0.0,0.0,0.0,0.0,0.0,0.0,0.0,1.7394159e-06,0.0,0.0,nan,0.0,0.0,0.0,0.074457206,0.0,0.0,0.0,0.0,2.191221,0.054345552,0.0,0.0
315303024,315203555,0.019881582,0.0,0.00018462316,0.0032506874,0.0,0.0,0.0,0.0,0.0,0.0,0.0,0.0,0.0,5.0490744e-05,0.0,0.0,nan,0.0,0.0,0.0,0.07663624,0.0,0.0,0.0,0.0,2.191221,0.040876575,0.0,0.0
315796688,315697448,0.023273319,0.0,0.00064467505,0.0026761936,0.0,0.0,0.0,0.0,0.0,0.0,0.0,0.0,0.0,9.565047e-05,0.0,0.0,nan,0.0,0.0,0.0,0.0685147,0.0,0.0,0.0,0.0,2.191221,0.03368116,0.0,0.0
316300525,316201219,0.011128127,0.0,0.0032295787,0.002660042,0.0,0.0,0.0,0.0,0.0,0.0,0.0,0.0,0.0,0.0007474976,0.0,0.0,nan,0.0,0.0,0.0,0.055094864,0.0,0.0,0.0,0.0,2.191221,0.039841063,0.0,0.0
316804341,316704991,0.009293904,0.0,0.0009838147,0.0032196543,0.0,0.0,0.0,0.0,0.0,0.0,0.0,0.0,0.0,0.000489245,0.0,0.0,nan,0.0,0.0,0.0068495353,0.0,0.0,0.0,0.0,0.0,2.191221,0.04042059,0.0,0.0
317298101,317198883,0.02627195,0.0,0.00046150593,0.0028032083,0.0,0.0,0.0,0.0,0.0,0.0,0.0,0.0,0.0,0.0009283067,0.0,0.0,nan,0.0,0.0,0.00502068,0.0,0.0,0.0,0.0,0.0,2.191221,0.025365042,0.0,0.0
317801898,317702653,0.0050899233,0.0,0.0003926743,0.0033142818,0.0,0.0,0.0,0.0,0.0,0.0,0.0,0.0,0.0,0.0009551988,0.0,0.0,nan,0.0,0.0,0.0025223792,0.0,0.0,0.0,0.0,0.0,2.191221,0.0327792,0.0,0.0
318295989,318196546,0.04497558,0.0,0.002918097,0.0032109043,0.0,0.0,0.0,0.0,0.0,0.0,0.0,0.0,0.0,0.00018080728,0.0,0.0,nan,0.0,0.0,0.0,0.07102754,0.0,0.0,0.0,0.0,2.191221,0.06899727,0.0,0.0
318799681,318700317,0.03952764,0.0,0.010100992,0.0030468074,0.0,0.0,0.0,0.0,0.0,0.0,0.0,0.0,0.0,0.0020981433,0.0,0.0,nan,0.0,0.0,0.0,0.06960597,0.0,0.0,0.0,0.0,2.191221,0.03962028,0.0,0.0
319303473,319204087,0.018649949,0.0,0.001533608,0.0034002066,0.0,0.0,0.0,0.0,0.0,0.0,0.0,0.0,0.0,0.0034825108,0.0,0.0,nan,0.0,0.0,0.0,0.07634777,0.0,0.0,0.0,0.0,2.191221,6.891201e-05,0.0,0.0
319797199,319697980,0.08905522,0.0,0.0016527361,0.0026434953,0.0,0.0,0.0,0.0,0.0,0.0,0.0,0.0,0.0,0.003012986,0.0,0.0,nan,0.0,0.0,0.0,0.059951514,0.0,0.0,0.0,0.0,2.191221,0.0006230211,0.0,0.0
320301031,320201750,0.16366309,0.0,0.00033815528,0.0026089107,0.0,0.0,0.0,0.0,0.0,0.0,0.0,0.0,0.0,0.006687056,0.0,0.0,nan,0.0,0.0,0.0,0.14667927,0.0,0.0,0.0,0.0,2.191221,0.0050887475,0.0,0.0
320804753,320705521,0.31191757,0.0,0.0022500379,0.0012999084,0.0,0.0,0.0,0.0,0.0,0.0,0.0,0.0,0.0,0.00866905,0.0,0.0,nan,0.0,0.0,0.0,0.028149975,0.0,0.0,0.0,0.0,2.191221,0.015814142,0.0,0.0
321298713,321199412,0.035558347,0.0,0.0028308274,0.0016552123,0.0,0.0,0.0,0.0,0.0,0.0,0.0,0.0,0.0,0.0010491583,0.0,0.0,nan,0.0,0.0,0.0,0.023624685,0.0,0.0,0.0,0.0,2.191221,0.05729343,0.0,0.0
321802412,321703182,0.007975835,0.0,0.04433421,0.0026942235,0.0,0.0,0.0,0.0,0.0,0.0,0.0,0.0,0.0,0.12502989,0.0,0.0,nan,0.0,0.0,0.0,0.001914726,0.0,0.0,0.0,0.0,2.191221,0.087036386,0.0,0.0
322296397,322197074,0.024108319,0.0,0.02079565,0.0018340662,0.0,0.0,0.0,0.0,0.0,0.0,0.0,0.0,0.0,0.02604862,0.0,0.0,nan,0.0,0.0,0.0,0.013514214,0.0,0.0,0.0,0.0,2.191221,0.057208154,0.0,0.0
322800083,322700844,0.042439047,0.0,0.030585917,0.0026626298,0.0,0.0,0.0,0.0,0.0,0.0,0.0,0.0,0.0,0.00035414376,0.0,0.0,nan,0.0,0.0,0.0,0.042349204,0.0,0.0,0.0,0.0,2.191221,0.022126628,0.0,0.0
323303994,323204614,0.018607782,0.0,0.030882102,0.0019745491,0.0,0.0,0.0,0.0,0.0,0.0,0.0,0.0,0.0,0.00580268,0.0,0.0,nan,0.0,0.0,0.0,0.023357112,0.0,0.0,0.0,0.0,2.191221,0.012007171,0.0,0.0
323797859,323698506,0.024415223,0.0,5.8724436e-05,0.0009703344,0.0,0.0,0.0,0.0,0.0,0.0,0.0,0.0,0.0,0.06413193,0.0,0.0,nan,0.0,0.0,0.0,0.0068461094,0.0,0.0,0.0,0.0,2.191221,0.01104539,0.0,0.0
324301652,324202275,0.0027571868,0.0,0.01841104,0.001504023,0.0,0.0,0.0,0.0,0.0,0.0,0.0,0.0,0.0,0.0053291353,0.0,0.0,nan,0.0,0.0,0.0,0.0042883027,0.0,0.0,0.0,0.0,2.191221,0.0218267,0.0,0.0
324805282,324706044,0.005137331,0.0,0.004861446,0.0008617457,0.0,0.0,0.0,0.0,0.0,0.0,0.0,0.0,0.0,0.0029345318,0.0,0.0,nan,0.0,0.0,0.0,0.0031803614,0.0,0.0,0.0,0.0,2.191221,0.0174876,0.0,0.0
325299166,325199939,0.00028676572,0.0,0.022292253,0.00066680094,0.0,0.0,0.0,0.0,0.0,0.0,0.0,0.0,0.0,0.0107637,0.0,0.0,nan,0.0,0.0,0.0,0.0041808817,0.0,0.0,0.0,0.0,2.191221,0.011964791,0.0,0.0
325802997,325703705,0.00015485134,0.0,0.0015739055,0.0031487362,0.0,0.0,0.0,0.0,0.0,0.0,0.0,0.0,0.0,0.0025391246,0.0,0.0,nan,0.0,0.0,0.0,0.005756355,0.0,0.0,0.0,0.0,2.191221,0.018780677,0.0,0.0
326296905,326197597,0.004383842,0.0,0.00038610213,0.00083812,0.0,0.0,0.0,0.0,0.0,0.0,0.0,0.0,0.0,0.0033195326,0.0,0.0,nan,0.0,0.0,0.0,0.0044217785,0.0,0.0,0.0,0.0,2.191221,0.0201451,0.0,0.0
326800731,326701366,0.013990421,0.0,0.0005839857,0.00043208225,0.0,0.0,0.0,0.0,0.0,0.0,0.0,0.0,0.0,0.011259423,0.0,0.0,nan,0.0,0.0,0.0,0.009624265,0.0,0.0,0.0,0.0,2.191221,0.020424848,0.0,0.0
327304424,327205136,0.0025447828,0.0,0.0019054107,0.00032958903,0.0,0.0,0.0,0.0,0.0,0.0,0.0,0.0,0.0,0.075142205,0.0,0.0,nan,0.0,0.0,0.0,0.006356863,0.0,0.0,0.0,0.0,2.191221,0.02540246,0.0,0.0
327798623,327699027,0.0048999134,0.0,0.0022918605,0.00043284302,0.0,0.0,0.0,0.0,0.0,0.0,0.0,0.0,0.0,0.0016507616,0.0,0.0,nan,0.0,0.0,0.00020840229,0.0,0.0,0.0,0.0,0.0,2.191221,0.022800546,0.0,0.0
328302085,328202796,0.0035750526,0.0,0.007011098,0.0044909124,0.0,0.0,0.0,0.0,0.0,0.0,0.0,0.0,0.0,0.0030366154,0.0,0.0,nan,0.0,0.0,0.0004162008,0.0,0.0,0.0,0.0,0.0,2.191221,0.022289284,0.0,0.0
328796081,328696687,0.0005568827,0.0,0.031836554,0.0005270157,0.0,0.0,0.0,0.0,0.0,0.0,0.0,0.0,0.0,0.0017235201,0.0,0.0,nan,0.0,0.0,0.00033632375,0.0,0.0,0.0,0.0,0.0,2.191221,0.018174542,0.0,0.0
329299680,329200456,0.0007324791,0.0,0.008138564,0.00027541688,0.0,0.0,0.0,0.0,0.0,0.0,0.0,0.0,0.0,0.0015837774,0.0,0.0,nan,0.0,0.0,0.000103377155,0.0,0.0,0.0,0.0,0.0,2.191221,0.014923355,0.0,0.0
329804012,329704225,0.0017099114,0.0,0.00017652527,0.0011154684,0.0,0.0,0.0,0.0,0.0,0.0,0.0,0.0,0.0,0.030439444,0.0,0.0,nan,0.0,0.0,0.0004004119,0.0,0.0,0.0,0.0,0.0,2.191221,0.017789492,0.0,0.0
330297366,330198116,0.001271143,0.0,0.0033810353,0.00089206046,0.0,0.0,0.0,0.0,0.0,0.0,0.0,0.0,0.0,0.011994362,0.0,0.0,nan,0.0,0.0,0.0012035129,0.0,0.0,0.0,0.0,0.0,2.191221,0.014848783,0.0,0.0
330801377,330701885,5.4122902e-05,0.0,0.0047140107,0.0024996214,0.0,0.0,0.0,0.0,0.0,0.0,0.0,0.0,0.0,0.03671506,0.0,0.0,nan,0.0,0.0,0.00017266517,0.0,0.0,0.0,0.0,0.0,2.191221,0.011737647,0.0,0.0
331304921,331205654,0.0012853247,0.0,0.00055722194,4.4123404e-05,0.0,0.0,0.0,0.0,0.0,0.0,0.0,0.0,0.0,0.00252417,0.0,0.0,nan,0.0,0.0,0.00037509704,0.0,0.0,0.0,0.0,0.0,2.191221,0.012550872,0.0,0.0
331799122,331699545,0.008887277,0.0,0.002969351,0.00047543625,0.0,0.0,0.0,0.0,0.0,0.0,0.0,0.0,0.0,0.0032018705,0.0,0.0,nan,0.0,0.0,0.00031714962,0.0,0.0,0.0,0.0,0.0,2.191221,0.012203329,0.0,0.0
332292664,332193435,0.002258174,0.0,0.00031552865,0.00014938934,0.0,0.0,0.0,0.0,0.0,0.0,0.0,0.0,0.0,0.043449488,0.0,0.0,nan,0.0,0.0,0.0002670679,0.0,0.0,0.0,0.0,0.0,2.191221,0.010033477,0.0,0.0
332796549,332697204,0.00067448174,0.0,0.0029800597,0.00079442095,0.0,0.0,0.0,0.0,0.0,0.0,0.0,0.0,0.0,0.013284661,0.0,0.0,nan,0.0,0.0,0.000117487056,0.0,0.0,0.0,0.0,0.0,2.191221,0.0071226507,0.0,0.0
333300192,333200973,0.0067799403,0.0,9.6403404e-05,0.0004490281,0.0,0.0,0.0,0.0,0.0,0.0,0.0,0.0,0.0,0.034864955,0.0,0.0,nan,0.0,0.0,0.00093316275,0.0,0.0,0.0,0.0,0.0,2.191221,0.009848526,0.0,0.0
333804360,333704741,3.4179164e-05,0.0,0.00052900915,0.0012657861,0.0,0.0,0.0,0.0,0.0,0.0,0.0,0.0,0.0,0.022218427,0.0,0.0,nan,0.0,0.0,0.0005135298,0.0,0.0,0.0,0.0,0.0,2.191221,0.009577771,0.0,0.0
334297952,334198632,0.003940057,0.0,0.00043506955,0.00087381236,0.0,0.0,0.0,0.0,0.0,0.0,0.0,0.0,0.0,0.00031468604,0.0,0.0,nan,0.0,0.0,0.00039807355,0.0,0.0,0.0,0.0,0.0,2.191221,0.008635517,0.0,0.0
334801840,334702400,0.0023763664,0.0,0.0010714288,0.0020521267,0.0,0.0,0.0,0.0,0.0,0.0,0.0,0.0,0.0,0.03632705,0.0,0.0,nan,0.0,0.0,0.00042474573,0.0,0.0,0.0,0.0,0.0,2.191221,0.009031756,0.0,0.0
335305394,335206168,0.0076932968,0.0,0.0027437187,0.0014905722,0.0,0.0,0.0,0.0,0.0,0.0,0.0,0.0,0.0,0.08650202,0.0,0.0,nan,0.0,0.0,0.0002778233,0.0,0.0,0.0,0.0,0.0,2.191221,0.009426235,0.0,0.0
335799703,335700059,0.009373893,0.0,0.014578611,0.0005144381,0.0,0.0,0.0,0.0,0.0,0.0,0.0,0.0,0.0,5.4286074e-06,0.0,0.0,nan,0.0,0.0,0.00018966403,0.0,0.0,0.0,0.0,0.0,2.191221,0.006784704,0.0,0.0
336293161,336193951,0.0012050542,0.0,0.0001400371,0.00022139536,0.0,0.0,0.0,0.0,0.0,0.0,0.0,0.0,0.0,0.013223375,0.0,0.0,nan,0.0,0.0,0.00010628396,0.0,0.0,0.0,0.0,0.0,2.191221,0.006058305,0.0,0.0
336797028,336697718,0.0134139,0.0,6.0306324e-05,0.0020441,0.0,0.0,0.0,0.0,0.0,0.0,0.0,0.0,0.0,0.00018765846,0.0,0.0,nan,0.0,0.0,4.6277943e-05,0.0,0.0,0.0,0.0,0.0,2.191221,0.009340042,0.0,0.0
337300757,337201486,0.016071605,0.0,0.0005140781,0.004525142,0.0,0.0,0.0,0.0,0.0,0.0,0.0,0.0,0.0,0.00043698534,0.0,0.0,nan,0.0,0.0,0.0,0.09880706,0.0,0.0,0.0,0.0,2.191221,0.0055495393,0.0,0.0
337804731,337705254,0.046270236,0.0,0.011837888,0.0032909731,0.0,0.0,0.0,0.0,0.0,0.0,0.0,0.0,0.0,0.0025022966,0.0,0.0,nan,0.0,0.0,0.0,0.1387652,0.0,0.0,0.0,0.0,2.191221,0.008411231,0.0,0.0
338298386,338199146,0.035470933,0.0,0.0025695974,0.0033567497,0.0,0.0,0.0,0.0,0.0,0.0,0.0,0.0,0.0,0.0023791806,0.0,0.0,nan,0.0,0.0,0.0,0.21832642,0.0,0.0,0.0,0.0,2.191221,0.011482707,0.0,0.0
338802199,338702912,0.001188473,0.0,0.0014632572,0.009077109,0.0,0.0,0.0,0.0,0.0,0.0,0.0,0.0,0.0,0.040812183,0.0,0.0,nan,0.0,0.0,0.0,0.2672198,0.0,0.0,0.0,0.0,2.191221,0.00839107,0.0,0.0
339296046,339196802,0.043892536,0.0,0.009784262,0.003848126,0.0,0.0,0.0,0.0,0.0,0.0,0.0,0.0,0.0,0.0019388752,0.0,0.0,nan,0.0,0.0,0.0,0.2584,0.0,0.0,0.0,0.0,2.191221,0.014832774,0.0,0.0
339799962,339700570,0.042197786,0.0,0.0055193994,0.0028111895,0.0,0.0,0.0,0.0,0.0,0.0,0.0,0.0,0.0,0.00013384715,0.0,0.0,nan,0.0,0.0,0.0,0.23331451,0.0,0.0,0.0,0.0,2.191221,0.018838678,0.0,0.0
340293719,340194460,0.088852175,0.0,0.011747173,0.0031022974,0.0,0.0,0.0,0.0,0.0,0.0,0.0,0.0,0.0,0.007478445,0.0,0.0,nan,0.0,0.0,0.0,0.25654444,0.0,0.0,0.0,0.0,2.191221,0.016736807,0.0,0.0
340797477,340698228,0.0073027154,0.0,0.035523653,0.0034680862,0.0,0.0,0.0,0.0,0.0,0.0,0.0,0.0,0.0,0.0041365763,0.0,0.0,nan,0.0,0.0,0.0,0.24939363,0.0,0.0,0.0,0.0,2.191221,0.020977909,0.0,0.0
341301362,341201996,0.009373654,0.0,0.00091666105,0.0015926168,0.0,0.0,0.0,0.0,0.0,0.0,0.0,0.0,0.0,0.033468194,0.0,0.0,nan,0.0,0.0,0.0,0.2528995,0.0,0.0,0.0,0.0,2.191221,0.0107157715,0.0,0.0
341805142,341705763,0.02024488,0.0,2.3275188e-05,0.0012224199,0.0,0.0,0.0,0.0,0.0,0.0,0.0,0.0,0.0,0.022737889,0.0,0.0,nan,0.0,0.0,0.0,0.25070086,0.0,0.0,0.0,0.0,2.191221,0.013185739,0.0,0.0
342298879,342199653,0.0124888765,0.0,0.001209305,0.0019443514,0.0,0.0,0.0,0.0,0.0,0.0,0.0,0.0,0.0,0.007572144,0.0,0.0,nan,0.0,0.0,0.0,0.2672721,0.0,0.0,0.0,0.0,2.191221,0.01339165,0.0,0.0
342792833,342693543,0.0038780556,0.0,0.0037482486,0.0006478372,0.0,0.0,0.0,0.0,0.0,0.0,0.0,0.0,0.0,0.028364535,0.0,0.0,nan,0.0,0.0,0.0,0.25335047,0.0,0.0,0.0,0.0,2.191221,0.0051539848,0.0,0.0
343296561,343197311,0.0023719615,0.0,0.009412047,0.0019971044,0.0,0.0,0.0,0.0,0.0,0.0,0.0,0.0,0.0,0.00029677324,0.0,0.0,nan,0.0,0.0,0.0,0.21579453,0.0,0.0,0.0,0.0,2.191221,0.0011064705,0.0,0.0
343800354,343701078,0.032987844,0.0,0.004364771,0.0049938876,0.0,0.0,0.0,0.0,0.0,0.0,0.0,0.0,0.0,0.010353417,0.0,0.0,nan,0.0,0.0,0.0,0.20290852,0.0,0.0,0.0,0.0,2.191221,0.0006272699,0.0,0.0
344294332,344194968,0.009456881,0.0,0.008818158,0.00858911,0.0,0.0,0.0,0.0,0.0,0.0,0.0,0.0,0.0,0.011184366,0.0,0.0,nan,0.0,0.0,0.0,0.13862284,0.0,0.0,0.0,0.0,2.191221,0.00021974066,0.0,0.0
344797954,344698735,0.012650388,0.0,0.0063368,0.0064414265,0.0,0.0,0.0,0.0,0.0,0.0,0.0,0.0,0.0,0.006140628,0.0,0.0,nan,0.0,0.0,0.0,0.15162897,0.0,0.0,0.0,0.0,2.191221,3.620018e-05,0.0,0.0
345301729,345202509,0.0045637474,0.0,0.006280904,0.007604982,0.0,0.0,0.0,0.0,0.0,0.0,0.0,0.0,0.0,0.015881125,0.0,0.0,nan,0.0,0.0,0.0,0.13191049,0.0,0.0,0.0,0.0,2.191221,0.00026517044,0.0,0.0
345805494,345706270,0.0037297884,0.0,0.0057821474,0.0055302856,0.0,0.0,0.0,0.0,0.0,0.0,0.0,0.0,0.0,5.5834203e-06,0.0,0.0,nan,0.0,0.0,0.0,0.06805923,0.0,0.0,0.0,0.0,2.191221,0.00084389746,0.0,0.0
346299424,346200159,0.021093082,0.0,0.004700891,0.006131934,0.0,0.0,0.0,0.0,0.0,0.0,0.0,0.0,0.0,0.008603942,0.0,0.0,nan,0.0,0.0,0.0,0.062966175,0.0,0.0,0.0,0.0,2.191221,0.0011872185,0.0,0.0
346793316,346694049,0.025896301,0.0,0.0025070575,0.0041369502,0.0,0.0,0.0,0.0,0.0,0.0,0.0,0.0,0.0,0.03498891,0.0,0.0,nan,0.0,0.0,0.0,0.043767676,0.0,0.0,0.0,0.0,2.191221,0.002307157,0.0,0.0
347297085,347197816,0.0040460336,0.0,0.014319663,0.005367431,0.0,0.0,0.0,0.0,0.0,0.0,0.0,0.0,0.0,0.00024198419,0.0,0.0,nan,0.0,0.0,0.0,0.06840506,0.0,0.0,0.0,0.0,2.191221,0.003679916,0.0,0.0
347801000,347701583,0.06604689,0.0,0.0057186973,0.0046860403,0.0,0.0,0.0,0.0,0.0,0.0,0.0,0.0,0.0,0.0007218006,0.0,0.0,nan,0.0,0.0,0.0,0.056272365,0.0,0.0,0.0,0.0,2.191221,0.006997535,0.0,0.0
348294826,348195472,0.0033299942,0.0,0.00044825522,0.002981682,0.0,0.0,0.0,0.0,0.0,0.0,0.0,0.0,0.0,0.019848393,0.0,0.0,nan,0.0,0.0,0.0,0.05056032,0.0,0.0,0.0,0.0,2.191221,0.008449129,0.0,0.0
348798456,348699239,0.036862906,0.0,0.0027536866,0.0025204362,0.0,0.0,0.0,0.0,0.0,0.0,0.0,0.0,0.0,0.0029548563,0.0,0.0,nan,0.0,0.0,0.0,0.029175285,0.0,0.0,0.0,0.0,2.191221,0.008421334,0.0,0.0
349302521,349203006,0.042277385,0.0,0.0014329691,0.002341686,0.0,0.0,0.0,0.0,0.0,0.0,0.0,0.0,0.0,0.000188539,0.0,0.0,nan,0.0,0.0,0.0,0.03280731,0.0,0.0,0.0,0.0,2.191221,0.0078044776,0.0,0.0
349796111,349696895,0.013845146,0.0,4.058435e-08,0.0007930275,0.0,0.0,0.0,0.0,0.0,0.0,0.0,0.0,0.0,0.009604159,0.0,0.0,nan,0.0,0.0,0.0,0.09596529,0.0,0.0,0.0,0.0,2.191221,0.008918461,0.0,0.0
350299926,350200662,0.064920895,0.0,0.006087308,0.0014997008,0.0,0.0,0.0,0.0,0.0,0.0,0.0,0.0,0.0,0.0001862038,0.0,0.0,nan,0.0,0.0,0.0,0.04490157,0.0,0.0,0.0,0.0,2.191221,0.008422132,0.0,0.0
350793972,350694550,0.03603283,0.0,0.009384167,0.0009539952,0.0,0.0,0.0,0.0,0.0,0.0,0.0,0.0,0.0,0.016637316,0.0,0.0,nan,0.0,0.0,0.0,0.03584635,0.0,0.0,0.0,0.0,2.191221,0.010191394,0.0,0.0
351297725,351198317,0.056855995,0.0,0.015032881,0.00031200997,0.0,0.0,0.0,0.0,0.0,0.0,0.0,0.0,0.0,0.0004609732,0.0,0.0,nan,0.0,0.0,0.0,0.008792765,0.0,0.0,0.0,0.0,2.191221,0.009549789,0.0,0.0
351801313,351702084,0.016872028,0.0,0.0025656298,0.003664411,0.0,0.0,0.0,0.0,0.0,0.0,0.0,0.0,0.0,0.04860936,0.0,0.0,nan,0.0,0.0,0.0,0.010206323,0.0,0.0,0.0,0.0,2.191221,0.010681555,0.0,0.0
352295681,352195972,0.021347877,0.0,0.010082203,0.0020216377,0.0,0.0,0.0,0.0,0.0,0.0,0.0,0.0,0.0,0.000554304,0.0,0.0,nan,0.0,0.0,0.0,0.008978652,0.0,0.0,0.0,0.0,2.191221,0.010559175,0.0,0.0
352798963,352699739,0.00049261545,0.0,0.0014803036,0.0017512585,0.0,0.0,0.0,0.0,0.0,0.0,0.0,0.0,0.0,8.0040235e-07,0.0,0.0,nan,0.0,0.0,0.0,0.009502321,0.0,0.0,0.0,0.0,2.191221,0.008360738,0.0,0.0
353292959,353193627,0.00060306507,0.0,0.0002084572,0.0030446423,0.0,0.0,0.0,0.0,0.0,0.0,0.0,0.0,0.0,0.0005925358,0.0,0.0,nan,0.0,0.0,0.0,0.012929865,0.0,0.0,0.0,0.0,2.191221,0.006350333,0.0,0.0
353796648,353697393,0.013296781,0.0,0.0012442685,0.0031846028,0.0,0.0,0.0,0.0,0.0,0.0,0.0,0.0,0.0,0.00041273318,0.0,0.0,nan,0.0,0.0,0.0,0.010541144,0.0,0.0,0.0,0.0,2.191221,0.0059749633,0.0,0.0
354301153,354201160,0.0016381148,0.0,0.0010369619,0.0040640067,0.0,0.0,0.0,0.0,0.0,0.0,0.0,0.0,0.0,0.029561648,0.0,0.0,nan,0.0,0.0,0.0,0.009017807,0.0,0.0,0.0,0.0,2.191221,0.0038763762,0.0,0.0
354794272,354695048,0.0053182454,0.0,0.003062467,0.004448628,0.0,0.0,0.0,0.0,0.0,0.0,0.0,0.0,0.0,0.0017163199,0.0,0.0,nan,0.0,0.0,0.0,0.009628715,0.0,0.0,0.0,0.0,2.191221,0.0023575318,0.0,0.0
355298173,355198814,0.004700338,0.0,0.00574558,0.0037043511,0.0,0.0,0.0,0.0,0.0,0.0,0.0,0.0,0.0,0.018329632,0.0,0.0,nan,0.0,0.0,0.0,0.005631023,0.0,0.0,0.0,0.0,2.191221,0.0018357631,0.0,0.0
355801968,355702580,0.0068899156,0.0,0.0002742394,0.0030134202,0.0,0.0,0.0,0.0,0.0,0.0,0.0,0.0,0.0,0.057180226,0.0,0.0,nan,0.0,0.0,0.0,0.008522499,0.0,0.0,0.0,0.0,2.191221,0.001002954,0.0,0.0
356296145,356196468,0.0003173388,0.0,0.0037690543,0.0053733084,0.0,0.0,0.0,0.0,0.0,0.0,0.0,0.0,0.0,0.012648931,0.0,0.0,nan,0.0,0.0,0.0,0.008133063,0.0,0.0,0.0,0.0,2.191221,0.0010731592,0.0,0.0
356799499,356700234,0.03512774,0.0,0.0010510887,0.003536512,0.0,0.0,0.0,0.0,0.0,0.0,0.0,0.0,0.0,0.027383167,0.0,0.0,nan,0.0,0.0,0.0,0.011324686,0.0,0.0,0.0,0.0,2.191221,0.0004974503,0.0,0.0
357293662,357194122,0.0045164432,0.0,0.014638685,0.0069319815,0.0,0.0,0.0,0.0,0.0,0.0,0.0,0.0,0.0,0.006346468,0.0,0.0,nan,0.0,0.0,0.0,0.005656394,0.0,0.0,0.0,0.0,2.191221,0.00070123555,0.0,0.0
357797214,357697888,0.006795707,0.0,0.0013360837,0.0046487865,0.0,0.0,0.0,0.0,0.0,0.0,0.0,0.0,0.0,0.006900209,0.0,0.0,nan,0.0,0.0,0.0,0.0039413637,0.0,0.0,0.0,0.0,2.191221,1.55003e-05,0.0,0.0
358301201,358201653,0.0038260112,0.0,0.00081626227,0.0052034976,0.0,0.0,0.0,0.0,0.0,0.0,0.0,0.0,0.0,0.002850723,0.0,0.0,nan,0.0,0.0,0.0,0.008152008,0.0,0.0,0.0,0.0,2.191221,0.0014174216,0.0,0.0
358794811,358695541,0.0041582617,0.0,0.0042973757,0.004343454,0.0,0.0,0.0,0.0,0.0,0.0,0.0,0.0,0.0,0.0067912773,0.0,0.0,nan,0.0,0.0,0.0,0.006111228,0.0,0.0,0.0,0.0,2.191221,0.0035056449,0.0,0.0
359298688,359199307,0.039733637,0.0,0.017842492,0.0036710047,0.0,0.0,0.0,0.0,0.0,0.0,0.0,0.0,0.0,0.018514667,0.0,0.0,nan,0.0,0.0,0.0,0.016857449,0.0,0.0,0.0,0.0,2.191221,0.007173896,0.0,0.0
359802334,359703072,0.005897718,0.0,0.0043477155,0.0081332065,0.0,0.0,0.0,0.0,0.0,0.0,0.0,0.0,0.0,0.053790774,0.0,0.0,nan,0.0,0.0,0.0,0.0500996,0.0,0.0,0.0,0.0,2.191221,0.017025143,0.0,0.0
360296491,360196960,0.002249644,0.0,0.039239056,0.006892658,0.0,0.0,0.0,0.0,0.0,0.0,0.0,0.0,0.0,0.0052861073,0.0,0.0,nan,0.0,0.0,0.0,0.035045736,0.0,0.0,0.0,0.0,2.191221,0.012728728,0.0,0.0
360800136,360700725,0.0008230463,0.0,0.00082814635,0.0052275043,0.0,0.0,0.0,0.0,0.0,0.0,0.0,0.0,0.0,0.0016192526,0.0,0.0,nan,0.0,0.0,0.0,0.01858802,0.0,0.0,0.0,0.0,2.191221,0.02574476,0.0,0.0
361293868,361194613,0.0013536947,0.0,0.00013819622,0.011225637,0.0,0.0,0.0,0.0,0.0,0.0,0.0,0.0,0.0,0.005226136,0.0,0.0,nan,0.0,0.0,0.0,0.034581866,0.0,0.0,0.0,0.0,2.191221,0.023214553,0.0,0.0
361797717,361698378,0.008499871,0.0,0.00040007097,0.016385525,0.0,0.0,0.0,0.0,0.0,0.0,0.0,0.0,0.0,0.007919283,0.0,0.0,nan,0.0,0.0,0.0,0.0018033305,0.0,0.0,0.0,0.0,2.191221,0.02965041,0.0,0.0
362301591,362202143,0.015993865,0.0,0.012641822,0.0091973245,0.0,0.0,0.0,0.0,0.0,0.0,0.0,0.0,0.0,0.07431939,0.0,0.0,nan,0.0,0.0,0.0,0.0021510643,0.0,0.0,0.0,0.0,2.191221,0.039834194,0.0,0.0
362795298,362696030,0.0071224244,0.0,0.039739437,0.0055983216,0.0,0.0,0.0,0.0,0.0,0.0,0.0,0.0,0.0,0.00075211265,0.0,0.0,nan,0.0,0.0,0.0,0.0019686765,0.0,0.0,0.0,0.0,2.191221,0.027595699,0.0,0.0
363299037,363199795,0.0030112243,0.0,0.0007064517,0.0032257147,0.0,0.0,0.0,0.0,0.0,0.0,0.0,0.0,0.0,0.05734467,0.0,0.0,nan,0.0,0.0,0.0,0.01695031,0.0,0.0,0.0,0.0,2.191221,0.019484254,0.0,0.0
363793304,363693684,0.024447516,0.0,0.0129542025,0.0030701396,0.0,0.0,0.0,0.0,0.0,0.0,0.0,0.0,0.0,0.0015647055,0.0,0.0,nan,0.0,0.0,0.0,0.0069310926,0.0,0.0,0.0,0.0,2.191221,0.038453087,0.0,0.0
364296784,364197447,0.0071872743,0.0,0.0053177266,0.0013178547,0.0,0.0,0.0,0.0,0.0,0.0,0.0,0.0,0.0,0.056561228,0.0,0.0,nan,0.0,0.0,0.0,0.0061771637,0.0,0.0,0.0,0.0,2.191221,0.03404776,0.0,0.0
364800472,364701212,0.0021314442,0.0,0.0005052247,0.00087401055,0.0,0.0,0.0,0.0,0.0,0.0,0.0,0.0,0.0,0.062071484,0.0,0.0,nan,0.0,0.0,0.0,0.006165478,0.0,0.0,0.0,0.0,2.191221,0.029350726,0.0,0.0
365294345,365195098,0.011289862,0.0,0.011766213,0.0013819943,0.0,0.0,0.0,0.0,0.0,0.0,0.0,0.0,0.0,0.0044404343,0.0,0.0,nan,0.0,0.0,0.0,0.007200842,0.0,0.0,0.0,0.0,2.191221,0.021479985,0.0,0.0
365798084,365698863,0.031559043,0.0,0.011074802,0.00069305964,0.0,0.0,0.0,0.0,0.0,0.0,0.0,0.0,0.0,0.05780788,0.0,0.0,nan,0.0,0.0,0.0,0.009240688,0.0,0.0,0.0,0.0,2.191221,0.012112539,0.0,0.0
366301879,366202627,0.00026971565,0.0,0.0067777964,2.4441331e-05,0.0,0.0,0.0,0.0,0.0,0.0,0.0,0.0,0.0,0.00790563,0.0,0.0,nan,0.0,0.0,0.0,0.011439159,0.0,0.0,0.0,0.0,2.191221,0.009231248,0.0,0.0
366795798,366696514,0.0009569058,0.0,5.0944138e-05,0.00055923156,0.0,0.0,0.0,0.0,0.0,0.0,0.0,0.0,0.0,0.0072219777,0.0,0.0,nan,0.0,0.0,0.0,0.00740823,0.0,0.0,0.0,0.0,2.191221,0.0065088635,0.0,0.0
367299719,367200278,0.015583345,0.0,0.00088191446,0.0015450295,0.0,0.0,0.0,0.0,0.0,0.0,0.0,0.0,0.0,0.05728785,0.0,0.0,nan,0.0,0.0,0.0,0.0062902416,0.0,0.0,0.0,0.0,2.191221,0.003697325,0.0,0.0
367793411,367694165,0.00044990858,0.0,1.0134516e-05,0.0039764796,0.0,0.0,0.0,0.0,0.0,0.0,0.0,0.0,0.0,0.0022331013,0.0,0.0,nan,0.0,0.0,0.0,0.0048732245,0.0,0.0,0.0,0.0,2.191221,0.0016975934,0.0,0.0
368297165,368197929,0.0027357766,0.0,0.0006479904,0.0023494356,0.0,0.0,0.0,0.0,0.0,0.0,0.0,0.0,0.0,0.00027240065,0.0,0.0,nan,0.0,0.0,0.0,0.004545989,0.0,0.0,0.0,0.0,2.191221,0.00025449586,0.0,0.0
368800921,368701693,0.005787578,0.0,0.010128615,0.004975992,0.0,0.0,0.0,0.0,0.0,0.0,0.0,0.0,0.0,0.017320503,0.0,0.0,nan,0.0,0.0,0.0,0.0060192603,0.0,0.0,0.0,0.0,2.191221,0.0002168336,0.0,0.0
369294800,369195579,0.00029353553,0.0,0.0048898454,0.0037041001,0.0,0.0,0.0,0.0,0.0,0.0,0.0,0.0,0.0,0.00054544676,0.0,0.0,nan,0.0,0.0,0.0,0.0111631295,0.0,0.0,0.0,0.0,2.191221,6.8841495e-05,0.0,0.0
369798564,369699343,0.0053335964,0.0,0.0025041746,0.0026944107,0.0,0.0,0.0,0.0,0.0,0.0,0.0,0.0,0.0,5.2109776e-06,0.0,0.0,nan,0.0,0.0,0.0,0.016229318,0.0,0.0,0.0,0.0,2.191221,9.833195e-05,0.0,0.0
370302388,370203107,0.0041394252,0.0,7.884086e-05,0.003925988,0.0,0.0,0.0,0.0,0.0,0.0,0.0,0.0,0.0,0.0013780915,0.0,0.0,nan,0.0,0.0,0.0,0.024718547,0.0,0.0,0.0,0.0,2.191221,0.0010762715,0.0,0.0
370796229,370696993,0.012096518,0.0,0.0033757796,0.0055439575,0.0,0.0,0.0,0.0,0.0,0.0,0.0,0.0,0.0,0.017072966,0.0,0.0,nan,0.0,0.0,0.0,0.022811487,0.0,0.0,0.0,0.0,2.191221,0.001744367,0.0,0.0
371299974,371200757,0.005682787,0.0,0.0013409251,0.0055267825,0.0,0.0,0.0,0.0,0.0,0.0,0.0,0.0,0.0,8.618855e-05,0.0,0.0,nan,0.0,0.0,0.0,0.006501469,0.0,0.0,0.0,0.0,2.191221,0.0014429344,0.0,0.0
371793863,371694643,0.008425144,0.0,0.025269069,0.004561705,0.0,0.0,0.0,0.0,0.0,0.0,0.0,0.0,0.0,0.061606694,0.0,0.0,nan,0.0,0.0,0.0,0.017093102,0.0,0.0,0.0,0.0,2.191221,0.0022418185,0.0,0.0
372297630,372198407,0.0030112558,0.0,0.004740554,0.006175432,0.0,0.0,0.0,0.0,0.0,0.0,0.0,0.0,0.0,0.0053469087,0.0,0.0,nan,0.0,0.0,0.0,0.02427174,0.0,0.0,0.0,0.0,2.191221,0.003136456,0.0,0.0
372801435,372702170,0.013151913,0.0,0.001047468,0.0035739725,0.0,0.0,0.0,0.0,0.0,0.0,0.0,0.0,0.0,0.0001221763,0.0,0.0,nan,0.0,0.0,0.0,0.016321281,0.0,0.0,0.0,0.0,2.191221,0.0077337935,0.0,0.0
373295338,373196056,0.006329119,0.0,0.00037638284,0.008634107,0.0,0.0,0.0,0.0,0.0,0.0,0.0,0.0,0.0,0.0027158987,0.0,0.0,nan,0.0,0.0,0.0,0.0013092225,0.0,0.0,0.0,0.0,2.191221,0.010620956,0.0,0.0
373799355,373699819,0.0022378992,0.0,0.0005665663,0.006154028,0.0,0.0,0.0,0.0,0.0,0.0,0.0,0.0,0.0,0.024797682,0.0,0.0,nan,0.0,0.0,0.0,0.0014014617,0.0,0.0,0.0,0.0,2.191221,0.009700572,0.0,0.0
374293066,374193705,0.0014121396,0.0,9.810979e-05,0.0057908962,0.0,0.0,0.0,0.0,0.0,0.0,0.0,0.0,0.0,0.0012602475,0.0,0.0,nan,0.0,0.0,0.0,0.002917143,0.0,0.0,0.0,0.0,2.191221,0.010182986,0.0,0.0
374796751,374697468,0.001080702,0.0,0.00096733106,0.008318856,0.0,0.0,0.0,0.0,0.0,0.0,0.0,0.0,0.0,0.062001023,0.0,0.0,nan,0.0,0.0,0.0,0.00035907526,0.0,0.0,0.0,0.0,2.191221,0.011223355,0.0,0.0
