timestamp,timestamp_sample,control[0],control[1],control[2],control[3],control[4],control[5],control[6],control[7]
217458369,217453500,0.0,0.0,0.0,0.0,0.0,0.0,0.0,0.0
217463367,217458516,0.0,0.0,0.0,0.0,0.0,0.0,0.0,0.0
217560874,217558496,0.0,0.0,0.0,0.0,0.0,0.0,0.0,0.0
217660912,217658572,0.0,0.0,0.0,0.0,0.0,0.0,0.0,0.0
217760889,217758509,0.0,0.0,0.0,0.0,0.0,0.0,0.0,0.0
217860897,217858535,0.0,0.0,0.0,0.0,0.0,0.0,0.0,0.0
217958403,217953522,0.0,0.0,0.0,0.0,0.0,0.0,0.0,0.0
218060915,218058564,0.0,0.0,0.0,0.0,0.0,0.0,0.0,0.0
218158421,218153541,0.0,0.0,0.0,0.0,0.0,0.0,0.0,0.0
218260932,218258566,0.0,0.0,0.0,0.0,0.0,0.0,0.0,0.0
218360950,218358548,0.0,0.0,0.0,0.0,0.0,0.0,0.0,0.0
218460947,218458599,0.0,0.0,0.0,0.0,0.0,0.0,0.0,0.0
218560958,218558593,0.0,0.0,0.0,0.0,0.0,0.0,0.0,0.0
218658457,218653598,0.0,0.0,0.0,0.0,0.0,0.0,0.0,0.0
218760970,218758583,0.0,0.0,0.0,0.0,0.0,0.0,0.0,0.0
218858473,218853583,0.0,0.0,0.0,0.0,0.0,0.0,0.0,0.0
218960986,218958602,0.0,0.0,0.0,0.0,0.0,0.0,0.0,0.0
219060994,219058628,0.0,0.0,0.0,0.0,0.0,0.0,0.0,0.0
219161004,219158626,0.0,0.0,0.0,0.0,0.0,0.0,0.0,0.0
219261013,219258629,0.0,0.0,0.0,0.0,0.0,0.0,0.0,0.0
219358520,219353650,0.0,0.0,0.0,0.0,0.0,0.0,0.0,0.0
219461026,219458647,0.0,0.0,0.0,0.0,0.0,0.0,0.0,0.0
219558531,219553648,0.0,0.0,0.0,0.0,0.0,0.0,0.0,0.0
219661043,219658668,0.0,0.0,0.0,0.0,0.0,0.0,0.0,0.0
219761051,219758666,0.0,0.0,0.0,0.0,0.0,0.0,0.0,0.0
219861060,219858677,0.0,0.0,0.0,0.0,0.0,0.0,0.0,0.0
219961073,219958694,0.0,0.0,0.0,0.0,0.0,0.0,0.0,0.0
220058574,220053695,0.0,0.0,0.0,0.0,0.0,0.0,0.0,0.0
220161086,220158707,0.0,0.0,0.0,0.0,0.0,0.0,0.0,0.0
220258593,220253706,0.0,0.0,0.0,0.0,0.0,0.0,0.0,0.0
220361100,220358722,0.0,0.0,0.0,0.0,0.0,0.0,0.0,0.0
220461110,220458725,0.0,0.0,0.0,0.0,0.0,0.0,0.0,0.0
220561118,220558736,0.0,0.0,0.0,0.0,0.0,0.0,0.0,0.0
220661127,220658739,0.0,0.0,0.0,0.0,0.0,0.0,0.0,0.0
220758635,220753752,0.0,0.0,0.0,0.0,0.0,0.0,0.0,0.0
220858643,220853757,0.0,0.0,0.0,0.0,0.0,0.0,0.0,0.0
220958653,220953763,0.0,0.0,0.0,0.0,0.0,0.0,0.0,0.0
221061163,221058784,0.0,0.0,0.0,0.0,0.0,0.0,0.0,0.0
221161172,221158818,0.0,0.0,0.0,0.0,0.0,0.0,0.0,0.0
221261176,221258793,0.0,0.0,0.0,0.0,0.0,0.0,0.0,0.0
221361183,221358799,0.0,0.0,0.0,0.0,0.0,0.0,0.0,0.0
221458692,221453808,0.0,0.0,0.0,0.0,0.0,0.0,0.0,0.0
221561203,221558817,0.0,0.0,0.0,0.0,0.0,0.0,0.0,0.0
221658708,221653825,0.0,0.0,0.0,0.0,0.0,0.0,0.0,0.0
221761220,221758840,0.0,0.0,0.0,0.0,0.0,0.0,0.0,0.0
221861228,221858842,0.0,0.0,0.0,0.0,0.0,0.0,0.0,0.0
221958732,221953844,0.0,0.0,0.0,0.0,0.0,0.0,0.0,0.0
222061246,222058857,0.0,0.0,0.0,0.0,0.0,0.0,0.0,0.0
222158815,222153904,0.0,0.0,0.0,0.0,0.0,0.0,0.0,0.0
222261258,222258876,0.0,0.0,0.0,0.0,0.0,0.0,0.0,0.0
222358766,222353878,0.0,0.0,0.0,0.0,0.0,0.0,0.0,0.0
222461277,222458849,0.0,0.0,0.0,0.0,0.0,0.0,0.0,0.0
222561287,222558901,0.0,0.0,0.0,0.0,0.0,0.0,0.0,0.0
222658793,222653909,0.0,0.0,0.0,0.0,0.0,0.0,0.0,0.0
222761304,222758917,0.0,0.0,0.0,0.0,0.0,0.0,0.0,0.0
222858808,222853923,0.0,0.0,0.0,0.0,0.0,0.0,0.0,0.0
222961320,222958934,0.0,0.0,0.0,0.0,0.0,0.0,0.0,0.0
223058883,223048943,0.0,0.0,0.0,0.0,0.0,0.0,0.0,0.0
223161335,223158949,0.0,0.0,0.0,0.0,0.0,0.0,0.0,0.0
223261346,223258957,0.0,0.0,0.0,0.0,0.0,0.0,0.0,0.0
223358853,223353961,0.0,0.0,0.0,0.0,0.0,0.0,0.0,0.0
223461361,223458978,0.0,0.0,0.0,0.0,0.0,0.0,0.0,0.0
223558868,223553977,0.0,0.0,0.0,0.0,0.0,0.0,0.0,0.0
223661380,223658995,0.0,0.0,0.0,0.0,0.0,0.0,0.0,0.0
223758884,223754002,0.0,0.0,0.0,0.0,0.0,0.0,0.0,0.0
223861394,223859010,0.0,0.0,0.0,0.0,0.0,0.0,0.0,0.0
223961408,223959018,0.0,0.0,0.0,0.0,0.0,0.0,0.0,0.0
224058912,224054023,0.0,0.0,0.0,0.0,0.0,0.0,0.0,0.0
224161423,224159039,0.0,0.0,0.0,0.0,0.0,0.0,0.0,0.0
224258925,224254042,0.0,0.0,0.0,0.0,0.0,0.0,0.0,0.0
224361441,224359054,0.0,0.0,0.0,0.0,0.0,0.0,0.0,0.0
224458947,224454057,0.0,0.0,0.0,0.0,0.0,0.0,0.0,0.0
224561455,224559071,0.0,0.0,0.0,0.0,0.0,0.0,0.0,0.0
224661468,224659124,0.0,0.0,0.0,0.0,0.0,0.0,0.0,0.0
224758967,224754122,0.0,0.0,0.0,0.0,0.0,0.0,0.0,0.0
224861480,224859097,0.0,0.0,0.0,0.0,0.0,0.0,0.0,0.0
224958987,224954112,0.0,0.0,0.0,0.0,0.0,0.0,0.0,0.0
225061498,225059113,0.0,0.0,0.0,0.0,0.0,0.0,0.0,0.0
225159002,225154119,0.0,0.0,0.0,0.0,0.0,0.0,0.0,0.0
225261515,225259131,0.0,0.0,0.0,0.0,0.0,0.0,0.0,0.0
225361524,225359136,0.0,0.0,0.0,0.0,0.0,0.0,0.0,0.0
225459029,225454146,0.0,0.0,0.0,0.0,0.0,0.0,0.0,0.0
225561544,225559155,0.0,0.0,0.0,0.0,0.0,0.0,0.0,0.0
225659048,225654160,0.0,0.0,0.0,0.0,0.0,0.0,0.0,0.0
225761557,225759212,0.0,0.0,0.0,0.0,0.0,0.0,0.0,0.0
225859066,225854173,0.0,0.0,0.0,0.0,0.0,0.0,0.0,0.0
225961575,225959200,0.0,0.0,0.0,0.0,0.0,0.0,0.0,0.0
226061583,226059199,0.0,0.0,0.0,0.0,0.0,0.0,0.0,0.0
226159093,226154208,0.0,0.0,0.0,0.0,0.0,0.0,0.0,0.0
226261604,226259215,0.0,0.0,0.0,0.0,0.0,0.0,0.0,0.0
226359105,226354219,0.0,0.0,0.0,0.0,0.0,0.0,0.0,0.0
226461623,226459231,0.0,0.0,0.0,0.0,0.0,0.0,0.0,0.0
226551628,226549244,0.0,0.0,0.0,0.0,0.0,0.0,0.0,0.0
226661641,226659292,0.0,0.0,0.0,0.0,0.0,0.0,0.0,0.0
226761645,226759256,0.0,0.0,0.0,0.0,0.0,0.0,0.0,0.0
226859149,226854260,0.0,0.0,0.0,0.0,0.0,0.0,0.0,0.0
226961663,226959274,0.0,0.0,0.0,0.0,0.0,0.0,0.0,0.0
227059166,227054279,0.0,0.0,0.0,0.0,0.0,0.0,0.0,0.0
227161682,227159293,0.0,0.0,0.0,0.0,0.0,0.0,0.0,0.0
227259184,227254297,0.0,0.0,0.0,0.0,0.0,0.0,0.0,0.0
227361700,227359344,0.0,0.0,0.0,0.0,0.0,0.0,0.0,0.0
227461707,227459318,0.0,0.0,0.0,0.0,0.0,0.0,0.0,0.0
227559208,227554322,0.0,0.0,0.0,0.0,0.0,0.0,0.0,0.0
227661723,227659337,0.0,0.0,0.0,0.0,0.0,0.0,0.0,0.0
227759227,227754341,0.0,0.0,0.0,0.0,0.0,0.0,0.0,0.0
227861737,227859356,0.0,0.0,0.0,0.0,0.0,0.0,0.0,0.0
227959244,227954356,0.0,0.0,0.0,0.0,0.0,0.0,0.0,0.0
228059254,228054363,0.0,0.0,0.0,0.0,0.0,0.0,0.0,0.0
228161764,228159383,0.0,0.0,0.0,0.0,0.0,0.0,0.0,0.0
228259272,228254435,0.0,0.0,0.0,0.0,0.0,0.0,0.0,0.0
228361780,228359398,0.0,0.0,0.0,0.0,0.0,0.0,0.0,0.0
228459286,228454397,0.0,0.0,0.0,0.0,0.0,0.0,0.0,0.0
228561799,228559417,0.0,0.0,0.0,0.0,0.0,0.0,0.0,0.0
228659306,228654418,0.0,0.0,0.0,0.0,0.0,0.0,0.0,0.0
228759313,228754426,0.0,0.0,0.0,0.0,0.0,0.0,0.0,0.0
228859322,228854434,0.0,0.0,0.0,0.0,0.0,0.0,0.0,0.0
228959332,228954447,0.0,0.0,0.0,0.0,0.0,0.0,0.0,0.0
229061845,229059458,0.0,0.0,0.0,0.0,0.0,0.0,0.0,0.0
229159350,229154497,0.0,0.0,0.0,0.0,0.0,0.0,0.0,0.0
229261858,229259471,0.0,0.0,0.0,0.0,0.0,0.0,0.0,0.0
229359366,229354485,0.0,0.0,0.0,0.0,0.0,0.0,0.0,0.0
229459374,229454486,0.0,0.0,0.0,0.0,0.0,0.0,0.0,0.0
229559383,229554496,0.0,0.0,0.0,0.0,0.0,0.0,0.0,0.0
229659394,229654504,0.0,0.0,0.0,0.0,0.0,0.0,0.0,0.0
229761903,229759522,0.0,0.0,0.0,0.0,0.0,0.0,0.0,0.0
229859470,229854566,0.0,0.0,0.0,0.0,0.0,0.0,0.0,0.0
229961921,229959570,0.0,0.0,0.0,0.0,0.0,0.0,0.0,0.0
230059425,230054541,0.0,0.0,0.0,0.0,0.0,0.0,0.0,0.0
230159436,230154552,0.0,0.0,0.0,0.0,0.0,0.0,0.0,0.0
230259444,230254560,0.0,0.0,0.0,0.0,0.0,0.0,0.0,0.0
230359454,230354567,0.0,0.0,0.0,0.0,0.0,0.0,0.0,0.0
230461967,230459584,0.0,0.0,0.0,0.0,0.0,0.0,0.0,0.0
230559476,230554600,0.0,0.0,0.0,0.0,0.0,0.0,0.0,0.0
230661987,230659625,0.0,0.0,0.0,0.0,0.0,0.0,0.0,0.0
230759487,230754669,0.0,0.0,0.0,0.0,0.0,0.0,0.0,0.0
230859495,230854609,0.0,0.0,0.0,0.0,0.0,0.0,0.0,0.0
230959507,230954631,0.0,0.0,0.0,0.0,0.0,0.0,0.0,0.0
231059513,231054630,0.0,0.0,0.0,0.0,0.0,0.0,0.0,0.0
231162031,231159643,0.0,0.0,0.0,0.0,0.0,0.0,0.0,0.0
231259532,231254650,0.0,0.0,0.0,0.0,0.0,0.0,0.0,0.0
231362043,231359686,0.0,0.0,0.0,0.0,0.0,0.0,0.0,0.0
231459552,231454668,0.0,0.0,0.0,0.0,0.0,0.0,0.0,0.0
231559561,231554708,0.0,0.0,0.0,0.0,0.0,0.0,0.0,0.0
231659565,231654702,0.0,0.0,0.0,0.0,0.0,0.0,0.0,0.0
231759576,231754701,0.0,0.0,0.0,0.0,0.0,0.0,0.0,0.0
231862090,231859707,0.0,0.0,0.0,0.0,0.0,0.0,0.0,0.0
231959593,231954712,0.0,0.0,0.0,0.0,0.0,0.0,0.0,0.0
232062107,232059723,0.0,0.0,0.0,0.0,0.0,0.0,0.0,0.0
232159621,232154743,0.0,0.0,0.0,0.0,0.0,0.0,0.0,0.0
232259626,232254747,0.0,0.0,0.0,0.0,0.0,0.0,0.0,0.0
232359632,232354759,0.0,0.0,0.0,0.0,0.0,0.0,0.0,0.0
232459640,232454783,0.0,0.0,0.0,0.0,0.0,0.0,0.0,0.0
232562151,232559770,0.0,0.0,0.0,0.0,0.0,0.0,0.0,0.0
232659658,232654777,0.0,0.0,0.0,0.0,0.0,0.0,0.0,0.0
232762172,232759779,0.0,0.0,0.0,0.0,0.0,0.0,0.0,0.0
232859672,232854791,0.0,0.0,0.0,0.0,0.0,0.0,0.0,0.0
232959687,232954803,0.0,0.0,0.0,0.0,0.0,0.0,0.0,0.0
233059698,233054806,0.0,0.0,0.0,0.0,0.0,0.0,0.0,0.0
233159742,233154848,0.0,0.0,0.0,0.0,0.0,0.0,0.0,0.0
233262211,233259827,0.0,0.0,0.0,0.0,0.0,0.0,0.0,0.0
233359722,233354836,0.0,0.0,0.0,0.0,0.0,0.0,0.0,0.0
233462229,233459843,0.0,0.0,0.0,0.0,0.0,0.0,0.0,0.0
233559738,233554850,0.0,0.0,0.0,0.0,0.0,0.0,0.0,0.0
233659747,233654859,0.0,0.0,0.0,0.0,0.0,0.0,0.0,0.0
233759757,233754866,0.0,0.0,0.0,0.0,0.0,0.0,0.0,0.0
233859765,233854875,0.0,0.0,0.0,0.0,0.0,0.0,0.0,0.0
233962279,233959924,0.0,0.0,0.0,0.0,0.0,0.0,0.0,0.0
234059781,234054932,0.0,0.0,0.0,0.0,0.0,0.0,0.0,0.0
234159791,234154903,0.0,0.0,0.0,0.0,0.0,0.0,0.0,0.0
234259799,234254910,0.0,0.0,0.0,0.0,0.0,0.0,0.0,0.0
234359808,234354934,0.0,0.0,0.0,0.0,0.0,0.0,0.0,0.0
234462321,234459934,0.0,0.0,0.0,0.0,0.0,0.0,0.0,0.0
234559828,234554966,0.0,0.0,0.0,0.0,0.0,0.0,0.0,0.0
234662339,234659962,0.0,0.0,0.0,0.0,0.0,0.0,0.0,0.0
234759843,234755012,0.0,0.0,0.0,0.0,0.0,0.0,0.0,0.0
234859892,234855003,0.0,0.0,0.0,0.0,0.0,0.0,0.0,0.0
234959862,234955010,0.0,0.0,0.0,0.0,0.0,0.0,0.0,0.0
235059871,235054999,0.0,0.0,0.0,0.0,0.0,0.0,0.0,0.0
235162386,235160006,0.0,0.0,0.0,0.0,0.0,0.0,0.0,0.0
235259887,235255003,0.0,0.0,0.0,0.0,0.0,0.0,0.0,0.0
235362399,235360014,0.0,0.0,0.0,0.0,0.0,0.0,0.0,0.0
235459907,235455018,0.0,0.0,0.0,0.0,0.0,0.0,0.0,0.0
235559929,235555137,0.0,0.0,0.0,0.0,0.0,0.0,0.0,0.0
235659924,235655033,0.0,0.0,0.0,0.0,0.0,0.0,0.0,0.0
235759964,235755201,0.0,0.0,0.0,0.0,0.0,0.0,0.0,0.0
235862445,235860056,0.0,0.0,0.0,0.0,0.0,0.0,0.0,0.0
235959981,235955154,0.0,0.0,0.0,0.0,0.0,0.0,0.0,0.0
236062465,236060092,0.0,0.0,0.0,0.0,0.0,0.0,0.0,0.0
236160011,236155191,0.0,0.0,0.0,0.0,0.0,0.0,0.0,0.0
236259979,236255095,0.0,0.0,0.0,0.0,0.0,0.0,0.0,0.0
236360038,236355239,0.0,0.0,0.0,0.0,0.0,0.0,0.0,0.0
236459994,236455157,0.0,0.0,0.0,0.0,0.0,0.0,0.0,0.0
236562541,236560189,0.0,0.0,0.0,0.0,0.0,0.0,0.0,0.0
236660015,236655135,0.0,0.0,0.0,0.0,0.0,0.0,0.0,0.0
236762570,236760212,0.0,0.0,0.0,0.0,0.0,0.0,0.0,0.0
236860030,236855152,0.0,0.0,0.0,0.0,0.0,0.0,0.0,0.0
236960126,236955324,0.0,0.0,0.0,0.0,0.0,0.0,0.0,0.0
237060052,237055172,0.0,0.0,0.0,0.0,0.0,0.0,0.0,0.0
237160156,237155334,0.0,0.0,0.0,0.0,0.0,0.0,0.0,0.0
237262577,237260186,0.0,0.0,0.0,0.0,0.0,0.0,0.0,0.0
237360184,237355403,0.0,0.0,0.0,0.0,0.0,0.0,0.0,0.0
237462599,237460206,0.0,0.0,0.0,0.0,0.0,0.0,0.0,0.0
237560208,237555220,0.0,0.0,0.0,0.0,0.0,0.0,0.0,0.0
237660104,237655223,0.0,0.0,0.0,0.0,0.0,0.0,0.0,0.0
237755116,237750238,0.0,0.0,0.0,0.0,0.0,0.0,0.0,0.0
237860126,237855250,0.0,0.0,0.0,0.0,0.0,0.0,0.0,0.0
237962749,237960395,0.0,0.0,0.0,0.0,0.0,0.0,0.0,0.0
238060146,238055255,0.0,0.0,0.0,0.0,0.0,0.0,0.0,0.0
238160298,238155276,0.0,0.0,0.0,0.0,0.0,0.0,0.0,0.0
238260220,238255318,0.0,0.0,0.0,0.0,0.0,0.0,0.0,0.0
238360331,238355292,0.0,0.0,0.0,0.0,0.0,0.0,0.0,0.0
238460177,238455296,0.0,0.0,0.0,0.0,0.0,0.0,0.0,0.0
238560360,238555308,0.0,0.0,0.0,0.0,0.0,0.0,0.0,0.0
238662702,238660315,0.0,0.0,0.0,0.0,0.0,0.0,0.0,0.0
238760210,238755326,0.0,0.0,0.0,0.0,0.0,0.0,0.0,0.0
238862724,238860335,0.0,0.0,0.0,0.0,0.0,0.0,0.0,0.0
238960225,238955351,0.0,0.0,0.0,0.0,0.0,0.0,0.0,0.0
239060231,239055347,0.0,0.0,0.0,0.0,0.0,0.0,0.0,0.0
239157812,239155409,0.0,0.0,0.0,0.0,0.0,0.0,0.0,0.0
239260251,239255362,0.0,0.0,0.0,0.0,0.0,0.0,0.0,0.0
239362766,239360382,0.0,0.0,0.0,0.0,0.0,0.0,0.0,0.0
239460270,239455383,0.0,0.0,0.0,0.0,0.0,0.0,0.0,0.0
239560279,239555398,0.0,0.0,0.0,0.0,0.0,0.0,0.0,0.0
239660287,239655401,0.0,0.0,0.0,0.0,0.0,0.0,0.0,0.0
239760299,239755482,0.0,0.0,0.0,0.0,0.0,0.0,0.0,0.0
239857810,239855457,0.0,0.0,0.0,0.0,0.0,0.0,0.0,0.0
239960316,239955436,0.0,0.0,0.0,0.0,0.0,0.0,0.0,0.0
240062829,240060440,0.0,0.0,0.0,0.0,0.0,0.0,0.0,0.0
240160338,240155458,0.0,0.0,0.0,0.0,0.0,0.0,0.0,0.0
240260345,240255452,0.0,0.0,0.0,0.0,0.0,0.0,0.0,0.0
240360353,240355482,0.0,0.0,0.0,0.0,0.0,0.0,0.0,0.0
240460362,240455472,0.0,0.0,0.0,0.0,0.0,0.0,0.0,0.0
240557873,240555498,0.0,0.0,0.0,0.0,0.0,0.0,0.0,0.0
240660380,240655498,0.0,0.0,0.0,0.0,0.0,0.0,0.0,0.0
240762893,240760517,0.0,0.0,0.0,0.0,0.0,0.0,0.0,0.0
240860396,240855509,0.0,0.0,0.0,0.0,0.0,0.0,0.0,0.0
240960406,240955534,0.0,0.0,0.0,0.0,0.0,0.0,0.0,0.0
241060418,241055531,0.0,0.0,0.0,0.0,0.0,0.0,0.0,0.0
241160426,241155553,0.0,0.0,0.0,0.0,0.0,0.0,0.0,0.0
241257937,241255548,0.0,0.0,0.0,0.0,0.0,0.0,0.0,0.0
241360445,241355578,0.0,0.0,0.0,0.0,0.0,0.0,0.0,0.0
241462958,241460590,0.0,0.0,0.0,0.0,0.0,0.0,0.0,0.0
241560464,241555630,0.0,0.0,0.0,0.0,0.0,0.0,0.0,0.0
241660470,241655588,0.0,0.0,0.0,0.0,0.0,0.0,0.0,0.0
241760481,241755632,0.0,0.0,0.0,0.0,0.0,0.0,0.0,0.0
241860493,241855626,0.0,0.0,0.0,0.0,0.0,0.0,0.0,0.0
241958002,241955636,0.0,0.0,0.0,0.0,0.0,0.0,0.0,0.0
242060511,242055635,0.0,0.0,0.0,0.0,0.0,0.0,0.0,0.0
242163023,242160660,0.0,0.0,0.0,0.0,0.0,0.0,0.0,0.0
242260530,242255679,0.0,0.0,0.0,0.0,0.0,0.0,0.0,0.0
242360535,242355661,0.0,0.0,0.0,0.0,0.0,0.0,0.0,0.0
242460545,242455673,0.0,0.0,0.0,0.0,0.0,0.0,0.0,0.0
242560559,242555683,0.0,0.0,0.0,0.0,0.0,0.0,0.0,0.0
242658066,242655692,0.0,0.0,0.0,0.0,0.0,0.0,0.0,0.0
242760573,242755701,0.0,0.0,0.0,0.0,0.0,0.0,0.0,0.0
242860585,242855717,0.0,0.0,0.0,0.0,0.0,0.0,0.0,0.0
242960591,242955721,0.0,0.0,0.0,0.0,0.0,0.0,0.0,0.0
243060605,243055731,0.0,0.0,0.0,0.0,0.0,0.0,0.0,0.0
243160670,243155771,0.0,0.0,0.0,0.0,0.0,0.0,0.0,0.0
243260623,243255739,0.0,0.0,0.0,0.0,0.0,0.0,0.0,0.0
243358130,243355747,0.0,0.0,0.0,0.0,0.0,0.0,0.0,0.0
243460645,243455750,0.0,0.0,0.0,0.0,0.0,0.0,0.0,0.0
243563151,243560771,0.0,0.0,0.0,0.0,0.0,0.0,0.0,0.0
243660660,243655774,0.0,0.0,0.0,0.0,0.0,0.0,0.0,0.0
243760668,243755779,0.0,0.0,0.0,0.0,0.0,0.0,0.0,0.0
243860676,243855795,0.0,0.0,0.0,0.0,0.0,0.0,0.0,0.0
243960690,243955802,0.0,0.0,0.0,0.0,0.0,0.0,0.0,0.0
244058246,244055836,0.0,0.0,0.0,0.0,0.0,0.0,0.0,0.0
244160708,244155820,0.0,0.0,0.0,0.0,0.0,0.0,0.0,0.0
244263220,244260836,0.0,0.0,0.0,0.0,0.0,0.0,0.0,0.0
244360724,244355835,0.0,0.0,0.0,0.0,0.0,0.0,0.0,0.0
244460734,244455846,0.0,0.0,0.0,0.0,0.0,0.0,0.0,0.0
244558243,244555858,0.0,0.0,0.0,0.0,0.0,0.0,0.0,0.0
244660752,244655871,0.0,0.0,0.0,0.0,0.0,0.0,0.0,0.0
244758263,244755896,0.0,0.0,0.0,0.0,0.0,0.0,0.0,0.0
244860768,244855888,0.0,0.0,0.0,0.0,0.0,0.0,0.0,0.0
244963287,244960896,0.0,0.0,0.0,0.0,0.0,0.0,0.0,0.0
245060788,245055895,0.0,0.0,0.0,0.0,0.0,0.0,0.0,0.0
245160796,245155909,0.0,0.0,0.0,0.0,0.0,0.0,0.0,0.0
245258309,245255916,0.0,0.0,0.0,0.0,0.0,0.0,0.0,0.0
245360816,245355962,0.0,0.0,0.0,0.0,0.0,0.0,0.0,0.0
245458327,245455947,0.0,0.0,0.0,0.0,0.0,0.0,0.0,0.0
245560836,245555949,0.0,0.0,0.0,0.0,0.0,0.0,0.0,0.0
245660846,245655974,0.0,0.0,0.0,0.0,0.0,0.0,0.0,0.0
245760852,245755971,0.0,0.0,0.0,0.0,0.0,0.0,0.0,0.0
245860864,245855976,0.0,0.0,0.0,0.0,0.0,0.0,0.0,0.0
245958373,245955981,0.0,0.0,0.0,0.0,0.0,0.0,0.0,0.0
246060880,246055998,0.0,0.0,0.0,0.0,0.0,0.0,0.0,0.0
246158392,246155999,0.0,0.0,0.0,0.0,0.0,0.0,0.0,0.0
246260900,246256016,0.0,0.0,0.0,0.0,0.0,0.0,0.0,0.0
246360910,246356022,0.0,0.0,0.0,0.0,0.0,0.0,0.0,0.0
246460920,246456031,0.0,0.0,0.0,0.0,0.0,0.0,0.0,0.0
246560930,246556065,0.0,0.0,0.0,0.0,0.0,0.0,0.0,0.0
246660939,246656048,0.0,0.0,0.0,0.0,0.0,0.0,0.0,0.0
246760947,246756072,0.0,0.0,0.0,0.0,0.0,0.0,0.0,0.0
246858459,246856067,0.0,0.0,0.0,0.0,0.0,0.0,0.0,0.0
246960964,246956075,0.0,0.0,0.0,0.0,0.0,0.0,0.0,0.0
247060977,247056094,0.0,0.0,0.0,0.0,0.0,0.0,0.0,0.0
247160985,247156099,0.0,0.0,0.0,0.0,0.0,0.0,0.0,0.0
247260994,247256110,0.0,0.0,0.0,0.0,0.0,0.0,0.0,0.0
247358506,247356119,0.0,0.0,0.0,0.0,0.0,0.0,0.0,0.0
247461017,247456153,0.0,0.0,0.0,0.0,0.0,0.0,0.0,0.0
247558522,247556134,0.0,0.0,0.0,0.0,0.0,0.0,0.0,0.0
247661033,247656141,0.0,0.0,0.0,0.0,0.0,0.0,0.0,0.0
247761040,247756154,0.0,0.0,0.0,0.0,0.0,0.0,0.0,0.0
247861051,247856164,0.0,0.0,0.0,0.0,0.0,0.0,0.0,0.0
247958560,247956193,0.0,0.0,0.0,0.0,0.0,0.0,0.0,0.0
248058570,248056186,0.0,0.0,0.0,0.0,0.0,0.0,0.0,0.0
248161082,248156192,0.0,0.0,0.0,0.0,0.0,0.0,0.0,0.0
248258588,248256234,0.0,0.0,0.0,0.0,0.0,0.0,0.0,0.0
248361153,248356258,0.0,0.0,0.0,0.0,0.0,0.0,0.0,0.0
248461104,248456224,0.0,0.0,0.0,0.0,0.0,0.0,0.0,0.0
248561114,248556225,0.0,0.0,0.0,0.0,0.0,0.0,0.0,0.0
248661129,248656249,0.0,0.0,0.0,0.0,0.0,0.0,0.0,0.0
248758640,248756253,0.0,0.0,0.0,0.0,0.0,0.0,0.0,0.0
248861145,248856260,0.0,0.0,0.0,0.0,0.0,0.0,0.0,0.0
248958658,248956272,0.0,0.0,0.0,0.0,0.0,0.0,0.0,0.0
249061166,249056273,0.0,0.0,0.0,0.0,0.0,0.0,0.0,0.0
249161171,249156308,0.0,0.0,0.0,0.0,0.0,0.0,0.0,0.0
249261184,249256295,0.0,0.0,0.0,0.0,0.0,0.0,0.0,0.0
249361194,249356301,0.0,0.0,0.0,0.0,0.0,0.0,0.0,0.0
249458701,249456317,0.0,0.0,0.0,0.0,0.0,0.0,0.0,0.0
249561211,249556323,0.0,0.0,0.0,0.0,0.0,0.0,0.0,0.0
249658722,249656335,0.0,0.0,0.0,0.0,0.0,0.0,0.0,0.0
249761231,249756356,0.0,0.0,0.0,0.0,0.0,0.0,0.0,0.0
249861242,249856353,0.0,0.0,0.0,0.0,0.0,0.0,0.0,0.0
249958750,249956360,0.0,0.0,0.0,0.0,0.0,0.0,0.0,0.0
250061255,250056393,0.0,0.0,0.0,0.0,0.0,0.0,0.0,0.0
250158766,250156380,0.0,0.0,0.0,0.0,0.0,0.0,0.0,0.0
250261277,250256393,0.0,0.0,0.0,0.0,0.0,0.0,0.0,0.0
250358786,250356401,0.0,0.0,0.0,0.0,0.0,0.0,0.0,0.0
250461295,250456411,0.0,0.0,0.0,0.0,0.0,0.0,0.0,0.0
250561306,250556420,0.0,0.0,0.0,0.0,0.0,0.0,0.0,0.0
250661320,250656428,0.0,0.0,0.0,0.0,0.0,0.0,0.0,0.0
250761324,250756435,0.0,0.0,0.0,0.0,0.0,0.0,0.0,0.0
250858835,250856464,0.0,0.0,0.0,0.0,0.0,0.0,0.0,0.0
250961340,250956452,0.0,0.0,0.0,0.0,0.0,0.0,0.0,0.0
251058852,251056467,0.0,0.0,0.0,0.0,0.0,0.0,0.0,0.0
251161362,251156472,0.0,0.0,0.0,0.0,0.0,0.0,0.0,0.0
251261370,251256483,0.0,0.0,0.0,0.0,0.0,0.0,0.0,0.0
251358883,251356492,0.0,0.0,0.0,0.0,0.0,0.0,0.0,0.0
251461394,251456499,0.0,0.0,0.0,0.0,0.0,0.0,0.0,0.0
251558901,251556522,0.0,0.0,0.0,0.0,0.0,0.0,0.0,0.0
251661407,251656519,0.0,0.0,0.0,0.0,0.0,0.0,0.0,0.0
251758963,251756559,0.0,0.0,0.0,0.0,0.0,0.0,0.0,0.0
251861426,251856561,0.0,0.0,0.0,0.0,0.0,0.0,0.0,0.0
251961436,251956566,0.0,0.0,0.0,0.0,0.0,0.0,0.0,0.0
252058949,252056562,0.0,0.0,0.0,0.0,0.0,0.0,0.0,0.0
252161455,252156583,0.0,0.0,0.0,0.0,0.0,0.0,0.0,0.0
252258966,252256580,0.0,0.0,0.0,0.0,0.0,0.0,0.0,0.0
252361478,252356586,0.0,0.0,0.0,0.0,0.0,0.0,0.0,0.0
252458990,252456628,0.0,0.0,0.0,0.0,0.0,0.0,0.0,0.0
252561493,252556603,0.0,0.0,0.0,0.0,0.0,0.0,0.0,0.0
252661505,252656628,0.0,0.0,0.0,0.0,0.0,0.0,0.0,0.0
252759012,252756630,0.0,0.0,0.0,0.0,0.0,0.0,0.0,0.0
252861521,252856638,0.0,0.0,0.0,0.0,0.0,0.0,0.0,0.0
252959032,252956662,0.0,0.0,0.0,0.0,0.0,0.0,0.0,0.0
253061545,253056656,0.0,0.0,0.0,0.0,0.0,0.0,0.0,0.0
253159052,253156666,0.0,0.0,0.0,0.0,0.0,0.0,0.0,0.0
253261559,253256682,0.0,0.0,0.0,0.0,0.0,0.0,0.0,0.0
253361567,253356749,0.0,0.0,0.0,0.0,0.0,0.0,0.0,0.0
253459083,253456737,0.0,0.0,0.0,0.0,0.0,0.0,0.0,0.0
253561589,253556704,0.0,0.0,0.0,0.0,0.0,0.0,0.0,0.0
253659099,253656732,0.0,0.0,0.0,0.0,0.0,0.0,0.0,0.0
253761608,253756725,0.0,0.0,0.0,0.0,0.0,0.0,0.0,0.0
253859121,253856735,0.0,0.0,0.0,0.0,0.0,0.0,0.0,0.0
253961631,253956766,0.0,0.0,0.0,0.0,0.0,0.0,0.0,0.0
254061640,254056771,0.0,0.0,0.0,0.0,0.0,0.0,0.0,0.0
254159150,254156801,0.0,0.0,0.0,0.0,0.0,0.0,0.0,0.0
254261657,254256790,0.0,0.0,0.0,0.0,0.0,0.0,0.0,0.0
254359169,254356800,0.0,0.0,0.0,0.0,0.0,0.0,0.0,0.0
254461675,254456812,0.0,0.0,0.0,0.0,0.0,0.0,0.0,0.0
254559186,254556830,0.0,0.0,0.0,0.0,0.0,0.0,0.0,0.0
254661703,254656829,0.0,0.0,0.0,0.0,0.0,0.0,0.0,0.0
254761709,254756836,0.0,0.0,0.0,0.0,0.0,0.0,0.0,0.0
254859221,254856850,0.0,0.0,0.0,0.0,0.0,0.0,0.0,0.0
254961720,254956895,0.0,0.0,0.0,0.0,0.0,0.0,0.0,0.0
255059235,255056870,0.0,0.0,0.0,0.0,0.0,0.0,0.0,0.0
255161740,255156872,0.0,0.0,0.0,0.0,0.0,0.0,0.0,0.0
255259254,255256896,0.0,0.0,0.0,0.0,0.0,0.0,0.0,0.0
255359263,255356890,0.0,0.0,0.0,0.0,0.0,0.0,0.0,0.0
255461772,255456931,0.0,0.0,0.0,0.0,0.0,0.0,0.0,0.0
255559282,255556937,0.0,0.0,0.0,0.0,0.0,0.0,0.0,0.0
255661789,255656923,0.0,0.0,0.0,0.0,0.0,0.0,0.0,0.0
255759302,255756932,0.0,0.0,0.0,0.0,0.0,0.0,0.0,0.0
255861807,255856980,0.0,0.0,0.0,0.0,0.0,0.0,0.0,0.0
255959318,255956971,0.0,0.0,0.0,0.0,0.0,0.0,0.0,0.0
256059330,256056961,0.0,0.0,0.0,0.0,0.0,0.0,0.0,0.0
256161834,256156969,0.0,0.0,0.0,0.0,0.0,0.0,0.0,0.0
256259347,256256979,0.0,0.0,0.0,0.0,0.0,0.0,0.0,0.0
256361856,256356985,0.0,0.0,0.0,0.0,0.0,0.0,0.0,0.0
256459374,256456996,0.0,0.0,0.0,0.0,0.0,0.0,0.0,0.0
256561875,256557019,0.0,0.0,0.0,0.0,0.0,0.0,0.0,0.0
256659387,256657028,0.0,0.0,0.0,0.0,0.0,0.0,0.0,0.0
256759397,256757027,0.0,0.0,0.0,0.0,0.0,0.0,0.0,0.0
256861905,256857061,0.0,0.0,0.0,0.0,0.0,0.0,0.0,0.0
256959413,256957044,0.0,0.0,0.0,0.0,0.0,0.0,0.0,0.0
257061925,257057069,0.0,0.0,0.0,0.0,0.0,0.0,0.0,0.0
257159433,257157064,0.0,0.0,0.0,0.0,0.0,0.0,0.0,0.0
257261940,257257092,0.0,0.0,0.0,0.0,0.0,0.0,0.0,0.0
257359455,257357089,0.0,0.0,0.0,0.0,0.0,0.0,0.0,0.0
257459463,257457121,0.0,0.0,0.0,0.0,0.0,0.0,0.0,0.0
257561971,257557109,0.0,0.0,0.0,0.0,0.0,0.0,0.0,0.0
257659491,257657147,0.0,0.0,0.0,0.0,0.0,0.0,0.0,0.0
257761990,257757125,0.0,0.0,0.0,0.0,0.0,0.0,0.0,0.0
257859583,257857268,0.0,0.0,0.0,0.0,0.0,0.0,0.0,0.0
257962011,257957143,0.0,0.0,0.0,0.0,0.0,0.0,0.0,0.0
258059549,258057216,0.0,0.0,0.0,0.0,0.0,0.0,0.0,0.0
258157025,258152275,0.0,0.0,0.0,0.0,0.0,0.0,0.0,0.0
258262046,258257245,0.0,0.0,0.0,0.0,0.0,0.0,0.0,0.0
258359549,258357182,0.0,0.0,0.0,0.0,0.0,0.0,0.0,0.0
258462073,258457273,0.0,0.0,0.0,0.0,0.0,0.0,0.0,0.0
258559570,258557243,0.0,0.0,0.0,0.0,0.0,0.0,0.0,0.0
258662105,258657314,0.0,0.0,0.0,0.0,0.0,0.0,0.0,0.0
258759645,258757257,0.0,0.0,0.0,0.0,0.0,0.0,0.0,0.0
258859670,258857336,0.0,0.0,0.0,0.0,0.0,0.0,0.0,0.0
258962103,258957243,0.0,0.0,0.0,0.0,0.0,0.0,0.0,0.0
259059696,259057360,0.0,0.0,0.0,0.0,0.0,0.0,0.0,0.0
259162128,259157280,0.0,0.0,0.0,0.0,0.0,0.0,0.0,0.0
259259741,259257419,0.0,0.0,0.0,0.0,0.0,0.0,0.0,0.0
259362143,259357294,0.0,0.0,0.0,0.0,0.0,0.0,0.0,0.0
259459781,259457490,0.0,0.0,0.0,0.0,0.0,0.0,0.0,0.0
259559663,259557301,0.0,0.0,0.0,0.0,0.0,0.0,0.0,0.0
259659796,259657468,0.0,0.0,0.0,0.0,0.0,0.0,0.0,0.0
259759683,259757354,0.0,0.0,0.0,0.0,0.0,0.0,0.0,0.0
259862285,259857498,0.0,0.0,0.0,0.0,0.0,0.0,0.0,0.0
259959706,259957338,0.0,0.0,0.0,0.0,0.0,0.0,0.0,0.0
260059852,260057523,0.0,0.0,0.0,0.0,0.0,0.0,0.0,0.0
260159723,260157359,0.0,0.0,0.0,0.0,0.0,0.0,0.0,0.0
260259882,260257382,0.0,0.0,0.0,0.0,0.0,0.0,0.0,0.0
260362244,260357392,0.0,0.0,0.0,0.0,0.0,0.0,0.0,0.0
260459911,260457394,0.0,0.0,0.0,0.0,0.0,0.0,0.0,0.0
260562258,260557389,0.0,0.0,0.0,0.0,0.0,0.0,0.0,0.0
260659941,260657414,0.0,0.0,0.0,0.0,0.0,0.0,0.0,0.0
260759782,260757414,0.0,0.0,0.0,0.0,0.0,0.0,0.0,0.0
260859795,260857446,0.0,0.0,0.0,0.0,0.0,0.0,0.0,0.0
260959802,260957436,0.0,0.0,0.0,0.0,0.0,0.0,0.0,0.0
261062471,261057448,0.0,0.0,0.0,0.0,0.0,0.0,0.0,0.0
261159821,261157452,0.0,0.0,0.0,0.0,0.0,0.0,0.0,0.0
261262331,261257468,0.0,0.0,0.0,0.0,0.0,0.0,0.0,0.0
261359839,261357487,0.0,0.0,0.0,0.0,0.0,0.0,0.0,0.0
261459847,261457509,0.0,0.0,0.0,0.0,0.0,0.0,0.0,0.0
261559859,261557488,0.0,0.0,0.0,0.0,0.0,0.0,0.0,0.0
261659867,261657514,0.0,0.0,0.0,0.0,0.0,0.0,0.0,0.0
261762375,261757509,0.0,0.0,0.0,0.0,0.0,0.0,0.0,0.0
261859892,261857552,0.0,0.0,0.0,0.0,0.0,0.0,0.0,0.0
261962395,261957530,0.0,0.0,0.0,0.0,0.0,0.0,0.0,0.0
262059912,262057547,0.0,0.0,0.0,0.0,0.0,0.0,0.0,0.0
262159919,262157586,0.0,0.0,0.0,0.0,0.0,0.0,0.0,0.0
262259927,262257594,0.0,0.0,0.0,0.0,0.0,0.0,0.0,0.0
262359935,262357571,0.0,0.0,0.0,0.0,0.0,0.0,0.0,0.0
262462447,262457587,0.0,0.0,0.0,0.0,0.0,0.0,0.0,0.0
262559958,262557584,0.0,0.0,0.0,0.0,0.0,0.0,0.0,0.0
262662467,262657631,0.0,0.0,0.0,0.0,0.0,0.0,0.0,0.0
262759975,262757606,0.0,0.0,0.0,0.0,0.0,0.0,0.0,0.0
262859989,262857638,0.0,0.0,0.0,0.0,0.0,0.0,0.0,0.0
262960004,262957659,0.0,0.0,0.0,0.0,0.0,0.0,0.0,0.0
263060003,263057660,0.0,0.0,0.0,0.0,0.0,0.0,0.0,0.0
263162519,263157653,0.059556205,0.2842458,-0.0016477294,0.037501,0.0,0.0,0.0,0.0
263260028,263257639,0.008644522,0.18689443,6.5145025e-05,0.13501,0.0,0.0,0.0,0.0
263362541,263357691,-0.040745478,0.07367665,0.0024592208,0.237523,0.0,0.0,0.0,0.0
263460048,263457715,-0.036869034,0.013625915,0.0026035307,0.33503,0.0,0.0,0.0,0.0
263560064,263557693,-0.030965764,0.0015764716,0.00093942264,0.435041,0.0,0.0,0.0,0.0
263660071,263657718,0.0087735215,0.017183611,0.00017692684,0.535052,0.0,0.0,0.0,0.0
263760084,263757717,0.0042859856,0.016895331,-0.00061047997,0.635066,0.0,0.0,0.0,0.0
263862589,263857787,-0.05578274,-0.070163995,-0.0018241858,0.73757,0.0,0.0,0.0,0.0
263960097,263957738,-0.17939325,-0.15325674,-0.0024294585,0.835079,0.0,0.0,0.0,0.0
264062618,264057759,-0.16393939,-0.20501019,-0.0039666286,0.937597,0.0,0.0,0.0,0.0
264160120,264157752,-0.14464964,-0.16002251,-0.007682448,1.000162,0.0,0.0,0.0,0.0
264260128,264257794,-0.11834197,-0.1905633,-0.007051657,1.000162,0.0,0.0,0.0,0.0
264360138,264357770,-0.20751496,-0.23228925,-0.0095636975,1.000162,0.0,0.0,0.0,0.0
264460148,264457793,-0.17004578,-0.27771065,-0.017899312,1.000162,0.0,0.0,0.0,0.0
264562663,264557788,-0.08038153,-0.3010787,-0.028525978,1.000162,0.0,0.0,0.0,0.0
264660171,264657805,-0.02663739,-0.31604418,-0.035327904,1.000162,0.0,0.0,0.0,0.0
264762676,264757847,-0.04259219,-0.3471718,-0.040756285,1.000162,0.0,0.0,0.0,0.0
264860185,264857817,-0.018803736,-0.40438414,-0.041088596,1.000162,0.0,0.0,0.0,0.0
264960196,264957830,-0.0031955726,-0.41906163,-0.044734173,1.000162,0.0,0.0,0.0,0.0
265060210,265057851,0.043369308,-0.39173108,-0.043341044,1.000162,0.0,0.0,0.0,0.0
265160217,265157858,0.020539401,-0.4540676,-0.041004527,1.000162,0.0,0.0,0.0,0.0
265262727,265257857,-0.048884235,-0.5161238,-0.039549194,1.000162,0.0,0.0,0.0,0.0
265360238,265357863,-0.060142357,-0.44774723,-0.037019752,1.000162,0.0,0.0,0.0,0.0
265460248,265457889,-0.08477269,-0.4513615,-0.031887345,1.000162,0.0,0.0,0.0,0.0
265560256,265557888,-0.1710538,-0.49762452,-0.027039738,1.000162,0.0,0.0,0.0,0.0
265660269,265657928,-0.20991257,-0.51059717,-0.019672103,1.000162,0.0,0.0,0.0,0.0
265757770,265753032,-0.1323289,-0.53409404,-0.018874088,1.000162,0.0,0.0,0.0,0.0
265860285,265857938,-0.07799122,-0.4045849,-0.026038378,1.000162,0.0,0.0,0.0,0.0
265962793,265957947,-0.036117077,-0.34023964,-0.032239404,1.000162,0.0,0.0,0.0,0.0
266060305,266057936,0.00048290938,-0.32100698,-0.034042977,1.000162,0.0,0.0,0.0,0.0
266160316,266157956,0.01263779,-0.35798076,-0.031113781,1.000162,0.0,0.0,0.0,0.0
266260326,266257962,0.01431654,-0.3901348,-0.030404774,1.000162,0.0,0.0,0.0,0.0
266360335,266357986,-0.005777359,-0.3474276,-0.027997054,1.000162,0.0,0.0,0.0,0.0
266457840,266453205,-0.05264935,-0.31464937,-0.02280443,1.000162,0.0,0.0,0.0,0.0
266560354,266557980,0.018579427,-0.32592803,-0.01489027,1.000162,0.0,0.0,0.0,0.0
266662860,266657992,0.10522026,-0.33913097,-0.0086334525,1.000162,0.0,0.0,0.0,0.0
266760373,266758004,0.062137984,-0.3013591,-0.0063140825,1.000162,0.0,0.0,0.0,0.0
266860384,266858018,-0.0046088006,-0.29765818,0.00090382947,1.000162,0.0,0.0,0.0,0.0
266960395,266958024,-0.040333033,-0.31428644,0.00059951795,1.000162,0.0,0.0,0.0,0.0
267060406,267058043,0.009905633,-0.34374648,-1.6614329e-05,1.000162,0.0,0.0,0.0,0.0
267157912,267153202,0.020184305,-0.33848068,0.004048272,1.000162,0.0,0.0,0.0,0.0
267260426,267258084,0.029040132,-0.28404647,-0.0009821393,1.000162,0.0,0.0,0.0,0.0
267362929,267358066,0.015994046,-0.28568706,-0.0002494515,1.000162,0.0,0.0,0.0,0.0
267460443,267458084,0.017786387,-0.33146763,0.001584271,1.000162,0.0,0.0,0.0,0.0
267560452,267558080,-0.040551737,-0.33439726,0.0043501197,1.000162,0.0,0.0,0.0,0.0
267660463,267658106,-0.057726413,-0.31446362,0.0058566,1.000162,0.0,0.0,0.0,0.0
267760474,267758101,-0.08000328,-0.21346465,0.0060604173,1.000162,0.0,0.0,0.0,0.0
267857977,267853229,0.023112021,-0.25888476,0.0040556323,1.000162,0.0,0.0,0.0,0.0
267960491,267958126,-0.023375468,-0.27633464,0.004363173,1.000162,0.0,0.0,0.0,0.0
268062999,268058150,-0.081714146,-0.23348282,0.009518419,1.000162,0.0,0.0,0.0,0.0
268160513,268158152,-0.018139701,-0.20223393,0.011848449,1.000162,0.0,0.0,0.0,0.0
268260524,268258200,0.030165903,-0.21593809,0.010735989,1.000162,0.0,0.0,0.0,0.0
268360530,268358162,-0.0698454,-0.29870296,0.014106072,1.000162,0.0,0.0,0.0,0.0
268460545,268458183,-0.05594414,-0.25939003,0.015607368,1.000162,0.0,0.0,0.0,0.0
268558048,268553317,0.05514822,-0.26897705,0.012246691,1.000162,0.0,0.0,0.0,0.0
268660561,268658206,-0.0100034205,-0.26712227,0.0074561103,1.000162,0.0,0.0,0.0,0.0
268763070,268758204,-0.013659349,-0.34598562,0.009481329,1.000162,0.0,0.0,0.0,0.0
268860579,268858182,0.16801134,-0.35520047,0.004819261,0.9802995,0.0,0.0,0.0,0.0
268960589,268958185,0.47321698,-0.46646485,0.0064115683,0.9296335,0.0,0.0,0.0,0.0
269060601,269058197,0.27468622,-0.6149477,0.05288299,0.87917566,0.0,0.0,0.0,0.0
269160610,269158230,0.31080726,-0.60141283,0.121564426,0.8260686,0.0,0.0,0.0,0.0
269255610,269253367,0.32165527,-0.4543839,0.14373206,0.7611771,0.0,0.0,0.0,0.0
269360632,269358230,0.33550695,-0.2769836,0.18250278,0.715091,0.0,0.0,0.0,0.0
269460641,269458234,0.2639694,-0.17565787,0.18475187,0.69760925,0.0,0.0,0.0,0.0
269560651,269558252,0.22875477,-0.042024225,0.184553,0.70318353,0.0,0.0,0.0,0.0
269660660,269658280,-0.03166832,0.059673756,0.21309523,0.68400913,0.0,0.0,0.0,0.0
269760668,269758261,-0.18997775,0.00020346045,0.20931107,0.66811866,0.0,0.0,0.0,0.0
269860678,269858271,-0.2645007,-0.192078,0.18566558,0.65655243,0.0,0.0,0.0,0.0
269955741,269953425,-0.3492284,-0.29315993,0.16648147,0.6326214,0.0,0.0,0.0,0.0
270060697,270058334,-0.46613297,-0.34217274,0.16561392,0.62031406,0.0,0.0,0.0,0.0
270160711,270158294,-0.416235,-0.36167994,0.11601198,0.6056506,0.0,0.0,0.0,0.0
270260719,270258308,-0.44298312,-0.37002975,0.07999794,0.5792771,0.0,0.0,0.0,0.0
270355724,270353467,-0.4685612,-0.37621826,0.056642562,0.5374232,0.0,0.0,0.0,0.0
270460738,270458333,-0.43424708,-0.43040335,0.055359006,0.52403706,0.0,0.0,0.0,0.0
270560747,270558339,-0.34338665,-0.4851153,0.049818933,0.5103957,0.0,0.0,0.0,0.0
270655751,270653460,-0.3746391,-0.5157206,0.065871105,0.5054235,0.0,0.0,0.0,0.0
270760767,270758355,-0.39288545,-0.52676797,0.07511923,0.52093583,0.0,0.0,0.0,0.0
270860778,270858365,-0.12250153,-0.48557636,0.023485353,0.54235417,0.0,0.0,0.0,0.0
270960787,270958394,-0.02287231,-0.3864266,-0.01660483,0.5609394,0.0,0.0,0.0,0.0
271060797,271058384,-0.08570711,-0.33902848,-0.035608467,0.5767841,0.0,0.0,0.0,0.0
271155800,271153509,-0.13280788,-0.36825866,-0.042243596,0.59262097,0.0,0.0,0.0,0.0
271260818,271258419,-0.053140134,-0.38966632,-0.04854034,0.5982266,0.0,0.0,0.0,0.0
271355821,271353680,-0.032732747,-0.3988144,-0.06763494,0.60297334,0.0,0.0,0.0,0.0
271460836,271458442,-0.08102366,-0.36685646,-0.07101174,0.6094356,0.0,0.0,0.0,0.0
271560846,271558435,-0.038911805,-0.27983195,-0.06447736,0.6152635,0.0,0.0,0.0,0.0
271660856,271658486,-0.0069121234,-0.27319962,-0.065565474,0.6206981,0.0,0.0,0.0,0.0
271760865,271758458,-0.015380429,-0.3085543,-0.05573216,0.6256154,0.0,0.0,0.0,0.0
271855869,271853579,0.0454765,-0.33568224,-0.049916945,0.6268397,0.0,0.0,0.0,0.0
271960886,271958480,0.097065434,-0.30390948,-0.041033108,0.6275146,0.0,0.0,0.0,0.0
272055887,272053611,0.088485986,-0.27200642,-0.037102498,0.6274061,0.0,0.0,0.0,0.0
272160906,272158515,0.031561144,-0.2958993,-0.04448141,0.6347353,0.0,0.0,0.0,0.0
272260917,272258507,0.0478948,-0.37560838,-0.038674027,0.6383532,0.0,0.0,0.0,0.0
272360925,272358514,0.15185712,-0.3680262,-0.044206552,0.6417645,0.0,0.0,0.0,0.0
272460938,272458526,0.09143858,-0.33359858,-0.02925307,0.64272887,0.0,0.0,0.0,0.0
272555939,272553708,0.00819439,-0.26511806,-0.01943992,0.6391681,0.0,0.0,0.0,0.0
272655947,272653662,0.08834558,-0.2809252,-0.015082351,0.6361147,0.0,0.0,0.0,0.0
272755958,272753699,0.06788769,-0.32917,-0.014645479,0.635541,0.0,0.0,0.0,0.0
272860980,272858569,0.021795563,-0.3853361,-0.016365401,0.63753414,0.0,0.0,0.0,0.0
272960988,272958575,-0.0127276145,-0.36745766,-0.017488355,0.64282924,0.0,0.0,0.0,0.0
273060998,273058594,0.06820146,-0.31576213,-0.006112502,0.64244425,0.0,0.0,0.0,0.0
273161007,273158602,0.04797701,-0.27495328,-0.009152365,0.64478034,0.0,0.0,0.0,0.0
273256009,273253787,-0.034232996,-0.3181775,-0.0011965111,0.6452578,0.0,0.0,0.0,0.0
273361026,273358619,-0.001900645,-0.3685344,-0.0012246519,0.643821,0.0,0.0,0.0,0.0
273456027,273453763,0.07005747,-0.38854578,0.0016725017,0.6445463,0.0,0.0,0.0,0.0
273561045,273558642,0.015784144,-0.3337068,0.0021726135,0.64708805,0.0,0.0,0.0,0.0
273661060,273658652,-0.011339897,-0.29079548,0.007740268,0.6480015,0.0,0.0,0.0,0.0
273761066,273758657,0.029545255,-0.30507377,0.007852264,0.65095437,0.0,0.0,0.0,0.0
273861075,273858673,0.052163757,-0.3580099,0.011987759,0.6530851,0.0,0.0,0.0,0.0
273956078,273953806,0.0041647917,-0.3780521,0.0127738435,0.6540254,0.0,0.0,0.0,0.0
274061098,274058725,-0.05335559,-0.34388256,0.014614089,0.6537933,0.0,0.0,0.0,0.0
274156099,274153857,0.012091698,-0.2923112,0.01735216,0.65078926,0.0,0.0,0.0,0.0
274261115,274258721,0.059818506,-0.29749426,0.018223902,0.65434253,0.0,0.0,0.0,0.0
274361124,274358731,-0.006006735,-0.35093176,0.01708304,0.65587556,0.0,0.0,0.0,0.0
274461136,274458734,-0.027576277,-0.3979116,0.020001585,0.6564768,0.0,0.0,0.0,0.0
274561146,274558742,0.03481588,-0.3655195,0.019249767,0.6587738,0.0,0.0,0.0,0.0
274656149,274653871,0.033436064,-0.32085663,0.017426312,0.6567386,0.0,0.0,0.0,0.0
274761167,274758768,-0.014947835,-0.29604116,0.018496457,0.65118957,0.0,0.0,0.0,0.0
274856168,274854058,-0.026197786,-0.34063238,0.021496415,0.64872056,0.0,0.0,0.0,0.0
274961191,274958846,0.0040183743,-0.3896861,0.022269592,0.64498514,0.0,0.0,0.0,0.0
275056190,275053906,-0.26423985,-0.36368382,0.0219464,0.64204913,0.0,0.0,0.0,0.0
275161209,275158805,-0.4064391,-0.3451094,0.01438245,0.6397671,0.0,0.0,0.0,0.0
275261215,275258833,-0.28332937,-0.322238,-0.019260947,0.6453638,0.0,0.0,0.0,0.0
275356221,275353972,-0.33086142,-0.32243353,-0.045953423,0.6523753,0.0,0.0,0.0,0.0
275461237,275458843,-0.35947528,-0.34715047,-0.07721373,0.6586961,0.0,0.0,0.0,0.0
275556237,275553955,-0.3026806,-0.35017988,-0.102296144,0.6707156,0.0,0.0,0.0,0.0
275661257,275658891,-0.2821427,-0.23497307,-0.13523696,0.68149567,0.0,0.0,0.0,0.0
275761266,275758850,-0.2302992,-0.11653879,-0.14451028,0.6939991,0.0,0.0,0.0,0.0
275856267,275854026,0.02833833,0.020168543,-0.19685274,0.71399146,0.0,0.0,0.0,0.0
275961284,275958878,0.032912496,-0.021184117,-0.19691217,0.729915,0.0,0.0,0.0,0.0
276056284,276053999,0.029739384,-0.10589069,-0.18448538,0.7333369,0.0,0.0,0.0,0.0
276161304,276158897,0.030043326,-0.024832755,-0.21794292,0.7359902,0.0,0.0,0.0,0.0
276256307,276254114,0.030296935,-0.00094133615,-0.2134414,0.7367336,0.0,0.0,0.0,0.0
276361324,276358918,0.00022760499,-0.04239562,-0.20720111,0.7369163,0.0,0.0,0.0,0.0
276461335,276458929,0.1496561,-0.022002041,-0.20318577,0.7410221,0.0,0.0,0.0,0.0
276561358,276558967,0.08628969,-0.007387191,-0.19982147,0.74254143,0.0,0.0,0.0,0.0
276661352,276658942,0.07599895,0.10078883,-0.256522,0.7466002,0.0,0.0,0.0,0.0
276756355,276754066,0.12551439,-0.109303355,-0.2183283,0.74917674,0.0,0.0,0.0,0.0
276861371,276858982,0.2729127,0.058606446,-0.26511756,0.7563196,0.0,0.0,0.0,0.0
276956379,276954114,0.13188857,-0.06045738,-0.22939388,0.7566474,0.0,0.0,0.0,0.0
277061393,277058984,0.13726541,-0.05064103,-0.23753615,0.74880224,0.0,0.0,0.0,0.0
277161405,277158991,0.1716417,0.08219743,-0.28916538,0.74954605,0.0,0.0,0.0,0.0
277256408,277254281,0.109977975,-0.10518816,-0.2660429,0.7475494,0.0,0.0,0.0,0.0
277361428,277359011,0.15570314,-0.001914233,-0.31815684,0.7451436,0.0,0.0,0.0,0.0
277456435,277454312,0.16241692,-0.03425783,-0.30253634,0.74521935,0.0,0.0,0.0,0.0
277561446,277559036,0.071139,-0.042607516,-0.3333044,0.74419034,0.0,0.0,0.0,0.0
277656444,277654311,0.17781577,-0.116395354,-0.34936944,0.74563676,0.0,0.0,0.0,0.0
277761463,277759059,0.18164931,-0.06857392,-0.35346058,0.7466716,0.0,0.0,0.0,0.0
277861474,277859063,0.09850448,-0.028850704,-0.35037535,0.7386274,0.0,0.0,0.0,0.0
277956473,277954190,0.15773264,-0.09358078,-0.35008132,0.7324037,0.0,0.0,0.0,0.0
278061492,278059083,0.18398447,-0.099449545,-0.3710518,0.7321729,0.0,0.0,0.0,0.0
278156495,278154219,0.116441675,-0.092265606,-0.38983223,0.7264998,0.0,0.0,0.0,0.0
278261563,278259136,0.16715243,-0.06476858,-0.4001542,0.7206262,0.0,0.0,0.0,0.0
278356556,278354345,0.21375462,-0.081846565,-0.4148815,0.72206116,0.0,0.0,0.0,0.0
278461532,278459121,0.15902317,-0.08214331,-0.4258526,0.7198468,0.0,0.0,0.0,0.0
278561543,278559131,0.07032238,-0.1572109,-0.43083522,0.71298665,0.0,0.0,0.0,0.0
278656545,278654403,0.12883797,-0.1307967,-0.44910613,0.7084334,0.0,0.0,0.0,0.0
278761560,278759152,0.093722045,-0.08321729,-0.46234167,0.7082506,0.0,0.0,0.0,0.0
278856563,278854295,-0.018926874,-0.19621298,-0.46421158,0.70274025,0.0,0.0,0.0,0.0
278961587,278959173,0.24163502,-0.13556546,-0.48616564,0.7066969,0.0,0.0,0.0,0.0
279056596,279054543,0.2504378,-0.07155958,-0.4772458,0.7130123,0.0,0.0,0.0,0.0
279161602,279159190,0.024477988,-0.03945449,-0.46027133,0.7057124,0.0,0.0,0.0,0.0
279261610,279259202,0.29178986,-0.20980829,-0.41493767,0.69364256,0.0,0.0,0.0,0.0
279356659,279354439,0.60719335,-0.26242468,-0.37197086,0.68962276,0.0,0.0,0.0,0.0
279461633,279459224,0.4760226,-0.34075576,-0.30624604,0.67422783,0.0,0.0,0.0,0.0
279556685,279554429,0.44798744,-0.43998915,-0.24850011,0.6541393,0.0,0.0,0.0,0.0
279661653,279659279,0.5022946,-0.5244196,-0.20688263,0.645037,0.0,0.0,0.0,0.0
279756725,279754461,0.42844537,-0.57335335,-0.16200672,0.6406648,0.0,0.0,0.0,0.0
279861672,279859308,0.41595188,-0.48360652,-0.17651391,0.63795847,0.0,0.0,0.0,0.0
279956808,279954606,0.45066112,-0.40778917,-0.19215988,0.6367507,0.0,0.0,0.0,0.0
280056680,280054547,0.38406098,-0.42134178,-0.13381073,0.6323387,0.0,0.0,0.0,0.0
280161729,280159347,0.42258817,-0.41395074,-0.08721852,0.6319961,0.0,0.0,0.0,0.0
280256706,280254744,0.40076077,-0.41429204,-0.053592287,0.63511664,0.0,0.0,0.0,0.0
280361757,280359376,0.41844058,-0.3928068,0.0079253465,0.642828,0.0,0.0,0.0,0.0
280456724,280454435,0.3076698,-0.3529053,0.022051364,0.6512855,0.0,0.0,0.0,0.0
280561795,280559410,0.12748459,-0.30162174,0.04572343,0.6583305,0.0,0.0,0.0,0.0
280661752,280659337,0.074236065,-0.25221497,0.07377378,0.66726625,0.0,0.0,0.0,0.0
280756876,280754691,0.04791726,-0.26961917,0.076757714,0.6742291,0.0,0.0,0.0,0.0
280861766,280859360,-0.0069498494,-0.28991047,0.056787327,0.6783228,0.0,0.0,0.0,0.0
280956904,280954650,-0.0666229,-0.30426282,0.048593313,0.6797954,0.0,0.0,0.0,0.0
281061786,281059382,-0.12898123,-0.30943397,0.033661336,0.6799574,0.0,0.0,0.0,0.0
281156933,281154545,-0.13920212,-0.28071007,0.0014358684,0.6750419,0.0,0.0,0.0,0.0
281256799,281254669,-0.1744155,-0.22605018,0.0062391236,0.6729249,0.0,0.0,0.0,0.0
281356967,281354588,0.023752872,-0.28372675,0.00094681233,0.66994053,0.0,0.0,0.0,0.0
281456820,281454586,0.060260653,-0.32486647,0.021710463,0.66626704,0.0,0.0,0.0,0.0
281561942,281559614,-0.03709945,-0.31621987,0.01913751,0.66469294,0.0,0.0,0.0,0.0
281656839,281654761,-0.013476811,-0.29258144,0.0396645,0.6658075,0.0,0.0,0.0,0.0
281761976,281759602,0.06365116,-0.29751024,0.059034638,0.6697857,0.0,0.0,0.0,0.0
281856858,281854745,0.046909817,-0.35770136,0.04378646,0.67111367,0.0,0.0,0.0,0.0
281956867,281954644,-0.04415771,-0.33185446,0.06241212,0.67451864,0.0,0.0,0.0,0.0
282056879,282054749,-0.009446271,-0.2932264,0.0751778,0.68259025,0.0,0.0,0.0,0.0
282156886,282154646,0.046909492,-0.3272529,0.04204607,0.6838616,0.0,0.0,0.0,0.0
282261908,282259496,-0.07550275,-0.31335324,0.035019882,0.68352777,0.0,0.0,0.0,0.0
282356909,282354725,-0.06274645,-0.31238604,0.0133173615,0.6793545,0.0,0.0,0.0,0.0
282461925,282459515,-0.05311597,-0.30193135,0.018732183,0.6731444,0.0,0.0,0.0,0.0
282556925,282554709,-0.0391988,-0.3342861,0.0061131865,0.66561174,0.0,0.0,0.0,0.0
282656936,282654703,-0.0369578,-0.35301498,0.038209066,0.66598684,0.0,0.0,0.0,0.0
282756948,282754707,-0.08925777,-0.40267825,0.025302269,0.6691044,0.0,0.0,0.0,0.0
282856954,282854825,-0.08980727,-0.36762267,0.020979144,0.6700196,0.0,0.0,0.0,0.0
282961974,282959570,-0.034480445,-0.3298822,0.0054825097,0.66764367,0.0,0.0,0.0,0.0
283056976,283054910,-0.0025106296,-0.2920285,-0.006217234,0.6507306,0.0,0.0,0.0,0.0
283161993,283159589,-0.023895293,-0.35041648,-0.0033419803,0.65126127,0.0,0.0,0.0,0.0
283256995,283254750,-0.074067876,-0.38636112,-0.00043149292,0.65209854,0.0,0.0,0.0,0.0
283357005,283354925,-0.085633114,-0.38107753,-0.0018272176,0.6535197,0.0,0.0,0.0,0.0
283457014,283454879,-0.0061746277,-0.3463804,-0.0106809735,0.65272945,0.0,0.0,0.0,0.0
283557021,283554825,0.01359143,-0.29647857,-0.023078583,0.6505343,0.0,0.0,0.0,0.0
283662040,283659642,-0.08883279,-0.31114656,-0.031176906,0.65137583,0.0,0.0,0.0,0.0
283757041,283754837,-0.05970202,-0.3349563,-0.032688223,0.65242857,0.0,0.0,0.0,0.0
283862061,283859660,-0.028200664,-0.39148313,-0.032561913,0.65224516,0.0,0.0,0.0,0.0
283957066,283954970,-0.06750924,-0.3635032,-0.0379448,0.6359753,0.0,0.0,0.0,0.0
284057072,284054953,-0.13030091,-0.31554872,-0.045002606,0.63496995,0.0,0.0,0.0,0.0
284157082,284154871,-0.07653912,-0.30284375,-0.049792394,0.63442594,0.0,0.0,0.0,0.0
284257092,284254949,-0.036096085,-0.3337788,-0.05157289,0.6334829,0.0,0.0,0.0,0.0
284362113,284359717,-0.07307247,-0.38672462,-0.051970802,0.6332783,0.0,0.0,0.0,0.0
284457108,284454861,-0.09071503,-0.39055577,-0.053869992,0.6332351,0.0,0.0,0.0,0.0
284562130,284559731,-0.061844427,-0.35410857,-0.058028597,0.6331133,0.0,0.0,0.0,0.0
284657130,284654843,0.0015428909,-0.31326205,-0.06251491,0.63275415,0.0,0.0,0.0,0.0
284757138,284754957,-0.012582938,-0.32419133,-0.06658767,0.63309574,0.0,0.0,0.0,0.0
284857153,284855062,-0.06987925,-0.35203853,-0.06902125,0.6338664,0.0,0.0,0.0,0.0
284957156,284954917,-0.056292064,-0.4072736,-0.070699185,0.6345032,0.0,0.0,0.0,0.0
285062173,285059777,0.046168275,-0.37895617,-0.071773335,0.63450986,0.0,0.0,0.0,0.0
285157176,285155080,-0.061288945,-0.34405193,-0.07468531,0.6347576,0.0,0.0,0.0,0.0
285262202,285259792,-0.10518002,-0.3377866,-0.07433713,0.6352253,0.0,0.0,0.0,0.0
285357195,285354927,0.017383508,-0.3683413,-0.074499145,0.6353217,0.0,0.0,0.0,0.0
285457210,285454924,0.031207498,-0.39009902,-0.075732656,0.6354605,0.0,0.0,0.0,0.0
285557217,285554949,-0.02127311,-0.3709412,-0.07593958,0.6358757,0.0,0.0,0.0,0.0
285657225,285654968,-0.016930435,-0.32946926,-0.076936625,0.63608086,0.0,0.0,0.0,0.0
285762245,285759901,0.05063887,-0.32151863,-0.08126037,0.63637084,0.0,0.0,0.0,0.0
285857249,285854957,0.05207614,-0.34570906,-0.08424338,0.6368158,0.0,0.0,0.0,0.0
285962261,285959856,-0.038437616,-0.37273124,-0.079731755,0.63727987,0.0,0.0,0.0,0.0
286057264,286054978,-0.05236883,-0.36794415,-0.07937749,0.6377877,0.0,0.0,0.0,0.0
286157274,286155016,0.0078099333,-0.32556844,-0.073572755,0.638271,0.0,0.0,0.0,0.0
286262292,286259891,-0.007819233,-0.2870532,-0.074465394,0.6385935,0.0,0.0,0.0,0.0
286357292,286355052,-0.028549807,-0.3051717,-0.07168048,0.63899803,0.0,0.0,0.0,0.0
286462311,286459906,0.01899964,-0.35032472,-0.07289932,0.639331,0.0,0.0,0.0,0.0
286557312,286555036,0.044738308,-0.37985688,-0.07334921,0.639513,0.0,0.0,0.0,0.0
286657324,286655240,0.06665101,-0.36215883,-0.072796665,0.6393647,0.0,0.0,0.0,0.0
286757328,286755043,0.04753294,-0.32970196,-0.0758689,0.63903874,0.0,0.0,0.0,0.0
286857339,286855064,-0.009964557,-0.29966703,-0.07745983,0.63868016,0.0,0.0,0.0,0.0
286962358,286959945,-0.020717759,-0.34694228,-0.07495483,0.6388721,0.0,0.0,0.0,0.0
287057358,287055117,0.063804336,-0.37685445,-0.077207476,0.63921785,0.0,0.0,0.0,0.0
287162377,287159962,0.06264772,-0.38164678,-0.07998305,0.63946664,0.0,0.0,0.0,0.0
287257378,287255090,-0.03229235,-0.34015858,-0.07597141,0.6393889,0.0,0.0,0.0,0.0
287357386,287355097,0.01835437,-0.29372382,-0.074076615,0.6392951,0.0,0.0,0.0,0.0
287457398,287455112,0.052295897,-0.29518276,-0.074479364,0.6393966,0.0,0.0,0.0,0.0
287557407,287555117,0.01849192,-0.33470333,-0.073215574,0.639671,0.0,0.0,0.0,0.0
287662428,287660042,-0.022121206,-0.38109007,-0.07045038,0.6400923,0.0,0.0,0.0,0.0
287757424,287755261,-0.009091502,-0.34771153,-0.07000458,0.64058733,0.0,0.0,0.0,0.0
287862444,287860028,0.04027045,-0.30477384,-0.06995808,0.64089334,0.0,0.0,0.0,0.0
287957444,287955312,0.0065622753,-0.28994852,-0.07064998,0.6413046,0.0,0.0,0.0,0.0
288057453,288055168,-0.014456776,-0.32248905,-0.069774054,0.6418062,0.0,0.0,0.0,0.0
288157463,288155176,-0.003039951,-0.36600533,-0.069407165,0.6422629,0.0,0.0,0.0,0.0
288257474,288255503,0.016763147,-0.36320338,-0.069332406,0.6425942,0.0,0.0,0.0,0.0
288362491,288360096,0.04945045,-0.30813,-0.07113688,0.64281994,0.0,0.0,0.0,0.0
288457491,288455200,0.03465189,-0.2927764,-0.07322352,0.64295477,0.0,0.0,0.0,0.0
288562515,288560119,-0.0030990615,-0.30498737,-0.07099603,0.643097,0.0,0.0,0.0,0.0
288652517,288650153,-0.017477361,-0.33939016,-0.06880451,0.64333874,0.0,0.0,0.0,0.0
288757518,288755231,-0.004838412,-0.37188822,-0.068317406,0.6436251,0.0,0.0,0.0,0.0
288857527,288855302,0.035510212,-0.3471375,-0.067778945,0.64361715,0.0,0.0,0.0,0.0
288957539,288955278,0.055697456,-0.30797377,-0.06995106,0.6433828,0.0,0.0,0.0,0.0
289062556,289060161,0.039504528,-0.2699017,-0.07008047,0.64321667,0.0,0.0,0.0,0.0
289157557,289155266,-0.0326356,-0.3043481,-0.066494204,0.64340734,0.0,0.0,0.0,0.0
289262579,289260170,-0.034978792,-0.3564177,-0.06568385,0.643821,0.0,0.0,0.0,0.0
289357578,289355328,0.029656902,-0.35941604,-0.06478859,0.64390874,0.0,0.0,0.0,0.0
289462601,289460194,0.01757222,-0.32229763,-0.06576105,0.6436354,0.0,0.0,0.0,0.0
289557593,289555339,-0.014096994,-0.2851938,-0.06412848,0.6434368,0.0,0.0,0.0,0.0
289657604,289655312,-0.005460045,-0.29710117,-0.062288925,0.64355695,0.0,0.0,0.0,0.0
289762628,289760211,0.09488213,-0.36788356,-0.060011808,0.64381576,0.0,0.0,0.0,0.0
289857629,289855329,0.16598183,-0.36702183,-0.0624592,0.64399344,0.0,0.0,0.0,0.0
289962641,289960234,0.04780405,-0.3534899,-0.05788839,0.64422625,0.0,0.0,0.0,0.0
290057645,290055352,0.023005694,-0.2968762,-0.05229534,0.6443416,0.0,0.0,0.0,0.0
290157655,290155403,0.0964829,-0.29201943,-0.05370166,0.6443753,0.0,0.0,0.0,0.0
290257658,290255367,0.038405605,-0.3237829,-0.052903622,0.6443186,0.0,0.0,0.0,0.0
290357670,290355376,-0.031012468,-0.355679,-0.04548295,0.64478695,0.0,0.0,0.0,0.0
290462691,290460283,-0.00402358,-0.38271084,-0.04250752,0.6448136,0.0,0.0,0.0,0.0
290557694,290555396,0.0006466117,-0.334321,-0.04467153,0.6441534,0.0,0.0,0.0,0.0
290662717,290660296,0.0072415536,-0.29014242,-0.046979897,0.6434323,0.0,0.0,0.0,0.0
290757710,290755439,0.01568143,-0.28837183,-0.04772843,0.642927,0.0,0.0,0.0,0.0
290857720,290855611,0.001125846,-0.330828,-0.046031974,0.6428733,0.0,0.0,0.0,0.0
290957729,290955496,-0.020855147,-0.397791,-0.043009005,0.6429651,0.0,0.0,0.0,0.0
291057734,291055651,-0.055467695,-0.38018796,-0.043472514,0.642677,0.0,0.0,0.0,0.0
291162750,291160343,-0.050105307,-0.3251953,-0.048022848,0.6420623,0.0,0.0,0.0,0.0
291257756,291255672,0.013665563,-0.2946921,-0.052189883,0.64105225,0.0,0.0,0.0,0.0
291357769,291355466,-0.010837533,-0.32070166,-0.05437676,0.6402936,0.0,0.0,0.0,0.0
291457777,291455483,-0.075483315,-0.37372458,-0.05469846,0.6402693,0.0,0.0,0.0,0.0
291557785,291555523,-0.049032252,-0.37982735,-0.055782825,0.64006096,0.0,0.0,0.0,0.0
291657793,291655532,-0.0023848633,-0.33585566,-0.05777701,0.63929653,0.0,0.0,0.0,0.0
291757807,291755537,-0.03338326,-0.29547748,-0.059598133,0.63871723,0.0,0.0,0.0,0.0
291862816,291860401,-0.06374667,-0.30975616,-0.061054155,0.6384087,0.0,0.0,0.0,0.0
291957820,291955527,-0.070659995,-0.34513715,-0.0608081,0.6380014,0.0,0.0,0.0,0.0
292057830,292055690,-0.010158944,-0.38209784,-0.061064415,0.6373685,0.0,0.0,0.0,0.0
292157837,292155574,0.015067511,-0.3698389,-0.06122647,0.63650084,0.0,0.0,0.0,0.0
292257850,292255584,-0.058022067,-0.33394778,-0.06136484,0.6359547,0.0,0.0,0.0,0.0
292357857,292355586,-0.063262306,-0.2818915,-0.062127687,0.63558275,0.0,0.0,0.0,0.0
292457863,292455576,-0.0009775767,-0.2877164,-0.0624433,0.63523394,0.0,0.0,0.0,0.0
292562880,292560473,-0.052054755,-0.32252434,-0.062392995,0.63503027,0.0,0.0,0.0,0.0
292657884,292655687,-0.09067451,-0.36713806,-0.062461488,0.6349753,0.0,0.0,0.0,0.0
292757890,292755601,-0.025465092,-0.3588703,-0.062667094,0.6348246,0.0,0.0,0.0,0.0
292857902,292855716,0.013135141,-0.30193102,-0.064698875,0.6346387,0.0,0.0,0.0,0.0
292957910,292955619,-0.026261851,-0.27255332,-0.06466403,0.63479054,0.0,0.0,0.0,0.0
293057924,293055631,-0.06656795,-0.27935058,-0.06498651,0.63530844,0.0,0.0,0.0,0.0
293157927,293155693,-0.07805552,-0.31636935,-0.06512134,0.63592124,0.0,0.0,0.0,0.0
293262945,293260537,-0.00045455992,-0.36475676,-0.06514145,0.6361296,0.0,0.0,0.0,0.0
293357948,293355660,0.016270155,-0.34425005,-0.066943035,0.6359537,0.0,0.0,0.0,0.0
293462970,293460604,-0.023585724,-0.28614983,-0.06640016,0.6356988,0.0,0.0,0.0,0.0
293557963,293555683,-0.02397994,-0.27024668,-0.06640768,0.6358082,0.0,0.0,0.0,0.0
293657973,293655685,-0.017206408,-0.29762948,-0.066503316,0.6359904,0.0,0.0,0.0,0.0
293757982,293755716,0.0069654305,-0.34809697,-0.067450576,0.635907,0.0,0.0,0.0,0.0
293857995,293855704,0.054227673,-0.3731315,-0.0695978,0.6353611,0.0,0.0,0.0,0.0
293963011,293960604,-0.058437902,-0.31189197,-0.06811572,0.63482285,0.0,0.0,0.0,0.0
294058012,294055725,-0.059032768,-0.2861306,-0.06690769,0.63468975,0.0,0.0,0.0,0.0
294158021,294155805,-0.06280565,-0.28938812,-0.066730484,0.63404334,0.0,0.0,0.0,0.0
294258030,294255747,0.002554929,-0.33193132,-0.06323928,0.63346803,0.0,0.0,0.0,0.0
294358038,294355794,-0.075270995,-0.36481062,-0.062145855,0.6328063,0.0,0.0,0.0,0.0
294458046,294455788,-0.05940941,-0.34133467,-0.06270172,0.6318942,0.0,0.0,0.0,0.0
294558056,294555768,0.07193996,-0.31908792,-0.06311229,0.6308873,0.0,0.0,0.0,0.0
294663075,294660679,0.07189286,-0.27812546,-0.066595316,0.62983155,0.0,0.0,0.0,0.0
294758075,294755888,0.04370647,-0.28815398,-0.06851716,0.6287168,0.0,0.0,0.0,0.0
294858084,294855986,-0.0265069,-0.3331235,-0.06622168,0.628166,0.0,0.0,0.0,0.0
294958097,294955806,-0.010581974,-0.3874169,-0.06404031,0.6279308,0.0,0.0,0.0,0.0
295058102,295056060,0.060693584,-0.35988802,-0.0672452,0.62782586,0.0,0.0,0.0,0.0
295158111,295155826,0.05004456,-0.32631052,-0.07028306,0.62748605,0.0,0.0,0.0,0.0
295258120,295255848,-0.019241609,-0.28540003,-0.068341695,0.62704206,0.0,0.0,0.0,0.0
295363140,295360728,-0.027894016,-0.30139148,-0.06502236,0.62653035,0.0,0.0,0.0,0.0
295458143,295455879,-0.014465838,-0.33138615,-0.0649686,0.62603754,0.0,0.0,0.0,0.0
295558148,295555864,0.0408045,-0.36929464,-0.06511257,0.6257121,0.0,0.0,0.0,0.0
295658158,295656082,0.03090308,-0.35014617,-0.06578233,0.62550193,0.0,0.0,0.0,0.0
295758166,295755880,0.017575815,-0.29264712,-0.06593075,0.6253907,0.0,0.0,0.0,0.0
295858177,295856033,-0.058209706,-0.28143427,-0.06384383,0.6256666,0.0,0.0,0.0,0.0
295958193,295955934,-0.046401657,-0.294806,-0.06503365,0.6263333,0.0,0.0,0.0,0.0
296063202,296060792,0.030217316,-0.3558366,-0.06399661,0.6270197,0.0,0.0,0.0,0.0
296158203,296155937,0.024058666,-0.36154953,-0.06497728,0.6274503,0.0,0.0,0.0,0.0
296258215,296255930,-0.033513553,-0.32183868,-0.063255146,0.6278019,0.0,0.0,0.0,0.0
296358221,296355930,-0.058263097,-0.28513446,-0.063791364,0.62817156,0.0,0.0,0.0,0.0
296458229,296455968,0.011522443,-0.28011194,-0.06328653,0.62859404,0.0,0.0,0.0,0.0
296558238,296555944,0.046072956,-0.30834168,-0.063503034,0.6289189,0.0,0.0,0.0,0.0
296658248,296655955,0.00016780687,-0.34606767,-0.06233542,0.6292899,0.0,0.0,0.0,0.0
296758260,296755964,-0.015798613,-0.35736525,-0.060301926,0.6295799,0.0,0.0,0.0,0.0
296858264,296856034,0.033569835,-0.3350776,-0.061241873,0.6296036,0.0,0.0,0.0,0.0
296958272,296955988,0.089236714,-0.29871288,-0.064545445,0.6292778,0.0,0.0,0.0,0.0
297058288,297056134,0.04487713,-0.28105077,-0.06544018,0.62875533,0.0,0.0,0.0,0.0
297158292,297155999,0.024091698,-0.31133923,-0.06223816,0.62814885,0.0,0.0,0.0,0.0
297258300,297256019,0.025963806,-0.33776322,-0.0599948,0.62760186,0.0,0.0,0.0,0.0
297358317,297356019,0.01619677,-0.35111952,-0.05908642,0.62697667,0.0,0.0,0.0,0.0
297463330,297460939,-0.010248893,-0.31718037,-0.05845496,0.62628764,0.0,0.0,0.0,0.0
297558375,297556110,-0.042482123,-0.2773222,-0.059084818,0.62589824,0.0,0.0,0.0,0.0
297658338,297656076,-0.030776436,-0.2902741,-0.059776977,0.62575185,0.0,0.0,0.0,0.0
297758344,297756057,-0.04060818,-0.30895808,-0.06088023,0.6257676,0.0,0.0,0.0,0.0
297858359,297856117,0.02862741,-0.36093578,-0.059324756,0.6258606,0.0,0.0,0.0,0.0
297958367,297956084,0.05345463,-0.36137733,-0.061392628,0.62544733,0.0,0.0,0.0,0.0
298058373,298056093,0.0076617487,-0.33185154,-0.06197688,0.62501484,0.0,0.0,0.0,0.0
298158383,298156175,-0.011090867,-0.29211712,-0.058186736,0.6245928,0.0,0.0,0.0,0.0
298258391,298256265,0.005562585,-0.29683018,-0.058100022,0.6243568,0.0,0.0,0.0,0.0
298358402,298356145,0.014394609,-0.32983667,-0.058023375,0.6241386,0.0,0.0,0.0,0.0
298458407,298456195,0.012852624,-0.3571044,-0.057535693,0.6239979,0.0,0.0,0.0,0.0
298558417,298556128,0.015962387,-0.34098187,-0.05749696,0.62379855,0.0,0.0,0.0,0.0
298658434,298656146,0.030401828,-0.28930792,-0.05778449,0.62358046,0.0,0.0,0.0,0.0
298758436,298756228,0.047345474,-0.28331733,-0.058977418,0.6232534,0.0,0.0,0.0,0.0
298858444,298856189,-0.021796629,-0.29633728,-0.057244387,0.6230964,0.0,0.0,0.0,0.0
298958452,298956158,-0.071858324,-0.36323163,-0.055276588,0.6229313,0.0,0.0,0.0,0.0
299058462,299056174,0.006795889,-0.3691529,-0.05553987,0.6222977,0.0,0.0,0.0,0.0
299158474,299156205,0.1044618,-0.32423592,-0.058802076,0.6215293,0.0,0.0,0.0,0.0
299258481,299256188,0.051484928,-0.2837176,-0.059963133,0.62076896,0.0,0.0,0.0,0.0
299358488,299356244,0.04661059,-0.29172757,-0.058343865,0.62021476,0.0,0.0,0.0,0.0
299458510,299456271,0.07193028,-0.30938277,-0.056989986,0.6198215,0.0,0.0,0.0,0.0
299558505,299556217,0.07913551,-0.36157468,-0.05808433,0.6194925,0.0,0.0,0.0,0.0
299658515,299656244,0.034413576,-0.36976326,-0.057194643,0.61940694,0.0,0.0,0.0,0.0
299758524,299756237,0.01731997,-0.35388598,-0.054935545,0.6192796,0.0,0.0,0.0,0.0
299858536,299856248,0.015733108,-0.29911378,-0.05488095,0.6190826,0.0,0.0,0.0,0.0
299958541,299956268,0.012745131,-0.2851525,-0.056568712,0.61882794,0.0,0.0,0.0,0.0
300058550,300056413,0.014032214,-0.31230986,-0.057243355,0.6184541,0.0,0.0,0.0,0.0
300158563,300156312,-0.021761876,-0.3540677,-0.057598025,0.6180506,0.0,0.0,0.0,0.0
300258570,300256487,-0.033016384,-0.35334,-0.05763596,0.6179179,0.0,0.0,0.0,0.0
300358575,300356286,-0.0142342495,-0.328944,-0.058025178,0.61774236,0.0,0.0,0.0,0.0
300458585,300456320,-0.019040644,-0.2951992,-0.059780665,0.61748916,0.0,0.0,0.0,0.0
300558593,300556304,0.032693006,-0.29039186,-0.06023604,0.6173606,0.0,0.0,0.0,0.0
300658614,300656400,0.012317482,-0.33354875,-0.060495928,0.6175219,0.0,0.0,0.0,0.0
300758619,300756321,-0.06833151,-0.35605365,-0.05998758,0.6177343,0.0,0.0,0.0,0.0
300858641,300856550,0.39362296,-0.34337607,-0.05352439,0.6176906,0.0,0.0,0.0,0.0
300958634,300956447,0.33986688,-0.2932626,-0.040879715,0.61786616,0.0,0.0,0.0,0.0
301058665,301056397,0.303104,-0.25197124,-0.016875528,0.61959845,0.0,0.0,0.0,0.0
301158651,301156401,0.33729085,-0.25916082,0.0053908564,0.6228209,0.0,0.0,0.0,0.0
301258688,301256631,0.3656053,-0.2744066,0.029273205,0.62680215,0.0,0.0,0.0,0.0
301358663,301356369,0.35308638,-0.2760543,0.0543059,0.63200265,0.0,0.0,0.0,0.0
301458721,301456649,0.32982472,-0.25606522,0.08451004,0.6407045,0.0,0.0,0.0,0.0
301558687,301556576,0.2823448,-0.19431868,0.108578905,0.6520356,0.0,0.0,0.0,0.0
301658747,301656492,0.021984264,-0.108877376,0.1274602,0.667476,0.0,0.0,0.0,0.0
301758704,301756413,-0.04334667,-0.050298095,0.13755046,0.68158287,0.0,0.0,0.0,0.0
301858779,301856550,-0.048845477,-0.065264255,0.13182339,0.68659806,0.0,0.0,0.0,0.0
301958719,301956428,-0.048803296,-0.07462445,0.12747294,0.68774813,0.0,0.0,0.0,0.0
302058806,302056547,-0.04766272,-0.083517164,0.1258826,0.68646187,0.0,0.0,0.0,0.0
302158734,302156478,-0.11770354,-0.083580315,0.1284801,0.68655837,0.0,0.0,0.0,0.0
302258833,302256612,-0.1776526,-0.09037706,0.13551861,0.69007343,0.0,0.0,0.0,0.0
302358752,302356489,-0.286451,-0.14407662,0.1363406,0.69113624,0.0,0.0,0.0,0.0
302458864,302456614,-0.31693068,-0.19394542,0.13184707,0.68626493,0.0,0.0,0.0,0.0
302558768,302556471,-0.19725412,-0.2320064,0.12729858,0.66865873,0.0,0.0,0.0,0.0
302658894,302656822,-0.18103942,-0.23509885,0.11933235,0.65113163,0.0,0.0,0.0,0.0
302758792,302756572,-0.17490171,-0.26394784,0.11663519,0.6419593,0.0,0.0,0.0,0.0
302858917,302856667,-0.105028525,-0.25536025,0.10936555,0.63333255,0.0,0.0,0.0,0.0
302958803,302956518,-0.07750228,-0.23952296,0.09995544,0.6254433,0.0,0.0,0.0,0.0
303058951,303056711,-0.046692193,-0.20177609,0.09153025,0.62018883,0.0,0.0,0.0,0.0
303158822,303156552,-0.04256446,-0.23552188,0.09054087,0.6156025,0.0,0.0,0.0,0.0
303258971,303256588,-0.24429858,-0.2642787,0.08869012,0.6157713,0.0,0.0,0.0,0.0
303358838,303356603,-0.30079204,-0.30778867,0.08903986,0.6167139,0.0,0.0,0.0,0.0
303459011,303456643,-0.22675279,-0.3067281,0.08158709,0.61149985,0.0,0.0,0.0,0.0
303558858,303556567,-0.16453578,-0.29924902,0.068359844,0.60445684,0.0,0.0,0.0,0.0
303659056,303656655,-0.07428947,-0.26662397,0.05596245,0.5942815,0.0,0.0,0.0,0.0
303758873,303756729,0.06092306,-0.25281358,0.049367003,0.57543504,0.0,0.0,0.0,0.0
303858889,303856636,0.04708509,-0.25414437,0.03837558,0.5676366,0.0,0.0,0.0,0.0
303958891,303956612,-0.076181084,-0.27920616,0.036845498,0.56955135,0.0,0.0,0.0,0.0
304058901,304056825,-0.15857467,-0.30617744,0.02915114,0.5757563,0.0,0.0,0.0,0.0
304158908,304156622,-0.14506169,-0.31853977,0.020289026,0.57524586,0.0,0.0,0.0,0.0
304258920,304256671,-0.09641741,-0.31293112,0.011037897,0.56880784,0.0,0.0,0.0,0.0
304358993,304356836,-0.088531315,-0.2608435,0.0010746829,0.5654801,0.0,0.0,0.0,0.0
304458932,304456697,-0.09127198,-0.26212958,-0.0033404604,0.5641554,0.0,0.0,0.0,0.0
304558941,304556657,-0.118806034,-0.27033994,-0.0071476437,0.5658393,0.0,0.0,0.0,0.0
304658950,304656729,-0.109161064,-0.309169,-0.008127866,0.56889,0.0,0.0,0.0,0.0
304758958,304756682,-0.10709061,-0.3454014,-0.009092499,0.5723398,0.0,0.0,0.0,0.0
304858970,304856879,-0.14165872,-0.32005215,-0.0166443,0.5765208,0.0,0.0,0.0,0.0
304958977,304956749,-0.17821714,-0.27806404,-0.023551356,0.58027714,0.0,0.0,0.0,0.0
305058987,305056749,0.40772158,-0.28663135,-0.012589309,0.52002543,0.0,0.0,0.0,0.0
305158999,305156762,0.33329153,-0.32700464,-0.00832805,0.4553613,0.0,0.0,0.0,0.0
305259027,305256830,0.24718377,-0.33906177,0.019699745,0.39444837,0.0,0.0,0.0,0.0
305359009,305356742,0.3367491,-0.36991623,0.04792869,0.3346797,0.0,0.0,0.0,0.0
305459021,305456778,0.3090016,-0.31850585,0.06574208,0.31690252,0.0,0.0,0.0,0.0
305559029,305556747,0.29638648,-0.26428413,0.081973806,0.33007395,0.0,0.0,0.0,0.0
305659038,305656806,0.3195421,-0.19072077,0.093745805,0.3565133,0.0,0.0,0.0,0.0
305759047,305756788,0.3313327,-0.1318686,0.097759984,0.4483681,0.0,0.0,0.0,0.0
305859052,305856972,0.099165455,-0.042016357,0.10333216,0.5599008,0.0,0.0,0.0,0.0
