timestamp,timestamp_sample,gps_hvel[0],gps_hvel[1],gps_vvel,gps_hpos[0],gps_hpos[1],gps_vpos,ev_hvel[0],ev_hvel[1],ev_vvel,ev_hpos[0],ev_hpos[1],ev_vpos,rng_vpos,baro_vpos,aux_hvel[0],aux_hvel[1],aux_vvel,flow[0],flow[1],heading,mag_field[0],mag_field[1],mag_field[2],drag[0],drag[1],airspeed,beta,hagl,hagl_rate
217806957,217707808,0.00010111083,0.0,7.985551e-05,5.1270184e-05,0.0,0.0,0.0,0.0,0.0,0.0,0.0,0.0,0.0,6.064612e-06,0.0,0.0,nan,0.0,0.0,0.034443367,0.0,0.0,0.0,0.0,0.0,0.0,0.0,0.0,0.0
218310665,218211578,6.216052e-05,0.0,0.0003678358,5.8491485e-05,0.0,0.0,0.0,0.0,0.0,0.0,0.0,0.0,0.0,0.00011114849,0.0,0.0,nan,0.0,0.0,0.026902169,0.0,0.0,0.0,0.0,0.0,0.0,0.0,0.0,0.0
218804610,218705471,2.2139304e-06,0.0,0.00062854885,5.461351e-05,0.0,0.0,0.0,0.0,0.0,0.0,0.0,0.0,0.0,5.223718e-05,0.0,0.0,nan,0.0,0.0,0.022543848,0.0,0.0,0.0,0.0,0.0,0.0,0.0,0.0,0.0
219308336,219209242,0.0003389851,0.0,0.00026453382,4.3495096e-05,0.0,0.0,0.0,0.0,0.0,0.0,0.0,0.0,0.0,0.00023847741,0.0,0.0,nan,0.0,0.0,0.024285367,0.0,0.0,0.0,0.0,0.0,0.0,0.0,0.0,0.0
219812099,219713013,0.0022972738,0.0,0.000881003,2.9207886e-05,0.0,0.0,0.0,0.0,0.0,0.0,0.0,0.0,0.0,0.0012665692,0.0,0.0,nan,0.0,0.0,0.00024005017,0.0,0.0,0.0,0.0,0.0,0.0,0.0,0.0,0.0
220306185,220206906,0.0011777479,0.0,2.6127573e-06,3.1859832e-05,0.0,0.0,0.0,0.0,0.0,0.0,0.0,0.0,0.0,1.5855776e-05,0.0,0.0,nan,0.0,0.0,2.7669186e-05,0.0,0.0,0.0,0.0,0.0,0.0,0.0,0.0,0.0
220809802,220710678,0.0004410168,0.0,4.12394e-06,3.946623e-05,0.0,0.0,0.0,0.0,0.0,0.0,0.0,0.0,0.0,0.0004819903,0.0,0.0,nan,0.0,0.0,0.046258744,0.0,0.0,0.0,0.0,0.0,0.0,0.0,0.0,0.0
221304037,221204571,0.00020807146,0.0,0.0002708165,5.8790072e-05,0.0,0.0,0.0,0.0,0.0,0.0,0.0,0.0,0.0,0.00048800907,0.0,0.0,nan,0.0,0.0,0.06752484,0.0,0.0,0.0,0.0,0.0,0.0,0.0,0.0,0.0
221807448,221708344,0.00015986252,0.0,2.8156921e-05,6.467699e-05,0.0,0.0,0.0,0.0,0.0,0.0,0.0,0.0,0.0,0.0004221101,0.0,0.0,nan,0.0,0.0,0.1519486,0.0,0.0,0.0,0.0,0.0,0.0,0.0,0.0,0.0
222311315,222212115,0.0013458476,0.0,0.00013012052,3.8276725e-05,0.0,0.0,0.0,0.0,0.0,0.0,0.0,0.0,0.0,0.0002325848,0.0,0.0,nan,0.0,0.0,0.2671493,0.0,0.0,0.0,0.0,0.0,0.0,0.0,0.0,0.0
222805127,222706009,0.00022505157,0.0,0.00062197907,5.6458066e-05,0.0,0.0,0.0,0.0,0.0,0.0,0.0,0.0,0.0,0.0008766149,0.0,0.0,nan,0.0,0.0,0.40065584,0.0,0.0,0.0,0.0,0.0,0.0,0.0,0.0,0.0
223309366,223209781,0.0013518346,0.0,0.0002554063,6.153668e-05,0.0,0.0,0.0,0.0,0.0,0.0,0.0,0.0,0.0,0.003927413,0.0,0.0,nan,0.0,0.0,0.56259894,0.0,0.0,0.0,0.0,0.0,0.0,0.0,0.0,0.0
223802834,223703675,0.0025257538,0.0,0.0038138286,7.9152676e-05,0.0,0.0,0.0,0.0,0.0,0.0,0.0,0.0,0.0,0.00035198548,0.0,0.0,nan,0.0,0.0,0.36228067,0.0,0.0,0.0,0.0,0.0,0.0,0.0,0.0,0.0
224306717,224207448,0.0012051719,0.0,0.0005110369,6.633615e-05,0.0,0.0,0.0,0.0,0.0,0.0,0.0,0.0,0.0,0.0,0.0,0.0,nan,0.0,0.0,0.4245444,0.0,0.0,0.0,0.0,0.0,0.0,0.0,0.0,0.0
224810339,224711220,0.008499243,0.0,0.0006162424,4.628924e-05,0.0,0.0,0.0,0.0,0.0,0.0,0.0,0.0,0.0,0.0003344301,0.0,0.0,nan,0.0,0.0,0.39574364,0.0,0.0,0.0,0.0,0.0,0.0,0.0,0.0,0.0
225304686,225205115,0.0018118237,0.0,0.00057074823,5.0296858e-05,0.0,0.0,0.0,0.0,0.0,0.0,0.0,0.0,0.0,0.0,0.0,0.0,nan,0.0,0.0,0.3810424,0.0,0.0,0.0,0.0,0.0,0.0,0.0,0.0,0.0
225808049,225708888,0.0035737404,0.0,0.00014300353,5.000911e-05,0.0,0.0,0.0,0.0,0.0,0.0,0.0,0.0,0.0,0.0,0.0,0.0,nan,0.0,0.0,0.37148052,0.0,0.0,0.0,0.0,0.0,0.0,0.0,0.0,0.0
226311855,226212661,0.0021773295,0.0,6.114711e-05,6.412118e-05,0.0,0.0,0.0,0.0,0.0,0.0,0.0,0.0,0.0,0.0,0.0,0.0,nan,0.0,0.0,0.3546133,0.0,0.0,0.0,0.0,0.0,0.0,0.0,0.0,0.0
226805660,226706556,0.0029686391,0.0,0.00021767663,3.5764297e-05,0.0,0.0,0.0,0.0,0.0,0.0,0.0,0.0,0.0,0.0,0.0,0.0,nan,0.0,0.0,0.34079126,0.0,0.0,0.0,0.0,0.0,0.0,0.0,0.0,0.0
227309830,227210330,0.005864873,0.0,5.4883927e-05,2.143328e-05,0.0,0.0,0.0,0.0,0.0,0.0,0.0,0.0,0.0,0.00025845633,0.0,0.0,nan,0.0,0.0,0.31658155,0.0,0.0,0.0,0.0,0.0,0.0,0.0,0.0,0.0
227803338,227704225,0.000974784,0.0,0.00048015488,6.0612907e-05,0.0,0.0,0.0,0.0,0.0,0.0,0.0,0.0,0.0,5.0194263e-05,0.0,0.0,nan,0.0,0.0,0.3039046,0.0,0.0,0.0,0.0,0.0,0.0,0.0,0.0,0.0
228307144,228207999,0.012728784,0.0,4.7509442e-05,0.00012085237,0.0,0.0,0.0,0.0,0.0,0.0,0.0,0.0,0.0,0.0004502504,0.0,0.0,nan,0.0,0.0,0.30806217,0.0,0.0,0.0,0.0,0.0,0.0,0.0,0.0,0.0
228810864,228711772,0.0036106433,0.0,0.00029271387,7.894539e-05,0.0,0.0,0.0,0.0,0.0,0.0,0.0,0.0,0.0,9.524965e-05,0.0,0.0,nan,0.0,0.0,0.34147358,0.0,0.0,0.0,0.0,0.0,0.0,0.0,0.0,0.0
229304863,229205668,0.00038607084,0.0,0.002054305,0.00018279601,0.0,0.0,0.0,0.0,0.0,0.0,0.0,0.0,0.0,0.0,0.0,0.0,nan,0.0,0.0,0.3248719,0.0,0.0,0.0,0.0,0.0,0.0,0.0,0.0,0.0
229808621,229709442,0.0063895755,0.0,6.5286263e-06,0.0001871535,0.0,0.0,0.0,0.0,0.0,0.0,0.0,0.0,0.0,0.0,0.0,0.0,nan,0.0,0.0,0.3211228,0.0,0.0,0.0,0.0,0.0,0.0,0.0,0.0,0.0
230312397,230213217,0.011351567,0.0,0.0001287019,0.0003299056,0.0,0.0,0.0,0.0,0.0,0.0,0.0,0.0,0.0,0.0,0.0,0.0,nan,0.0,0.0,0.293006,0.0,0.0,0.0,0.0,0.0,0.0,0.0,0.0,0.0
230806253,230707113,0.0036592826,0.0,0.00093677605,0.00032435733,0.0,0.0,0.0,0.0,0.0,0.0,0.0,0.0,0.0,0.0,0.0,0.0,nan,0.0,0.0,0.27109578,0.0,0.0,0.0,0.0,0.0,0.0,0.0,0.0,0.0
231310103,231210887,0.0077951318,0.0,0.0010641044,0.00022048497,0.0,0.0,0.0,0.0,0.0,0.0,0.0,0.0,0.0,0.0,0.0,0.0,nan,0.0,0.0,0.26069987,0.0,0.0,0.0,0.0,0.0,0.0,0.0,0.0,0.0
231803874,231704784,0.0034151864,0.0,0.00021386589,0.00029551462,0.0,0.0,0.0,0.0,0.0,0.0,0.0,0.0,0.0,0.0,0.0,0.0,nan,0.0,0.0,0.22381826,0.0,0.0,0.0,0.0,0.0,0.0,0.0,0.0,0.0
232307691,232208560,0.0034924448,0.0,0.00020320278,0.00032947268,0.0,0.0,0.0,0.0,0.0,0.0,0.0,0.0,0.0,0.0,0.0,0.0,nan,0.0,0.0,0.2200061,0.0,0.0,0.0,0.0,0.0,0.0,0.0,0.0,0.0
232801547,232702456,0.004964131,0.0,6.551771e-05,0.0002514382,0.0,0.0,0.0,0.0,0.0,0.0,0.0,0.0,0.0,0.0,0.0,0.0,nan,0.0,0.0,0.21601173,0.0,0.0,0.0,0.0,0.0,0.0,0.0,0.0,0.0
233305327,233206231,0.0055561396,0.0,0.00032663866,0.000178631,0.0,0.0,0.0,0.0,0.0,0.0,0.0,0.0,0.0,3.2020285e-05,0.0,0.0,nan,0.0,0.0,0.17525366,0.0,0.0,0.0,0.0,0.0,0.0,0.0,0.0,0.0
233809098,233710006,0.010089386,0.0,0.0007521878,0.00015526604,0.0,0.0,0.0,0.0,0.0,0.0,0.0,0.0,0.0,0.00053124054,0.0,0.0,nan,0.0,0.0,0.14232741,0.0,0.0,0.0,0.0,0.0,0.0,0.0,0.0,0.0
234302999,234203903,0.0021336577,0.0,0.0012312569,0.000107172345,0.0,0.0,0.0,0.0,0.0,0.0,0.0,0.0,0.0,0.0072860997,0.0,0.0,nan,0.0,0.0,0.13279794,0.0,0.0,0.0,0.0,0.0,0.0,0.0,0.0,0.0
234806767,234707678,3.287737e-05,0.0,0.0011756718,0.00014666663,0.0,0.0,0.0,0.0,0.0,0.0,0.0,0.0,0.0,0.0002871992,0.0,0.0,nan,0.0,0.0,0.12467623,0.0,0.0,0.0,0.0,0.0,0.0,0.0,0.0,0.0
235310578,235211454,0.0035085522,0.0,0.007180469,0.00014206898,0.0,0.0,0.0,0.0,0.0,0.0,0.0,0.0,0.0,0.0009596115,0.0,0.0,nan,0.0,0.0,0.20317893,0.0,0.0,0.0,0.0,0.0,0.0,0.0,0.0,0.0
235804469,235705352,0.006563237,0.0,0.02232456,0.00012715506,0.0,0.0,0.0,0.0,0.0,0.0,0.0,0.0,0.0,0.0027960492,0.0,0.0,nan,0.0,0.0,0.22769462,0.0,0.0,0.0,0.0,0.0,0.0,0.0,0.0,0.0
236308285,236209127,0.00016169918,0.0,0.00038435095,5.794574e-05,0.0,0.0,0.0,0.0,0.0,0.0,0.0,0.0,0.0,1.9974837e-05,0.0,0.0,nan,0.0,0.0,0.103350066,0.0,0.0,0.0,0.0,0.0,0.0,0.0,0.0,0.0
236802119,236703025,0.0031516722,0.0,0.00034134169,0.00013658094,0.0,0.0,0.0,0.0,0.0,0.0,0.0,0.0,0.0,0.004087746,0.0,0.0,nan,0.0,0.0,0.13703561,0.0,0.0,0.0,0.0,0.0,0.0,0.0,0.0,0.0
237305895,237206802,0.00045154736,0.0,0.002187117,0.00013564022,0.0,0.0,0.0,0.0,0.0,0.0,0.0,0.0,0.0,0.0002778563,0.0,0.0,nan,0.0,0.0,0.1497807,0.0,0.0,0.0,0.0,0.0,0.0,0.0,0.0,0.0
237799791,237700700,0.002628015,0.0,0.0020116966,8.9008616e-05,0.0,0.0,0.0,0.0,0.0,0.0,0.0,0.0,0.0,0.00014834317,0.0,0.0,nan,0.0,0.0,0.1473279,0.0,0.0,0.0,0.0,0.0,0.0,0.0,0.0,0.0
238303569,238204476,6.935756e-05,0.0,0.0009988581,0.00010175098,0.0,0.0,0.0,0.0,0.0,0.0,0.0,0.0,0.0,0.0016754702,0.0,0.0,nan,0.0,0.0,0.18985717,0.0,0.0,0.0,0.0,0.0,0.0,0.0,0.0,0.0
238807407,238708253,0.00017022504,0.0,0.0060799997,9.351813e-05,0.0,0.0,0.0,0.0,0.0,0.0,0.0,0.0,0.0,0.0005091828,0.0,0.0,nan,0.0,0.0,0.17429441,0.0,0.0,0.0,0.0,0.0,0.0,0.0,0.0,0.0
239301309,239202151,0.0040641404,0.0,0.009214064,0.000120420475,0.0,0.0,0.0,0.0,0.0,0.0,0.0,0.0,0.0,0.0030909707,0.0,0.0,nan,0.0,0.0,0.1616427,0.0,0.0,0.0,0.0,0.0,0.0,0.0,0.0,0.0
239805016,239705928,0.0014478245,0.0,0.002113571,6.459611e-05,0.0,0.0,0.0,0.0,0.0,0.0,0.0,0.0,0.0,0.000167279,0.0,0.0,nan,0.0,0.0,0.1585456,0.0,0.0,0.0,0.0,0.0,0.0,0.0,0.0,0.0
240308794,240209705,0.0015768405,0.0,0.00036681665,7.454982e-05,0.0,0.0,0.0,0.0,0.0,0.0,0.0,0.0,0.0,0.0005577184,0.0,0.0,nan,0.0,0.0,0.16049369,0.0,0.0,0.0,0.0,0.0,0.0,0.0,0.0,0.0
240802699,240703604,6.522661e-05,0.0,1.1275819e-05,6.7254725e-05,0.0,0.0,0.0,0.0,0.0,0.0,0.0,0.0,0.0,4.4591223e-05,0.0,0.0,nan,0.0,0.0,0.16157447,0.0,0.0,0.0,0.0,0.0,0.0,0.0,0.0,0.0
241306471,241207381,0.0009101607,0.0,0.002957027,4.558341e-05,0.0,0.0,0.0,0.0,0.0,0.0,0.0,0.0,0.0,0.0020091874,0.0,0.0,nan,0.0,0.0,0.1658892,0.0,0.0,0.0,0.0,0.0,0.0,0.0,0.0,0.0
241800422,241701280,0.0030851904,0.0,0.0008613692,0.00014129629,0.0,0.0,0.0,0.0,0.0,0.0,0.0,0.0,0.0,0.0006784742,0.0,0.0,nan,0.0,0.0,0.16045657,0.0,0.0,0.0,0.0,0.0,0.0,0.0,0.0,0.0
242304147,242205058,0.00015098268,0.0,0.000269265,0.00019565834,0.0,0.0,0.0,0.0,0.0,0.0,0.0,0.0,0.0,0.00030047164,0.0,0.0,nan,0.0,0.0,0.16171724,0.0,0.0,0.0,0.0,0.0,0.0,0.0,0.0,0.0
242807943,242708835,0.0064101038,0.0,0.00018867088,0.00036844998,0.0,0.0,0.0,0.0,0.0,0.0,0.0,0.0,0.0,0.0031748354,0.0,0.0,nan,0.0,0.0,0.14225979,0.0,0.0,0.0,0.0,0.0,0.0,0.0,0.0,0.0
243301921,243202736,0.005336482,0.0,0.0015057753,0.00041149586,0.0,0.0,0.0,0.0,0.0,0.0,0.0,0.0,0.0,0.012751264,0.0,0.0,nan,0.0,0.0,0.12688324,0.0,0.0,0.0,0.0,0.0,0.0,0.0,0.0,0.0
243806000,243706512,0.0077375243,0.0,3.690441e-06,0.00036266222,0.0,0.0,0.0,0.0,0.0,0.0,0.0,0.0,0.0,4.602357e-05,0.0,0.0,nan,0.0,0.0,0.106540956,0.0,0.0,0.0,0.0,0.0,0.0,0.0,0.0,0.0
244309381,244210290,0.00438398,0.0,0.00085630256,0.00024731547,0.0,0.0,0.0,0.0,0.0,0.0,0.0,0.0,0.0,0.01962479,0.0,0.0,nan,0.0,0.0,0.0857738,0.0,0.0,0.0,0.0,0.0,0.0,0.0,0.0,0.0
244803387,244704190,0.0039722887,0.0,0.0016656192,0.0001650906,0.0,0.0,0.0,0.0,0.0,0.0,0.0,0.0,0.0,0.002262946,0.0,0.0,nan,0.0,0.0,0.08864123,0.0,0.0,0.0,0.0,0.0,0.0,0.0,0.0,0.0
245307058,245207968,0.013920442,0.0,0.0040706964,5.2576877e-05,0.0,0.0,0.0,0.0,0.0,0.0,0.0,0.0,0.0,9.836425e-08,0.0,0.0,nan,0.0,0.0,0.08038198,0.0,0.0,0.0,0.0,0.0,0.0,0.0,0.0,0.0
245801469,245701868,0.013676551,0.0,0.0025590307,2.2127444e-05,0.0,0.0,0.0,0.0,0.0,0.0,0.0,0.0,0.0,0.008659156,0.0,0.0,nan,0.0,0.0,0.09005598,0.0,0.0,0.0,0.0,0.0,0.0,0.0,0.0,0.0
246304741,246205646,0.0083079245,0.0,0.00025623338,3.070794e-06,0.0,0.0,0.0,0.0,0.0,0.0,0.0,0.0,0.0,0.004995129,0.0,0.0,nan,0.0,0.0,0.088549316,0.0,0.0,0.0,0.0,0.0,0.0,0.0,0.0,0.0
246808617,246709424,0.005435611,0.0,2.149349e-05,1.0647369e-06,0.0,0.0,0.0,0.0,0.0,0.0,0.0,0.0,0.0,0.00011966098,0.0,0.0,nan,0.0,0.0,0.056684487,0.0,0.0,0.0,0.0,0.0,0.0,0.0,0.0,0.0
247302444,247203324,0.016771583,0.0,2.1517215e-05,6.418082e-05,0.0,0.0,0.0,0.0,0.0,0.0,0.0,0.0,0.0,0.0052160546,0.0,0.0,nan,0.0,0.0,0.088173665,0.0,0.0,0.0,0.0,0.0,0.0,0.0,0.0,0.0
247806585,247707103,0.0052523557,0.0,0.0063475324,8.1368635e-05,0.0,0.0,0.0,0.0,0.0,0.0,0.0,0.0,0.0,0.00072371174,0.0,0.0,nan,0.0,0.0,0.04493955,0.0,0.0,0.0,0.0,0.0,0.0,0.0,0.0,0.0
248300092,248201003,0.013853831,0.0,0.0024251735,0.0001340049,0.0,0.0,0.0,0.0,0.0,0.0,0.0,0.0,0.0,1.9146744e-05,0.0,0.0,nan,0.0,0.0,0.0,0.0,0.0,0.0,0.0,0.0,0.0,0.0,0.0,0.0
248804029,248704782,0.015443002,0.0,0.0018267796,0.00022852555,0.0,0.0,0.0,0.0,0.0,0.0,0.0,0.0,0.0,0.0005377224,0.0,0.0,nan,0.0,0.0,0.0,0.0,0.0,0.0,0.0,0.0,0.0,0.0,0.0,0.0
249307653,249208560,0.011668892,0.0,0.0010653896,0.0003046782,0.0,0.0,0.0,0.0,0.0,0.0,0.0,0.0,0.0,0.0013018923,0.0,0.0,nan,0.0,0.0,0.0,0.0,0.0,0.0,0.0,0.0,0.0,0.0,0.0,0.0
249801860,249702461,0.013523633,0.0,0.010697331,0.00017484152,0.0,0.0,0.0,0.0,0.0,0.0,0.0,0.0,0.0,3.2460786e-05,0.0,0.0,nan,0.0,0.0,0.0,0.0,0.0,0.0,0.0,0.0,0.0,0.0,0.0,0.0
250305360,250206240,0.043976057,0.0,0.0077719176,0.0001620533,0.0,0.0,0.0,0.0,0.0,0.0,0.0,0.0,0.0,0.00874417,0.0,0.0,nan,0.0,0.0,0.0,0.0,0.0,0.0,0.0,0.0,0.0,0.0,0.0,0.0
250809190,250710018,0.028317826,0.0,2.0309571e-05,0.00020386727,0.0,0.0,0.0,0.0,0.0,0.0,0.0,0.0,0.0,0.0018519469,0.0,0.0,nan,0.0,0.0,0.0,0.0,0.0,0.0,0.0,0.0,0.0,0.0,0.0,0.0
251303011,251203921,0.01166926,0.0,1.8153803e-05,0.00013892166,0.0,0.0,0.0,0.0,0.0,0.0,0.0,0.0,0.0,0.00012482241,0.0,0.0,nan,0.0,0.0,0.0,0.0,0.0,0.0,0.0,0.0,0.0,0.0,0.0,0.0
251806905,251707698,0.025182085,0.0,0.0014934216,0.00024535457,0.0,0.0,0.0,0.0,0.0,0.0,0.0,0.0,0.0,0.0023739035,0.0,0.0,nan,0.0,0.0,0.0,0.0,0.0,0.0,0.0,0.0,0.0,0.0,0.0,0.0
252300742,252201599,0.11708888,0.0,0.0023043542,0.00071387936,0.0,0.0,0.0,0.0,0.0,0.0,0.0,0.0,0.0,0.00027227312,0.0,0.0,nan,0.0,0.0,0.0,0.0,0.0,0.0,0.0,0.0,0.0,0.0,0.0,0.0
252804510,252705378,0.03919586,0.0,0.00043192497,0.00056421163,0.0,0.0,0.0,0.0,0.0,0.0,0.0,0.0,0.0,0.001307185,0.0,0.0,nan,0.0,0.0,0.0,0.0,0.0,0.0,0.0,0.0,0.0,0.0,0.0,0.0
253308243,253209157,0.08937643,0.0,2.989802e-05,0.00021122835,0.0,0.0,0.0,0.0,0.0,0.0,0.0,0.0,0.0,2.959332e-05,0.0,0.0,nan,0.0,0.0,0.0,0.0,0.0,0.0,0.0,0.0,0.0,0.0,0.0,0.0
253802248,253703059,0.4270795,0.0,0.001134586,0.000706619,0.0,0.0,0.0,0.0,0.0,0.0,0.0,0.0,0.0,0.00023293123,0.0,0.0,nan,0.0,0.0,0.0,0.0,0.0,0.0,0.0,0.0,0.0,0.0,0.0,0.0
254305927,254206838,1.0635849,0.0,0.0055132043,0.003704547,0.0,0.0,0.0,0.0,0.0,0.0,0.0,0.0,0.0,0.00363435,0.0,0.0,nan,0.0,0.0,0.0,0.0,0.0,0.0,0.0,0.0,0.0,0.0,0.0,0.0
254809708,254710617,2.16561,0.0,0.0029368212,0.05215297,0.0,0.0,0.0,0.0,0.0,0.0,0.0,0.0,0.0,7.549124e-05,0.0,0.0,nan,0.0,0.0,0.0,0.0,0.0,0.0,0.0,0.0,0.0,0.0,0.0,0.0
255303610,255204519,2.703405,0.0,0.0036913422,0.2528867,0.0,0.0,0.0,0.0,0.0,0.0,0.0,0.0,0.0,0.0026905336,0.0,0.0,nan,0.0,0.0,0.0,0.0,0.0,0.0,0.0,0.0,0.0,0.0,0.0,0.0
255807389,255708298,2.0727384,0.0,3.7501666e-06,0.39632976,0.0,0.0,0.0,0.0,0.0,0.0,0.0,0.0,0.0,0.0012579573,0.0,0.0,nan,0.0,0.0,0.0,0.0,0.0,0.0,0.0,0.0,0.0,0.0,0.0,0.0
256301340,256202200,0.50769496,0.0,0.0006615546,0.27858564,0.0,0.0,0.0,0.0,0.0,0.0,0.0,0.0,0.0,4.3411e-05,0.0,0.0,nan,0.0,0.0,0.0,0.0,0.0,0.0,0.0,0.0,0.0,0.0,0.0,0.0
256805097,256705980,0.4328454,0.0,0.0037372373,0.15474781,0.0,0.0,0.0,0.0,0.0,0.0,0.0,0.0,0.0,0.0029126091,0.0,0.0,nan,0.0,0.0,0.0,0.0,0.0,0.0,0.0,0.0,0.0,0.0,0.0,0.0
257308848,257209760,0.5224904,0.0,0.00063228357,0.08744243,0.0,0.0,0.0,0.0,0.0,0.0,0.0,0.0,0.0,0.0023179655,0.0,0.0,nan,0.0,0.0,0.0,0.0,0.0,0.0,0.0,0.0,0.0,0.0,0.0,0.0
257802770,257703661,0.49047372,0.0,0.0046924385,0.062351305,0.0,0.0,0.0,0.0,0.0,0.0,0.0,0.0,0.0,0.0002157102,0.0,0.0,nan,0.0,0.0,0.0,0.0,0.0,0.0,0.0,0.0,0.0,0.0,0.0,0.0
258306565,258207441,0.12692916,0.0,0.0056368415,0.04207873,0.0,0.0,0.0,0.0,0.0,0.0,0.0,0.0,0.0,1.1664887e-06,0.0,0.0,nan,0.0,0.0,0.0,0.0,0.0,0.0,0.0,0.0,0.0,0.0,0.0,0.0
258800483,258701343,0.28450218,0.0,0.00025461748,0.03442598,0.0,0.0,0.0,0.0,0.0,0.0,0.0,0.0,0.0,2.3271916e-05,0.0,0.0,nan,0.0,0.0,0.0,0.0,0.0,0.0,0.0,0.0,0.0,0.0,0.0,0.0
259304273,259205123,0.20690845,0.0,0.0010155186,0.025629964,0.0,0.0,0.0,0.0,0.0,0.0,0.0,0.0,0.0,0.014266186,0.0,0.0,nan,0.0,0.0,0.0,0.0,0.0,0.0,0.0,0.0,0.0,0.0,0.0,0.0
259808043,259708904,0.1532506,0.0,3.6417703e-05,0.018081687,0.0,0.0,0.0,0.0,0.0,0.0,0.0,0.0,0.0,1.913808e-05,0.0,0.0,nan,0.0,0.0,0.0,0.0,0.0,0.0,0.0,0.0,0.0,0.0,0.0,0.0
260301891,260202806,0.05886991,0.0,0.0026904105,0.012358667,0.0,0.0,0.0,0.0,0.0,0.0,0.0,0.0,0.0,8.976286e-06,0.0,0.0,nan,0.0,0.0,0.0,0.0,0.0,0.0,0.0,0.0,0.0,0.0,0.0,0.0
260805677,260706586,0.015208638,0.0,0.0054262904,0.009124962,0.0,0.0,0.0,0.0,0.0,0.0,0.0,0.0,0.0,0.00051234843,0.0,0.0,nan,0.0,0.0,0.0,0.0,0.0,0.0,0.0,0.0,0.0,0.0,0.0,0.0
261309491,261210367,0.2406121,0.0,4.6642745e-05,0.0030224316,0.0,0.0,0.0,0.0,0.0,0.0,0.0,0.0,0.0,0.00021819858,0.0,0.0,nan,0.0,0.0,0.0,0.0,0.0,0.0,0.0,0.0,0.0,0.0,0.0,0.0
261803390,261704269,0.27756542,0.0,0.0014767696,0.0009697604,0.0,0.0,0.0,0.0,0.0,0.0,0.0,0.0,0.0,0.0016678789,0.0,0.0,nan,0.0,0.0,0.0,0.0,0.0,0.0,0.0,0.0,0.0,0.0,0.0,0.0
262307140,262208050,0.1895208,0.0,0.0048133666,0.0006053568,0.0,0.0,0.0,0.0,0.0,0.0,0.0,0.0,0.0,0.0003740721,0.0,0.0,nan,0.0,0.0,0.0,0.0,0.0,0.0,0.0,0.0,0.0,0.0,0.0,0.0
262801066,262701952,0.09971075,0.0,0.00017418133,0.00047326434,0.0,0.0,0.0,0.0,0.0,0.0,0.0,0.0,0.0,0.00094410236,0.0,0.0,nan,0.0,0.0,0.0,0.0,0.0,0.0,0.0,0.0,0.0,0.0,0.0,0.0
263304829,263205733,0.033039745,0.0,3.869558e-05,0.0002830496,0.0,0.0,0.0,0.0,0.0,0.0,0.0,0.0,0.0,0.00037267862,0.0,0.0,nan,0.0,0.0,0.0,0.0,0.0,0.0,0.0,0.0,0.0,0.0,0.0,0.0
263808638,263709514,0.025553828,0.0,0.0018311038,0.00036002058,0.0,0.0,0.0,0.0,0.0,0.0,0.0,0.0,0.0,3.9732244e-05,0.0,0.0,nan,0.0,0.0,0.0,0.0,0.0,0.0,0.0,0.0,0.0,0.0,0.0,0.0
264302570,264203417,0.34204492,0.0,2.3046838e-05,0.0015873091,0.0,0.0,0.0,0.0,0.0,0.0,0.0,0.0,0.0,0.002362958,0.0,0.0,nan,0.0,0.0,0.0,0.0,0.0,0.0,0.0,0.0,0.0,0.0,0.0,0.0
264806287,264707198,1.0164894,0.0,0.0024529155,0.004683533,0.0,0.0,0.0,0.0,0.0,0.0,0.0,0.0,0.0,0.0034726516,0.0,0.0,nan,0.0,0.0,0.0,0.0,0.0,0.0,0.0,0.0,0.0,0.0,0.0,0.0
265310118,265210979,2.5149987,0.0,0.00432896,0.10344144,0.0,0.0,0.0,0.0,0.0,0.0,0.0,0.0,0.0,0.04072667,0.0,0.0,nan,0.0,0.0,0.0,0.0,0.0,0.0,0.0,0.0,0.0,0.0,0.0,0.0
265804009,265704883,3.2229183,0.0,0.0040034777,0.24842389,0.0,0.0,0.0,0.0,0.0,0.0,0.0,0.0,0.0,0.0098800035,0.0,0.0,nan,0.0,0.0,0.0,0.0,0.0,0.0,0.0,0.0,0.0,0.0,0.0,0.0
266308429,266208664,3.855467,0.0,0.0072190342,0.51760143,0.0,0.0,0.0,0.0,0.0,0.0,0.0,0.0,0.0,0.00030271243,0.0,0.0,nan,0.0,0.0,0.0,0.0,0.0,0.0,0.0,0.0,0.0,0.0,0.0,0.0
266801688,266702569,3.8828464,0.0,0.0054840827,0.68883365,0.0,0.0,0.0,0.0,0.0,0.0,0.0,0.0,0.0,0.033037018,0.0,0.0,nan,0.0,0.0,0.11043602,0.0,0.0,0.0,0.0,0.0,0.0,0.0,0.0,0.0
267305548,267206349,3.3592713,0.0,0.015493825,0.77386355,0.0,0.0,0.0,0.0,0.0,0.0,0.0,0.0,0.0,0.011269529,0.0,0.0,nan,0.0,0.0,0.08643627,0.0,0.0,0.0,0.0,0.0,0.0,0.0,0.0,0.0
267809248,267710130,2.773144,0.0,0.042429067,0.76146334,0.0,0.0,0.0,0.0,0.0,0.0,0.0,0.0,0.0,0.00719998,0.0,0.0,nan,0.0,0.0,0.10479574,0.0,0.0,0.0,0.0,0.0,0.0,0.0,0.0,0.0
268303561,268204034,1.9053837,0.0,0.03829894,0.6192134,0.0,0.0,0.0,0.0,0.0,0.0,0.0,0.0,0.0,0.020412218,0.0,0.0,nan,0.0,0.0,0.12750217,0.0,0.0,0.0,0.0,0.0,0.0,0.0,0.0,0.0
268806913,268707816,1.361707,0.0,0.015128025,0.5203274,0.0,0.0,0.0,0.0,0.0,0.0,0.0,0.0,0.0,0.053434215,0.0,0.0,nan,0.0,0.0,0.14914326,0.0,0.0,0.0,0.0,0.0,0.0,0.010261682,0.0,0.0
269300926,269201719,0.7326474,0.0,0.022832837,0.30730423,0.0,0.0,0.0,0.0,0.0,0.0,0.0,0.0,0.0,0.00077583815,0.0,0.0,nan,0.0,0.0,0.0,3.1070938,0.0,0.0,0.0,0.0,0.07797259,0.0106936,0.0,0.0
269804632,269705501,0.027330646,0.0,8.462068e-06,0.12730457,0.0,0.0,0.0,0.0,0.0,0.0,0.0,0.0,0.0,0.019793516,0.0,0.0,nan,0.0,0.0,0.0,6.4348845,0.0,0.0,0.0,0.0,0.008310144,0.0029771642,0.0,0.0
270308828,270209283,0.3453196,0.0,0.0006750127,0.07896349,0.0,0.0,0.0,0.0,0.0,0.0,0.0,0.0,0.0,0.0030264852,0.0,0.0,nan,0.0,0.0,0.0,2.0838838,0.0,0.0,0.0,0.0,0.070471056,0.0013344943,0.0,0.0
270802351,270703187,0.19257788,0.0,0.035495244,0.070151955,0.0,0.0,0.0,0.0,0.0,0.0,0.0,0.0,0.0,0.0057932734,0.0,0.0,nan,0.0,0.0,0.0,0.08539805,0.0,0.0,0.0,0.0,0.15752631,0.012973399,0.0,0.0
271306232,271206969,0.45775357,0.0,0.0008156566,0.043070942,0.0,0.0,0.0,0.0,0.0,0.0,0.0,0.0,0.0,4.788048e-06,0.0,0.0,nan,0.0,0.0,0.0,0.96317995,0.0,0.0,0.0,0.0,0.17197773,0.009224449,0.0,0.0
271809874,271710751,0.20664114,0.0,1.4118036e-09,0.026256828,0.0,0.0,0.0,0.0,0.0,0.0,0.0,0.0,0.0,0.0017206393,0.0,0.0,nan,0.0,0.0,0.0,1.7468784,0.0,0.0,0.0,0.0,0.01875119,0.0069926986,0.0,0.0
272303868,272204655,0.02199508,0.0,0.013409601,0.014582336,0.0,0.0,0.0,0.0,0.0,0.0,0.0,0.0,0.0,0.0005789271,0.0,0.0,nan,0.0,0.0,0.0,1.8713192,0.0,0.0,0.0,0.0,0.1022748,0.010217612,0.0,0.0
272807534,272708437,0.10595912,0.0,0.0062454976,0.008063991,0.0,0.0,0.0,0.0,0.0,0.0,0.0,0.0,0.0,0.014392779,0.0,0.0,nan,0.0,0.0,0.0,2.432624,0.0,0.0,0.0,0.0,0.040122427,0.0018241215,0.0,0.0
273301457,273202341,0.17553915,0.0,0.0083400905,0.0037914424,0.0,0.0,0.0,0.0,0.0,0.0,0.0,0.0,0.0,0.009325596,0.0,0.0,nan,0.0,0.0,0.0,2.9209185,0.0,0.0,0.0,0.0,0.013664322,1.9059078e-05,0.0,0.0
273805228,273706124,0.20059521,0.0,0.022987664,0.0045676054,0.0,0.0,0.0,0.0,0.0,0.0,0.0,0.0,0.0,0.0037400825,0.0,0.0,nan,0.0,0.0,0.0,4.014702,0.0,0.0,0.0,0.0,0.0049323076,0.0012140775,0.0,0.0
274309176,274209906,0.2303819,0.0,0.012216772,0.00042852425,0.0,0.0,0.0,0.0,0.0,0.0,0.0,0.0,0.0,0.021501444,0.0,0.0,nan,0.0,0.0,0.0,3.939831,0.0,0.0,0.0,0.0,0.0019768353,0.0033475542,0.0,0.0
274802951,274703810,0.14915931,0.0,0.0065760673,0.0013784724,0.0,0.0,0.0,0.0,0.0,0.0,0.0,0.0,0.0,0.00014401271,0.0,0.0,nan,0.0,0.0,0.0,4.6534414,0.0,0.0,0.0,0.0,0.0015092035,0.008915251,0.0,0.0
275306691,275207592,0.13515991,0.0,0.005998177,0.00023961076,0.0,0.0,0.0,0.0,0.0,0.0,0.0,0.0,0.0,0.004425185,0.0,0.0,nan,0.0,0.0,0.0,3.6752577,0.0,0.0,0.0,0.0,0.009092748,0.016520556,0.0,0.0
275810527,275711374,0.0035518308,0.0,6.36078e-05,0.0016405056,0.0,0.0,0.0,0.0,0.0,0.0,0.0,0.0,0.0,4.2576714e-05,0.0,0.0,nan,0.0,0.0,0.0,8.974787,0.0,0.0,0.0,0.0,0.08714529,0.026222019,0.0,0.0
276304403,276205278,0.28694448,0.0,0.0621751,0.000628009,0.0,0.0,0.0,0.0,0.0,0.0,0.0,0.0,0.0,0.00027052607,0.0,0.0,nan,0.0,0.0,0.0,13.802225,0.0,0.0,0.0,0.0,0.14711955,0.0218624,0.0,0.0
276808160,276709061,0.21811807,0.0,0.07299594,8.191803e-05,0.0,0.0,0.0,0.0,0.0,0.0,0.0,0.0,0.0,0.00063639967,0.0,0.0,nan,0.0,0.0,0.0,12.23287,0.0,0.0,0.0,0.0,0.80576247,0.0058063827,0.0,0.0
277302072,277202964,0.077583805,0.0,7.347995e-05,0.0009006885,0.0,0.0,0.0,0.0,0.0,0.0,0.0,0.0,0.0,0.038985197,0.0,0.0,nan,0.0,0.0,0.0,10.4261465,0.0,0.0,0.0,0.0,1.1684384,0.0031486982,0.0,0.0
277805890,277706747,0.12764232,0.0,0.032547817,0.0029490713,0.0,0.0,0.0,0.0,0.0,0.0,0.0,0.0,0.0,0.00015529251,0.0,0.0,nan,0.0,0.0,0.0,11.419918,0.0,0.0,0.0,0.0,1.9194789,0.0017347344,0.0,0.0
278309629,278210528,0.18829232,0.0,0.13951284,0.0018205495,0.0,0.0,0.0,0.0,0.0,0.0,0.0,0.0,0.0,0.0034409892,0.0,0.0,nan,0.0,0.0,0.0,11.523474,0.0,0.0,0.0,0.0,3.669973,0.0014293999,0.0,0.0
278803530,278704432,0.15082796,0.0,0.20991492,0.003835293,0.0,0.0,0.0,0.0,0.0,0.0,0.0,0.0,0.0,0.02372937,0.0,0.0,nan,0.0,0.0,0.0,10.268488,0.0,0.0,0.0,0.0,6.5642653,0.0014992902,0.0,0.0
279307370,279208213,0.13349459,0.0,0.15430552,0.0069208248,0.0,0.0,0.0,0.0,0.0,0.0,0.0,0.0,0.0,0.0017905649,0.0,0.0,nan,0.0,0.0,0.0,8.690896,0.0,0.0,0.0,0.0,6.831955,0.00020602887,0.0,0.0
279801293,279702117,0.09565894,0.0,0.22067893,0.0058577284,0.0,0.0,0.0,0.0,0.0,0.0,0.0,0.0,0.0,0.0088529335,0.0,0.0,nan,0.0,0.0,0.0,2.4484432,0.0,0.0,0.0,0.0,8.552625,6.487168e-05,0.0,0.0
280305027,280205899,0.24908002,0.0,0.09794645,0.011332597,0.0,0.0,0.0,0.0,0.0,0.0,0.0,0.0,0.0,0.00011228684,0.0,0.0,nan,0.0,0.0,0.0,0.6742767,0.0,0.0,0.0,0.0,7.4396405,0.0077190544,0.0,0.0
280808814,280709680,0.16617398,0.0,0.013184616,0.008154211,0.0,0.0,0.0,0.0,0.0,0.0,0.0,0.0,0.0,0.0013704085,0.0,0.0,nan,0.0,0.0,0.0,0.7302837,0.0,0.0,0.0,0.0,5.9007173,0.0024390644,0.0,0.0
281302721,281203584,0.39611325,0.0,0.013951653,0.015678331,0.0,0.0,0.0,0.0,0.0,0.0,0.0,0.0,0.0,2.1227497e-05,0.0,0.0,nan,0.0,0.0,0.0,1.1271133,0.0,0.0,0.0,0.0,4.63455,0.025833547,0.0,0.0
281806462,281707365,0.705442,0.0,0.01378394,0.004382039,0.0,0.0,0.0,0.0,0.0,0.0,0.0,0.0,0.0,0.024417734,0.0,0.0,nan,0.0,0.0,0.0,0.6668337,0.0,0.0,0.0,0.0,3.4399867,0.032162342,0.0,0.0
282310243,282211146,0.70842725,0.0,0.003226986,0.0024315254,0.0,0.0,0.0,0.0,0.0,0.0,0.0,0.0,0.0,0.012607281,0.0,0.0,nan,0.0,0.0,0.0,0.69645053,0.0,0.0,0.0,0.0,2.42067,0.036750145,0.0,0.0
282804196,282705049,0.73543906,0.0,0.020030895,0.0026641593,0.0,0.0,0.0,0.0,0.0,0.0,0.0,0.0,0.0,0.011659041,0.0,0.0,nan,0.0,0.0,0.0,0.22703496,0.0,0.0,0.0,0.0,2.6784422,0.053292807,0.0,0.0
283307951,283208830,0.4401873,0.0,0.001781136,0.0013645525,0.0,0.0,0.0,0.0,0.0,0.0,0.0,0.0,0.0,0.0032257482,0.0,0.0,nan,0.0,0.0,0.0,0.18416093,0.0,0.0,0.0,0.0,2.2996147,0.056491323,0.0,0.0
283802111,283702733,0.31443134,0.0,0.00095892645,0.001551661,0.0,0.0,0.0,0.0,0.0,0.0,0.0,0.0,0.0,0.011563525,0.0,0.0,nan,0.0,0.0,0.0,0.18969032,0.0,0.0,0.0,0.0,2.2996147,0.056065988,0.0,0.0
284305656,284206514,0.28172824,0.0,0.002315046,0.0016084695,0.0,0.0,0.0,0.0,0.0,0.0,0.0,0.0,0.0,0.003299907,0.0,0.0,nan,0.0,0.0,0.0,0.3017029,0.0,0.0,0.0,0.0,2.2996147,0.06686823,0.0,0.0
284809405,284710295,0.23848653,0.0,0.011541912,0.0025006721,0.0,0.0,0.0,0.0,0.0,0.0,0.0,0.0,0.0,0.004674306,0.0,0.0,nan,0.0,0.0,0.0,0.2653907,0.0,0.0,0.0,0.0,2.2996147,0.063654624,0.0,0.0
285303430,285204197,0.16713049,0.0,0.011889471,0.0033145307,0.0,0.0,0.0,0.0,0.0,0.0,0.0,0.0,0.0,0.01323603,0.0,0.0,nan,0.0,0.0,0.0,0.21428564,0.0,0.0,0.0,0.0,2.2996147,0.07508619,0.0,0.0
285807100,285707978,0.14101444,0.0,2.7888169e-05,0.0017035578,0.0,0.0,0.0,0.0,0.0,0.0,0.0,0.0,0.0,0.0010673753,0.0,0.0,nan,0.0,0.0,0.0,0.1096298,0.0,0.0,0.0,0.0,2.2996147,0.07231647,0.0,0.0
286310884,286211758,0.045498416,0.0,5.169994e-05,0.0019155723,0.0,0.0,0.0,0.0,0.0,0.0,0.0,0.0,0.0,0.00041941617,0.0,0.0,nan,0.0,0.0,0.0,0.09288617,0.0,0.0,0.0,0.0,2.2996147,0.07789546,0.0,0.0
286804786,286705660,0.077242024,0.0,0.00011624641,0.0024554483,0.0,0.0,0.0,0.0,0.0,0.0,0.0,0.0,0.0,0.015945664,0.0,0.0,nan,0.0,0.0,0.0,0.103640504,0.0,0.0,0.0,0.0,2.2996147,0.056689363,0.0,0.0
287308532,287209440,0.088714615,0.0,0.00040075113,0.0021206269,0.0,0.0,0.0,0.0,0.0,0.0,0.0,0.0,0.0,0.0024350644,0.0,0.0,nan,0.0,0.0,0.0,0.05142709,0.0,0.0,0.0,0.0,2.2996147,0.06484921,0.0,0.0
287802694,287703342,0.08741369,0.0,0.002853157,0.0018259378,0.0,0.0,0.0,0.0,0.0,0.0,0.0,0.0,0.0,0.00085776474,0.0,0.0,nan,0.0,0.0,0.0,0.105577014,0.0,0.0,0.0,0.0,2.2996147,0.06335181,0.0,0.0
288306251,288207121,0.06622585,0.0,0.0004890255,0.0037144583,0.0,0.0,0.0,0.0,0.0,0.0,0.0,0.0,0.0,0.00087579124,0.0,0.0,nan,0.0,0.0,0.0,0.051074136,0.0,0.0,0.0,0.0,2.2996147,0.056230683,0.0,0.0
288810367,288710901,0.050426096,0.0,0.0035679187,0.002425074,0.0,0.0,0.0,0.0,0.0,0.0,0.0,0.0,0.0,0.0027409748,0.0,0.0,nan,0.0,0.0,0.0026828225,0.0,0.0,0.0,0.0,0.0,2.2996147,0.058821604,0.0,0.0
289303891,289204803,0.060787138,0.0,0.037089184,0.0052920934,0.0,0.0,0.0,0.0,0.0,0.0,0.0,0.0,0.0,0.024585128,0.0,0.0,nan,0.0,0.0,0.0054361266,0.0,0.0,0.0,0.0,0.0,2.2996147,0.059056554,0.0,0.0
289807820,289708582,0.04469456,0.0,0.021433223,0.0054641115,0.0,0.0,0.0,0.0,0.0,0.0,0.0,0.0,0.0,0.001402343,0.0,0.0,nan,0.0,0.0,0.0023712504,0.0,0.0,0.0,0.0,0.0,2.2996147,0.056170803,0.0,0.0
290301571,290202483,0.04338916,0.0,0.009954749,0.004010186,0.0,0.0,0.0,0.0,0.0,0.0,0.0,0.0,0.0,0.013954624,0.0,0.0,nan,0.0,0.0,0.0068990216,0.0,0.0,0.0,0.0,0.0,2.2996147,0.06053147,0.0,0.0
290805850,290706262,0.014918871,0.0,0.0006754857,0.003731612,0.0,0.0,0.0,0.0,0.0,0.0,0.0,0.0,0.0,0.026497066,0.0,0.0,nan,0.0,0.0,0.006017004,0.0,0.0,0.0,0.0,0.0,2.2996147,0.07308778,0.0,0.0
291309129,291210041,0.004483818,0.0,0.009260749,0.0031542995,0.0,0.0,0.0,0.0,0.0,0.0,0.0,0.0,0.0,0.0004573444,0.0,0.0,nan,0.0,0.0,0.0049910927,0.0,0.0,0.0,0.0,0.0,2.2996147,0.078053564,0.0,0.0
291803174,291703941,0.0036904372,0.0,0.00039579812,0.0038755233,0.0,0.0,0.0,0.0,0.0,0.0,0.0,0.0,0.0,0.052192245,0.0,0.0,nan,0.0,0.0,0.011172175,0.0,0.0,0.0,0.0,0.0,2.2996147,0.099124715,0.0,0.0
292306840,292207720,0.0104976185,0.0,0.00058347784,0.0015014048,0.0,0.0,0.0,0.0,0.0,0.0,0.0,0.0,0.0,0.0059779496,0.0,0.0,nan,0.0,0.0,0.010570681,0.0,0.0,0.0,0.0,0.0,2.2996147,0.110762395,0.0,0.0
292810994,292711498,0.0043994472,0.0,0.0012849472,0.0048767976,0.0,0.0,0.0,0.0,0.0,0.0,0.0,0.0,0.0,0.0060938154,0.0,0.0,nan,0.0,0.0,0.017922482,0.0,0.0,0.0,0.0,0.0,2.2996147,0.09772612,0.0,0.0
293304562,293205403,0.0003691983,0.0,2.692858e-07,0.0016597797,0.0,0.0,0.0,0.0,0.0,0.0,0.0,0.0,0.0,0.00222689,0.0,0.0,nan,0.0,0.0,0.014963727,0.0,0.0,0.0,0.0,0.0,2.2996147,0.08589701,0.0,0.0
293808389,293709176,0.010632908,0.0,0.008835063,0.0009163925,0.0,0.0,0.0,0.0,0.0,0.0,0.0,0.0,0.0,0.002290282,0.0,0.0,nan,0.0,0.0,0.015487867,0.0,0.0,0.0,0.0,0.0,2.2996147,0.087199494,0.0,0.0
294302216,294203076,0.0003529812,0.0,0.0019282899,0.00043513236,0.0,0.0,0.0,0.0,0.0,0.0,0.0,0.0,0.0,0.001129593,0.0,0.0,nan,0.0,0.0,0.019675652,0.0,0.0,0.0,0.0,0.0,2.2996147,0.090993375,0.0,0.0
294806086,294706854,0.0034965582,0.0,0.0014968961,0.0010326643,0.0,0.0,0.0,0.0,0.0,0.0,0.0,0.0,0.0,0.03220699,0.0,0.0,nan,0.0,0.0,0.025248546,0.0,0.0,0.0,0.0,0.0,2.2996147,0.0746868,0.0,0.0
295309725,295210631,0.020101361,0.0,0.001925394,0.00014532538,0.0,0.0,0.0,0.0,0.0,0.0,0.0,0.0,0.0,0.0008599065,0.0,0.0,nan,0.0,0.0,0.02983672,0.0,0.0,0.0,0.0,0.0,2.2996147,0.08079634,0.0,0.0
295803624,295704531,0.012402667,0.0,0.00015827529,0.00033022685,0.0,0.0,0.0,0.0,0.0,0.0,0.0,0.0,0.0,0.013617781,0.0,0.0,nan,0.0,0.0,0.014025552,0.0,0.0,0.0,0.0,0.0,2.2996147,0.09328336,0.0,0.0
296307401,296208308,0.025250176,0.0,0.0066506546,0.0009733109,0.0,0.0,0.0,0.0,0.0,0.0,0.0,0.0,0.0,0.00018967291,0.0,0.0,nan,0.0,0.0,0.020159336,0.0,0.0,0.0,0.0,0.0,2.2996147,0.09576646,0.0,0.0
296811246,296712085,0.030044919,0.0,0.00053172046,0.00023300441,0.0,0.0,0.0,0.0,0.0,0.0,0.0,0.0,0.0,0.0010266845,0.0,0.0,nan,0.0,0.0,0.021309454,0.0,0.0,0.0,0.0,0.0,2.2996147,0.087609716,0.0,0.0
297305074,297205984,0.007137592,0.0,0.003205331,0.0004250143,0.0,0.0,0.0,0.0,0.0,0.0,0.0,0.0,0.0,0.0029935825,0.0,0.0,nan,0.0,0.0,0.026048683,0.0,0.0,0.0,0.0,0.0,2.2996147,0.08911174,0.0,0.0
297808869,297709761,0.009860829,0.0,0.007860508,0.000106091684,0.0,0.0,0.0,0.0,0.0,0.0,0.0,0.0,0.0,0.009567752,0.0,0.0,nan,0.0,0.0,0.021048719,0.0,0.0,0.0,0.0,0.0,2.2996147,0.08973301,0.0,0.0
298302837,298203659,0.0023190842,0.0,0.0058644367,0.00053759787,0.0,0.0,0.0,0.0,0.0,0.0,0.0,0.0,0.0,0.000120199176,0.0,0.0,nan,0.0,0.0,0.03423346,0.0,0.0,0.0,0.0,0.0,2.2996147,0.09064514,0.0,0.0
298806557,298707436,0.0015382448,0.0,0.0003002613,0.0013464313,0.0,0.0,0.0,0.0,0.0,0.0,0.0,0.0,0.0,0.061650556,0.0,0.0,nan,0.0,0.0,0.04028524,0.0,0.0,0.0,0.0,0.0,2.2996147,0.08655759,0.0,0.0
299310364,299211212,0.0063281152,0.0,0.0027445962,0.0006594178,0.0,0.0,0.0,0.0,0.0,0.0,0.0,0.0,0.0,0.0010769835,0.0,0.0,nan,0.0,0.0,0.0,0.0,0.0,0.0,0.0,0.0,2.2996147,0.08062961,0.0,0.0
299804198,299705110,0.01142087,0.0,0.00492603,0.002977139,0.0,0.0,0.0,0.0,0.0,0.0,0.0,0.0,0.0,6.481393e-05,0.0,0.0,nan,0.0,0.0,0.0,0.0,0.0,0.0,0.0,0.0,2.2996147,0.08021749,0.0,0.0
300308024,300208886,0.0016359963,0.0,2.015985e-06,0.0010659114,0.0,0.0,0.0,0.0,0.0,0.0,0.0,0.0,0.0,2.1509266e-05,0.0,0.0,nan,0.0,0.0,0.0,0.0,0.0,0.0,0.0,0.0,2.2996147,0.09582667,0.0,0.0
300801967,300702784,0.0075283656,0.0,0.0046393108,0.0040361183,0.0,0.0,0.0,0.0,0.0,0.0,0.0,0.0,0.0,0.004484562,0.0,0.0,nan,0.0,0.0,0.0,0.0,0.0,0.0,0.0,0.0,2.2996147,0.10882205,0.0,0.0
301305651,301206559,0.0038109801,0.0,0.0010970155,0.0017949851,0.0,0.0,0.0,0.0,0.0,0.0,0.0,0.0,0.0,0.0074591627,0.0,0.0,nan,0.0,0.0,0.0,0.0,0.0,0.0,0.0,0.0,2.2996147,0.09568312,0.0,0.0
301809424,301710335,0.16032885,0.0,0.00019350454,0.0009934898,0.0,0.0,0.0,0.0,0.0,0.0,0.0,0.0,0.0,0.005296693,0.0,0.0,nan,0.0,0.0,0.0,0.59011674,0.0,0.0,0.0,0.0,2.2996147,0.042963285,0.0,0.0
302303358,302204232,0.7599423,0.0,0.0013536771,0.0060282783,0.0,0.0,0.0,0.0,0.0,0.0,0.0,0.0,0.0,0.0020259095,0.0,0.0,nan,0.0,0.0,0.0,1.5942634,0.0,0.0,0.0,0.0,2.2996147,0.061264325,0.0,0.0
302807148,302708007,1.0169331,0.0,4.3430682e-05,0.016760387,0.0,0.0,0.0,0.0,0.0,0.0,0.0,0.0,0.0,0.00079610577,0.0,0.0,nan,0.0,0.0,0.0,0.6106907,0.0,0.0,0.0,0.0,2.2996147,0.073921144,0.0,0.0
303310918,303211782,0.94212484,0.0,0.019580988,0.072141185,0.0,0.0,0.0,0.0,0.0,0.0,0.0,0.0,0.0,0.012518346,0.0,0.0,nan,0.0,0.0,0.0,0.10458665,0.0,0.0,0.0,0.0,2.2996147,0.068199776,0.0,0.0
303804826,303705679,0.25124797,0.0,0.007617781,0.00827596,0.0,0.0,0.0,0.0,0.0,0.0,0.0,0.0,0.0,0.00043064874,0.0,0.0,nan,0.0,0.0,0.0,0.27120188,0.0,0.0,0.0,0.0,2.2996147,0.028166708,0.0,0.0
304308545,304209453,0.099878885,0.0,0.027335096,0.002306692,0.0,0.0,0.0,0.0,0.0,0.0,0.0,0.0,0.0,0.06269635,0.0,0.0,nan,0.0,0.0,0.0,1.3924147,0.0,0.0,0.0,0.0,2.2996147,0.025207218,0.0,0.0
304802443,304703350,0.033089824,0.0,0.0009530913,0.005172661,0.0,0.0,0.0,0.0,0.0,0.0,0.0,0.0,0.0,0.017168807,0.0,0.0,nan,0.0,0.0,0.0,0.03979283,0.0,0.0,0.0,0.0,2.2996147,0.023211818,0.0,0.0
305306250,305207124,0.055936903,0.0,0.004337781,0.00195991,0.0,0.0,0.0,0.0,0.0,0.0,0.0,0.0,0.0,0.001738367,0.0,0.0,nan,0.0,0.0,0.0,1.3693701,0.0,0.0,0.0,0.0,2.2996147,0.012585555,0.0,0.0
305810032,305710898,0.043556795,0.0,0.009404714,0.0019984227,0.0,0.0,0.0,0.0,0.0,0.0,0.0,0.0,0.0,0.015589865,0.0,0.0,nan,0.0,0.0,0.0,3.3684528,0.0,0.0,0.0,0.0,2.2996147,0.0020134775,0.0,0.0
306303888,306204795,0.27454266,0.0,0.014793604,0.001571066,0.0,0.0,0.0,0.0,0.0,0.0,0.0,0.0,0.0,0.0011171746,0.0,0.0,nan,0.0,0.0,0.0,0.37954795,0.0,0.0,0.0,0.0,2.2996147,0.0003130748,0.0,0.0
306807670,306708568,0.26999578,0.0,0.03391923,0.0011130478,0.0,0.0,0.0,0.0,0.0,0.0,0.0,0.0,0.0,0.012377013,0.0,0.0,nan,0.0,0.0,0.0,0.21777238,0.0,0.0,0.0,0.0,2.2996147,0.003296334,0.0,0.0
307311440,307212342,0.11014755,0.0,0.004339274,0.0009421693,0.0,0.0,0.0,0.0,0.0,0.0,0.0,0.0,0.0,0.00034233174,0.0,0.0,nan,0.0,0.0,0.0,0.08067746,0.0,0.0,0.0,0.0,2.2996147,0.01285343,0.0,0.0
307805331,307706238,0.065877154,0.0,0.012919197,0.00087808253,0.0,0.0,0.0,0.0,0.0,0.0,0.0,0.0,0.0,0.074734844,0.0,0.0,nan,0.0,0.0,0.0,2.5353794,0.0,0.0,0.0,0.0,2.2996147,0.0205722,0.0,0.0
308309190,308210011,0.09584691,0.0,0.07160253,0.00058474834,0.0,0.0,0.0,0.0,0.0,0.0,0.0,0.0,0.0,0.00034476022,0.0,0.0,nan,0.0,0.0,0.0,6.860541,0.0,0.0,0.0,0.0,2.2996147,0.023880564,0.0,0.0
308803000,308703906,0.025187496,0.0,0.09444418,0.0007845186,0.0,0.0,0.0,0.0,0.0,0.0,0.0,0.0,0.0,0.0050345855,0.0,0.0,nan,0.0,0.0,0.0,8.127089,0.0,0.0,0.0,0.0,2.2996147,0.018256893,0.0,0.0
309306796,309207679,0.053206597,0.0,0.016042734,0.0006735957,0.0,0.0,0.0,0.0,0.0,0.0,0.0,0.0,0.0,0.0022683602,0.0,0.0,nan,0.0,0.0,0.0,9.579018,0.0,0.0,0.0,0.0,2.2996147,0.008641138,0.0,0.0
309810602,309711452,0.0046037696,0.0,0.014177516,0.0025178771,0.0,0.0,0.0,0.0,0.0,0.0,0.0,0.0,0.0,0.0052137156,0.0,0.0,nan,0.0,0.0,0.0,8.672375,0.0,0.0,0.0,0.0,2.2996147,0.011523841,0.0,0.0
310304606,310205347,0.018962359,0.0,0.04091747,0.0019016098,0.0,0.0,0.0,0.0,0.0,0.0,0.0,0.0,0.0,0.0066729523,0.0,0.0,nan,0.0,0.0,0.0,7.8349547,0.0,0.0,0.0,0.0,2.2996147,0.015877794,0.0,0.0
310808211,310709120,0.030636722,0.0,0.040693432,0.0014279275,0.0,0.0,0.0,0.0,0.0,0.0,0.0,0.0,0.0,0.008448905,0.0,0.0,nan,0.0,0.0,0.0,6.898742,0.0,0.0,0.0,0.0,2.2996147,0.030294137,0.0,0.0
311302567,311203014,0.046075687,0.0,0.032220684,0.0013582229,0.0,0.0,0.0,0.0,0.0,0.0,0.0,0.0,0.0,0.0049451645,0.0,0.0,nan,0.0,0.0,0.0,7.113915,0.0,0.0,0.0,0.0,2.2996147,0.04464935,0.0,0.0
311805902,311706786,0.029745288,0.0,0.010466224,0.003269868,0.0,0.0,0.0,0.0,0.0,0.0,0.0,0.0,0.0,0.0027764246,0.0,0.0,nan,0.0,0.0,0.0,6.9487834,0.0,0.0,0.0,0.0,2.2996147,0.038709108,0.0,0.0
312309786,312210558,0.020248663,0.0,0.00616404,0.0025360172,0.0,0.0,0.0,0.0,0.0,0.0,0.0,0.0,0.0,0.0012105947,0.0,0.0,nan,0.0,0.0,0.0,7.082092,0.0,0.0,0.0,0.0,2.2996147,0.047243442,0.0,0.0
312803549,312704453,0.014610646,0.0,0.000109097564,0.0010421355,0.0,0.0,0.0,0.0,0.0,0.0,0.0,0.0,0.0,0.00047305273,0.0,0.0,nan,0.0,0.0,0.0,7.2329364,0.0,0.0,0.0,0.0,2.2996147,0.05693204,0.0,0.0
313307706,313208224,0.02792163,0.0,0.043972477,0.0032419043,0.0,0.0,0.0,0.0,0.0,0.0,0.0,0.0,0.0,0.0014696073,0.0,0.0,nan,0.0,0.0,0.0,7.257542,0.0,0.0,0.0,0.0,2.2996147,0.07192701,0.0,0.0
313811173,313711996,0.0049976427,0.0,0.009851266,0.0012957298,0.0,0.0,0.0,0.0,0.0,0.0,0.0,0.0,0.0,0.00053193315,0.0,0.0,nan,0.0,0.0,0.0,8.355388,0.0,0.0,0.0,0.0,2.2996147,0.07387696,0.0,0.0
314305190,314205890,0.019155191,0.0,0.019104421,0.0008365861,0.0,0.0,0.0,0.0,0.0,0.0,0.0,0.0,0.0,4.9583854e-05,0.0,0.0,nan,0.0,0.0,0.0,7.6471405,0.0,0.0,0.0,0.0,2.2996147,0.06967567,0.0,0.0
314808760,314709661,0.012126992,0.0,0.0008731688,0.0012831305,0.0,0.0,0.0,0.0,0.0,0.0,0.0,0.0,0.0,1.0226371e-05,0.0,0.0,nan,0.0,0.0,0.0,7.7448564,0.0,0.0,0.0,0.0,2.2996147,0.06328942,0.0,0.0
315302896,315203555,0.009584937,0.0,0.000748659,0.0022522875,0.0,0.0,0.0,0.0,0.0,0.0,0.0,0.0,0.0,8.158321e-05,0.0,0.0,nan,0.0,0.0,0.0,8.131627,0.0,0.0,0.0,0.0,2.2996147,0.048112486,0.0,0.0
315806423,315707326,0.010827134,0.0,0.0001550322,0.0016506402,0.0,0.0,0.0,0.0,0.0,0.0,0.0,0.0,0.0,0.00014155603,0.0,0.0,nan,0.0,0.0,0.0,8.3374605,0.0,0.0,0.0,0.0,2.2996147,0.040010672,0.0,0.0
316310333,316211097,0.014086736,0.0,0.0047037844,0.0015391003,0.0,0.0,0.0,0.0,0.0,0.0,0.0,0.0,0.0,0.00075809256,0.0,0.0,nan,0.0,0.0,0.0,8.08306,0.0,0.0,0.0,0.0,2.2996147,0.046506334,0.0,0.0
316804089,316704991,0.012199185,0.0,0.0018529239,0.0018844662,0.0,0.0,0.0,0.0,0.0,0.0,0.0,0.0,0.0,0.0005938137,0.0,0.0,nan,0.0,0.0,0.42992088,0.0,0.0,0.0,0.0,0.0,2.2996147,0.04519818,0.0,0.0
317307993,317208761,0.009257032,0.0,0.00106136,0.0013120511,0.0,0.0,0.0,0.0,0.0,0.0,0.0,0.0,0.0,0.0010616549,0.0,0.0,nan,0.0,0.0,0.36118364,0.0,0.0,0.0,0.0,0.0,2.2996147,0.025686823,0.0,0.0
317811673,317712534,0.0025527636,0.0,0.00091853854,0.0015419774,0.0,0.0,0.0,0.0,0.0,0.0,0.0,0.0,0.0,0.0010933684,0.0,0.0,nan,0.0,0.0,0.43986094,0.0,0.0,0.0,0.0,0.0,2.2996147,0.02825989,0.0,0.0
318305531,318206424,0.02664254,0.0,0.003975513,0.0012806405,0.0,0.0,0.0,0.0,0.0,0.0,0.0,0.0,0.0,0.00023807991,0.0,0.0,nan,0.0,0.0,0.0,6.4052625,0.0,0.0,0.0,0.0,2.2996147,0.057392564,0.0,0.0
318809286,318710194,0.022738587,0.0,0.008976304,0.0013185473,0.0,0.0,0.0,0.0,0.0,0.0,0.0,0.0,0.0,0.002272781,0.0,0.0,nan,0.0,0.0,0.0,6.4509387,0.0,0.0,0.0,0.0,2.2996147,0.032801595,0.0,0.0
319303308,319204087,0.001147074,0.0,0.0014643598,0.0017591454,0.0,0.0,0.0,0.0,0.0,0.0,0.0,0.0,0.0,0.0036696596,0.0,0.0,nan,0.0,0.0,0.0,5.9108305,0.0,0.0,0.0,0.0,2.2996147,9.958409e-05,0.0,0.0
319806951,319707857,0.12258341,0.0,0.0016022574,0.0012538562,0.0,0.0,0.0,0.0,0.0,0.0,0.0,0.0,0.0,0.0031600413,0.0,0.0,nan,0.0,0.0,0.0,5.5804796,0.0,0.0,0.0,0.0,2.2996147,0.001720851,0.0,0.0
320310743,320211628,0.2259657,0.0,0.00024034503,0.0011367088,0.0,0.0,0.0,0.0,0.0,0.0,0.0,0.0,0.0,0.0068731415,0.0,0.0,nan,0.0,0.0,0.0,2.6941938,0.0,0.0,0.0,0.0,2.2996147,0.0029403304,0.0,0.0
320804618,320705521,0.39981732,0.0,0.0034431014,0.00035446635,0.0,0.0,0.0,0.0,0.0,0.0,0.0,0.0,0.0,0.008892751,0.0,0.0,nan,0.0,0.0,0.0,0.11010098,0.0,0.0,0.0,0.0,2.2996147,0.010374754,0.0,0.0
321308385,321209290,0.051919613,0.0,0.0013832527,0.00057415955,0.0,0.0,0.0,0.0,0.0,0.0,0.0,0.0,0.0,0.00096486567,0.0,0.0,nan,0.0,0.0,0.0,0.5977415,0.0,0.0,0.0,0.0,2.2996147,0.03936163,0.0,0.0
321802280,321703182,0.039029315,0.0,0.038010184,0.0013104992,0.0,0.0,0.0,0.0,0.0,0.0,0.0,0.0,0.0,0.126109,0.0,0.0,nan,0.0,0.0,0.0,0.3559125,0.0,0.0,0.0,0.0,2.2996147,0.058026973,0.0,0.0
322306088,322206952,0.042875525,0.0,0.017501269,0.0009534066,0.0,0.0,0.0,0.0,0.0,0.0,0.0,0.0,0.0,0.026483474,0.0,0.0,nan,0.0,0.0,0.0,0.19037189,0.0,0.0,0.0,0.0,2.2996147,0.03606646,0.0,0.0
322809828,322710722,0.04372619,0.0,0.027292265,0.0017535259,0.0,0.0,0.0,0.0,0.0,0.0,0.0,0.0,0.0,0.0004106742,0.0,0.0,nan,0.0,0.0,0.0,0.31718868,0.0,0.0,0.0,0.0,2.2996147,0.012148097,0.0,0.0
323303725,323204614,0.03100777,0.0,0.028511379,0.0013628976,0.0,0.0,0.0,0.0,0.0,0.0,0.0,0.0,0.0,0.0055824495,0.0,0.0,nan,0.0,0.0,0.0,0.17259434,0.0,0.0,0.0,0.0,2.2996147,0.0062183016,0.0,0.0
323807489,323708384,0.036715243,0.0,0.00018328197,0.00063091674,0.0,0.0,0.0,0.0,0.0,0.0,0.0,0.0,0.0,0.06493851,0.0,0.0,nan,0.0,0.0,0.0,0.0045931656,0.0,0.0,0.0,0.0,2.2996147,0.0058018356,0.0,0.0
324311248,324212153,0.00720612,0.0,0.016982893,0.0011222832,0.0,0.0,0.0,0.0,0.0,0.0,0.0,0.0,0.0,0.0055620293,0.0,0.0,nan,0.0,0.0,0.0,0.08416588,0.0,0.0,0.0,0.0,2.2996147,0.014030864,0.0,0.0
324805146,324706044,0.012469078,0.0,0.004078327,0.0005895956,0.0,0.0,0.0,0.0,0.0,0.0,0.0,0.0,0.0,0.0027630266,0.0,0.0,nan,0.0,0.0,0.0,0.109829426,0.0,0.0,0.0,0.0,2.2996147,0.0103298435,0.0,0.0
325308914,325209814,0.00094242446,0.0,0.020771034,0.0004194094,0.0,0.0,0.0,0.0,0.0,0.0,0.0,0.0,0.0,0.010449081,0.0,0.0,nan,0.0,0.0,0.0,0.29255494,0.0,0.0,0.0,0.0,2.2996147,0.006084411,0.0,0.0
325802835,325703705,0.004079417,0.0,0.0012240862,0.0033922237,0.0,0.0,0.0,0.0,0.0,0.0,0.0,0.0,0.0,0.002694642,0.0,0.0,nan,0.0,0.0,0.0,0.18333764,0.0,0.0,0.0,0.0,2.2996147,0.010980884,0.0,0.0
326306571,326207475,0.010507575,0.0,0.0006026505,0.00049501023,0.0,0.0,0.0,0.0,0.0,0.0,0.0,0.0,0.0,0.0031564084,0.0,0.0,nan,0.0,0.0,0.0,0.05622197,0.0,0.0,0.0,0.0,2.2996147,0.011747645,0.0,0.0
326810378,326711244,0.02432027,0.0,0.00036559146,0.00018610682,0.0,0.0,0.0,0.0,0.0,0.0,0.0,0.0,0.0,0.010959277,0.0,0.0,nan,0.0,0.0,0.0,0.06816985,0.0,0.0,0.0,0.0,2.2996147,0.011796777,0.0,0.0
327304270,327205136,0.006780495,0.0,0.0014625975,0.00011820207,0.0,0.0,0.0,0.0,0.0,0.0,0.0,0.0,0.0,0.074408956,0.0,0.0,nan,0.0,0.0,0.0,0.011861414,0.0,0.0,0.0,0.0,2.2996147,0.015556135,0.0,0.0
327808037,327708905,0.009306842,0.0,0.0017919523,0.0004169286,0.0,0.0,0.0,0.0,0.0,0.0,0.0,0.0,0.0,0.0017617189,0.0,0.0,nan,0.0,0.0,0.0054654605,0.0,0.0,0.0,0.0,0.0,2.2996147,0.0135199,0.0,0.0
328311796,328212674,0.0024018812,0.0,0.0061481865,0.00502606,0.0,0.0,0.0,0.0,0.0,0.0,0.0,0.0,0.0,0.005653015,0.0,0.0,nan,0.0,0.0,0.009731708,0.0,0.0,0.0,0.0,0.0,2.2996147,0.013392924,0.0,0.0
328805654,328706565,0.0006715459,0.0,0.029883118,0.0006991279,0.0,0.0,0.0,0.0,0.0,0.0,0.0,0.0,0.0,0.0018307124,0.0,0.0,nan,0.0,0.0,0.02329833,0.0,0.0,0.0,0.0,0.0,2.2996147,0.010383161,0.0,0.0
329309425,329210334,0.00030673476,0.0,0.0072441655,0.0003758851,0.0,0.0,0.0,0.0,0.0,0.0,0.0,0.0,0.0,0.001490767,0.0,0.0,nan,0.0,0.0,0.007235647,0.0,0.0,0.0,0.0,0.0,2.2996147,0.008059329,0.0,0.0
329803360,329704225,0.0020479735,0.0,7.4057396e-05,0.0012947757,0.0,0.0,0.0,0.0,0.0,0.0,0.0,0.0,0.0,0.030024895,0.0,0.0,nan,0.0,0.0,0.0003374903,0.0,0.0,0.0,0.0,0.0,2.2996147,0.010009078,0.0,0.0
330307085,330207994,0.00031782655,0.0,0.0029180008,0.0010271175,0.0,0.0,0.0,0.0,0.0,0.0,0.0,0.0,0.0,0.012239368,0.0,0.0,nan,0.0,0.0,2.6512078e-05,0.0,0.0,0.0,0.0,0.0,2.2996147,0.0076623424,0.0,0.0
330810851,330711763,0.00068500923,0.0,0.00422329,0.0026923313,0.0,0.0,0.0,0.0,0.0,0.0,0.0,0.0,0.0,0.036293052,0.0,0.0,nan,0.0,0.0,1.0807593e-05,0.0,0.0,0.0,0.0,0.0,2.2996147,0.0053531476,0.0,0.0
331304788,331205654,0.00066518586,0.0,0.00042889893,1.8028491e-05,0.0,0.0,0.0,0.0,0.0,0.0,0.0,0.0,0.0,0.0026285464,0.0,0.0,nan,0.0,0.0,0.0016750962,0.0,0.0,0.0,0.0,0.0,2.2996147,0.005741358,0.0,0.0
331808514,331709422,0.004474923,0.0,0.0032296327,0.00057798123,0.0,0.0,0.0,0.0,0.0,0.0,0.0,0.0,0.0,0.0030902142,0.0,0.0,nan,0.0,0.0,0.006221011,0.0,0.0,0.0,0.0,0.0,2.2996147,0.005314879,0.0,0.0
332302404,332203313,0.0016142182,0.0,0.00037570306,0.00019133008,0.0,0.0,0.0,0.0,0.0,0.0,0.0,0.0,0.0,0.04382996,0.0,0.0,nan,0.0,0.0,0.006420032,0.0,0.0,0.0,0.0,0.0,2.2996147,0.0037247855,0.0,0.0
332806349,332707084,0.0030655337,0.0,0.0028525137,0.00095103204,0.0,0.0,0.0,0.0,0.0,0.0,0.0,0.0,0.0,0.024936795,0.0,0.0,nan,0.0,0.0,0.0016839757,0.0,0.0,0.0,0.0,0.0,2.2996147,0.0019306458,0.0,0.0
333309939,333210850,0.005107247,0.0,8.007503e-05,0.00056630716,0.0,0.0,0.0,0.0,0.0,0.0,0.0,0.0,0.0,0.03457834,0.0,0.0,nan,0.0,0.0,0.00074061286,0.0,0.0,0.0,0.0,0.0,2.2996147,0.0033857676,0.0,0.0
333804236,333704741,0.00020634092,0.0,0.000569454,0.0014289074,0.0,0.0,0.0,0.0,0.0,0.0,0.0,0.0,0.0,0.022006992,0.0,0.0,nan,0.0,0.0,0.002552088,0.0,0.0,0.0,0.0,0.0,2.2996147,0.0031541507,0.0,0.0
334307643,334208509,0.0039677606,0.0,0.00039155874,0.00095930963,0.0,0.0,0.0,0.0,0.0,0.0,0.0,0.0,0.0,0.0002921545,0.0,0.0,nan,0.0,0.0,0.0059453235,0.0,0.0,0.0,0.0,0.0,2.2996147,0.0026682517,0.0,0.0
334811576,334712278,0.003519371,0.0,0.0011614696,0.0021421583,0.0,0.0,0.0,0.0,0.0,0.0,0.0,0.0,0.0,0.014575163,0.0,0.0,nan,0.0,0.0,0.0,0.0,0.0,0.0,0.0,0.0,2.2996147,0.002961614,0.0,0.0
335305265,335206168,0.014921336,0.0,0.0029630666,0.0015073702,0.0,0.0,0.0,0.0,0.0,0.0,0.0,0.0,0.0,0.08683685,0.0,0.0,nan,0.0,0.0,0.0,0.0,0.0,0.0,0.0,0.0,2.2996147,0.0032731632,0.0,0.0
335809377,335709937,0.01414277,0.0,0.01394963,0.00049383007,0.0,0.0,0.0,0.0,0.0,0.0,0.0,0.0,0.0,3.0803365e-06,0.0,0.0,nan,0.0,0.0,0.0,0.0,0.0,0.0,0.0,0.0,2.2996147,0.0015219796,0.0,0.0
336302918,336203827,0.005412427,0.0,0.00023523814,0.00018267412,0.0,0.0,0.0,0.0,0.0,0.0,0.0,0.0,0.0,0.013097697,0.0,0.0,nan,0.0,0.0,0.0,0.0,0.0,0.0,0.0,0.0,2.2996147,0.0015377504,0.0,0.0
336806827,336707598,0.029070323,0.0,1.9855814e-05,0.0018976758,0.0,0.0,0.0,0.0,0.0,0.0,0.0,0.0,0.0,0.0059665544,0.0,0.0,nan,0.0,0.0,0.0,0.0,0.0,0.0,0.0,0.0,2.2996147,0.0032789852,0.0,0.0
337310472,337211364,0.00877005,0.0,0.0003649052,0.004024639,0.0,0.0,0.0,0.0,0.0,0.0,0.0,0.0,0.0,0.00045860972,0.0,0.0,nan,0.0,0.0,0.0,5.3824873,0.0,0.0,0.0,0.0,2.2996147,0.0011708797,0.0,0.0
337804598,337705254,0.04313406,0.0,0.011004124,0.0024181989,0.0,0.0,0.0,0.0,0.0,0.0,0.0,0.0,0.0,0.0024580178,0.0,0.0,nan,0.0,0.0,0.0,7.745738,0.0,0.0,0.0,0.0,2.2996147,0.0023187818,0.0,0.0
338308127,338209022,0.043058384,0.0,0.0022081665,0.0016340021,0.0,0.0,0.0,0.0,0.0,0.0,0.0,0.0,0.0,0.002388779,0.0,0.0,nan,0.0,0.0,0.0,7.7803698,0.0,0.0,0.0,0.0,2.2996147,0.0033627327,0.0,0.0
338812089,338712790,0.042932983,0.0,0.0015646794,0.005635457,0.0,0.0,0.0,0.0,0.0,0.0,0.0,0.0,0.0,0.004117419,0.0,0.0,nan,0.0,0.0,0.0,8.589462,0.0,0.0,0.0,0.0,2.2996147,0.0016750427,0.0,0.0
339305814,339206680,0.020732004,0.0,0.010359045,0.001353627,0.0,0.0,0.0,0.0,0.0,0.0,0.0,0.0,0.0,0.0117386645,0.0,0.0,nan,0.0,0.0,0.0,8.899374,0.0,0.0,0.0,0.0,2.2996147,0.005578176,0.0,0.0
339809745,339710448,0.026256554,0.0,0.00637935,0.0013808275,0.0,0.0,0.0,0.0,0.0,0.0,0.0,0.0,0.0,0.000107270746,0.0,0.0,nan,0.0,0.0,0.0,7.909465,0.0,0.0,0.0,0.0,2.2996147,0.0076048383,0.0,0.0
340303432,340204338,0.017179105,0.0,0.013689046,0.0015671755,0.0,0.0,0.0,0.0,0.0,0.0,0.0,0.0,0.0,0.007161908,0.0,0.0,nan,0.0,0.0,0.0,8.211757,0.0,0.0,0.0,0.0,2.2996147,0.005921962,0.0,0.0
340807231,340708106,0.0046812505,0.0,0.03193399,0.0041317577,0.0,0.0,0.0,0.0,0.0,0.0,0.0,0.0,0.0,0.004453605,0.0,0.0,nan,0.0,0.0,0.0,8.459947,0.0,0.0,0.0,0.0,2.2996147,0.007938584,0.0,0.0
341311040,341211874,0.015574641,0.0,0.00032512538,0.000149745,0.0,0.0,0.0,0.0,0.0,0.0,0.0,0.0,0.0,1.2868309e-05,0.0,0.0,nan,0.0,0.0,0.0,8.866626,0.0,0.0,0.0,0.0,2.2996147,0.0022265476,0.0,0.0
341804988,341705763,0.008072706,0.0,0.00030161958,0.0012108146,0.0,0.0,0.0,0.0,0.0,0.0,0.0,0.0,0.0,0.023816142,0.0,0.0,nan,0.0,0.0,0.0,8.54139,0.0,0.0,0.0,0.0,2.2996147,0.003197086,0.0,0.0
342308627,342209531,0.021881016,0.0,0.0005165982,0.0025673602,0.0,0.0,0.0,0.0,0.0,0.0,0.0,0.0,0.0,0.008274976,0.0,0.0,nan,0.0,0.0,0.0,7.418774,0.0,0.0,0.0,0.0,2.2996147,0.0026840873,0.0,0.0
342802519,342703421,0.013622625,0.0,0.0023488,0.0009887341,0.0,0.0,0.0,0.0,0.0,0.0,0.0,0.0,0.0,0.029848669,0.0,0.0,nan,0.0,0.0,0.0,7.6095734,0.0,0.0,0.0,0.0,2.2996147,4.382643e-05,0.0,0.0
343306316,343207188,0.009620358,0.0,0.0070919706,0.0024951985,0.0,0.0,0.0,0.0,0.0,0.0,0.0,0.0,0.0,0.024318915,0.0,0.0,nan,0.0,0.0,0.0,8.010892,0.0,0.0,0.0,0.0,2.2996147,0.0009901929,0.0,0.0
343810098,343710956,0.025908047,0.0,0.002962042,0.0056879395,0.0,0.0,0.0,0.0,0.0,0.0,0.0,0.0,0.0,0.011352694,0.0,0.0,nan,0.0,0.0,0.0,8.220365,0.0,0.0,0.0,0.0,2.2996147,0.0014174401,0.0,0.0
344303971,344204846,0.007854709,0.0,0.0072833765,0.009325766,0.0,0.0,0.0,0.0,0.0,0.0,0.0,0.0,0.0,0.012205142,0.0,0.0,nan,0.0,0.0,0.0,7.421513,0.0,0.0,0.0,0.0,2.2996147,0.0022533848,0.0,0.0
344807745,344708613,0.011806611,0.0,0.0054027177,0.0069345296,0.0,0.0,0.0,0.0,0.0,0.0,0.0,0.0,0.0,0.0069097364,0.0,0.0,nan,0.0,0.0,0.0,7.5974236,0.0,0.0,0.0,0.0,2.2996147,0.002966303,0.0,0.0
345311568,345212380,0.0051808497,0.0,0.0056867786,0.007864461,0.0,0.0,0.0,0.0,0.0,0.0,0.0,0.0,0.0,0.007696816,0.0,0.0,nan,0.0,0.0,0.0,6.680011,0.0,0.0,0.0,0.0,2.2996147,0.0054119104,0.0,0.0
345805366,345706270,0.004153388,0.0,0.005688639,0.005617086,0.0,0.0,0.0,0.0,0.0,0.0,0.0,0.0,0.0,4.5216384e-05,0.0,0.0,nan,0.0,0.0,0.0,6.3308954,0.0,0.0,0.0,0.0,2.2996147,0.0069834045,0.0,0.0
346309132,346210037,0.020149378,0.0,0.005268591,0.0059775375,0.0,0.0,0.0,0.0,0.0,0.0,0.0,0.0,0.0,0.009384131,0.0,0.0,nan,0.0,0.0,0.0,5.970095,0.0,0.0,0.0,0.0,2.2996147,0.0072773187,0.0,0.0
346803046,346703926,0.042877335,0.0,0.0017771559,0.0039336835,0.0,0.0,0.0,0.0,0.0,0.0,0.0,0.0,0.0,0.036411967,0.0,0.0,nan,0.0,0.0,0.0,5.601607,0.0,0.0,0.0,0.0,2.2996147,0.0088109365,0.0,0.0
347306835,347207694,0.0032963871,0.0,0.017010145,0.0048598684,0.0,0.0,0.0,0.0,0.0,0.0,0.0,0.0,0.0,0.00035698945,0.0,0.0,nan,0.0,0.0,0.0,5.035588,0.0,0.0,0.0,0.0,2.2996147,0.010496082,0.0,0.0
347810618,347711461,0.056776043,0.0,0.0072462154,0.0044555166,0.0,0.0,0.0,0.0,0.0,0.0,0.0,0.0,0.0,0.00090150017,0.0,0.0,nan,0.0,0.0,0.0,5.160955,0.0,0.0,0.0,0.0,2.2996147,0.014602712,0.0,0.0
348304496,348205350,0.01266697,0.0,0.0010499398,0.0044104666,0.0,0.0,0.0,0.0,0.0,0.0,0.0,0.0,0.0,0.013354835,0.0,0.0,nan,0.0,0.0,0.0,4.945588,0.0,0.0,0.0,0.0,2.2996147,0.0151386615,0.0,0.0
348808213,348709117,0.027703246,0.0,0.0041170144,0.0020774857,0.0,0.0,0.0,0.0,0.0,0.0,0.0,0.0,0.0,0.0032393367,0.0,0.0,nan,0.0,0.0,0.0,4.919715,0.0,0.0,0.0,0.0,2.2996147,0.013988831,0.0,0.0
349312034,349212884,0.031733915,0.0,0.0025117681,0.004147416,0.0,0.0,0.0,0.0,0.0,0.0,0.0,0.0,0.0,0.00012675549,0.0,0.0,nan,0.0,0.0,0.0,4.4887457,0.0,0.0,0.0,0.0,2.2996147,0.011990687,0.0,0.0
349805864,349706773,0.0090017775,0.0,0.00015546179,0.0016609452,0.0,0.0,0.0,0.0,0.0,0.0,0.0,0.0,0.0,0.01002348,0.0,0.0,nan,0.0,0.0,0.0,3.9176683,0.0,0.0,0.0,0.0,2.2996147,0.012156956,0.0,0.0
350309725,350210539,0.048688166,0.0,0.007968222,0.0021170971,0.0,0.0,0.0,0.0,0.0,0.0,0.0,0.0,0.0,0.0042841155,0.0,0.0,nan,0.0,0.0,0.0,3.3697765,0.0,0.0,0.0,0.0,2.2996147,0.010715971,0.0,0.0
350803520,350704428,0.024024826,0.0,0.011604635,0.00082090683,0.0,0.0,0.0,0.0,0.0,0.0,0.0,0.0,0.0,0.016219739,0.0,0.0,nan,0.0,0.0,0.0,3.4233544,0.0,0.0,0.0,0.0,2.2996147,0.011604889,0.0,0.0
351307290,351208195,0.04176195,0.0,0.017733026,0.00025817336,0.0,0.0,0.0,0.0,0.0,0.0,0.0,0.0,0.0,0.0005294481,0.0,0.0,nan,0.0,0.0,0.0,3.471006,0.0,0.0,0.0,0.0,2.2996147,0.009935689,0.0,0.0
351811101,351711961,0.009478803,0.0,0.0037638557,0.0035524783,0.0,0.0,0.0,0.0,0.0,0.0,0.0,0.0,0.0,0.04917664,0.0,0.0,nan,0.0,0.0,0.0,3.35526,0.0,0.0,0.0,0.0,2.2996147,0.010314246,0.0,0.0
352304993,352205850,0.01319521,0.0,0.012388891,0.001964195,0.0,0.0,0.0,0.0,0.0,0.0,0.0,0.0,0.0,0.00362871,0.0,0.0,nan,0.0,0.0,0.0,3.4029524,0.0,0.0,0.0,0.0,2.2996147,0.009565806,0.0,0.0
352808734,352709618,0.0026926254,0.0,0.000779571,0.0008310917,0.0,0.0,0.0,0.0,0.0,0.0,0.0,0.0,0.0,3.1075197e-06,0.0,0.0,nan,0.0,0.0,0.0,3.3568625,0.0,0.0,0.0,0.0,2.2996147,0.007089764,0.0,0.0
353302664,353203505,0.0015802626,0.0,1.4218862e-05,0.0018937979,0.0,0.0,0.0,0.0,0.0,0.0,0.0,0.0,0.0,0.018804133,0.0,0.0,nan,0.0,0.0,0.0,3.5913367,0.0,0.0,0.0,0.0,2.2996147,0.005041319,0.0,0.0
353806386,353707273,0.007966301,0.0,0.002070437,0.0024019536,0.0,0.0,0.0,0.0,0.0,0.0,0.0,0.0,0.0,0.0003902071,0.0,0.0,nan,0.0,0.0,0.0,3.526363,0.0,0.0,0.0,0.0,2.2996147,0.004448988,0.0,0.0
354310133,354211037,0.0012053775,0.0,0.0004947415,0.003605519,0.0,0.0,0.0,0.0,0.0,0.0,0.0,0.0,0.0,0.029360212,0.0,0.0,nan,0.0,0.0,0.0,3.4693098,0.0,0.0,0.0,0.0,2.2996147,0.002485439,0.0,0.0
354804019,354704926,0.0064917547,0.0,0.0042025317,0.0033930591,0.0,0.0,0.0,0.0,0.0,0.0,0.0,0.0,0.0,0.0017565802,0.0,0.0,nan,0.0,0.0,0.0,3.5376096,0.0,0.0,0.0,0.0,2.2996147,0.0012286166,0.0,0.0
355307843,355208692,0.008160229,0.0,0.0072142594,0.0028699453,0.0,0.0,0.0,0.0,0.0,0.0,0.0,0.0,0.0,2.075159e-06,0.0,0.0,nan,0.0,0.0,0.0,3.088491,0.0,0.0,0.0,0.0,2.2996147,0.0008296662,0.0,0.0
355811590,355712458,0.0062363027,0.0,6.643929e-05,0.0023583442,0.0,0.0,0.0,0.0,0.0,0.0,0.0,0.0,0.0,0.05734696,0.0,0.0,nan,0.0,0.0,0.0,3.0902972,0.0,0.0,0.0,0.0,2.2996147,0.00030566505,0.0,0.0
356305822,356206346,5.5427194e-05,0.0,0.0047325133,0.004654435,0.0,0.0,0.0,0.0,0.0,0.0,0.0,0.0,0.0,0.012748004,0.0,0.0,nan,0.0,0.0,0.0,2.9287367,0.0,0.0,0.0,0.0,2.2996147,0.0003565619,0.0,0.0
356809239,356710112,0.04168552,0.0,0.0006384185,0.003034416,0.0,0.0,0.0,0.0,0.0,0.0,0.0,0.0,0.0,0.027250277,0.0,0.0,nan,0.0,0.0,0.0,2.8693762,0.0,0.0,0.0,0.0,2.2996147,8.2785715e-05,0.0,0.0
357303232,357204000,0.0046959706,0.0,0.016223457,0.006388906,0.0,0.0,0.0,0.0,0.0,0.0,0.0,0.0,0.0,0.006423349,0.0,0.0,nan,0.0,0.0,0.0,2.4044268,0.0,0.0,0.0,0.0,2.2996147,0.00013278522,0.0,0.0
357806904,357707766,0.00940084,0.0,0.0018273109,0.004279184,0.0,0.0,0.0,0.0,0.0,0.0,0.0,0.0,0.0,0.006964504,0.0,0.0,nan,0.0,0.0,0.0,2.0135074,0.0,0.0,0.0,0.0,2.2996147,0.00023708535,0.0,0.0
358310963,358211531,0.0058151293,0.0,0.0012351597,0.0049175113,0.0,0.0,0.0,0.0,0.0,0.0,0.0,0.0,0.0,0.0029013567,0.0,0.0,nan,0.0,0.0,0.0,1.6801814,0.0,0.0,0.0,0.0,2.2996147,0.002311717,0.0,0.0
358804512,358705419,0.0060718786,0.0,0.0053180363,0.004141971,0.0,0.0,0.0,0.0,0.0,0.0,0.0,0.0,0.0,0.0068502706,0.0,0.0,nan,0.0,0.0,0.0,1.3524811,0.0,0.0,0.0,0.0,2.2996147,0.0046266853,0.0,0.0
359308409,359209185,0.045809757,0.0,0.0155555075,0.003568275,0.0,0.0,0.0,0.0,0.0,0.0,0.0,0.0,0.0,0.00044417646,0.0,0.0,nan,0.0,0.0,0.0,1.6269453,0.0,0.0,0.0,0.0,2.2996147,0.0083282655,0.0,0.0
359812041,359712950,0.009602751,0.0,0.005889969,0.008100581,0.0,0.0,0.0,0.0,0.0,0.0,0.0,0.0,0.0,0.053843163,0.0,0.0,nan,0.0,0.0,0.0,1.0500681,0.0,0.0,0.0,0.0,2.2996147,0.018159745,0.0,0.0
360306361,360206838,0.0012662655,0.0,0.04386615,0.0065901396,0.0,0.0,0.0,0.0,0.0,0.0,0.0,0.0,0.0,0.005349369,0.0,0.0,nan,0.0,0.0,0.0,0.41506702,0.0,0.0,0.0,0.0,2.2996147,0.016139386,0.0,0.0
360809725,360710603,0.0017448337,0.0,0.0015457546,0.004997613,0.0,0.0,0.0,0.0,0.0,0.0,0.0,0.0,0.0,0.0016896033,0.0,0.0,nan,0.0,0.0,0.0,0.15005936,0.0,0.0,0.0,0.0,2.2996147,0.028075976,0.0,0.0
361303748,361204490,0.0009476718,0.0,0.00045673767,0.011381377,0.0,0.0,0.0,0.0,0.0,0.0,0.0,0.0,0.0,0.0050893123,0.0,0.0,nan,0.0,0.0,0.0,0.098517165,0.0,0.0,0.0,0.0,2.2996147,0.024839958,0.0,0.0
361807351,361708256,0.0061906422,0.0,0.0008235723,0.016788322,0.0,0.0,0.0,0.0,0.0,0.0,0.0,0.0,0.0,0.0077136764,0.0,0.0,nan,0.0,0.0,0.0,0.092759356,0.0,0.0,0.0,0.0,2.2996147,0.030445892,0.0,0.0
362311444,362212021,0.015408785,0.0,0.014039934,0.00947025,0.0,0.0,0.0,0.0,0.0,0.0,0.0,0.0,0.0,0.07374156,0.0,0.0,nan,0.0,0.0,0.0,0.116575465,0.0,0.0,0.0,0.0,2.2996147,0.039159488,0.0,0.0
362805042,362705908,0.0064065624,0.0,0.038077,0.0057577444,0.0,0.0,0.0,0.0,0.0,0.0,0.0,0.0,0.0,0.00069678377,0.0,0.0,nan,0.0,0.0,0.0,0.04548196,0.0,0.0,0.0,0.0,2.2996147,0.025486475,0.0,0.0
363308902,363209673,0.0025790578,0.0,0.00093199173,0.0033338838,0.0,0.0,0.0,0.0,0.0,0.0,0.0,0.0,0.0,0.057806883,0.0,0.0,nan,0.0,0.0,0.0,0.09063503,0.0,0.0,0.0,0.0,2.2996147,0.019158354,0.0,0.0
363802682,363703560,0.022889666,0.0,0.014029995,0.0031631063,0.0,0.0,0.0,0.0,0.0,0.0,0.0,0.0,0.0,0.0016437683,0.0,0.0,nan,0.0,0.0,0.0,0.124788426,0.0,0.0,0.0,0.0,2.2996147,0.031478953,0.0,0.0
364306692,364207324,0.007444644,0.0,0.005862983,0.001323251,0.0,0.0,0.0,0.0,0.0,0.0,0.0,0.0,0.0,0.0009245087,0.0,0.0,nan,0.0,0.0,0.0,0.13425829,0.0,0.0,0.0,0.0,2.2996147,0.025182962,0.0,0.0
364810250,364711089,0.0025296754,0.0,0.00037734676,0.000849788,0.0,0.0,0.0,0.0,0.0,0.0,0.0,0.0,0.0,0.06166422,0.0,0.0,nan,0.0,0.0,0.0,0.18983579,0.0,0.0,0.0,0.0,2.2996147,0.01938936,0.0,0.0
365304297,365204976,0.010553677,0.0,0.010854854,0.0016148606,0.0,0.0,0.0,0.0,0.0,0.0,0.0,0.0,0.0,0.0043363646,0.0,0.0,nan,0.0,0.0,0.0,0.15418112,0.0,0.0,0.0,0.0,2.2996147,0.011859788,0.0,0.0
365807857,365708741,0.030757615,0.0,0.00997935,0.0005504645,0.0,0.0,0.0,0.0,0.0,0.0,0.0,0.0,0.0,0.05738332,0.0,0.0,nan,0.0,0.0,0.0,0.16308711,0.0,0.0,0.0,0.0,2.2996147,0.004681406,0.0,0.0
366311775,366212508,0.0003690478,0.0,0.005584734,5.713865e-06,0.0,0.0,0.0,0.0,0.0,0.0,0.0,0.0,0.0,0.04543099,0.0,0.0,nan,0.0,0.0,0.0,0.11704073,0.0,0.0,0.0,0.0,2.2996147,0.001993256,0.0,0.0
366805487,366706392,0.0006426692,0.0,6.8933197e-09,0.0004618119,0.0,0.0,0.0,0.0,0.0,0.0,0.0,0.0,0.0,0.007058016,0.0,0.0,nan,0.0,0.0,0.0,0.2593398,0.0,0.0,0.0,0.0,2.2996147,0.0010199302,0.0,0.0
367309253,367210156,0.012556669,0.0,0.0013743559,0.0014631938,0.0,0.0,0.0,0.0,0.0,0.0,0.0,0.0,0.0,0.0568465,0.0,0.0,nan,0.0,0.0,0.0,0.55009645,0.0,0.0,0.0,0.0,2.2996147,0.00011233021,0.0,0.0
367803274,367704043,0.00012697476,0.0,9.816524e-05,0.004107268,0.0,0.0,0.0,0.0,0.0,0.0,0.0,0.0,0.0,0.0021412438,0.0,0.0,nan,0.0,0.0,0.0,0.3639481,0.0,0.0,0.0,0.0,2.2996147,7.055747e-05,0.0,0.0
368306967,368207807,0.0014321752,0.0,0.0010088708,0.0023771678,0.0,0.0,0.0,0.0,0.0,0.0,0.0,0.0,0.0,0.00051374396,0.0,0.0,nan,0.0,0.0,0.0,0.20345059,0.0,0.0,0.0,0.0,2.2996147,0.0010842055,0.0,0.0
368810668,368711571,0.0062051164,0.0,0.008953828,0.0049347226,0.0,0.0,0.0,0.0,0.0,0.0,0.0,0.0,0.0,0.017595349,0.0,0.0,nan,0.0,0.0,0.0,0.034454532,0.0,0.0,0.0,0.0,2.2996147,0.0038992737,0.0,0.0
369304554,369205457,0.00094881665,0.0,0.003885855,0.0035466573,0.0,0.0,0.0,0.0,0.0,0.0,0.0,0.0,0.0,0.0004954187,0.0,0.0,nan,0.0,0.0,0.0,0.14058186,0.0,0.0,0.0,0.0,2.2996147,0.0014335345,0.0,0.0
369808316,369709223,0.0066729086,0.0,0.0015762221,0.0024685303,0.0,0.0,0.0,0.0,0.0,0.0,0.0,0.0,0.0,8.766003e-07,0.0,0.0,nan,0.0,0.0,0.0,0.08826042,0.0,0.0,0.0,0.0,2.2996147,0.0012510159,0.0,0.0
370312097,370212985,0.0032349804,0.0,0.00045796295,0.003439578,0.0,0.0,0.0,0.0,0.0,0.0,0.0,0.0,0.0,0.001495569,0.0,0.0,nan,0.0,0.0,0.0,0.16741689,0.0,0.0,0.0,0.0,2.2996147,0.0058973525,0.0,0.0
370805962,370706871,0.004615782,0.0,0.005128726,0.004796488,0.0,0.0,0.0,0.0,0.0,0.0,0.0,0.0,0.0,0.017557496,0.0,0.0,nan,0.0,0.0,0.0,0.18029518,0.0,0.0,0.0,0.0,2.2996147,0.0070847305,0.0,0.0
371309757,371210635,0.009182405,0.0,0.00038350662,0.0045053544,0.0,0.0,0.0,0.0,0.0,0.0,0.0,0.0,0.0,5.5202636e-05,0.0,0.0,nan,0.0,0.0,0.0,0.08219996,0.0,0.0,0.0,0.0,2.2996147,0.0060814484,0.0,0.0
371803823,371704521,0.021900786,0.0,0.019506695,0.00348292,0.0,0.0,0.0,0.0,0.0,0.0,0.0,0.0,0.0,0.060534123,0.0,0.0,nan,0.0,0.0,0.0,0.23475102,0.0,0.0,0.0,0.0,2.2996147,0.007095222,0.0,0.0
372307376,372208284,0.01001585,0.0,0.0022844833,0.0056114825,0.0,0.0,0.0,0.0,0.0,0.0,0.0,0.0,0.0,0.005035134,0.0,0.0,nan,0.0,0.0,0.0,0.13746944,0.0,0.0,0.0,0.0,2.2996147,0.008198169,0.0,0.0
372811186,372712051,0.018262818,0.0,0.0029535592,0.0031180086,0.0,0.0,0.0,0.0,0.0,0.0,0.0,0.0,0.0,7.333969e-05,0.0,0.0,nan,0.0,0.0,0.0,0.16935502,0.0,0.0,0.0,0.0,2.2996147,0.014253467,0.0,0.0
373305207,373205934,0.009385036,0.0,0.0017912885,0.007948966,0.0,0.0,0.0,0.0,0.0,0.0,0.0,0.0,0.0,0.002259628,0.0,0.0,nan,0.0,0.0,0.0,0.14878759,0.0,0.0,0.0,0.0,2.2996147,0.017369743,0.0,0.0
373808801,373709697,0.0048951604,0.0,0.002224881,0.0056204116,0.0,0.0,0.0,0.0,0.0,0.0,0.0,0.0,0.0,0.025667781,0.0,0.0,nan,0.0,0.0,0.0,0.10528634,0.0,0.0,0.0,0.0,2.2996147,0.015601684,0.0,0.0
374302679,374203583,0.006623372,0.0,0.0011407651,0.005360336,0.0,0.0,0.0,0.0,0.0,0.0,0.0,0.0,0.0,0.0010870654,0.0,0.0,nan,0.0,0.0,0.0,0.16920984,0.0,0.0,0.0,0.0,2.2996147,0.015662892,0.0,0.0
374806436,374707346,0.012713574,0.0,5.099125e-05,0.00784438,0.0,0.0,0.0,0.0,0.0,0.0,0.0,0.0,0.0,0.060619988,0.0,0.0,nan,0.0,0.0,0.0,0.123883925,0.0,0.0,0.0,0.0,2.2996147,0.016220793,0.0,0.0
375310232,375211110,0.032974366,0.0,0.0003282138,0.0025783605,0.0,0.0,0.0,0.0,0.0,0.0,0.0,0.0,0.0,0.0038675629,0.0,0.0,nan,0.0,0.0,0.0,0.06848445,0.0,0.0,0.0,0.0,2.2996147,0.015627237,0.0,0.0
375804086,375704995,0.015402332,0.0,0.002913518,0.0037593725,0.0,0.0,0.0,0.0,0.0,0.0,0.0,0.0,0.0,0.00033256444,0.0,0.0,nan,0.0,0.0,0.0,0.19732645,0.0,0.0,0.0,0.0,2.2996147,0.0141543355,0.0,0.0
376307880,376208758,0.0076812017,0.0,0.0036309257,0.0035433813,0.0,0.0,0.0,0.0,0.0,0.0,0.0,0.0,0.0,0.07619355,0.0,0.0,nan,0.0,0.0,0.0,0.124675095,0.0,0.0,0.0,0.0,2.2996147,0.012034419,0.0,0.0
376811611,376712523,0.0063499417,0.0,0.0011238877,0.0016967183,0.0,0.0,0.0,0.0,0.0,0.0,0.0,0.0,0.0,0.0061823246,0.0,0.0,nan,0.0,0.0,0.0,0.11378364,0.0,0.0,0.0,0.0,2.2996147,0.0109144235,0.0,0.0
377305533,377206406,0.010994055,0.0,0.00066732883,0.000554336,0.0,0.0,0.0,0.0,0.0,0.0,0.0,0.0,0.0,0.06627534,0.0,0.0,nan,0.0,0.0,0.0,0.1006843,0.0,0.0,0.0,0.0,2.2996147,0.010362398,0.0,0.0
