timestamp,timestamp_sample,ref_timestamp,ref_lat,ref_lon,x,y,z,delta_xy[0],delta_xy[1],delta_z,vx,vy,vz,z_deriv,delta_vxy[0],delta_vxy[1],delta_vz,ax,ay,az,heading,delta_heading,ref_alt,dist_bottom,eph,epv,evh,evv,vxy_max,vz_max,hagl_min,hagl_max,xy_valid,z_valid,v_xy_valid,v_z_valid,xy_reset_counter,z_reset_counter,vxy_reset_counter,vz_reset_counter,heading_reset_counter,heading_good_for_control,xy_global,z_global,dist_bottom_valid,dist_bottom_sensor_bitfield
217458731,217458259,19482731,36.660603099999996,126.342033,13.295182,0.65738124,4.402154,0.00075414986,0.0026697728,-0.004453227,0.004435317,-0.015261347,0.076522335,0.030683033,0.11503945,-0.07196041,0.1729673,0.009819186,0.018850524,-0.005479243,1.0523379,-0.004124522,13.964353,0.1,0.3687234,0.39687556,0.14570981,0.107581064,inf,inf,inf,inf,1,1,1,1,4,2,4,3,5,0,1,1,1,0
217468927,217468259,19482731,36.660603099999996,126.342033,13.295707,0.6573659,4.4024515,0.00075414986,0.0026697728,-0.004453227,0.004665763,-0.015347427,0.07657327,0.030727413,0.11503945,-0.07196041,0.1729673,-0.0065553044,-0.0059807776,-0.0005291197,1.0523365,-0.004124522,13.964353,0.1,0.35309237,0.39317283,0.1370322,0.10481455,inf,inf,inf,inf,1,1,1,1,4,2,4,3,5,0,1,1,1,0
217558761,217558266,19482731,36.660603099999996,126.342033,13.300009,0.6569564,4.4046946,0.00075414986,0.0026697728,-0.004453227,0.0064397817,-0.015470059,0.07679424,0.030289698,0.11503945,-0.07196041,0.1729673,-0.016356708,0.0073024635,-0.011866768,1.0524944,-0.004124522,13.964353,0.1,0.36006573,0.39414427,0.1410875,0.106055945,inf,inf,inf,inf,1,1,1,1,4,2,4,3,5,0,1,1,1,0
217658932,217658275,19482731,36.660603099999996,126.342033,13.304185,0.65630555,4.407151,0.00075414986,0.0026697728,-0.004453227,0.0074928086,-0.015285574,0.07611698,0.028943434,0.11503945,-0.07196041,0.1729673,-0.0064583994,0.006564995,-0.034996655,1.0530941,-0.004124522,13.964353,0.1,0.3519432,0.39151943,0.13661212,0.10454144,inf,inf,inf,inf,1,1,1,1,4,2,4,3,5,0,1,1,1,0
217758768,217758282,19482731,36.660603099999996,126.342033,13.309222,0.6568304,4.4081163,0.00075414986,0.0026697728,-0.004453227,0.00998897,-0.014613191,0.0761478,0.026799416,0.11503945,-0.07196041,0.1729673,0.018835979,-0.00019113207,0.014837529,1.0537792,-0.004124522,13.964353,0.1,0.3596838,0.39314476,0.14110707,0.10597639,inf,inf,inf,inf,1,1,1,1,4,2,4,3,5,0,1,1,1,0
217858798,217858291,19482731,36.660603099999996,126.342033,13.313472,0.65679264,4.4089537,0.00075414986,0.0026697728,-0.004453227,0.012191812,-0.014098481,0.07474866,0.023668759,0.11503945,-0.07196041,0.1729673,0.0064412137,0.02467808,0.016478065,1.0545813,-0.004124522,13.964353,0.1,0.36791438,0.39484018,0.14576305,0.10740037,inf,inf,inf,inf,1,1,1,1,4,2,4,3,5,0,1,1,1,0
217958704,217958299,19482731,36.660603099999996,126.342033,13.316829,0.6567465,4.4108343,0.00075414986,0.0026697728,-0.004453227,0.013190046,-0.013254216,0.07490217,0.023368245,0.11503945,-0.07196041,0.1729673,-0.0065718885,0.018490052,0.022662032,1.0553762,-0.004124522,13.964353,0.1,0.3592477,0.39465937,0.14112489,0.10615287,inf,inf,inf,inf,1,1,1,1,4,2,4,3,5,0,1,1,1,0
218058782,218058307,19482731,36.660603099999996,126.342033,13.31968,0.65627855,4.4123144,0.00075414986,0.0026697728,-0.004453227,0.012755228,-0.013134254,0.07415776,0.02185366,0.11503945,-0.07196041,0.1729673,0.0055114185,0.007168417,0.024253882,1.0560784,-0.004124522,13.964353,0.1,0.36748806,0.3963781,0.14569123,0.10758252,inf,inf,inf,inf,1,1,1,1,4,2,4,3,5,0,1,1,1,0
218158724,218158315,19482731,36.660603099999996,126.342033,13.323813,0.6556476,4.4149594,0.00075414986,0.0026697728,-0.004453227,0.013903151,-0.013180883,0.073421076,0.021637484,0.11503945,-0.07196041,0.1729673,-0.007836342,-0.010282318,-0.04780387,1.0568066,-0.004124522,13.964353,0.1,0.35880488,0.3936788,0.14105394,0.106060565,inf,inf,inf,inf,1,1,1,1,4,2,4,3,5,0,1,1,1,0
218258793,218258323,19482731,36.660603099999996,126.342033,13.327329,0.65466493,4.417162,0.00075414986,0.0026697728,-0.004453227,0.014971382,-0.01374636,0.07312286,0.021404475,0.11503945,-0.07196041,0.1729673,0.008201479,0.00444663,-9.58026e-05,1.0575303,-0.004124522,13.964353,0.1,0.36705273,0.3953868,0.14562373,0.107485294,inf,inf,inf,inf,1,1,1,1,4,2,4,3,5,0,1,1,1,0
218358795,218358332,19482731,36.660603099999996,126.342033,13.331991,0.65468353,4.4204564,0.00075414986,0.0026697728,-0.004453227,0.01591264,-0.013894642,0.07402522,0.02341719,0.11503945,-0.07196041,0.1729673,-0.0043006334,-0.009857178,-0.016004462,1.0581777,-0.004124522,13.964353,0.1,0.35835427,0.39270547,0.14098883,0.10596643,inf,inf,inf,inf,1,1,1,1,4,2,4,3,5,0,1,1,1,0
218458812,218458340,19482731,36.660603099999996,126.342033,13.335929,0.6542373,4.423519,0.00075414986,0.0026697728,-0.004453227,0.016685998,-0.01326789,0.07432381,0.024407417,0.11503945,-0.07196041,0.1729673,-0.020087138,-0.0026581904,-0.017547378,1.0589094,-0.004124522,13.964353,0.1,0.36660916,0.39694822,0.14555147,0.10766803,inf,inf,inf,inf,1,1,1,1,4,2,4,3,5,0,1,1,1,0
218558788,218558348,19482731,36.660603099999996,126.342033,13.339492,0.6546633,4.426861,0.00075414986,0.0026697728,-0.004453227,0.016794378,-0.012476834,0.074717894,0.025660357,0.11503945,-0.07196041,0.1729673,-0.013374104,-0.0032706363,0.036662124,1.0596993,-0.004124522,13.964353,0.1,0.35783124,0.39423373,0.1408374,0.1061282,inf,inf,inf,inf,1,1,1,1,4,2,4,3,5,0,1,1,1,0
218658813,218658356,19482731,36.660603099999996,126.342033,13.342573,0.6546498,4.4297876,0.00075414986,0.0026697728,-0.004453227,0.016558621,-0.012383317,0.074928105,0.02605075,0.11503945,-0.07196041,0.1729673,-0.005896568,0.016836708,0.014755886,1.0604696,-0.004124522,13.964353,0.1,0.366086,0.39597836,0.14541571,0.10756032,inf,inf,inf,inf,1,1,1,1,4,2,4,3,5,0,1,1,1,0
218758761,218758364,19482731,36.660603099999996,126.342033,13.346414,0.65577507,4.4349375,0.00075414986,0.0026697728,-0.004453227,0.01685775,-0.01125412,0.07500955,0.028605433,0.11503945,-0.07196041,0.1729673,-0.0056411065,0.0035888643,-0.012343152,1.0611699,-0.004124522,13.964353,0.1,0.35736835,0.39328972,0.14087589,0.10603818,inf,inf,inf,inf,1,1,1,1,4,2,4,3,5,0,1,1,1,0
218858829,218858373,19482731,36.660603099999996,126.342033,13.349713,0.65628815,4.439618,0.00075414986,0.0026697728,-0.004453227,0.017476222,-0.010323695,0.07572661,0.03101196,0.11503945,-0.07196041,0.1729673,-0.009039148,0.013009467,-0.021916782,1.0618061,-0.004124522,13.964353,0.1,0.36563045,0.3950149,0.14544103,0.10746318,inf,inf,inf,inf,1,1,1,1,4,2,4,3,5,0,1,1,1,0
218958807,218958381,19482731,36.660603099999996,126.342033,13.35005,0.65676653,4.4434457,0.00075414986,0.0026697728,-0.004453227,0.015936367,-0.009426489,0.07576868,0.03170792,0.11503945,-0.07196041,0.1729673,-0.018178388,-0.0016573075,-0.004466015,1.0624398,-0.004124522,13.964353,0.1,0.3569001,0.39235103,0.14081214,0.10594629,inf,inf,inf,inf,1,1,1,1,4,2,4,3,5,0,1,1,1,0
219058981,219058389,19482731,36.660603099999996,126.342033,13.350578,0.6570052,4.4464025,0.00075414986,0.0026697728,-0.004453227,0.014925346,-0.009021097,0.07543276,0.031129697,0.11503945,-0.07196041,0.1729673,0.004092784,0.0002275877,0.007825987,1.063009,-0.004124522,13.964353,0.1,0.34869567,0.3922284,0.13633281,0.10469394,inf,inf,inf,inf,1,1,1,1,4,2,4,3,5,0,1,1,1,0
219158795,219158397,19482731,36.660603099999996,126.342033,13.3518505,0.65856075,4.4494214,0.00075414986,0.0026697728,-0.004453227,0.013725692,-0.007603241,0.075719275,0.03127794,0.11503945,-0.07196041,0.1729673,-0.043283284,0.012352328,-0.047208417,1.0636712,-0.004124522,13.964353,0.1,0.35648817,0.39392033,0.1408196,0.10613733,inf,inf,inf,inf,1,1,1,1,4,2,4,3,5,0,1,1,1,0
219258924,219258406,19482731,36.660603099999996,126.342033,13.352909,0.65948653,4.451607,0.00075414986,0.0026697728,-0.004453227,0.011464967,-0.007317409,0.07565345,0.03023076,0.11503945,-0.07196041,0.1729673,0.087828584,-0.05053922,-0.12315221,1.064702,-0.004124522,13.964353,0.1,0.36476997,0.39568192,0.14537832,0.107569724,inf,inf,inf,inf,1,1,1,1,4,2,4,3,5,0,1,1,1,0
219358868,219358414,19482731,36.660603099999996,126.342033,13.354706,0.6597753,4.454679,0.00075414986,0.0026697728,-0.004453227,0.008544661,-0.0056517925,0.07546483,0.03005985,0.11503945,-0.07196041,0.1729673,-0.10694346,-0.015747909,-0.10442155,1.064927,-0.004124522,13.964353,0.1,0.3560242,0.3930052,0.14074591,0.10604692,inf,inf,inf,inf,1,1,1,1,4,2,4,3,5,0,1,1,1,0
219458870,219458422,19482731,36.660603099999996,126.342033,13.356006,0.6598091,4.4577255,0.00075414986,0.0026697728,-0.004453227,0.0064105415,-0.0048265457,0.07654606,0.030926576,0.11503945,-0.07196041,0.1729673,-0.001402719,-0.010396928,0.08317751,1.0658363,-0.004124522,13.964353,0.1,0.36431086,0.3947541,0.14530593,0.1074743,inf,inf,inf,inf,1,1,1,1,4,2,4,3,5,0,1,1,1,0
219558877,219558430,19482731,36.660603099999996,126.342033,13.358511,0.66023934,4.4618044,0.00075414986,0.0026697728,-0.004453227,0.0058674444,-0.0027688222,0.07830662,0.033602536,0.11503945,-0.07196041,0.1729673,-0.0364485,0.07690659,0.5880329,1.0661807,-0.004124522,13.964353,0.1,0.3555495,0.3921095,0.14075467,0.10595885,inf,inf,inf,inf,1,1,1,1,4,2,4,3,5,0,1,1,1,0
219659114,219658439,19482731,36.660603099999996,126.342033,13.360355,0.66017365,4.465078,0.00075414986,0.0026697728,-0.004453227,0.0021205887,-0.0015438152,0.078398794,0.033641458,0.11503945,-0.07196041,0.1729673,0.028525334,-0.049481817,-0.3882904,1.0665921,-0.004124522,13.964353,0.1,0.34733775,0.38955736,0.13626362,0.10445085,inf,inf,inf,inf,1,1,1,1,4,2,4,3,5,0,1,1,1,0
219758842,219758447,19482731,36.660603099999996,126.342033,13.362375,0.6572386,4.470249,0.00075414986,0.0026697728,-0.004453227,-7.0679016e-06,-0.0012148934,0.079296164,0.036331523,0.11503945,-0.07196041,0.1729673,0.04455383,-0.029846542,-0.01278989,1.066343,-0.004124522,13.964353,0.1,0.35515112,0.39370722,0.14076601,0.106151305,inf,inf,inf,inf,1,1,1,1,4,2,4,3,5,0,1,1,1,0
219858949,219858455,19482731,36.660603099999996,126.342033,13.363657,0.65483916,4.4728765,0.00075414986,0.0026697728,-0.004453227,-0.00197226,-0.002568936,0.07900891,0.03507393,0.11503945,-0.07196041,0.1729673,0.08323332,-0.024423134,-0.18467696,1.0663633,-0.004124522,13.964353,0.1,0.36345562,0.395492,0.14532462,0.107586026,inf,inf,inf,inf,1,1,1,1,4,2,4,3,5,0,1,1,1,0
219958889,219958464,19482731,36.660603099999996,126.342033,13.365148,0.6537037,4.4709506,0.00075414986,0.0026697728,-0.004453227,-0.0053877877,-0.0011826819,0.07654254,0.027256135,0.11503945,-0.07196041,0.1729673,0.22772966,0.059415042,-0.6297863,1.0672873,-0.004124522,13.964353,0.1,0.3546793,0.39283085,0.1406849,0.10606389,inf,inf,inf,inf,1,1,1,1,4,2,4,3,5,0,1,1,1,0
220058920,220058472,19482731,36.660603099999996,126.342033,13.365691,0.6527362,4.4702177,0.00075414986,0.0026697728,-0.004453227,-0.008855182,-0.00040359428,0.07788869,0.025239417,0.11503945,-0.07196041,0.1729673,0.25580132,0.29826438,0.683798,1.0683554,-0.004124522,13.964353,0.1,0.362987,0.39460212,0.14524558,0.107493326,inf,inf,inf,inf,1,1,1,1,4,2,4,3,5,0,1,1,1,0
220158954,220158480,19482731,36.660603099999996,126.342033,13.368495,0.649555,4.470902,0.00075414986,0.0026697728,-0.004453227,-0.007951358,-0.0022998333,0.07493344,0.020828363,0.11503945,-0.07196041,0.1729673,-0.16901805,-0.008471493,-0.47241098,1.0681181,-0.004124522,13.964353,0.1,0.3542011,0.39196283,0.14059943,0.10597601,inf,inf,inf,inf,1,1,1,1,4,2,4,3,5,0,1,1,1,0
220259111,220258488,19482731,36.660603099999996,126.342033,13.370146,0.6468312,4.4715304,0.00075414986,0.0026697728,-0.004453227,-0.010236458,-0.005437231,0.072672226,0.017392568,0.11503945,-0.07196041,0.1729673,-0.36725998,0.11783123,0.20390664,1.0678287,-0.004124522,13.964353,0.1,0.34596553,0.3918478,0.13612434,0.10472123,inf,inf,inf,inf,1,1,1,1,4,2,4,3,5,0,1,1,1,0
220358936,220358497,19482731,36.660603099999996,126.342033,13.370662,0.6442196,4.472206,0.00075414986,0.0026697728,-0.004453227,-0.013634076,-0.0044139163,0.07265897,0.016267357,0.11503945,-0.07196041,0.1729673,-0.046986308,-0.022222612,-0.21367018,1.068954,-0.004124522,13.964353,0.1,0.35379842,0.393566,0.14061104,0.10616398,inf,inf,inf,inf,1,1,1,1,4,2,4,3,5,0,1,1,1,0
220459005,220458505,19482731,36.660603099999996,126.342033,13.3703785,0.64213544,4.472008,0.00075414986,0.0026697728,-0.004453227,-0.013532225,-0.004673998,0.06957189,0.01151894,0.11503945,-0.07196041,0.1729673,0.0010293263,-0.29437622,-1.0179796,1.0701671,-0.004124522,13.964353,0.1,0.3621228,0.395354,0.14525622,0.10759614,inf,inf,inf,inf,1,1,1,1,4,2,4,3,5,0,1,1,1,0
220558913,220558513,19482731,36.660603099999996,126.342033,13.372992,0.6408476,4.473693,0.00075414986,0.0026697728,-0.004453227,-0.016116189,-0.0034955565,0.075401284,0.017871432,0.11503945,-0.07196041,0.1729673,0.03397302,0.5662419,1.5491922,1.0700809,-0.004124522,13.964353,0.1,0.35331902,0.39269784,0.14061506,0.10607307,inf,inf,inf,inf,1,1,1,1,4,2,4,3,5,0,1,1,1,0
220659109,220658522,19482731,36.660603099999996,126.342033,13.374717,0.6401087,4.475898,0.00075414986,0.0026697728,-0.004453227,-0.015400147,-0.0034901544,0.0733739,0.016581912,0.11503945,-0.07196041,0.1729673,-0.2513332,-0.35461807,-0.98040956,1.0700026,-0.004124522,13.964353,0.1,0.34505084,0.39013413,0.13609847,0.10455802,inf,inf,inf,inf,1,1,1,1,4,2,4,3,5,0,1,1,1,0
220759020,220758530,19482731,36.660603099999996,126.342033,13.376887,0.6409635,4.477206,0.00075414986,0.0026697728,-0.004453227,-0.011749673,-0.0064688325,0.07182892,0.014916231,0.11503945,-0.07196041,0.1729673,-0.07304683,0.16508962,-0.17711575,1.0696522,-0.004124522,13.964353,0.1,0.35289732,0.3918275,0.14058496,0.10599154,inf,inf,inf,inf,1,1,1,1,4,2,4,3,5,0,1,1,1,0
220859175,220858538,19482731,36.660603099999996,126.342033,13.37855,0.6415769,4.478789,0.00075414986,0.0026697728,-0.004453227,-0.009133985,-0.007160735,0.069821246,0.013048396,0.11503945,-0.07196041,0.1729673,-0.15965568,-0.71049345,-1.2271088,1.0694578,-0.004124522,13.964353,0.1,0.34462872,0.38928467,0.13610451,0.1044804,inf,inf,inf,inf,1,1,1,1,4,2,4,3,5,0,1,1,1,0
220958994,220958546,19482731,36.660603099999996,126.342033,13.381865,0.6420727,4.4790897,0.00075414986,0.0026697728,-0.004453227,-0.007816148,-0.0018322763,0.070526466,0.012624513,0.11503945,-0.07196041,0.1729673,-0.075269416,-0.24333304,-0.6657759,1.0693219,-0.004124522,13.964353,0.1,0.3524838,0.3909978,0.14058883,0.10591788,inf,inf,inf,inf,1,1,1,1,4,2,4,3,5,0,1,1,1,0
221059350,221058555,19482731,36.660603099999996,126.342033,13.384399,0.6426245,4.478629,0.00075414986,0.0026697728,-0.004453227,-0.009339341,-0.0019345817,0.070183806,0.010863334,0.11503945,-0.07196041,0.1729673,-0.38393652,0.31012282,0.59781,1.0686688,-0.004124522,13.964353,0.1,0.34419543,0.3884963,0.13607602,0.10441684,inf,inf,inf,inf,1,1,1,1,4,2,4,3,5,0,1,1,1,0
221159010,221158563,19482731,36.660603099999996,126.342033,13.388598,0.64510983,4.4768157,0.00075414986,0.0026697728,-0.004453227,-0.00592503,-0.002769071,0.06818345,0.0065543163,0.11503945,-0.07196041,0.1729673,-0.5834227,-0.54183114,-0.14716819,1.067602,-0.004124522,13.964353,0.1,0.35205835,0.39266908,0.14055155,0.10611978,inf,inf,inf,inf,1,1,1,1,4,2,4,3,5,0,1,1,1,0
221258984,221258572,19482731,36.660603099999996,126.342033,13.391365,0.64689785,4.4747386,0.00075414986,0.0026697728,-0.004453227,-0.007991791,-0.0035588164,0.063480765,-0.00028115415,0.11503945,-0.07196041,0.1729673,-0.4054779,0.23015207,0.5229706,1.0674946,-0.004124522,13.964353,0.1,0.36041424,0.39448765,0.1451056,0.1075554,inf,inf,inf,inf,1,1,1,1,4,2,4,3,5,0,1,1,1,0
221359050,221358580,19482731,36.660603099999996,126.342033,13.39585,0.65065247,4.470146,0.00075414986,0.0026697728,-0.004453227,0.0005213198,-0.000209884,0.06304804,-0.004982484,0.11503945,-0.07196041,0.1729673,0.21675521,-0.333763,0.11982984,1.0678225,-0.004124522,13.964353,0.10327244,0.3515768,0.3918659,0.14054738,0.10603705,inf,inf,inf,inf,1,1,1,1,4,2,4,3,5,0,1,1,1,0
221459043,221458588,19482731,36.660603099999996,126.342033,13.399007,0.65312725,4.465572,0.00075414986,0.0026697728,-0.004453227,-0.0059449067,-0.007794517,0.05464113,-0.016608058,0.11503945,-0.07196041,0.1729673,-0.7482346,-0.8139354,-0.9367092,1.0670264,-0.004124522,13.964353,0.10784674,0.3599343,0.3936527,0.14509109,0.107462846,inf,inf,inf,inf,1,1,1,1,4,2,4,3,5,0,1,1,1,0
221559008,221558596,19482731,36.660603099999996,126.342033,13.4008045,0.6544145,4.459745,0.00075414986,0.0026697728,-0.004453227,-0.0066587417,-0.01291871,0.04929346,-0.025209628,0.11503945,-0.07196041,0.1729673,-0.4128146,0.076203994,1.008171,1.0659852,-0.004124522,13.964353,0.11367369,0.35110855,0.39349625,0.140464,0.106210425,inf,inf,inf,inf,1,1,1,1,4,2,4,3,5,0,1,1,1,0
221659277,221658605,19482731,36.660603099999996,126.342033,13.401991,0.6549056,4.4549384,0.00075414986,0.0026697728,-0.004453227,-0.0027922464,-0.011485898,0.047284085,-0.028857226,0.11503945,-0.07196041,0.1729673,-0.19132124,-0.36445782,-1.2182833,1.0650797,-0.004124522,13.964353,0.118480206,0.3428182,0.39092746,0.1359699,0.10469005,inf,inf,inf,inf,1,1,1,1,4,2,4,3,5,0,1,1,1,0
221759030,221758613,19482731,36.660603099999996,126.342033,13.404294,0.6576671,4.451621,0.00075414986,0.0026697728,-0.004453227,-0.0073985434,-0.0058435975,0.05181046,-0.024636092,0.11503945,-0.07196041,0.1729673,-0.3633203,-0.33780393,0.41172776,1.0654505,-0.004124522,13.964353,0.12179756,0.35069406,0.3926752,0.14044394,0.10613416,inf,inf,inf,inf,1,1,1,1,4,2,4,3,5,0,1,1,1,0
221859035,221858622,19482731,36.660603099999996,126.342033,13.405642,0.6597048,4.448041,0.00075414986,0.0026697728,-0.004453227,0.0001703178,-0.0067413137,0.049524315,-0.027693465,0.11503945,-0.07196041,0.1729673,0.33198354,-0.67727715,-1.6218368,1.0675596,-0.004124522,13.964353,0.12537766,0.35906148,0.3944912,0.1449683,0.107567646,inf,inf,inf,inf,1,1,1,1,4,2,4,3,5,0,1,1,1,0
221959042,221958630,19482731,36.660603099999996,126.342033,13.406946,0.6580085,4.4422193,0.00075414986,0.0026697728,-0.004453227,-0.009564592,0.0010195402,0.05116039,-0.028911747,0.11503945,-0.07196041,0.1729673,-0.51054054,1.3390272,0.8257962,1.0717318,-0.004124522,13.964353,0.13119936,0.35022503,0.39185855,0.14032352,0.1060453,inf,inf,inf,inf,1,1,1,1,4,2,4,3,5,0,1,1,1,0
222059092,222058639,19482731,36.660603099999996,126.342033,13.405973,0.6573399,4.4383984,0.00075414986,0.0026697728,-0.004453227,-0.025094915,0.011355316,0.0650317,-0.016159745,0.11503945,-0.07196041,0.1729673,0.22249904,-0.2173613,0.8913098,1.0783249,-0.004124522,13.964353,0.13502026,0.35859507,0.3936601,0.14487402,0.1074741,inf,inf,inf,inf,1,1,1,1,4,2,4,3,5,0,1,1,1,0
222159175,222158647,19482731,36.660603099999996,126.342033,13.405856,0.65652215,4.434779,0.00075414986,0.0026697728,-0.004453227,-0.008792304,0.001718313,0.057453286,-0.025007535,0.11503945,-0.07196041,0.1729673,-0.16769129,-0.18822387,-1.0073097,1.0858244,-0.004124522,13.964353,0.13863945,0.349487,0.39101693,0.13988054,0.10590262,inf,inf,inf,inf,1,1,1,1,4,2,4,3,5,0,1,1,1,0
222259252,222258655,19482731,36.660603099999996,126.342033,13.40718,0.65423363,4.4324794,0.00075414986,0.0026697728,-0.004453227,0.0041446295,-0.007915588,0.06601606,-0.016185986,0.11503945,-0.07196041,0.1729673,-0.16961108,0.17383657,-0.4558909,1.0919542,-0.004124522,13.964353,0.14093924,0.34123394,0.39091974,0.13554363,0.10465213,inf,inf,inf,inf,1,1,1,1,4,2,4,3,5,0,1,1,1,0
222359100,222358664,19482731,36.660603099999996,126.342033,13.406684,0.65371203,4.4305844,0.00075414986,0.0026697728,-0.004453227,-0.0057527516,0.0059330184,0.06704481,-0.014792553,0.11503945,-0.07196041,0.1729673,-0.1850453,1.0452814,0.2527236,1.099372,-0.004124522,13.964353,0.14283419,0.3490944,0.3926704,0.13996924,0.1060942,inf,inf,inf,inf,1,1,1,1,4,2,4,3,5,0,1,1,1,0
222459013,222458672,19482731,36.660603099999996,126.342033,13.405851,0.652983,4.427708,0.00075414986,0.0026697728,-0.004453227,-0.010488122,-0.007208797,0.060740262,-0.02161114,0.11503945,-0.07196041,0.1729673,-0.93213767,0.50637835,0.8918339,1.1064756,-0.004124522,13.964353,0.14571047,0.35744473,0.3944889,0.14450154,0.107527465,inf,inf,inf,inf,1,1,1,1,4,2,4,3,5,0,1,1,1,0
222559095,222558681,19482731,36.660603099999996,126.342033,13.407467,0.6517022,4.426675,0.00075414986,0.0026697728,-0.004453227,-0.013408338,-0.0101532675,0.06143299,-0.019427663,0.11503945,-0.07196041,0.1729673,0.2653201,-0.020052973,0.9833005,1.1124794,-0.004124522,13.964353,0.14674377,0.3484992,0.39184973,0.1397859,0.10598143,inf,inf,inf,inf,1,1,1,1,4,2,4,3,5,0,1,1,1,0
222659121,222658689,19482731,36.660603099999996,126.342033,13.410061,0.647782,4.4257727,0.00075414986,0.0026697728,-0.004453227,0.020328881,-0.051746,0.03410487,-0.04370123,0.11503945,-0.07196041,0.1729673,0.32422543,1.0205346,2.3917491,1.1179618,-0.004124522,13.964353,0.14764595,0.35683802,0.39365003,0.14431787,0.10740773,inf,inf,inf,inf,1,1,1,1,4,2,4,3,5,0,1,1,1,0
222759137,222758697,19482731,36.660603099999996,126.342033,13.415193,0.64513755,4.4262934,0.00075414986,0.0026697728,-0.004453227,0.020981176,-0.05244723,0.07141776,-0.001801456,0.11503945,-0.07196041,0.1729673,-0.23996122,0.07518824,0.50181544,1.1234919,-0.004124522,13.964353,0.14712524,0.3480498,0.3910444,0.13985002,0.105893135,inf,inf,inf,inf,1,1,1,1,4,2,4,3,5,0,1,1,1,0
222859374,222858706,19482731,36.660603099999996,126.342033,13.417535,0.6418402,4.427927,0.00075414986,0.0026697728,-0.004453227,0.0011753854,-0.0552038,0.079288416,0.0077867284,0.11503945,-0.07196041,0.1729673,0.59462297,0.75121284,5.9625025,1.1279979,-0.004124522,13.964353,0.1454916,0.33981168,0.39095345,0.13529328,0.104646325,inf,inf,inf,inf,1,1,1,1,4,2,4,3,5,0,1,1,1,0
222959127,222958714,19482731,36.660603099999996,126.342033,13.418965,0.6362033,4.4297123,0.00075414986,0.0026697728,-0.004453227,0.0011915568,-0.09914788,0.102266416,0.031609666,0.11503945,-0.07196041,0.1729673,0.30809495,-1.3112049,-1.2710963,1.129342,-0.004124522,13.964353,0.14370632,0.34767756,0.39270577,0.13973016,0.10608901,inf,inf,inf,inf,1,1,1,1,4,2,4,3,5,0,1,1,1,0
223049157,223048722,19482731,36.660603099999996,126.342033,13.41998,0.6282205,4.428437,0.00075414986,0.0026697728,-0.004453227,0.0035511665,-0.118753724,0.059640877,-0.013701172,0.11503945,-0.07196041,0.1729673,-0.21712749,-1.5435855,-0.8469639,1.1275833,-0.004124522,13.964353,0.14498138,0.3551759,0.39384103,0.1437757,0.10731992,inf,inf,inf,inf,1,1,1,1,4,2,4,3,5,0,1,1,1,0
223159145,223158731,19482731,36.660603099999996,126.342033,13.423073,0.61947405,4.4171047,0.00075414986,0.0026697728,-0.004453227,0.047200438,-0.15186349,0.0464921,-0.03543757,0.11503945,-0.07196041,0.1729673,0.3464384,-0.17967612,0.7625122,1.1229625,-0.004124522,13.964353,0.1563139,0.34730682,0.39189792,0.13993642,0.10601048,inf,inf,inf,inf,1,1,1,1,4,2,4,3,5,0,1,1,1,0
223259241,223258739,19482731,36.660603099999996,126.342033,13.431237,0.60557044,4.4025793,0.00075414986,0.0026697728,-0.004453227,0.111398414,-0.19892079,0.0148316985,-0.07592491,0.11503945,-0.07196041,0.1729673,1.856463,0.72996616,0.34145743,1.1183817,-0.004124522,13.964353,0.17083931,0.35568073,0.39370286,0.14454429,0.10743407,inf,inf,inf,inf,1,1,1,1,4,2,4,3,5,0,1,1,1,0
223359205,223358748,19482731,36.660603099999996,126.342033,13.444475,0.58696526,4.3816676,0.00075414986,0.0026697728,-0.004453227,0.16970028,-0.243938,-0.06700452,-0.16681175,0.11503945,-0.07196041,0.1729673,1.1277924,-1.2560973,-0.106085315,1.1141541,-0.004124522,13.964353,0.191751,0.34687486,0.3910936,0.14005761,0.10591727,inf,inf,inf,inf,1,1,1,1,4,2,4,3,5,0,1,1,1,0
223459218,223458756,19482731,36.660603099999996,126.342033,13.46132,0.56459945,4.3514495,0.00075414986,0.0026697728,-0.004453227,0.18517412,-0.25713137,-0.122759975,-0.23144858,0.11503945,-0.07196041,0.1729673,0.8566765,-0.4030215,-0.16119708,1.1114497,-0.004124522,13.964353,0.22196913,0.35526046,0.39289817,0.1449355,0.107340164,inf,inf,inf,inf,1,1,1,1,4,2,4,3,5,0,1,1,1,0
223559230,223558765,19482731,36.660603099999996,126.342033,13.477018,0.54489464,4.3243394,0.00075414986,0.0026697728,-0.004453227,0.1441942,-0.2376857,-0.20359854,-0.31191337,0.11503945,-0.07196041,0.1729673,-0.47941,1.5740223,0.7441833,1.1082245,-0.004124522,13.964353,0.24907923,0.34643024,0.39276418,0.14046377,0.10609683,inf,inf,inf,inf,1,1,1,1,4,2,4,3,5,0,1,1,1,0
223659184,223658773,19482731,36.660603099999996,126.342033,13.485695,0.52692705,4.291902,0.00075414986,0.0026697728,-0.004453227,0.054309692,-0.1977435,-0.2254745,-0.3335906,0.11503945,-0.07196041,0.1729673,0.72640234,0.011343536,-0.6565182,1.1036775,-0.004124522,13.964353,0.28151655,0.35483634,0.39458668,0.14531003,0.10752256,inf,inf,inf,inf,1,1,1,1,4,2,4,3,5,0,1,1,1,0
223759233,223758782,19482731,36.660603099999996,126.342033,13.492478,0.51576644,4.260102,0.00075414986,0.0026697728,-0.004453227,-0.04511006,-0.13890728,-0.25114375,-0.35612944,0.11503945,-0.07196041,0.1729673,-1.6548544,0.44537374,-1.1392796,1.097789,-0.004124522,13.964353,0.31331682,0.34598184,0.39196318,0.14064126,0.105998434,inf,inf,inf,inf,1,1,1,1,4,2,4,3,5,0,1,1,1,0
223859216,223858790,19482731,36.660603099999996,126.342033,13.489324,0.50693893,4.2257485,0.00075414986,0.0026697728,-0.004453227,-0.098807946,-0.1134611,-0.27590787,-0.37811974,0.11503945,-0.07196041,0.1729673,-0.56032604,0.5653876,0.20612246,1.0915599,-0.004124522,13.964353,0.34767008,0.3543989,0.39377648,0.14530288,0.10741984,inf,inf,inf,inf,1,1,1,1,4,2,4,3,5,0,1,1,1,0
223959207,223958799,19482731,36.660603099999996,126.342033,13.486862,0.4969595,4.1887484,0.00075414986,0.0026697728,-0.004453227,-0.12887318,-0.10450142,-0.2827061,-0.38348898,0.11503945,-0.07196041,0.1729673,0.7244833,0.5898954,1.6576898,1.084496,-0.004124522,13.964353,0.38467026,0.34554374,0.39117128,0.14076237,0.10590498,inf,inf,inf,inf,1,1,1,1,4,2,4,3,5,0,1,1,1,0
224059265,224058807,19482731,36.660603099999996,126.342033,13.480524,0.48575586,4.1516495,0.00075414986,0.0026697728,-0.004453227,-0.13164616,-0.1224625,-0.29577094,-0.39348805,0.11503945,-0.07196041,0.1729673,-0.12978898,0.9866329,2.11333,1.0778601,-0.004124522,13.964353,0.42176914,0.35396767,0.39297646,0.14534827,0.10732836,inf,inf,inf,inf,1,1,1,1,4,2,4,3,5,0,1,1,1,0
224159236,224158816,19482731,36.660603099999996,126.342033,13.479396,0.47249648,4.1162596,0.00075414986,0.0026697728,-0.004453227,-0.12008589,-0.122512884,-0.30625817,-0.39978957,0.11503945,-0.07196041,0.1729673,0.07738591,1.9789621,2.4250002,1.0725652,-0.004124522,13.964353,0.45715904,0.34509352,0.39283934,0.1406333,0.10608525,inf,inf,inf,inf,1,1,1,1,4,2,4,3,5,0,1,1,0,0
224259404,224258824,19482731,36.660603099999996,126.342033,13.475205,0.46045044,4.077177,0.00075414986,0.0026697728,-0.004453227,-0.12956348,-0.10182027,-0.33140314,-0.42201844,0.11503945,-0.07196041,0.1729673,-1.4302819,0.75283694,0.6860188,1.067253,-0.004124522,13.964353,0.49624157,0.33678293,0.39030156,0.1360723,0.10457346,inf,inf,inf,inf,1,1,1,1,4,2,4,3,5,0,1,1,0,0
224359234,224358833,19482731,36.660603099999996,126.342033,13.467636,0.45441326,4.037186,0.00075414986,0.0026697728,-0.004453227,-0.14499149,-0.056405153,-0.3865241,-0.47191608,0.11503945,-0.07196041,0.1729673,-0.9799544,1.1403303,0.117214836,1.0620358,-0.004124522,13.964353,0.5362325,0.34472033,0.39206597,0.14065103,0.10601293,inf,inf,inf,inf,1,1,1,1,4,2,4,3,5,0,1,1,0,0
224459264,224458841,19482731,36.660603099999996,126.342033,13.455813,0.45287266,3.994086,0.00075414986,0.0026697728,-0.004453227,-0.16878155,-0.010469385,-0.42243764,-0.5020133,0.11503945,-0.07196041,0.1729673,-1.7252,-0.3246083,-1.232463,1.0578119,-0.004124522,13.964353,0.5793326,0.35316157,0.39389768,0.14541467,0.10744027,inf,inf,inf,inf,1,1,1,1,4,2,4,3,5,0,1,1,0,0
224559341,224558850,19482731,36.660603099999996,126.342033,13.448313,0.45540574,3.9507473,0.00075414986,0.0026697728,-0.004453227,-0.165192,0.016555456,-0.4238634,-0.49717903,0.11503945,-0.07196041,0.1729673,-0.07236335,-0.30662867,-2.9599526,1.0547107,-0.004124522,13.964353,0.62267137,0.3442165,0.3912771,0.14070956,0.10591001,inf,inf,inf,inf,1,1,1,1,4,2,4,3,5,0,1,1,0,0
224659346,224658858,19482731,36.660603099999996,126.342033,13.439728,0.45977917,3.903236,0.00075414986,0.0026697728,-0.004453227,-0.15189059,0.04164107,-0.430904,-0.502688,0.11503945,-0.07196041,0.1729673,1.1728828,0.65214854,0.30219287,1.0527759,-0.004124522,13.964353,0.6701827,0.35265675,0.39309075,0.14525677,0.10733271,inf,inf,inf,inf,1,1,1,1,4,2,4,3,5,0,1,1,0,0
224759302,224758866,19482731,36.660603099999996,126.342033,13.424225,0.46342972,3.8469653,0.00075414986,0.0026697728,-0.004453227,-0.1513099,0.05300778,-0.47020411,-0.5449967,0.11503945,-0.07196041,0.1729673,-1.334734,-0.22329976,-1.8470793,1.05183,-0.004124522,13.964353,0.7264533,0.3438143,0.39050388,0.14052139,0.10582414,inf,inf,inf,inf,1,1,1,1,4,2,4,3,5,0,1,1,0,0
224859310,224858878,19482731,36.660603099999996,126.342033,13.409563,0.4683914,3.7879078,0.00075414986,0.0026697728,-0.004453227,-0.14291717,0.07028745,-0.51875365,-0.5959011,0.11503945,-0.07196041,0.1729673,-0.4228276,0.54111403,-0.8632243,1.0508473,-0.004124522,13.964353,0.7855108,0.3522592,0.39481437,0.1452859,0.1075253,inf,inf,inf,inf,1,1,1,1,4,2,4,3,5,0,1,1,0,0
224959298,224958884,19482731,36.660603099999996,126.342033,13.400444,0.47162473,3.728519,0.00075414986,0.0026697728,-0.004453227,-0.12191649,0.0720419,-0.55924326,-0.6342721,0.11503945,-0.07196041,0.1729673,-0.5080175,0.3729943,-1.5908237,1.0494746,-0.004124522,13.964353,0.84489965,0.34334877,0.39218718,0.14061481,0.10599446,inf,inf,inf,inf,1,1,1,1,4,2,4,3,5,0,1,1,0,0
225059468,225058892,19482731,36.660603099999996,126.342033,13.392473,0.47586212,3.6684875,0.00075414986,0.0026697728,-0.004453227,-0.10533101,0.075307705,-0.55211204,-0.62438506,0.11503945,-0.07196041,0.1729673,0.2344997,1.5317914,2.0443463,1.0474553,-0.004124522,13.964353,0.90493107,0.33504564,0.38965797,0.13612573,0.104484685,inf,inf,inf,inf,1,1,1,1,4,2,4,3,5,0,1,1,0,0
225159327,225158901,19482731,36.660603099999996,126.342033,13.385247,0.48312753,3.6085002,0.00075414986,0.0026697728,-0.004453227,-0.105664045,0.07494739,-0.5672135,-0.6363548,0.11503945,-0.07196041,0.1729673,-0.10916481,0.095079325,0.8321171,1.0457641,-0.004124522,13.964353,0.9649184,0.34300262,0.39142194,0.14054187,0.10592246,inf,inf,inf,inf,1,1,1,1,4,2,4,3,5,0,1,1,0,0
225259312,225258909,19482731,36.660603099999996,126.342033,13.376066,0.49073404,3.5459762,0.00075414986,0.0026697728,-0.004453227,-0.12555897,0.08070931,-0.5797241,-0.6472924,0.11503945,-0.07196041,0.1729673,-0.75558287,-0.3437435,-1.12912,1.0438132,-0.004124522,13.964353,1.0274425,0.35145918,0.39324367,0.14511529,0.107347175,inf,inf,inf,inf,1,1,1,1,4,2,4,3,5,0,1,1,0,0
225359365,225358918,19482731,36.660603099999996,126.342033,13.362596,0.5009685,3.4834092,0.00075414986,0.0026697728,-0.004453227,-0.15409555,0.08799497,-0.6001549,-0.66464573,0.11503945,-0.07196041,0.1729673,-0.3338318,-0.87861407,-1.919944,1.0407695,-0.004124522,13.964353,1.0900095,0.34259382,0.39065644,0.14039503,0.10583952,inf,inf,inf,inf,1,1,1,1,4,2,4,3,5,0,1,1,0,0
225459581,225458926,19482731,36.660603099999996,126.342033,13.347077,0.5129061,3.4209063,0.00075414986,0.0026697728,-0.004453227,-0.17597827,0.112708844,-0.6231325,-0.68323046,0.11503945,-0.07196041,0.1729673,0.09315104,0.41458228,-0.3683678,1.0366837,-0.004124522,13.964353,1.1525123,0.33428532,0.3881662,0.13589977,0.104340315,inf,inf,inf,inf,1,1,1,1,4,2,4,3,5,0,1,1,0,0
225559350,225558935,19482731,36.660603099999996,126.342033,13.337106,0.5322294,3.3593752,0.00075414986,0.0026697728,-0.004453227,-0.1856516,0.1365623,-0.6485146,-0.70109946,0.11503945,-0.07196041,0.1729673,-1.3776132,0.5010116,0.3433488,1.0316975,-0.004124522,13.964353,1.2140434,0.34225315,0.39236423,0.14044185,0.10604091,inf,inf,inf,inf,1,1,1,1,4,2,4,3,5,0,1,1,0,0
225659361,225658944,19482731,36.660603099999996,126.342033,13.325089,0.5515447,3.2925355,0.00075414986,0.0026697728,-0.004453227,-0.17438748,0.1480929,-0.6673557,-0.7159819,0.11503945,-0.07196041,0.1729673,0.3032267,0.46869248,0.5476139,1.026493,-0.004124522,13.964353,1.2808831,0.35072327,0.39420307,0.14507058,0.10747093,inf,inf,inf,inf,1,1,1,1,4,2,4,3,5,0,1,1,0,0
225759440,225758952,19482731,36.660603099999996,126.342033,13.315244,0.569072,3.2243931,0.00075414986,0.0026697728,-0.004453227,-0.15650098,0.14697148,-0.6759663,-0.72089076,0.11503945,-0.07196041,0.1729673,-0.24177852,0.32285106,1.0929958,1.0214803,-0.004124522,13.964353,1.3490255,0.34184685,0.39159727,0.14036068,0.105957136,inf,inf,inf,inf,1,1,1,1,4,2,4,3,5,0,1,1,0,0
225859374,225858961,19482731,36.660603099999996,126.342033,13.304973,0.58564985,3.1538668,0.00075414986,0.0026697728,-0.004453227,-0.1408691,0.13932173,-0.6825521,-0.7243682,0.11503945,-0.07196041,0.1729673,0.09169825,0.20656344,-0.31461808,1.0170231,-0.004124522,13.964353,1.4195518,0.35031885,0.3934348,0.14489241,0.10738532,inf,inf,inf,inf,1,1,1,1,4,2,4,3,5,0,1,1,0,0
225959379,225958969,19482731,36.660603099999996,126.342033,13.286854,0.6043981,3.0836465,0.00075414986,0.0026697728,-0.004453227,-0.14368677,0.13108581,-0.6947687,-0.73445874,0.11503945,-0.07196041,0.1729673,-1.6180544,-0.07231053,-0.45676282,1.0134093,-0.004124522,13.964353,1.4897721,0.34144032,0.39085308,0.14022458,0.10587759,inf,inf,inf,inf,1,1,1,1,4,2,4,3,5,0,1,1,0,0
226059460,226058978,19482731,36.660603099999996,126.342033,13.268918,0.6217167,3.011628,0.00075414986,0.0026697728,-0.004453227,-0.15227915,0.13697787,-0.71804786,-0.7559861,0.11503945,-0.07196041,0.1729673,-0.4836427,-0.18291798,-0.9209066,1.0100466,-0.004124522,13.964353,1.5617907,0.3499118,0.39267397,0.14476524,0.107301,inf,inf,inf,inf,1,1,1,1,4,2,4,3,5,0,1,1,0,0
226159391,226158986,19482731,36.660603099999996,126.342033,13.248691,0.6353392,2.9334142,0.00075414986,0.0026697728,-0.004453227,-0.14756796,0.136735,-0.74568784,-0.7853317,0.11503945,-0.07196041,0.1729673,0.30741435,-0.008781805,0.3488153,1.0065248,-0.004124522,13.964353,1.6400044,0.3410594,0.39255375,0.14010379,0.106064014,inf,inf,inf,inf,1,1,1,1,4,2,4,3,5,0,1,1,0,0
226259395,226258995,19482731,36.660603099999996,126.342033,13.230317,0.6485491,2.8531046,0.00075414986,0.0026697728,-0.004453227,-0.1365456,0.13107453,-0.7788052,-0.81886095,0.11503945,-0.07196041,0.1729673,-1.1720248,0.3687207,0.16387375,1.0033625,-0.004124522,13.964353,1.720314,0.34953287,0.39440805,0.14470084,0.10749694,inf,inf,inf,inf,1,1,1,1,4,2,4,3,5,0,1,1,0,0
226359469,226359003,19482731,36.660603099999996,126.342033,13.212461,0.66771716,2.7709653,0.00075414986,0.0026697728,-0.004453227,-0.11336336,0.12369898,-0.8010285,-0.84069663,0.11503945,-0.07196041,0.1729673,1.3603917,-0.7938029,-1.6132108,1.000828,-0.004124522,13.964353,1.8024533,0.34067798,0.39179918,0.14006865,0.10598214,inf,inf,inf,inf,1,1,1,1,4,2,4,3,5,0,1,1,0,0
226459455,226459012,19482731,36.660603099999996,126.342033,13.197826,0.68421894,2.6845198,0.00075414986,0.0026697728,-0.004453227,-0.09646086,0.1140888,-0.811821,-0.8537698,0.11503945,-0.07196041,0.1729673,0.81567705,0.0035254448,-0.5136896,0.9988243,-0.004124522,13.964353,1.8888988,0.34915498,0.39364347,0.1446393,0.107410975,inf,inf,inf,inf,1,1,1,1,4,2,4,3,5,0,1,1,0,0
226559364,226559021,19482731,36.660603099999996,126.342033,13.186969,0.70084655,2.597244,0.00075414986,0.0026697728,-0.004453227,-0.07294744,0.09196816,-0.8214445,-0.8649998,0.11503945,-0.07196041,0.1729673,-0.7831789,-0.09997691,-0.44332483,0.99752665,-0.004124522,13.964353,1.9761746,0.3402973,0.39104947,0.13992742,0.10589989,inf,inf,inf,inf,1,1,1,1,4,2,4,3,5,0,1,1,0,0
226659469,226659029,19482731,36.660603099999996,126.342033,13.178722,0.714226,2.5115373,0.00075414986,0.0026697728,-0.004453227,-0.050330102,0.080072545,-0.82655036,-0.86968136,0.11503945,-0.07196041,0.1729673,0.43401214,-0.08891411,-0.21964888,0.99622136,-0.004124522,13.964353,2.0618813,0.3487746,0.3928848,0.14446285,0.10732565,inf,inf,inf,inf,1,1,1,1,4,2,4,3,5,0,1,1,0,0
226759481,226759038,19482731,36.660603099999996,126.342033,13.170199,0.7303043,2.4247124,0.00075414986,0.0026697728,-0.004453227,-0.032666534,0.072880566,-0.8345184,-0.8753277,0.11503945,-0.07196041,0.1729673,-0.6035824,-0.3298711,1.0465477,0.9943253,-0.004124522,13.964353,2.1487062,0.33991823,0.39030623,0.1397547,0.10581841,inf,inf,inf,inf,1,1,1,1,4,2,4,3,5,0,1,1,0,0
226859585,226859046,19482731,36.660603099999996,126.342033,13.165133,0.74376506,2.3394034,0.00075414986,0.0026697728,-0.004453227,-0.0047111153,0.059581432,-0.85399216,-0.8919709,0.11503945,-0.07196041,0.1729673,0.63911086,-1.4462882,-1.6603042,0.99152815,-0.004124522,13.964353,2.2340152,0.33161694,0.3902274,0.135304,0.10457482,inf,inf,inf,inf,1,1,1,1,4,2,4,3,5,0,1,1,0,0
226959450,226959055,19482731,36.660603099999996,126.342033,13.163349,0.75973463,2.254101,0.00075414986,0.0026697728,-0.004453227,0.009712498,0.0525882,-0.8626884,-0.897171,0.11503945,-0.07196041,0.1729673,-0.18353377,-1.0089704,-2.5706036,0.98816293,-0.004124522,13.964353,2.3193176,0.33960193,0.3920201,0.1397957,0.10601861,inf,inf,inf,inf,1,1,1,1,4,2,4,3,5,0,1,1,0,0
227059611,227059064,19482731,36.660603099999996,126.342033,13.163513,0.77291757,2.1678815,0.00075414986,0.0026697728,-0.004453227,0.023863247,0.036269274,-0.8633659,-0.8952295,0.11503945,-0.07196041,0.1729673,-0.15074478,-0.43478978,-1.1156486,0.98449504,-0.004124522,13.964353,2.4055371,0.33129042,0.3895054,0.13526142,0.104511626,inf,inf,inf,inf,1,1,1,1,4,2,4,3,5,0,1,1,0,0
227159487,227159072,19482731,36.660603099999996,126.342033,13.163282,0.7924397,2.0771112,0.00075414986,0.0026697728,-0.004453227,0.03834603,0.02630004,-0.8651087,-0.8988704,0.11503945,-0.07196041,0.1729673,1.0255486,0.22826043,0.62393403,0.98126477,-0.004124522,13.964353,2.4963074,0.339281,0.39128143,0.13968222,0.10595108,inf,inf,inf,inf,1,1,1,1,4,2,4,3,5,0,1,1,0,0
227259477,227259081,19482731,36.660603099999996,126.342033,13.164528,0.80661446,1.9843739,0.00075414986,0.0026697728,-0.004453227,0.04033856,0.022012405,-0.868537,-0.9052158,0.11503945,-0.07196041,0.1729673,0.55128306,0.9470257,1.847177,0.9787737,-0.004124522,13.964353,2.5890446,0.34776697,0.39312336,0.14417204,0.10737928,inf,inf,inf,inf,1,1,1,1,4,2,4,3,5,0,1,1,0,0
227359571,227359090,19482731,36.660603099999996,126.342033,13.162289,0.8175501,1.8899926,0.00075414986,0.0026697728,-0.004453227,0.045024663,0.00905643,-0.8839361,-0.9236543,0.11503945,-0.07196041,0.1729673,-0.9459413,0.44851357,0.64024884,0.9773103,-0.004124522,13.964353,2.683426,0.3388872,0.390531,0.13947679,0.10586783,inf,inf,inf,inf,1,1,1,1,4,2,4,3,5,0,1,1,0,0
227459494,227459098,19482731,36.660603099999996,126.342033,13.162304,0.82475173,1.789964,0.00075414986,0.0026697728,-0.004453227,0.05137618,-0.00078554684,-0.9045519,-0.94887763,0.11503945,-0.07196041,0.1729673,0.037510928,-0.36393303,-1.4466771,0.97699696,-0.004124522,13.964353,2.7834547,0.34736967,0.39485145,0.14401297,0.10757052,inf,inf,inf,inf,1,1,1,1,4,2,4,3,5,0,1,1,0,0
227559520,227559107,19482731,36.660603099999996,126.342033,13.161787,0.82788444,1.6925464,0.00075414986,0.0026697728,-0.004453227,0.056027196,-0.012371927,-0.90987265,-0.9567409,0.11503945,-0.07196041,0.1729673,-0.55151737,0.81690276,0.8911765,0.9781088,-0.004124522,13.964353,2.8808722,0.33851203,0.39223495,0.13948502,0.10605299,inf,inf,inf,inf,1,1,1,1,4,2,4,3,5,0,1,1,0,0
227659664,227659116,19482731,36.660603099999996,126.342033,13.163235,0.8294867,1.5939051,0.00075414986,0.0026697728,-0.004453227,0.058001004,-0.014640116,-0.91326696,-0.9624875,0.11503945,-0.07196041,0.1729673,1.3340114,0.21650504,1.4628569,0.98068845,-0.004124522,13.964353,2.9795136,0.33021122,0.38972425,0.13496764,0.10454674,inf,inf,inf,inf,1,1,1,1,4,2,4,3,5,0,1,1,0,0
227759531,227759124,19482731,36.660603099999996,126.342033,13.167804,0.8343179,1.497353,0.00075414986,0.0026697728,-0.004453227,0.05402042,-0.015606431,-0.91563797,-0.96468115,0.11503945,-0.07196041,0.1729673,-0.3454164,0.51201296,2.3338692,0.9845404,-0.004124522,13.964353,3.0760655,0.3382044,0.391498,0.13940407,0.10598576,inf,inf,inf,inf,1,1,1,1,4,2,4,3,5,0,1,1,0,0
227859533,227859133,19482731,36.660603099999996,126.342033,13.172615,0.8370234,1.4008543,0.00075414986,0.0026697728,-0.004453227,0.053179197,-0.0164635,-0.935848,-0.98387897,0.11503945,-0.07196041,0.1729673,-0.16816893,-0.23474373,-0.56859833,0.98946804,-0.004124522,13.964353,3.1725643,0.34669334,0.39333767,0.14389138,0.10741346,inf,inf,inf,inf,1,1,1,1,4,2,4,3,5,0,1,1,0,0
227959563,227959141,19482731,36.660603099999996,126.342033,13.188561,0.8463446,1.3063687,0.00075414986,0.0026697728,-0.004453227,0.06497624,-0.013726504,-0.9557438,-0.99942356,0.11503945,-0.07196041,0.1729673,-1.5854577,0.3975743,-1.3602346,0.9950738,-0.004124522,13.964353,3.2670498,0.33782434,0.39073387,0.13929199,0.10589829,inf,inf,inf,inf,1,1,1,1,4,2,4,3,5,0,1,1,0,0
228059797,228059150,19482731,36.660603099999996,126.342033,13.204039,0.8532443,1.2114698,0.00075414986,0.0026697728,-0.004453227,0.074055955,-0.011339072,-0.9641253,-1.0029163,0.11503945,-0.07196041,0.1729673,-1.2785496,0.89308214,0.13752009,1.0006669,-0.004124522,13.964353,3.361949,0.32953045,0.38823596,0.13484824,0.10439458,inf,inf,inf,inf,1,1,1,1,4,2,4,3,5,0,1,1,0,0
228159579,228159159,19482731,36.660603099999996,126.342033,13.225145,0.86118585,1.1207377,0.00075414986,0.0026697728,-0.004453227,0.08860741,-0.015219373,-0.9597113,-0.9896223,0.11503945,-0.07196041,0.1729673,-0.57833225,-0.16637333,0.78832066,1.0065914,-0.004124522,13.964353,3.452681,0.33753014,0.3924434,0.13929313,0.10609597,inf,inf,inf,inf,1,1,1,1,4,2,4,3,5,0,1,1,0,0
228259756,228259167,19482731,36.660603099999996,126.342033,13.244143,0.8672434,1.0282296,0.00075414986,0.0026697728,-0.004453227,0.09291733,-0.022104003,-0.95327145,-0.9773642,0.11503945,-0.07196041,0.1729673,-0.52591974,-0.13743488,1.3771636,1.0128686,-0.004124522,13.964353,3.545189,0.32922652,0.3899209,0.13477315,0.10458557,inf,inf,inf,inf,1,1,1,1,4,2,4,3,5,0,1,1,0,0
228359574,228359176,19482731,36.660603099999996,126.342033,13.263022,0.88151866,0.93220216,0.00075414986,0.0026697728,-0.004453227,0.08878324,-0.026006665,-0.9512562,-0.9721589,0.11503945,-0.07196041,0.1729673,-1.0211912,0.15634623,-1.3355062,1.0192269,-0.004124522,13.964353,3.6412165,0.33723027,0.3916916,0.13916698,0.106023654,inf,inf,inf,inf,1,1,1,1,4,2,4,3,5,0,1,1,0,0
228459630,228459185,19482731,36.660603099999996,126.342033,13.27847,0.8910551,0.83806145,0.00075414986,0.0026697728,-0.004453227,0.07709264,-0.02308455,-0.9433029,-0.9623812,0.11503945,-0.07196041,0.1729673,-0.31137362,1.093819,0.86360013,1.0255773,-0.004124522,13.964353,3.7353573,0.3457284,0.39351156,0.1437354,0.10744573,inf,inf,inf,inf,1,1,1,1,4,2,4,3,5,0,1,1,0,0
228559629,228559193,19482731,36.660603099999996,126.342033,13.294535,0.89603776,0.73996216,0.00075414986,0.0026697728,-0.004453227,0.06926856,-0.028602598,-0.95058584,-0.97143394,0.11503945,-0.07196041,0.1729673,-1.7293673,0.13630323,1.4217339,1.0317788,-0.004124522,13.964353,3.8334565,0.33671814,0.39088443,0.1389064,0.1059001,inf,inf,inf,inf,1,1,1,1,4,2,4,3,5,0,1,1,0,0
228659802,228659202,19482731,36.660603099999996,126.342033,13.308384,0.89774,0.63740784,0.00075414986,0.0026697728,-0.004453227,0.06431559,-0.03256575,-0.96947116,-0.9952149,0.11503945,-0.07196041,0.1729673,-1.1023111,0.2460026,-1.1118352,1.0373996,-0.004124522,13.964353,3.9360108,0.32842302,0.39078495,0.13446301,0.10464968,inf,inf,inf,inf,1,1,1,1,4,2,4,3,5,0,1,1,0,0
228759627,228759211,19482731,36.660603099999996,126.342033,13.3201885,0.89460063,0.52725387,0.00075414986,0.0026697728,-0.004453227,0.07100024,-0.044131447,-0.97737414,-1.0136378,0.11503945,-0.07196041,0.1729673,0.5391143,-0.118886076,-0.62396085,1.0425644,-0.004124522,13.964353,4.0461645,0.3364157,0.39254412,0.13893735,0.10608559,inf,inf,inf,inf,1,1,1,1,4,2,4,3,5,0,1,1,0,0
228859845,228859220,19482731,36.660603099999996,126.342033,13.331404,0.88971186,0.41612047,0.00075414986,0.0026697728,-0.004453227,0.07756276,-0.0617183,-0.9795952,-1.0250729,0.11503945,-0.07196041,0.1729673,0.6687317,-0.6491321,-0.18408085,1.0472654,-0.004124522,13.964353,4.157298,0.32810706,0.38996848,0.13448276,0.10456273,inf,inf,inf,inf,1,1,1,1,4,2,4,3,5,0,1,1,0,0
228959632,228959228,19482731,36.660603099999996,126.342033,13.346476,0.8866731,0.30782682,0.00075414986,0.0026697728,-0.004453227,0.08351259,-0.06734532,-0.976244,-1.027697,0.11503945,-0.07196041,0.1729673,0.53779125,-0.8752054,-0.028211962,1.0511507,-0.004124522,13.964353,4.2655916,0.33610675,0.3941784,0.13891448,0.106261596,inf,inf,inf,inf,1,1,1,1,4,2,4,3,5,0,1,1,0,0
229059687,229059237,19482731,36.660603099999996,126.342033,13.359959,0.88218874,0.19780481,0.00075414986,0.0026697728,-0.004453227,0.084931955,-0.06545308,-0.9805468,-1.0385829,0.11503945,-0.07196041,0.1729673,-0.8551957,0.28421345,1.7926041,1.0539011,-0.004124522,13.964353,4.3756137,0.3446001,0.39597663,0.14337859,0.10768042,inf,inf,inf,inf,1,1,1,1,4,2,4,3,5,0,1,1,0,0
229159701,229159246,19482731,36.660603099999996,126.342033,13.377494,0.8797313,0.08920657,0.00075414986,0.0026697728,-0.004453227,0.08961449,-0.060269613,-0.9871384,-1.0491186,0.11503945,-0.07196041,0.1729673,-0.45490032,0.3340408,0.1608395,1.0553265,-0.004124522,13.964353,4.484212,0.3357247,0.39325842,0.1387732,0.106138274,inf,inf,inf,inf,1,1,1,1,4,2,4,3,5,0,1,1,0,0
229259800,229259254,19482731,36.660603099999996,126.342033,13.393767,0.8761794,-0.019990882,0.00075414986,0.0026697728,-0.004453227,0.08717964,-0.06539877,-0.99074334,-1.0541614,0.11503945,-0.07196041,0.1729673,-1.69175,0.16172601,1.3590269,1.0555667,-0.004124522,13.964353,4.5934095,0.3274057,0.39306962,0.13433129,0.10486108,inf,inf,inf,inf,1,1,1,1,4,2,4,3,5,0,1,1,0,0
229359663,229359263,19482731,36.660603099999996,126.342033,13.411628,0.8750352,-0.12888828,0.00075414986,0.0026697728,-0.004453227,0.09196525,-0.070925765,-0.990958,-1.057633,0.11503945,-0.07196041,0.1729673,-0.71267605,-0.43715802,0.87420505,1.0554376,-0.004124522,13.964353,4.7023067,0.33541042,0.3947751,0.13884206,0.106286384,inf,inf,inf,inf,1,1,1,1,4,2,4,3,5,0,1,1,0,0
229459677,229459272,19482731,36.660603099999996,126.342033,13.426787,0.87037027,-0.23532371,0.00075414986,0.0026697728,-0.004453227,0.09351568,-0.08259992,-0.9899017,-1.0571382,0.11503945,-0.07196041,0.1729673,-0.5465516,-1.0257361,-0.011209506,1.054984,-0.004124522,13.964353,4.8087425,0.3271388,0.39210036,0.13443421,0.10475364,inf,inf,inf,inf,1,1,1,1,4,2,4,3,5,0,1,1,0,0
229559682,229559281,19482731,36.660603099999996,126.342033,13.438003,0.86022,-0.34117606,0.00075414986,0.0026697728,-0.004453227,0.088604875,-0.090143025,-0.98608583,-1.0533131,0.11503945,-0.07196041,0.1729673,0.63726324,0.7582748,1.6767639,1.0545034,-0.004124522,13.964353,4.9145947,0.3351538,0.39379752,0.13884376,0.106177345,inf,inf,inf,inf,1,1,1,1,4,2,4,3,5,0,1,1,0,0
229660100,229659290,19482731,36.660603099999996,126.342033,13.447834,0.8482042,-0.44835493,0.00075414986,0.0026697728,-0.004453227,0.078330554,-0.10478777,-0.9944278,-1.0624007,0.11503945,-0.07196041,0.1729673,-0.7750275,-0.73392886,0.42961857,1.0538219,-0.004124522,13.964353,5.0217733,0.3268031,0.3911433,0.1343539,0.10463834,inf,inf,inf,inf,1,1,1,1,4,2,4,3,5,0,1,1,0,0
229759742,229759298,19482731,36.660603099999996,126.342033,13.458622,0.83053106,-0.55621356,0.00075414986,0.0026697728,-0.004453227,0.080698006,-0.12311492,-1.0006199,-1.0695386,0.11503945,-0.07196041,0.1729673,0.4265599,-0.56923145,-0.43113884,1.0527571,-0.004124522,13.964353,5.129632,0.33482254,0.39533037,0.13880104,0.10633237,inf,inf,inf,inf,1,1,1,1,4,2,4,3,5,0,1,1,0,0
229859771,229859307,19482731,36.660603099999996,126.342033,13.468067,0.81236964,-0.66439354,0.00075414986,0.0026697728,-0.004453227,0.073991634,-0.13108478,-0.9973674,-1.065038,0.11503945,-0.07196041,0.1729673,0.18453085,0.41027692,1.3489263,1.0515689,-0.004124522,13.964353,5.237812,0.3433362,0.39711764,0.14331116,0.10775319,inf,inf,inf,inf,1,1,1,1,4,2,4,3,5,0,1,1,0,0
229959820,229959316,19482731,36.660603099999996,126.342033,13.48542,0.79575276,-0.76107883,0.00075414986,0.0026697728,-0.004453227,0.07148941,-0.14065659,-1.001289,-1.0608431,0.11503945,-0.07196041,0.1729673,0.023375273,0.4992061,0.29237065,1.0504847,-0.004124522,13.964353,5.3344975,0.33441818,0.39434254,0.13876897,0.106200784,inf,inf,inf,inf,1,1,1,1,4,2,4,3,5,0,1,1,0,0
230059897,230059324,19482731,36.660603099999996,126.342033,13.500417,0.779266,-0.8650153,0.00075414986,0.0026697728,-0.004453227,0.05962817,-0.13828956,-0.9948656,-1.0502411,0.11503945,-0.07196041,0.1729673,-0.64802915,0.2851442,0.7826711,1.0492203,-0.004124522,13.964353,5.438434,0.32606128,0.3916695,0.13426115,0.104659475,inf,inf,inf,inf,1,1,1,1,4,2,4,3,5,0,1,1,0,0
230159763,230159333,19482731,36.660603099999996,126.342033,13.518295,0.7680665,-0.9629942,0.00075414986,0.0026697728,-0.004453227,0.051526066,-0.13508058,-0.9987742,-1.0470049,0.11503945,-0.07196041,0.1729673,-0.34028685,-0.7178382,0.43510044,1.0481745,-0.004124522,13.964353,5.5364127,0.33408216,0.3933495,0.13875173,0.106081516,inf,inf,inf,inf,1,1,1,1,4,2,4,3,5,0,1,1,0,0
230259797,230259342,19482731,36.660603099999996,126.342033,13.5313015,0.75685537,-1.0618598,0.00075414986,0.0026697728,-0.004453227,0.031275377,-0.12308043,-1.0037081,-1.0460799,0.11503945,-0.07196041,0.1729673,-0.87910044,0.033170246,-0.080679916,1.047135,-0.004124522,13.964353,5.6352787,0.34259945,0.39763656,0.1432722,0.107774906,inf,inf,inf,inf,1,1,1,1,4,2,4,3,5,0,1,1,0,0
230359749,230359351,19482731,36.660603099999996,126.342033,13.547287,0.7383256,-1.1610327,0.00075414986,0.0026697728,-0.004453227,0.017893568,-0.12023192,-1.0028784,-1.0400859,0.11503945,-0.07196041,0.1729673,-0.37732804,0.05196471,0.7199035,1.0456622,-0.004124522,13.964353,5.7344513,0.33367398,0.39486974,0.13868943,0.10622721,inf,inf,inf,inf,1,1,1,1,4,2,4,3,5,0,1,1,0,0
230459767,230459360,19482731,36.660603099999996,126.342033,13.557606,0.72157615,-1.2604773,0.00075414986,0.0026697728,-0.004453227,-0.0052601476,-0.11467506,-0.9968468,-1.0300416,0.11503945,-0.07196041,0.1729673,-1.0588311,0.61904156,1.2727383,1.0442607,-0.004124522,13.964353,5.8338957,0.34218827,0.39663985,0.14319187,0.107645996,inf,inf,inf,inf,1,1,1,1,4,2,4,3,5,0,1,1,0,0
230559790,230559368,19482731,36.660603099999996,126.342033,13.564722,0.70403254,-1.3592412,0.00075414986,0.0026697728,-0.004453227,-0.019337934,-0.11514347,-0.98755974,-1.0172179,0.11503945,-0.07196041,0.1729673,0.07049503,-0.4264572,1.2143666,1.0428923,-0.004124522,13.964353,5.93266,0.33319682,0.39389497,0.13850622,0.1060933,inf,inf,inf,inf,1,1,1,1,4,2,4,3,5,0,1,1,0,0
230659960,230659377,19482731,36.660603099999996,126.342033,13.568483,0.68852574,-1.4594148,0.00075414986,0.0026697728,-0.004453227,-0.038049646,-0.107328095,-0.99843204,-1.0264304,0.11503945,-0.07196041,0.1729673,-0.5853707,0.06490399,-1.0443759,1.0415038,-0.004124522,13.964353,6.0328336,0.3248685,0.39127272,0.13405342,0.104569264,inf,inf,inf,inf,1,1,1,1,4,2,4,3,5,0,1,1,0,0
230759813,230759386,19482731,36.660603099999996,126.342033,13.575414,0.679171,-1.5599936,0.00075414986,0.0026697728,-0.004453227,-0.053318996,-0.09387784,-1.0102291,-1.0339297,0.11503945,-0.07196041,0.1729673,-1.4032669,0.60409516,-0.14131051,1.0401573,-0.004124522,13.964353,6.1334124,0.33288345,0.3929612,0.13852787,0.10599581,inf,inf,inf,inf,1,1,1,1,4,2,4,3,5,0,1,1,0,0
230859969,230859395,19482731,36.660603099999996,126.342033,13.578785,0.671956,-1.6620371,0.00075414986,0.0026697728,-0.004453227,-0.058475558,-0.07733063,-1.0230473,-1.0454794,0.11503945,-0.07196041,0.1729673,0.22025119,0.13923836,-0.76391053,1.0391322,-0.004124522,13.964353,6.2354555,0.32455873,0.3903565,0.13422059,0.10447628,inf,inf,inf,inf,1,1,1,1,4,2,4,3,5,0,1,1,0,0
230959808,230959403,19482731,36.660603099999996,126.342033,13.584808,0.6705301,-1.7644528,0.00075414986,0.0026697728,-0.004453227,-0.07712066,-0.05883078,-1.024753,-1.0458857,0.11503945,-0.07196041,0.1729673,-1.447389,-0.39065444,-1.6972291,1.0381347,-0.004124522,13.964353,6.3378716,0.3325831,0.39453006,0.13870423,0.106172,inf,inf,inf,inf,1,1,1,1,4,2,4,3,5,0,1,1,0,0
231059809,231059412,19482731,36.660603099999996,126.342033,13.585643,0.66941,-1.8671088,0.00075414986,0.0026697728,-0.004453227,-0.092132784,-0.049002077,-1.0188777,-1.0395775,0.11503945,-0.07196041,0.1729673,-1.4163288,-0.9261844,-2.164861,1.0369886,-0.004124522,13.964353,6.4405274,0.34110397,0.39629373,0.14322738,0.107591264,inf,inf,inf,inf,1,1,1,1,4,2,4,3,5,0,1,1,0,0
231159820,231159421,19482731,36.660603099999996,126.342033,13.580825,0.6667856,-1.9721986,0.00075414986,0.0026697728,-0.004453227,-0.10995672,-0.044069104,-1.006809,-1.029932,0.11503945,-0.07196041,0.1729673,-0.5680761,-0.08366485,-0.8497945,1.0357001,-0.004124522,13.964353,6.545617,0.33222985,0.3935758,0.13861479,0.106058955,inf,inf,inf,inf,1,1,1,1,4,2,4,3,5,0,1,1,0,0
231259874,231259430,19482731,36.660603099999996,126.342033,13.572105,0.6636661,-2.0746298,0.00075414986,0.0026697728,-0.004453227,-0.1313472,-0.043513782,-0.9945952,-1.0185065,0.11503945,-0.07196041,0.1729673,0.10635896,0.12827866,0.48397055,1.0339909,-0.004124522,13.964353,6.6480484,0.3407478,0.39532313,0.14309342,0.107473865,inf,inf,inf,inf,1,1,1,1,4,2,4,3,5,0,1,1,0,0
231359861,231359439,19482731,36.660603099999996,126.342033,13.554624,0.6580754,-2.1796136,0.00075414986,0.0026697728,-0.004453227,-0.15098988,-0.046095032,-0.99621445,-1.0232515,0.11503945,-0.07196041,0.1729673,-0.37209108,0.29186907,1.5004584,1.0322175,-0.004124522,13.964353,6.753032,0.33189186,0.39510885,0.13847187,0.10621507,inf,inf,inf,inf,1,1,1,1,4,2,4,3,5,0,1,1,0,0
231459875,231459447,19482731,36.660603099999996,126.342033,13.535735,0.6526785,-2.283727,0.00075414986,0.0026697728,-0.004453227,-0.16434991,-0.041615676,-1.0092894,-1.0374359,0.11503945,-0.07196041,0.1729673,0.019771986,0.7807742,0.5972314,1.0305879,-0.004124522,13.964353,6.8571453,0.34040952,0.39686564,0.14297566,0.10763426,inf,inf,inf,inf,1,1,1,1,4,2,4,3,5,0,1,1,0,0
231559916,231559459,19482731,36.660603099999996,126.342033,13.512987,0.6455981,-2.3902009,0.00075414986,0.0026697728,-0.004453227,-0.17016365,-0.037630066,-1.0289391,-1.0590595,0.11503945,-0.07196041,0.1729673,0.039180886,-0.9667158,-1.8571124,1.0290107,-0.004124522,13.964353,6.963619,0.3315017,0.39412725,0.13837439,0.10608721,inf,inf,inf,inf,1,1,1,1,4,2,4,3,5,0,1,1,0,0
231660017,231659465,19482731,36.660603099999996,126.342033,13.490948,0.63944864,-2.4988983,0.00075414986,0.0026697728,-0.004453227,-0.17447095,-0.028604524,-1.039062,-1.0694535,0.11503945,-0.07196041,0.1729673,-0.5720129,-0.17422894,-1.972585,1.027129,-0.004124522,13.964353,7.072317,0.3232199,0.39149505,0.13401185,0.10456398,inf,inf,inf,inf,1,1,1,1,4,2,4,3,5,0,1,1,0,0
231759889,231759474,19482731,36.660603099999996,126.342033,13.476613,0.6318602,-2.6024578,0.00075414986,0.0026697728,-0.004453227,-0.1654542,-0.024852157,-1.022283,-1.0504402,0.11503945,-0.07196041,0.1729673,1.1957015,-0.13421635,0.43233597,1.0251058,-0.004124522,13.964353,7.1758766,0.33124828,0.39318922,0.13855961,0.10599547,inf,inf,inf,inf,1,1,1,1,4,2,4,3,5,0,1,1,0,0
231859884,231859483,19482731,36.660603099999996,126.342033,13.462141,0.6252955,-2.7041152,0.00075414986,0.0026697728,-0.004453227,-0.15384601,-0.02791088,-1.0022203,-1.0280051,0.11503945,-0.07196041,0.1729673,0.4386872,0.7621672,1.4023752,1.0229596,-0.004124522,13.964353,7.2775335,0.33977306,0.3974707,0.1429901,0.10769268,inf,inf,inf,inf,1,1,1,1,4,2,4,3,5,0,1,1,0,0
231959886,231959491,19482731,36.660603099999996,126.342033,13.450621,0.6127419,-2.8050613,0.00075414986,0.0026697728,-0.004453227,-0.146516,-0.031968918,-0.99512964,-1.0193534,0.11503945,-0.07196041,0.1729673,-0.35397464,1.3252729,2.664748,1.0210059,-0.004124522,13.964353,7.37848,0.33093315,0.39470822,0.13832672,0.10615195,inf,inf,inf,inf,1,1,1,1,4,2,4,3,5,0,1,1,0,0
232060072,232059500,19482731,36.660603099999996,126.342033,13.438431,0.6013113,-2.905521,0.00075414986,0.0026697728,-0.004453227,-0.13560438,-0.033158332,-1.0047652,-1.0270306,0.11503945,-0.07196041,0.1729673,0.9965903,0.58342695,0.94273615,1.0190088,-0.004124522,13.964353,7.4789395,0.32264727,0.39203885,0.13387905,0.104619615,inf,inf,inf,inf,1,1,1,1,4,2,4,3,5,0,1,1,0,0
232159979,232159509,19482731,36.660603099999996,126.342033,13.422445,0.5853283,-3.007335,0.00075414986,0.0026697728,-0.004453227,-0.13882756,-0.027232895,-1.021624,-1.0424312,0.11503945,-0.07196041,0.1729673,0.9358682,0.077707306,-0.36078674,1.0165001,-0.004124522,13.964353,7.5807533,0.33068076,0.3937101,0.13833438,0.10604641,inf,inf,inf,inf,1,1,1,1,4,2,4,3,5,0,1,1,0,0
232259949,232259518,19482731,36.660603099999996,126.342033,13.406439,0.5735506,-3.1110117,0.00075414986,0.0026697728,-0.004453227,-0.14154477,-0.015449436,-1.0275239,-1.0472398,0.11503945,-0.07196041,0.1729673,0.8947741,0.06717629,-0.76692694,1.0124404,-0.004124522,13.964353,7.68443,0.3392114,0.39544708,0.14289767,0.10746226,inf,inf,inf,inf,1,1,1,1,4,2,4,3,5,0,1,1,0,0
232360004,232359527,19482731,36.660603099999996,126.342033,13.392614,0.5605717,-3.2153847,0.00075414986,0.0026697728,-0.004453227,-0.137555,-0.009209515,-1.0302399,-1.049967,0.11503945,-0.07196041,0.1729673,-0.22216336,-0.23849495,-1.3860279,1.0069506,-0.004124522,13.964353,7.788803,0.33034632,0.3927433,0.13836269,0.10593722,inf,inf,inf,inf,1,1,1,1,4,2,4,3,5,0,1,1,0,0
232459941,232459536,19482731,36.660603099999996,126.342033,13.379093,0.5514898,-3.3213344,0.00075414986,0.0026697728,-0.004453227,-0.122509584,-0.00066743966,-1.023554,-1.0426258,0.11503945,-0.07196041,0.1729673,0.70472753,0.34618068,0.44594455,1.0005016,-0.004124522,13.964353,7.894753,0.33887923,0.39701232,0.1428702,0.107633635,inf,inf,inf,inf,1,1,1,1,4,2,4,3,5,0,1,1,0,0
232559947,232559545,19482731,36.660603099999996,126.342033,13.368557,0.54029906,-3.4273536,0.00075414986,0.0026697728,-0.004453227,-0.107252374,1.0890479e-05,-1.0232273,-1.0446439,0.11503945,-0.07196041,0.1729673,0.30934802,-0.28895482,-0.9002637,0.9935657,-0.004124522,13.964353,8.000772,0.32995382,0.39426845,0.13827442,0.1060869,inf,inf,inf,inf,1,1,1,1,4,2,4,3,5,0,1,1,0,0
232659951,232659554,19482731,36.660603099999996,126.342033,13.358947,0.53194755,-3.53244,0.00075414986,0.0026697728,-0.004453227,-0.09688077,0.0043843063,-1.0220243,-1.0447974,0.11503945,-0.07196041,0.1729673,0.30486158,-0.02333914,-1.2998397,0.98636043,-0.004124522,13.964353,8.105859,0.33847815,0.39600822,0.14276178,0.10750439,inf,inf,inf,inf,1,1,1,1,4,2,4,3,5,0,1,1,0,0
232760035,232759562,19482731,36.660603099999996,126.342033,13.345982,0.52136207,-3.6366801,0.00075414986,0.0026697728,-0.004453227,-0.09978692,0.013162728,-1.0197455,-1.0431966,0.11503945,-0.07196041,0.1729673,-1.243279,0.34139013,-1.4711089,0.9787903,-0.004124522,13.964353,8.210098,0.3296285,0.3932843,0.13819101,0.105975494,inf,inf,inf,inf,1,1,1,1,4,2,4,3,5,0,1,1,0,0
232859993,232859571,19482731,36.660603099999996,126.342033,13.333572,0.51503193,-3.7398705,0.00075414986,0.0026697728,-0.004453227,-0.10193614,0.026949659,-1.0215085,-1.044608,0.11503945,-0.07196041,0.1729673,-1.3536844,0.06579111,-2.0283096,0.9708774,-0.004124522,13.964353,8.31329,0.33815327,0.395018,0.14267902,0.1073917,inf,inf,inf,inf,1,1,1,1,4,2,4,3,5,0,1,1,0,0
232959994,232959580,19482731,36.660603099999996,126.342033,13.31754,0.5073656,-3.8466985,0.00075414986,0.0026697728,-0.004453227,-0.10669825,0.040524226,-1.0254254,-1.0514034,0.11503945,-0.07196041,0.1729673,-1.7615194,-0.34423685,-2.94873,0.96306324,-0.004124522,13.964353,8.420117,0.3292971,0.3948183,0.13813706,0.10614103,inf,inf,inf,inf,1,1,1,1,4,2,4,3,5,0,1,1,0,0
233060105,233059589,19482731,36.660603099999996,126.342033,13.3027315,0.50403017,-3.9518423,0.00075414986,0.0026697728,-0.004453227,-0.10149915,0.05223544,-1.0159358,-1.0428928,0.11503945,-0.07196041,0.1729673,-0.7272825,-0.59379005,-1.6025944,0.9554396,-0.004124522,13.964353,8.525261,0.3378226,0.39657888,0.14264682,0.10756558,inf,inf,inf,inf,1,1,1,1,4,2,4,3,5,0,1,1,0,0
233160040,233159598,19482731,36.660603099999996,126.342033,13.28515,0.4943177,-4.0629206,0.00075414986,0.0026697728,-0.004453227,-0.09669762,0.055889245,-1.0146096,-1.0464082,0.11503945,-0.07196041,0.1729673,-0.18491134,-0.48476443,-1.1894968,0.9480626,-0.004124522,13.964353,8.636339,0.32898086,0.39386585,0.13806488,0.106040426,inf,inf,inf,inf,1,1,1,1,4,2,4,3,5,0,1,1,0,0
