timestamp,timestamp_sample,q[0],q[1],q[2],q[3],delta_q_reset[0],delta_q_reset[1],delta_q_reset[2],delta_q_reset[3],quat_reset_counter
217458516,217458259,-0.86445284,-0.020921046,-2.1988435e-05,-0.5022785,0.999998,5.8522943e-05,-0.00016906174,-0.0020471525,5
217463496,217463258,-0.86445135,-0.020918189,-2.5057785e-05,-0.5022812,0.999998,5.8522943e-05,-0.00016906174,-0.0020471525,5
217508487,217508262,-0.8644612,-0.02090714,-3.289692e-05,-0.50226474,0.999998,5.8522943e-05,-0.00016906174,-0.0020471525,5
217558496,217558266,-0.8644139,-0.020910287,-3.2449065e-05,-0.502346,0.999998,5.8522943e-05,-0.00016906174,-0.0020471525,5
217608497,217608270,-0.8643466,-0.020921828,-5.5261637e-05,-0.5024611,0.999998,5.8522943e-05,-0.00016906174,-0.0020471525,5
217658572,217658275,-0.86426353,-0.020903269,-6.6080574e-05,-0.5026049,0.999998,5.8522943e-05,-0.00016906174,-0.0020471525,5
217708545,217708278,-0.86417794,-0.020929066,-3.8893057e-05,-0.50275093,0.999998,5.8522943e-05,-0.00016906174,-0.0020471525,5
217758509,217758282,-0.8640901,-0.020939564,-3.433e-05,-0.5029015,0.999998,5.8522943e-05,-0.00016906174,-0.0020471525,5
217808521,217808287,-0.863984,-0.020948786,-3.86846e-05,-0.5030834,0.999998,5.8522943e-05,-0.00016906174,-0.0020471525,5
217858535,217858291,-0.8638877,-0.020961864,-3.3161552e-05,-0.50324816,0.999998,5.8522943e-05,-0.00016906174,-0.0020471525,5
217908527,217908295,-0.86378425,-0.0209527,-5.9102542e-05,-0.5034261,0.999998,5.8522943e-05,-0.00016906174,-0.0020471525,5
217958525,217958299,-0.8636874,-0.020979725,-9.3164e-05,-0.50359106,0.999998,5.8522943e-05,-0.00016906174,-0.0020471525,5
218008570,218008303,-0.86359495,-0.021010855,-9.497459e-05,-0.5037485,0.999998,5.8522943e-05,-0.00016906174,-0.0020471525,5
218058564,218058307,-0.86350965,-0.021020196,-0.00013918159,-0.5038942,0.999998,5.8522943e-05,-0.00016906174,-0.0020471525,5
218108537,218108311,-0.86340606,-0.021022657,-0.00014327417,-0.50407135,0.999998,5.8522943e-05,-0.00016906174,-0.0020471525,5
218158543,218158315,-0.86332655,-0.021009136,-0.0001628705,-0.5042083,0.999998,5.8522943e-05,-0.00016906174,-0.0020471525,5
218208542,218208319,-0.8632331,-0.02100182,-0.00016444945,-0.50436866,0.999998,5.8522943e-05,-0.00016906174,-0.0020471525,5
218258566,218258323,-0.86314404,-0.021003779,-0.00015636845,-0.5045208,0.999998,5.8522943e-05,-0.00016906174,-0.0020471525,5
218308552,218308327,-0.863055,-0.021017747,-0.00016617643,-0.50467265,0.999998,5.8522943e-05,-0.00016906174,-0.0020471525,5
218358548,218358332,-0.86298007,-0.021018572,-0.00012725467,-0.50480056,0.999998,5.8522943e-05,-0.00016906174,-0.0020471525,5
218408553,218408336,-0.86288375,-0.021045953,-0.00011143862,-0.5049642,0.999998,5.8522943e-05,-0.00016906174,-0.0020471525,5
218458599,218458340,-0.8627946,-0.021042889,-0.00011602319,-0.5051166,0.999998,5.8522943e-05,-0.00016906174,-0.0020471525,5
218508565,218508344,-0.86268365,-0.0210542,-6.864032e-05,-0.50530565,0.999998,5.8522943e-05,-0.00016906174,-0.0020471525,5
218558593,218558348,-0.8625937,-0.021087708,-9.9843484e-05,-0.50545776,0.999998,5.8522943e-05,-0.00016906174,-0.0020471525,5
218608573,218608352,-0.8624895,-0.02109524,-9.5467425e-05,-0.505635,0.999998,5.8522943e-05,-0.00016906174,-0.0020471525,5
218658596,218658356,-0.86239827,-0.021114096,-0.000111026275,-0.50579005,0.999998,5.8522943e-05,-0.00016906174,-0.0020471525,5
218708578,218708360,-0.86229837,-0.02111481,-0.00014139192,-0.50596017,0.999998,5.8522943e-05,-0.00016906174,-0.0020471525,5
218758583,218758364,-0.8622201,-0.021156654,-0.00014803956,-0.5060919,0.999998,5.8522943e-05,-0.00016906174,-0.0020471525,5
218808590,218808368,-0.8621374,-0.02114685,-0.00016346977,-0.5062332,0.999998,5.8522943e-05,-0.00016906174,-0.0020471525,5
218858606,218858373,-0.8620597,-0.021134729,-0.00017351774,-0.50636584,0.999998,5.8522943e-05,-0.00016906174,-0.0020471525,5
218908593,218908377,-0.86197317,-0.021158427,-0.00014972898,-0.50651234,0.999998,5.8522943e-05,-0.00016906174,-0.0020471525,5
218958602,218958381,-0.8618972,-0.021209821,-0.00017372891,-0.5066394,0.999998,5.8522943e-05,-0.00016906174,-0.0020471525,5
219008657,219008385,-0.86183375,-0.021233756,-0.00018406333,-0.50674623,0.999998,5.8522943e-05,-0.00016906174,-0.0020471525,5
219058628,219058389,-0.86175144,-0.021259304,-0.00016248095,-0.5068852,0.999998,5.8522943e-05,-0.00016906174,-0.0020471525,5
219108609,219108393,-0.861676,-0.021275168,-0.00017970672,-0.5070126,0.999998,5.8522943e-05,-0.00016906174,-0.0020471525,5
219158626,219158397,-0.86158353,-0.0212711,-0.00023155492,-0.5071699,0.999998,5.8522943e-05,-0.00016906174,-0.0020471525,5
219208620,219208401,-0.8614446,-0.02126428,-0.00020241253,-0.50740623,0.999998,5.8522943e-05,-0.00016906174,-0.0020471525,5
219258629,219258406,-0.8613245,-0.021173498,-0.0001938358,-0.50761384,0.999998,5.8522943e-05,-0.00016906174,-0.0020471525,5
219308637,219308410,-0.86130863,-0.021069005,-0.00013724322,-0.5076451,0.999998,5.8522943e-05,-0.00016906174,-0.0020471525,5
219358686,219358414,-0.86127216,-0.020985909,-0.00011819466,-0.50771046,0.999998,5.8522943e-05,-0.00016906174,-0.0020471525,5
219408640,219408418,-0.8611483,-0.020981677,-8.110629e-05,-0.50792056,0.999998,5.8522943e-05,-0.00016906174,-0.0020471525,5
219458647,219458422,-0.8610445,-0.020848917,-3.998082e-05,-0.5081021,0.999998,5.8522943e-05,-0.00016906174,-0.0020471525,5
219508654,219508426,-0.8610291,-0.02058907,-1.1485716e-05,-0.5081389,0.999998,5.8522943e-05,-0.00016906174,-0.0020471525,5
219558651,219558430,-0.86096805,-0.020413801,9.129262e-05,-0.5082493,0.999998,5.8522943e-05,-0.00016906174,-0.0020471525,5
219608656,219608434,-0.8608556,-0.02032229,0.00023121096,-0.50844353,0.999998,5.8522943e-05,-0.00016906174,-0.0020471525,5
219658668,219658439,-0.8608664,-0.020274185,0.00024494826,-0.50842696,0.999998,5.8522943e-05,-0.00016906174,-0.0020471525,5
219708665,219708443,-0.860928,-0.020298418,0.00020562645,-0.5083217,0.999998,5.8522943e-05,-0.00016906174,-0.0020471525,5
219758666,219758447,-0.8609285,-0.02032506,0.00021488356,-0.5083197,0.999998,5.8522943e-05,-0.00016906174,-0.0020471525,5
219808674,219808451,-0.86091274,-0.02023726,0.0002709005,-0.5083501,0.999998,5.8522943e-05,-0.00016906174,-0.0020471525,5
219858677,219858455,-0.86092913,-0.020083748,0.00034076444,-0.50832826,0.999998,5.8522943e-05,-0.00016906174,-0.0020471525,5
219908706,219908459,-0.860909,-0.019969767,0.0004514631,-0.5083668,0.999998,5.8522943e-05,-0.00016906174,-0.0020471525,5
219958694,219958464,-0.86069643,-0.01994162,0.0006204088,-0.5087275,0.999998,5.8522943e-05,-0.00016906174,-0.0020471525,5
220008691,220008468,-0.8604991,-0.01993872,0.000705214,-0.50906116,0.999998,5.8522943e-05,-0.00016906174,-0.0020471525,5
220058697,220058472,-0.8604248,-0.019945176,0.00056593947,-0.5091868,0.999998,5.8522943e-05,-0.00016906174,-0.0020471525,5
220108703,220108476,-0.860433,-0.019629207,0.0006380598,-0.509185,0.999998,5.8522943e-05,-0.00016906174,-0.0020471525,5
220158707,220158480,-0.8605014,-0.019285006,0.0007424164,-0.5090826,0.999998,5.8522943e-05,-0.00016906174,-0.0020471525,5
220208709,220208484,-0.8605621,-0.018902587,0.00085420214,-0.5089942,0.999998,5.8522943e-05,-0.00016906174,-0.0020471525,5
220258741,220258488,-0.86059785,-0.018368853,0.00070841704,-0.5089533,0.999998,5.8522943e-05,-0.00016906174,-0.0020471525,5
220308713,220308492,-0.8605224,-0.017785499,0.00063461903,-0.50910157,0.999998,5.8522943e-05,-0.00016906174,-0.0020471525,5
220358722,220358497,-0.8603339,-0.017407525,0.00072901056,-0.50943315,0.999998,5.8522943e-05,-0.00016906174,-0.0020471525,5
220408725,220408501,-0.8601632,-0.016925,0.00080171484,-0.5097375,0.999998,5.8522943e-05,-0.00016906174,-0.0020471525,5
220458725,220458505,-0.8600432,-0.016559074,0.00083962636,-0.5099518,0.999998,5.8522943e-05,-0.00016906174,-0.0020471525,5
220508733,220508509,-0.86004585,-0.015791513,0.0008650484,-0.5099718,0.999998,5.8522943e-05,-0.00016906174,-0.0020471525,5
220558736,220558513,-0.86009955,-0.014922106,0.00077354885,-0.50990754,0.999998,5.8522943e-05,-0.00016906174,-0.0020471525,5
220608751,220608517,-0.86010283,-0.01428448,0.0009763162,-0.50991994,0.999998,5.8522943e-05,-0.00016906174,-0.0020471525,5
220658739,220658522,-0.86013687,-0.01393297,0.0011564096,-0.5098718,0.999998,5.8522943e-05,-0.00016906174,-0.0020471525,5
220708752,220708526,-0.86015636,-0.013519268,0.0011657111,-0.50984985,0.999998,5.8522943e-05,-0.00016906174,-0.0020471525,5
220758749,220758530,-0.8602435,-0.012975536,0.0010951277,-0.5097172,0.999998,5.8522943e-05,-0.00016906174,-0.0020471525,5
220808782,220808534,-0.8602746,-0.012468222,0.0010812,-0.5096774,0.999998,5.8522943e-05,-0.00016906174,-0.0020471525,5
220858761,220858538,-0.86030793,-0.0120642325,0.001190324,-0.5096307,0.999998,5.8522943e-05,-0.00016906174,-0.0020471525,5
220908767,220908542,-0.86032456,-0.011602932,0.0013103609,-0.50961286,0.999998,5.8522943e-05,-0.00016906174,-0.0020471525,5
220958787,220958546,-0.8603534,-0.011332321,0.0013650316,-0.5095703,0.999998,5.8522943e-05,-0.00016906174,-0.0020471525,5
221008771,221008551,-0.86040276,-0.011257532,0.0012051472,-0.5094888,0.999998,5.8522943e-05,-0.00016906174,-0.0020471525,5
221058784,221058555,-0.8605235,-0.011194892,0.00080699835,-0.50928706,0.999998,5.8522943e-05,-0.00016906174,-0.0020471525,5
221108796,221108559,-0.8606859,-0.011040534,0.000441409,-0.5090166,0.999998,5.8522943e-05,-0.00016906174,-0.0020471525,5
221158818,221158563,-0.86080426,-0.010677968,0.00020881419,-0.5088241,0.999998,5.8522943e-05,-0.00016906174,-0.0020471525,5
221208789,221208567,-0.8608546,-0.009964911,-0.00013176705,-0.50875354,0.999998,5.8522943e-05,-0.00016906174,-0.0020471525,5
221258793,221258572,-0.86085063,-0.009365951,-0.00057429966,-0.5087713,0.999998,5.8522943e-05,-0.00016906174,-0.0020471525,5
221308796,221308576,-0.86080945,-0.008980183,-0.0010490232,-0.50884706,0.999998,5.8522943e-05,-0.00016906174,-0.0020471525,5
221358799,221358580,-0.86077833,-0.008549301,-0.0016408177,-0.50890565,0.999998,5.8522943e-05,-0.00016906174,-0.0020471525,5
221408802,221408584,-0.86088175,-0.007994091,-0.0022321723,-0.5087375,0.999998,5.8522943e-05,-0.00016906174,-0.0020471525,5
221458807,221458588,-0.860996,-0.0071226265,-0.0030558456,-0.50855273,0.999998,5.8522943e-05,-0.00016906174,-0.0020471525,5
221508824,221508592,-0.86110884,-0.005856479,-0.00425909,-0.5083692,0.999998,5.8522943e-05,-0.00016906174,-0.0020471525,5
221558817,221558596,-0.8612789,-0.0040342533,-0.0055115125,-0.5080867,0.999998,5.8522943e-05,-0.00016906174,-0.0020471525,5
221608861,221608601,-0.86139035,-0.0021766992,-0.006817117,-0.50789315,0.999998,5.8522943e-05,-0.00016906174,-0.0020471525,5
221658824,221658605,-0.8615073,-0.000602766,-0.00819747,-0.5076788,0.999998,5.8522943e-05,-0.00016906174,-0.0020471525,5
221708830,221708609,-0.8615138,0.00076083536,-0.009563525,-0.50764364,0.999998,5.8522943e-05,-0.00016906174,-0.0020471525,5
221758840,221758613,-0.8613955,0.001556423,-0.010931319,-0.5078148,0.999998,5.8522943e-05,-0.00016906174,-0.0020471525,5
221808837,221808618,-0.86112267,0.0019301436,-0.012161788,-0.50824815,0.999998,5.8522943e-05,-0.00016906174,-0.0020471525,5
221858842,221858622,-0.8608404,0.003163174,-0.012667508,-0.50870746,0.999998,5.8522943e-05,-0.00016906174,-0.0020471525,5
221908846,221908626,-0.86037695,0.004987431,-0.012839272,-0.5094721,0.999998,5.8522943e-05,-0.00016906174,-0.0020471525,5
221958851,221958630,-0.8597511,0.0055627837,-0.013454278,-0.5105058,0.999998,5.8522943e-05,-0.00016906174,-0.0020471525,5
222008851,222008634,-0.85897815,0.00483589,-0.0143840015,-0.51178735,0.999998,5.8522943e-05,-0.00016906174,-0.0020471525,5
222058857,222058639,-0.8580706,0.0029733328,-0.015877059,-0.51327765,0.999998,5.8522943e-05,-0.00016906174,-0.0020471525,5
222108867,222108643,-0.85706884,0.001477524,-0.016877916,-0.5149234,0.999998,5.8522943e-05,-0.00016906174,-0.0020471525,5
222158932,222158647,-0.85614485,0.0005388176,-0.01740789,-0.51644236,0.999998,5.8522943e-05,-0.00016906174,-0.0020471525,5
222208871,222208651,-0.8553596,0.0010512209,-0.016792873,-0.5177614,0.999998,5.8522943e-05,-0.00016906174,-0.0020471525,5
222258876,222258655,-0.85456264,0.0019133814,-0.015632264,-0.5191095,0.999998,5.8522943e-05,-0.00016906174,-0.0020471525,5
222308882,222308659,-0.85365117,0.0023587663,-0.014829588,-0.5206286,0.999998,5.8522943e-05,-0.00016906174,-0.0020471525,5
222358894,222358664,-0.85263944,0.0025303196,-0.013771,-0.5223122,0.999998,5.8522943e-05,-0.00016906174,-0.0020471525,5
222408884,222408668,-0.8516747,0.001748093,-0.0132956,-0.52389926,0.999998,5.8522943e-05,-0.00016906174,-0.0020471525,5
222458849,222458672,-0.85079247,0.00041915913,-0.013315712,-0.52533287,0.999998,5.8522943e-05,-0.00016906174,-0.0020471525,5
222508937,222508676,-0.8499891,-7.514845e-05,-0.0131206075,-0.526637,0.999998,5.8522943e-05,-0.00016906174,-0.0020471525,5
222558901,222558681,-0.8492103,0.0010808281,-0.013081621,-0.52789164,0.999998,5.8522943e-05,-0.00016906174,-0.0020471525,5
222608908,222608685,-0.8484584,0.002869114,-0.013302541,-0.52908725,0.999998,5.8522943e-05,-0.00016906174,-0.0020471525,5
222658913,222658689,-0.8477326,0.00460955,-0.01367487,-0.5302274,0.999998,5.8522943e-05,-0.00016906174,-0.0020471525,5
222708913,222708693,-0.8469861,0.0063400543,-0.013665932,-0.53140146,0.999998,5.8522943e-05,-0.00016906174,-0.0020471525,5
222758917,222758697,-0.8462432,0.0073795593,-0.0120487735,-0.5326094,0.999998,5.8522943e-05,-0.00016906174,-0.0020471525,5
222808925,222808702,-0.8455259,0.0075091883,-0.010399589,-0.53378034,0.999998,5.8522943e-05,-0.00016906174,-0.0020471525,5
222858959,222858706,-0.8450554,0.0077974983,-0.00853368,-0.5345539,0.999998,5.8522943e-05,-0.00016906174,-0.0020471525,5
222908931,222908710,-0.8447667,0.0067328354,-0.006632792,-0.53505147,0.999998,5.8522943e-05,-0.00016906174,-0.0020471525,5
222958934,222958714,-0.84474045,0.0050882525,-0.0038035333,-0.5351384,0.999998,5.8522943e-05,-0.00016906174,-0.0020471525,5
223008941,223008718,-0.8449548,0.0034103217,-0.0005449271,-0.53482676,0.999998,5.8522943e-05,-0.00016906174,-0.0020471525,5
223059012,223053722,-0.8452802,0.0024741362,0.0017880006,-0.5343148,0.999998,5.8522943e-05,-0.00016906174,-0.0020471525,5
223108948,223108727,-0.8458202,0.0035191095,0.005767624,-0.53342533,0.999998,5.8522943e-05,-0.00016906174,-0.0020471525,5
223158949,223158731,-0.8464368,0.0067030764,0.0089571,-0.5323719,0.999998,5.8522943e-05,-0.00016906174,-0.0020471525,5
223208955,223208735,-0.8470321,0.008025842,0.011236161,-0.53136253,0.999998,5.8522943e-05,-0.00016906174,-0.0020471525,5
223258957,223258739,-0.8476426,0.0071106246,0.012568348,-0.53037125,0.999998,5.8522943e-05,-0.00016906174,-0.0020471525,5
223308963,223308744,-0.8483068,0.003499108,0.012595668,-0.5293436,0.999998,5.8522943e-05,-0.00016906174,-0.0020471525,5
223358970,223358748,-0.8487773,-0.0016325923,0.010611272,-0.52864164,0.999998,5.8522943e-05,-0.00016906174,-0.0020471525,5
223409014,223408752,-0.84907895,-0.010179303,0.0059348824,-0.52813447,0.999998,5.8522943e-05,-0.00016906174,-0.0020471525,5
223458978,223458756,-0.84920454,-0.021656962,0.00069345155,-0.5276195,0.999998,5.8522943e-05,-0.00016906174,-0.0020471525,5
223508983,223508761,-0.8491776,-0.03421242,-0.005723207,-0.52696705,0.999998,5.8522943e-05,-0.00016906174,-0.0020471525,5
223559001,223558765,-0.84922147,-0.043153215,-0.010380818,-0.52616817,0.999998,5.8522943e-05,-0.00016906174,-0.0020471525,5
223608985,223608769,-0.84936607,-0.05053985,-0.013354363,-0.5252091,0.999998,5.8522943e-05,-0.00016906174,-0.0020471525,5
223658995,223658773,-0.84977424,-0.05408386,-0.01442661,-0.52416664,0.999998,5.8522943e-05,-0.00016906174,-0.0020471525,5
223709009,223708778,-0.8505561,-0.053694297,-0.014289389,-0.5229409,0.999998,5.8522943e-05,-0.00016906174,-0.0020471525,5
223759038,223758782,-0.8516132,-0.04925426,-0.011795292,-0.52171814,0.999998,5.8522943e-05,-0.00016906174,-0.0020471525,5
223809036,223808786,-0.8527773,-0.04262439,-0.008298176,-0.52046645,0.999998,5.8522943e-05,-0.00016906174,-0.0020471525,5
223859010,223858790,-0.85399145,-0.03407067,-0.0044825706,-0.51915085,0.999998,5.8522943e-05,-0.00016906174,-0.0020471525,5
223909033,223908794,-0.8552224,-0.025041934,-0.0006306697,-0.5176555,0.999998,5.8522943e-05,-0.00016906174,-0.0020471525,5
223959018,223958799,-0.8563111,-0.018699475,0.0020582972,-0.51611775,0.999998,5.8522943e-05,-0.00016906174,-0.0020471525,5
224009026,224008803,-0.85724795,-0.015156194,0.0041696597,-0.51466376,0.999998,5.8522943e-05,-0.00016906174,-0.0020471525,5
224059040,224058807,-0.858073,-0.015503916,0.0056564976,-0.5132625,0.999998,5.8522943e-05,-0.00016906174,-0.0020471525,5
224109081,224108811,-0.85867834,-0.018440789,0.0073783947,-0.51212996,0.999998,5.8522943e-05,-0.00016906174,-0.0020471525,5
224159039,224158816,-0.85916805,-0.024109185,0.008569498,-0.5110534,0.999998,5.8522943e-05,-0.00016906174,-0.0020471525,5
224209083,224208820,-0.8596237,-0.029665614,0.010091974,-0.509966,0.999998,5.8522943e-05,-0.00016906174,-0.0020471525,5
224259042,224258824,-0.8600219,-0.03549854,0.01111045,-0.50889975,0.999998,5.8522943e-05,-0.00016906174,-0.0020471525,5
224309122,224308829,-0.86046284,-0.039571278,0.012433723,-0.50782216,0.999998,5.8522943e-05,-0.00016906174,-0.0020471525,5
224359054,224358833,-0.86101305,-0.041230615,0.013079617,-0.5067401,0.999998,5.8522943e-05,-0.00016906174,-0.0020471525,5
224409055,224408837,-0.861665,-0.038907766,0.0137166865,-0.505798,0.999998,5.8522943e-05,-0.00016906174,-0.0020471525,5
224459069,224458841,-0.8624004,-0.034884628,0.0142266145,-0.504823,0.999998,5.8522943e-05,-0.00016906174,-0.0020471525,5
224509077,224508845,-0.8630442,-0.030016486,0.015024829,-0.5040121,0.999998,5.8522943e-05,-0.00016906174,-0.0020471525,5
224559071,224558850,-0.86353856,-0.02658402,0.014623825,-0.50336915,0.999998,5.8522943e-05,-0.00016906174,-0.0020471525,5
224609105,224608854,-0.863855,-0.024827901,0.014619033,-0.5029158,0.999998,5.8522943e-05,-0.00016906174,-0.0020471525,5
224659124,224658858,-0.8640783,-0.025155725,0.0146253295,-0.50251573,0.999998,5.8522943e-05,-0.00016906174,-0.0020471525,5
224709147,224708862,-0.86419165,-0.024964536,0.015119653,-0.5023158,0.999998,5.8522943e-05,-0.00016906174,-0.0020471525,5
224759082,224758866,-0.86431575,-0.024577137,0.016256267,-0.5020856,0.999998,5.8522943e-05,-0.00016906174,-0.0020471525,5
224809090,224808871,-0.86444914,-0.02356206,0.018055933,-0.5018432,0.999998,5.8522943e-05,-0.00016906174,-0.0020471525,5
224859097,224858878,-0.8645783,-0.023251034,0.01856144,-0.5016168,0.999998,5.8522943e-05,-0.00016906174,-0.0020471525,5
224909167,224908879,-0.8647488,-0.022395533,0.018513445,-0.5013634,0.999998,5.8522943e-05,-0.00016906174,-0.0020471525,5
224959107,224958884,-0.8650028,-0.021250144,0.017529666,-0.50101036,0.999998,5.8522943e-05,-0.00016906174,-0.0020471525,5
225009119,225008888,-0.86530966,-0.020300575,0.015536337,-0.5005854,0.999998,5.8522943e-05,-0.00016906174,-0.0020471525,5
225059113,225058892,-0.86559564,-0.020222513,0.012754016,-0.50017273,0.999998,5.8522943e-05,-0.00016906174,-0.0020471525,5
225109268,225108897,-0.8658301,-0.021432694,0.009934521,-0.49978012,0.999998,5.8522943e-05,-0.00016906174,-0.0020471525,5
225159119,225158901,-0.86596924,-0.023477547,0.007501018,-0.49948955,0.999998,5.8522943e-05,-0.00016906174,-0.0020471525,5
225209124,225208905,-0.8661186,-0.026246428,0.00526042,-0.49912128,0.999998,5.8522943e-05,-0.00016906174,-0.0020471525,5
225259131,225258909,-0.86629015,-0.029064445,0.0039028693,-0.49867973,0.999998,5.8522943e-05,-0.00016906174,-0.0020471525,5
225309226,225308913,-0.86653763,-0.031227443,0.003778154,-0.49811956,0.999998,5.8522943e-05,-0.00016906174,-0.0020471525,5
225359136,225358918,-0.8669128,-0.03216667,0.004815793,-0.49739766,0.999998,5.8522943e-05,-0.00016906174,-0.0020471525,5
225409187,225408922,-0.86739516,-0.031880323,0.006584697,-0.49655417,0.999998,5.8522943e-05,-0.00016906174,-0.0020471525,5
225459145,225458926,-0.8679632,-0.030233126,0.008997749,-0.49562594,0.999998,5.8522943e-05,-0.00016906174,-0.0020471525,5
225509249,225508930,-0.8686555,-0.027533753,0.011647257,-0.49451378,0.999998,5.8522943e-05,-0.00016906174,-0.0020471525,5
225559155,225558935,-0.8693767,-0.023851627,0.014111122,-0.49337232,0.999998,5.8522943e-05,-0.00016906174,-0.0020471525,5
225609154,225608939,-0.8701091,-0.019804753,0.01595688,-0.4922025,0.999998,5.8522943e-05,-0.00016906174,-0.0020471525,5
225659165,225658944,-0.8708594,-0.015874512,0.01692614,-0.4909842,0.999998,5.8522943e-05,-0.00016906174,-0.0020471525,5
225709277,225708948,-0.87157387,-0.012690914,0.016766433,-0.48981318,0.999998,5.8522943e-05,-0.00016906174,-0.0020471525,5
225759212,225758952,-0.8722051,-0.0108584305,0.01591459,-0.4887608,0.999998,5.8522943e-05,-0.00016906174,-0.0020471525,5
225809193,225808956,-0.872798,-0.010370019,0.014711449,-0.48774958,0.999998,5.8522943e-05,-0.00016906174,-0.0020471525,5
225859183,225858961,-0.8733106,-0.011173609,0.013355892,-0.48685253,0.999998,5.8522943e-05,-0.00016906174,-0.0020471525,5
225909304,225908965,-0.87373585,-0.012765041,0.01233571,-0.48607686,0.999998,5.8522943e-05,-0.00016906174,-0.0020471525,5
225959200,225958969,-0.87413824,-0.014321877,0.0120944865,-0.48531526,0.999998,5.8522943e-05,-0.00016906174,-0.0020471525,5
226009205,226008974,-0.8745274,-0.015309857,0.012553701,-0.48457187,0.999998,5.8522943e-05,-0.00016906174,-0.0020471525,5
226059199,226058978,-0.87491,-0.015447124,0.013865696,-0.48384055,0.999998,5.8522943e-05,-0.00016906174,-0.0020471525,5
226109376,226108982,-0.87536293,-0.014677598,0.0154307615,-0.482997,0.999998,5.8522943e-05,-0.00016906174,-0.0020471525,5
226159210,226158986,-0.8757798,-0.012987565,0.017098786,-0.48223314,0.999998,5.8522943e-05,-0.00016906174,-0.0020471525,5
226209218,226208991,-0.87617874,-0.011156031,0.018414304,-0.48150536,0.999998,5.8522943e-05,-0.00016906174,-0.0020471525,5
226259215,226258995,-0.8765917,-0.00892111,0.019333474,-0.48076385,0.999998,5.8522943e-05,-0.00016906174,-0.0020471525,5
226309389,226308999,-0.87695086,-0.006950694,0.01977069,-0.48012286,0.999998,5.8522943e-05,-0.00016906174,-0.0020471525,5
226359237,226359003,-0.8772448,-0.005400923,0.019805405,-0.4796043,0.999998,5.8522943e-05,-0.00016906174,-0.0020471525,5
226409230,226409008,-0.8775327,-0.0043965206,0.019594118,-0.47909606,0.999998,5.8522943e-05,-0.00016906174,-0.0020471525,5
226459231,226459012,-0.877745,-0.0040995562,0.01925032,-0.47872373,0.999998,5.8522943e-05,-0.00016906174,-0.0020471525,5
226509396,226509016,-0.8779122,-0.0041359435,0.019032853,-0.47842547,0.999998,5.8522943e-05,-0.00016906174,-0.0020471525,5
226559173,226559021,-0.87805223,-0.004592129,0.019044023,-0.47816372,0.999998,5.8522943e-05,-0.00016906174,-0.0020471525,5
226609251,226609025,-0.8781857,-0.0050960593,0.019590318,-0.47789153,0.999998,5.8522943e-05,-0.00016906174,-0.0020471525,5
226659292,226659029,-0.8783385,-0.0054859333,0.020452982,-0.47756994,0.999998,5.8522943e-05,-0.00016906174,-0.0020471525,5
226709417,226709033,-0.8785274,-0.0055525624,0.021475527,-0.47717658,0.999998,5.8522943e-05,-0.00016906174,-0.0020471525,5
226759256,226759038,-0.8787695,-0.005495615,0.022262383,-0.47669533,0.999998,5.8522943e-05,-0.00016906174,-0.0020471525,5
226809265,226809042,-0.87905955,-0.005253553,0.022509756,-0.47615138,0.999998,5.8522943e-05,-0.00016906174,-0.0020471525,5
226859268,226859046,-0.8794455,-0.00498137,0.02192065,-0.4754685,0.999998,5.8522943e-05,-0.00016906174,-0.0020471525,5
226909289,226909051,-0.87985605,-0.004674136,0.020818776,-0.47476122,0.999998,5.8522943e-05,-0.00016906174,-0.0020471525,5
226959274,226959055,-0.88027704,-0.004557379,0.019413352,-0.4740408,0.999998,5.8522943e-05,-0.00016906174,-0.0020471525,5
227009299,227009059,-0.8807331,-0.0044461144,0.017907571,-0.47325358,0.999998,5.8522943e-05,-0.00016906174,-0.0020471525,5
227059280,227059064,-0.8811736,-0.0045615323,0.01649963,-0.47248295,0.999998,5.8522943e-05,-0.00016906174,-0.0020471525,5
227109294,227109068,-0.88156766,-0.0049378993,0.01562888,-0.47177324,0.999998,5.8522943e-05,-0.00016906174,-0.0020471525,5
227159293,227159072,-0.8819377,-0.005363699,0.015323356,-0.47108644,0.999998,5.8522943e-05,-0.00016906174,-0.0020471525,5
227209293,227209077,-0.882253,-0.0057625896,0.015380068,-0.470489,0.999998,5.8522943e-05,-0.00016906174,-0.0020471525,5
227259298,227259081,-0.88251036,-0.0061892085,0.015734093,-0.46998894,0.999998,5.8522943e-05,-0.00016906174,-0.0020471525,5
227309314,227309085,-0.88272727,-0.006247817,0.01626117,-0.46956274,0.999998,5.8522943e-05,-0.00016906174,-0.0020471525,5
227359344,227359090,-0.88284415,-0.006280904,0.016634747,-0.4693294,0.999998,5.8522943e-05,-0.00016906174,-0.0020471525,5
227409315,227409094,-0.882896,-0.0062760618,0.016856242,-0.46922392,0.999998,5.8522943e-05,-0.00016906174,-0.0020471525,5
227459318,227459098,-0.8829128,-0.00659045,0.016737966,-0.46919248,0.999998,5.8522943e-05,-0.00016906174,-0.0020471525,5
227509333,227509102,-0.8828226,-0.006998254,0.016351584,-0.4693698,0.999998,5.8522943e-05,-0.00016906174,-0.0020471525,5
227559324,227559107,-0.8826482,-0.007603293,0.015743496,-0.469709,0.999998,5.8522943e-05,-0.00016906174,-0.0020471525,5
227609331,227609111,-0.8823974,-0.00826291,0.014974323,-0.47019395,0.999998,5.8522943e-05,-0.00016906174,-0.0020471525,5
227659337,227659116,-0.8820376,-0.008801867,0.014386816,-0.47087735,0.999998,5.8522943e-05,-0.00016906174,-0.0020471525,5
227709362,227709120,-0.88160896,-0.009355475,0.014123094,-0.47167656,0.999998,5.8522943e-05,-0.00016906174,-0.0020471525,5
227759340,227759124,-0.8811127,-0.009956828,0.014211641,-0.47258782,0.999998,5.8522943e-05,-0.00016906174,-0.0020471525,5
227809345,227809129,-0.88053524,-0.010264062,0.014496585,-0.47364783,0.999998,5.8522943e-05,-0.00016906174,-0.0020471525,5
227859356,227859133,-0.87993586,-0.010248924,0.014761262,-0.47475255,0.999998,5.8522943e-05,-0.00016906174,-0.0020471525,5
227909405,227909137,-0.87930125,-0.010117144,0.014703644,-0.47593167,0.999998,5.8522943e-05,-0.00016906174,-0.0020471525,5
227959358,227959141,-0.8786195,-0.009479759,0.01427103,-0.4772153,0.999998,5.8522943e-05,-0.00016906174,-0.0020471525,5
228009364,228009146,-0.8779507,-0.008853729,0.0135734,-0.4784766,0.999998,5.8522943e-05,-0.00016906174,-0.0020471525,5
228059423,228059150,-0.87731844,-0.008079656,0.012404306,-0.4796803,0.999998,5.8522943e-05,-0.00016906174,-0.0020471525,5
228109383,228109154,-0.8766285,-0.0073737497,0.010995836,-0.4809856,0.999998,5.8522943e-05,-0.00016906174,-0.0020471525,5
228159383,228159159,-0.87593204,-0.006817388,0.009186171,-0.48229897,0.999998,5.8522943e-05,-0.00016906174,-0.0020471525,5
228209385,228209163,-0.8752042,-0.0065696747,0.007100246,-0.48365697,0.999998,5.8522943e-05,-0.00016906174,-0.0020471525,5
228259429,228259167,-0.8744354,-0.006831998,0.0049128383,-0.48506895,0.999998,5.8522943e-05,-0.00016906174,-0.0020471525,5
228309399,228309172,-0.8736722,-0.007516401,0.003211776,-0.48644653,0.999998,5.8522943e-05,-0.00016906174,-0.0020471525,5
228359398,228359176,-0.872882,-0.008420473,0.002083756,-0.48785427,0.999998,5.8522943e-05,-0.00016906174,-0.0020471525,5
228409401,228409180,-0.87208515,-0.009341745,0.0015461511,-0.48926255,0.999998,5.8522943e-05,-0.00016906174,-0.0020471525,5
228459403,228459185,-0.87131244,-0.00988953,0.0014575097,-0.49062678,0.999998,5.8522943e-05,-0.00016906174,-0.0020471525,5
228509419,228509189,-0.870549,-0.009904406,0.0017312145,-0.49197912,0.999998,5.8522943e-05,-0.00016906174,-0.0020471525,5
228559417,228559193,-0.8697926,-0.009267255,0.002206662,-0.49332568,0.999998,5.8522943e-05,-0.00016906174,-0.0020471525,5
228609457,228609198,-0.86909896,-0.008169875,0.0028927547,-0.4945624,0.999998,5.8522943e-05,-0.00016906174,-0.0020471525,5
228659457,228659202,-0.86842495,-0.006910883,0.0034519616,-0.4957606,0.999998,5.8522943e-05,-0.00016906174,-0.0020471525,5
228709434,228709207,-0.8677589,-0.0055391616,0.0039001922,-0.49693933,0.999998,5.8522943e-05,-0.00016906174,-0.0020471525,5
228759442,228759211,-0.8671589,-0.004620258,0.004170254,-0.49799272,0.999998,5.8522943e-05,-0.00016906174,-0.0020471525,5
228809467,228809215,-0.8665549,-0.0045045475,0.0043597724,-0.4990425,0.999998,5.8522943e-05,-0.00016906174,-0.0020471525,5
228859436,228859220,-0.86598164,-0.005072039,0.004485532,-0.50003,0.999998,5.8522943e-05,-0.00016906174,-0.0020471525,5
228909449,228909224,-0.8654626,-0.006301536,0.0046596797,-0.5009123,0.999998,5.8522943e-05,-0.00016906174,-0.0020471525,5
228959451,228959228,-0.8649828,-0.0077510527,0.0046535977,-0.50172025,0.999998,5.8522943e-05,-0.00016906174,-0.0020471525,5
229009453,229009233,-0.8645624,-0.008983752,0.0046156803,-0.50242406,0.999998,5.8522943e-05,-0.00016906174,-0.0020471525,5
229059458,229059237,-0.8642679,-0.009836982,0.0041587017,-0.5029186,0.999998,5.8522943e-05,-0.00016906174,-0.0020471525,5
229109468,229109241,-0.86403304,-0.010108816,0.0036642903,-0.5033204,0.999998,5.8522943e-05,-0.00016906174,-0.0020471525,5
229159506,229159246,-0.86391103,-0.010090652,0.0028099786,-0.50353557,0.999998,5.8522943e-05,-0.00016906174,-0.0020471525,5
229209482,229209250,-0.86388654,-0.009399672,0.001944196,-0.503595,0.999998,5.8522943e-05,-0.00016906174,-0.0020471525,5
229259471,229259254,-0.8638743,-0.00868802,0.000925594,-0.5036319,0.999998,5.8522943e-05,-0.00016906174,-0.0020471525,5
229309488,229309259,-0.86390483,-0.008142019,-0.00021940177,-0.50358933,0.999998,5.8522943e-05,-0.00016906174,-0.0020471525,5
229359483,229359263,-0.863918,-0.008070088,-0.001376346,-0.5035659,0.999998,5.8522943e-05,-0.00016906174,-0.0020471525,5
229409484,229409268,-0.8639571,-0.008484282,-0.0025034696,-0.5034877,0.999998,5.8522943e-05,-0.00016906174,-0.0020471525,5
229459488,229459272,-0.86402476,-0.008984946,-0.0033654794,-0.5033578,0.999998,5.8522943e-05,-0.00016906174,-0.0020471525,5
229509558,229509276,-0.8640544,-0.009874397,-0.0041569737,-0.50328445,0.999998,5.8522943e-05,-0.00016906174,-0.0020471525,5
229559498,229559281,-0.8641253,-0.0107752,-0.0044816053,-0.50314146,0.999998,5.8522943e-05,-0.00016906174,-0.0020471525,5
229609462,229609285,-0.8641998,-0.011612505,-0.004557066,-0.50299406,0.999998,5.8522943e-05,-0.00016906174,-0.0020471525,5
229659511,229659290,-0.86427873,-0.01208148,-0.004522892,-0.50284773,0.999998,5.8522943e-05,-0.00016906174,-0.0020471525,5
229709525,229709294,-0.8644292,-0.012615587,-0.0044048727,-0.5025769,0.999998,5.8522943e-05,-0.00016906174,-0.0020471525,5
229759522,229759298,-0.8645274,-0.013284391,-0.0041352436,-0.5023932,0.999998,5.8522943e-05,-0.00016906174,-0.0020471525,5
229809536,229809303,-0.8646311,-0.014432334,-0.004141307,-0.50218296,0.999998,5.8522943e-05,-0.00016906174,-0.0020471525,5
229859589,229859307,-0.86478376,-0.015656931,-0.00426073,-0.50188214,0.999998,5.8522943e-05,-0.00016906174,-0.0020471525,5
229909549,229909311,-0.86490035,-0.017161539,-0.0044106436,-0.50163096,0.999998,5.8522943e-05,-0.00016906174,-0.0020471525,5
229959570,229959316,-0.864991,-0.018741218,-0.0046115564,-0.501416,0.999998,5.8522943e-05,-0.00016906174,-0.0020471525,5
230009568,230009320,-0.86515164,-0.020282727,-0.0050480966,-0.5010746,0.999998,5.8522943e-05,-0.00016906174,-0.0020471525,5
230059540,230059324,-0.86523646,-0.021686643,-0.00536642,-0.5008662,0.999998,5.8522943e-05,-0.00016906174,-0.0020471525,5
230109568,230109329,-0.8653118,-0.02311532,-0.0057835486,-0.5006674,0.999998,5.8522943e-05,-0.00016906174,-0.0020471525,5
230159553,230159333,-0.8654277,-0.024265487,-0.0061670677,-0.5004081,0.999998,5.8522943e-05,-0.00016906174,-0.0020471525,5
230209555,230209338,-0.865535,-0.025083454,-0.006762587,-0.50017434,0.999998,5.8522943e-05,-0.00016906174,-0.0020471525,5
230259558,230259342,-0.865652,-0.025554085,-0.0073595396,-0.49993935,0.999998,5.8522943e-05,-0.00016906174,-0.0020471525,5
230309609,230309346,-0.86584693,-0.025656706,-0.00800544,-0.4995867,0.999998,5.8522943e-05,-0.00016906174,-0.0020471525,5
230359570,230359351,-0.8660227,-0.025594803,-0.00859516,-0.49927536,0.999998,5.8522943e-05,-0.00016906174,-0.0020471525,5
230409568,230409355,-0.86618876,-0.02553868,-0.008951793,-0.49898377,0.999998,5.8522943e-05,-0.00016906174,-0.0020471525,5
230459584,230459360,-0.86637527,-0.025530253,-0.008886676,-0.49866134,0.999998,5.8522943e-05,-0.00016906174,-0.0020471525,5
230509599,230509364,-0.8665436,-0.025680065,-0.008332676,-0.49837068,0.999998,5.8522943e-05,-0.00016906174,-0.0020471525,5
230559608,230559368,-0.86669517,-0.02606239,-0.007324015,-0.49810305,0.999998,5.8522943e-05,-0.00016906174,-0.0020471525,5
230609592,230609373,-0.8668442,-0.026639786,-0.006105213,-0.49782953,0.999998,5.8522943e-05,-0.00016906174,-0.0020471525,5
230659625,230659377,-0.86699027,-0.02731588,-0.0049987887,-0.4975509,0.999998,5.8522943e-05,-0.00016906174,-0.0020471525,5
230709619,230709381,-0.8671147,-0.028064346,-0.0038946832,-0.4973021,0.999998,5.8522943e-05,-0.00016906174,-0.0020471525,5
230759605,230759386,-0.86726385,-0.028769258,-0.003120798,-0.49700704,0.999998,5.8522943e-05,-0.00016906174,-0.0020471525,5
230809610,230809390,-0.8673691,-0.029460832,-0.002844257,-0.49678454,0.999998,5.8522943e-05,-0.00016906174,-0.0020471525,5
230859614,230859395,-0.867477,-0.029900488,-0.0032016851,-0.49656764,0.999998,5.8522943e-05,-0.00016906174,-0.0020471525,5
230909639,230909399,-0.8675972,-0.029784879,-0.0038577928,-0.4963597,0.999998,5.8522943e-05,-0.00016906174,-0.0020471525,5
230959627,230959403,-0.8677585,-0.029254647,-0.0049069114,-0.49610016,0.999998,5.8522943e-05,-0.00016906174,-0.0020471525,5
231009647,231009408,-0.86792403,-0.028290851,-0.0062032626,-0.49585173,0.999998,5.8522943e-05,-0.00016906174,-0.0020471525,5
231059633,231059412,-0.868125,-0.027251344,-0.0076549277,-0.49553797,0.999998,5.8522943e-05,-0.00016906174,-0.0020471525,5
231109653,231109417,-0.8683153,-0.02590319,-0.008868056,-0.49525642,0.999998,5.8522943e-05,-0.00016906174,-0.0020471525,5
231159643,231159421,-0.86853176,-0.02463545,-0.009574389,-0.4949284,0.999998,5.8522943e-05,-0.00016906174,-0.0020471525,5
231209678,231209425,-0.8687706,-0.023737315,-0.009449434,-0.49455544,0.999998,5.8522943e-05,-0.00016906174,-0.0020471525,5
231259651,231259430,-0.86899173,-0.023283439,-0.008695239,-0.4942021,0.999998,5.8522943e-05,-0.00016906174,-0.0020471525,5
231309652,231309434,-0.86920226,-0.023090338,-0.007252639,-0.4938641,0.999998,5.8522943e-05,-0.00016906174,-0.0020471525,5
231359686,231359439,-0.86941993,-0.023306144,-0.005334532,-0.49349517,0.999998,5.8522943e-05,-0.00016906174,-0.0020471525,5
231409668,231409443,-0.869608,-0.023791157,-0.0030956166,-0.4931596,0.999998,5.8522943e-05,-0.00016906174,-0.0020471525,5
231459676,231459447,-0.86977077,-0.024286488,-0.0007078873,-0.4928575,0.999998,5.8522943e-05,-0.00016906174,-0.0020471525,5
231509716,231509452,-0.8699527,-0.02452241,0.0014259786,-0.4925232,0.999998,5.8522943e-05,-0.00016906174,-0.0020471525,5
231559723,231559459,-0.8701265,-0.024528414,0.0030271423,-0.4922083,0.999998,5.8522943e-05,-0.00016906174,-0.0020471525,5
231609681,231609461,-0.87034893,-0.024026943,0.0039414917,-0.49183336,0.999998,5.8522943e-05,-0.00016906174,-0.0020471525,5
231659691,231659465,-0.87062645,-0.023036575,0.0043330537,-0.49138585,0.999998,5.8522943e-05,-0.00016906174,-0.0020471525,5
231709692,231709470,-0.87091595,-0.021498753,0.004484251,-0.49094114,0.999998,5.8522943e-05,-0.00016906174,-0.0020471525,5
231759694,231759474,-0.87121326,-0.019919423,0.004308326,-0.4904816,0.999998,5.8522943e-05,-0.00016906174,-0.0020471525,5
231809697,231809478,-0.8715239,-0.018882649,0.004162933,-0.48997176,0.999998,5.8522943e-05,-0.00016906174,-0.0020471525,5
231859707,231859483,-0.87177694,-0.018491967,0.0041887853,-0.48953623,0.999998,5.8522943e-05,-0.00016906174,-0.0020471525,5
231909783,231909487,-0.87199783,-0.01886766,0.0043914495,-0.4891263,0.999998,5.8522943e-05,-0.00016906174,-0.0020471525,5
231959711,231959491,-0.8722177,-0.01977143,0.0047561484,-0.48869497,0.999998,5.8522943e-05,-0.00016906174,-0.0020471525,5
232009720,232009496,-0.87238955,-0.02124984,0.0052953414,-0.48832062,0.999998,5.8522943e-05,-0.00016906174,-0.0020471525,5
232059723,232059500,-0.8726033,-0.02296239,0.0059801885,-0.48785287,0.999998,5.8522943e-05,-0.00016906174,-0.0020471525,5
232109723,232109505,-0.8728203,-0.02449032,0.0065821377,-0.48738235,0.999998,5.8522943e-05,-0.00016906174,-0.0020471525,5
232159765,232159509,-0.8731204,-0.025437694,0.007351795,-0.48678496,0.999998,5.8522943e-05,-0.00016906174,-0.0020471525,5
232209741,232209514,-0.87354934,-0.025630187,0.008231827,-0.4859908,0.999998,5.8522943e-05,-0.00016906174,-0.0020471525,5
232259743,232259518,-0.8741011,-0.025014864,0.009316328,-0.48501018,0.999998,5.8522943e-05,-0.00016906174,-0.0020471525,5
232309747,232309522,-0.87474436,-0.023740178,0.010487782,-0.4838893,0.999998,5.8522943e-05,-0.00016906174,-0.0020471525,5
232359797,232359527,-0.875494,-0.0222908,0.011597281,-0.48257545,0.999998,5.8522943e-05,-0.00016906174,-0.0020471525,5
232409754,232409531,-0.87629,-0.020917846,0.012523123,-0.48116663,0.999998,5.8522943e-05,-0.00016906174,-0.0020471525,5
232459760,232459536,-0.8771003,-0.019946221,0.012987434,-0.47971714,0.999998,5.8522943e-05,-0.00016906174,-0.0020471525,5
232509765,232509540,-0.87793815,-0.019629428,0.013117686,-0.47819164,0.999998,5.8522943e-05,-0.00016906174,-0.0020471525,5
232559770,232559545,-0.87876177,-0.019866725,0.012876404,-0.47667322,0.999998,5.8522943e-05,-0.00016906174,-0.0020471525,5
232609770,232609549,-0.87957466,-0.020623835,0.012392511,-0.47515205,0.999998,5.8522943e-05,-0.00016906174,-0.0020471525,5
232659772,232659554,-0.8804271,-0.021724155,0.012036516,-0.47353077,0.999998,5.8522943e-05,-0.00016906174,-0.0020471525,5
232709830,232709558,-0.8812799,-0.023053193,0.011752776,-0.47188586,0.999998,5.8522943e-05,-0.00016906174,-0.0020471525,5
232759779,232759562,-0.88213,-0.024390552,0.011699231,-0.47022855,0.999998,5.8522943e-05,-0.00016906174,-0.0020471525,5
232809784,232809567,-0.88303345,-0.025373558,0.011764389,-0.4684759,0.999998,5.8522943e-05,-0.00016906174,-0.0020471525,5
232859789,232859571,-0.88393366,-0.025668513,0.012090884,-0.4667508,0.999998,5.8522943e-05,-0.00016906174,-0.0020471525,5
232909792,232909576,-0.8848449,-0.025266014,0.01250096,-0.46503213,0.999998,5.8522943e-05,-0.00016906174,-0.0020471525,5
232959817,232959580,-0.88578916,-0.02425465,0.012897139,-0.4632743,0.999998,5.8522943e-05,-0.00016906174,-0.0020471525,5
233009821,233009585,-0.8867119,-0.022904718,0.013452028,-0.46155897,0.999998,5.8522943e-05,-0.00016906174,-0.0020471525,5
233059815,233059589,-0.8876197,-0.021573767,0.014105973,-0.4598555,0.999998,5.8522943e-05,-0.00016906174,-0.0020471525,5
233109846,233109593,-0.88849086,-0.02069379,0.014688543,-0.4581922,0.999998,5.8522943e-05,-0.00016906174,-0.0020471525,5
233159863,233159598,-0.88933367,-0.020269306,0.015244818,-0.4565548,0.999998,5.8522943e-05,-0.00016906174,-0.0020471525,5
233209825,233209603,-0.8901272,-0.020415707,0.015854266,-0.45497847,0.999998,5.8522943e-05,-0.00016906174,-0.0020471525,5
233259827,233259607,-0.8908953,-0.020863378,0.016554518,-0.45342728,0.999998,5.8522943e-05,-0.00016906174,-0.0020471525,5
233309836,233309613,-0.8916388,-0.021463789,0.017103348,-0.45191485,0.999998,5.8522943e-05,-0.00016906174,-0.0020471525,5
233359842,233359618,-0.89235055,-0.022074407,0.017566299,-0.45046055,0.999998,5.8522943e-05,-0.00016906174,-0.0020471525,5
233409842,233409620,-0.89306873,-0.022684166,0.017922353,-0.44899058,0.999998,5.8522943e-05,-0.00016906174,-0.0020471525,5
233459843,233459625,-0.8937534,-0.023165254,0.018054947,-0.44759616,0.999998,5.8522943e-05,-0.00016906174,-0.0020471525,5
233509856,233509629,-0.8944207,-0.023548223,0.01801038,-0.44624287,0.999998,5.8522943e-05,-0.00016906174,-0.0020471525,5
233559856,233559633,-0.8950896,-0.023538934,0.01798002,-0.4449013,0.999998,5.8522943e-05,-0.00016906174,-0.0020471525,5
233609901,233609638,-0.89577,-0.023073355,0.017853567,-0.44355956,0.999998,5.8522943e-05,-0.00016906174,-0.0020471525,5
233659865,233659643,-0.8964391,-0.022171272,0.01775118,-0.44225582,0.999998,5.8522943e-05,-0.00016906174,-0.0020471525,5
233709865,233709647,-0.8971462,-0.020870473,0.01768243,-0.440886,0.999998,5.8522943e-05,-0.00016906174,-0.0020471525,5
233759888,233759651,-0.89781505,-0.019394353,0.017646095,-0.43959153,0.999998,5.8522943e-05,-0.00016906174,-0.0020471525,5
233809876,233809656,-0.8984638,-0.018092804,0.017578786,-0.4383224,0.999998,5.8522943e-05,-0.00016906174,-0.0020471525,5
233859881,233859660,-0.89909893,-0.017109763,0.017701037,-0.4370526,0.999998,5.8522943e-05,-0.00016906174,-0.0020471525,5
233909886,233909665,-0.89972085,-0.01643603,0.017833572,-0.43579167,0.999998,5.8522943e-05,-0.00016906174,-0.0020471525,5
233959924,233959669,-0.9003333,-0.01607562,0.018063048,-0.43452874,0.999998,5.8522943e-05,-0.00016906174,-0.0020471525,5
234009898,234009674,-0.90093446,-0.016069325,0.018203711,-0.43327546,0.999998,5.8522943e-05,-0.00016906174,-0.0020471525,5
234059898,234059678,-0.90151364,-0.016327891,0.018253624,-0.43205726,0.999998,5.8522943e-05,-0.00016906174,-0.0020471525,5
234109903,234109683,-0.902076,-0.016831975,0.018100854,-0.43086898,0.999998,5.8522943e-05,-0.00016906174,-0.0020471525,5
234159907,234159688,-0.9026407,-0.017319214,0.017680291,-0.4296827,0.999998,5.8522943e-05,-0.00016906174,-0.0020471525,5
234209909,234209692,-0.9031909,-0.017692443,0.017082801,-0.4285342,0.999998,5.8522943e-05,-0.00016906174,-0.0020471525,5
234259914,234259696,-0.90373117,-0.017750427,0.016328726,-0.4274206,0.999998,5.8522943e-05,-0.00016906174,-0.0020471525,5
234309939,234309701,-0.90427387,-0.017599609,0.015404071,-0.42631188,0.999998,5.8522943e-05,-0.00016906174,-0.0020471525,5
234359924,234359705,-0.90480185,-0.017053938,0.014370609,-0.42524844,0.999998,5.8522943e-05,-0.00016906174,-0.0020471525,5
234409928,234409709,-0.90531677,-0.01626328,0.013390514,-0.42421424,0.999998,5.8522943e-05,-0.00016906174,-0.0020471525,5
234459934,234459714,-0.90581083,-0.015288452,0.012637795,-0.42321777,0.999998,5.8522943e-05,-0.00016906174,-0.0020471525,5
234509967,234509718,-0.9062869,-0.0142912185,0.012064058,-0.4222492,0.999998,5.8522943e-05,-0.00016906174,-0.0020471525,5
234559942,234559723,-0.9067254,-0.013473758,0.01173549,-0.421343,0.999998,5.8522943e-05,-0.00016906174,-0.0020471525,5
234609946,234609727,-0.9071411,-0.013024123,0.0114661325,-0.42046866,0.999998,5.8522943e-05,-0.00016906174,-0.0020471525,5
234659962,234659732,-0.90752697,-0.012811068,0.011311814,-0.41964605,0.999998,5.8522943e-05,-0.00016906174,-0.0020471525,5
234709894,234709736,-0.9078728,-0.013122255,0.0110275755,-0.41889527,0.999998,5.8522943e-05,-0.00016906174,-0.0020471525,5
234759959,234759741,-0.9081807,-0.013735974,0.010679896,-0.41821656,0.999998,5.8522943e-05,-0.00016906174,-0.0020471525,5
234809964,234809745,-0.90844685,-0.014636486,0.010114203,-0.4176216,0.999998,5.8522943e-05,-0.00016906174,-0.0020471525,5
234860010,234859750,-0.908707,-0.015546372,0.009352083,-0.41704038,0.999998,5.8522943e-05,-0.00016906174,-0.0020471525,5
234909977,234909754,-0.9089468,-0.016208513,0.008548242,-0.41650924,0.999998,5.8522943e-05,-0.00016906174,-0.0020471525,5
234959991,234959759,-0.90917367,-0.016302291,0.007856874,-0.4160236,0.999998,5.8522943e-05,-0.00016906174,-0.0020471525,5
235009980,235009763,-0.90939647,-0.015943898,0.0072921277,-0.41556066,0.999998,5.8522943e-05,-0.00016906174,-0.0020471525,5
235059987,235059768,-0.9096159,-0.015196533,0.006904593,-0.41511503,0.999998,5.8522943e-05,-0.00016906174,-0.0020471525,5
235109991,235109772,-0.9098293,-0.01422378,0.0067575644,-0.41468388,0.999998,5.8522943e-05,-0.00016906174,-0.0020471525,5
235160006,235159777,-0.91002244,-0.013225888,0.006765531,-0.41429284,0.999998,5.8522943e-05,-0.00016906174,-0.0020471525,5
235210053,235209781,-0.91020995,-0.012398099,0.006926749,-0.4139037,0.999998,5.8522943e-05,-0.00016906174,-0.0020471525,5
235260001,235259786,-0.9103901,-0.011495474,0.0068430984,-0.41353455,0.999998,5.8522943e-05,-0.00016906174,-0.0020471525,5
235310006,235309790,-0.9105534,-0.0110154925,0.006548713,-0.41319275,0.999998,5.8522943e-05,-0.00016906174,-0.0020471525,5
235360014,235359795,-0.91072214,-0.010651597,0.0059517524,-0.4128393,0.999998,5.8522943e-05,-0.00016906174,-0.0020471525,5
235410019,235409799,-0.9108755,-0.010546952,0.0051854034,-0.41251394,0.999998,5.8522943e-05,-0.00016906174,-0.0020471525,5
235460023,235459804,-0.91104245,-0.010364793,0.0043091136,-0.41215965,0.999998,5.8522943e-05,-0.00016906174,-0.0020471525,5
235510026,235509808,-0.9112126,-0.010306957,0.0036476175,-0.41179115,0.999998,5.8522943e-05,-0.00016906174,-0.0020471525,5
235560082,235559813,-0.9113951,-0.010258933,0.0031262438,-0.41139287,0.999998,5.8522943e-05,-0.00016906174,-0.0020471525,5
235610035,235609817,-0.9116136,-0.01053522,0.0032176352,-0.41090077,0.999998,5.8522943e-05,-0.00016906174,-0.0020471525,5
235660040,235659822,-0.9118205,-0.011070289,0.0036226832,-0.41042405,0.999998,5.8522943e-05,-0.00016906174,-0.0020471525,5
235710058,235709826,-0.91206664,-0.012029566,0.004515959,-0.4098408,0.999998,5.8522943e-05,-0.00016906174,-0.0020471525,5
235760084,235759831,-0.9123802,-0.012917913,0.005711747,-0.40910015,0.999998,5.8522943e-05,-0.00016906174,-0.0020471525,5
235810053,235809835,-0.9126935,-0.013580571,0.0069244197,-0.40836042,0.999998,5.8522943e-05,-0.00016906174,-0.0020471525,5
235860056,235859840,-0.91304463,-0.014084155,0.007807704,-0.40754166,0.999998,5.8522943e-05,-0.00016906174,-0.0020471525,5
235910062,235909844,-0.91341627,-0.014369506,0.00791197,-0.40669614,0.999998,5.8522943e-05,-0.00016906174,-0.0020471525,5
235960113,235959849,-0.9137661,-0.014641315,0.007382856,-0.40590966,0.999998,5.8522943e-05,-0.00016906174,-0.0020471525,5
236010099,236009853,-0.91408235,-0.014691894,0.00607523,-0.40521708,0.999998,5.8522943e-05,-0.00016906174,-0.0020471525,5
236060092,236059858,-0.91436243,-0.015090202,0.00426777,-0.40459284,0.999998,5.8522943e-05,-0.00016906174,-0.0020471525,5
236110083,236109862,-0.91456836,-0.01574411,0.0019888976,-0.40412,0.999998,5.8522943e-05,-0.00016906174,-0.0020471525,5
236160127,236159867,-0.9146818,-0.016906707,-0.0003819608,-0.40382087,0.999998,5.8522943e-05,-0.00016906174,-0.0020471525,5
236210091,236209871,-0.9147408,-0.018169649,-0.0024414123,-0.403625,0.999998,5.8522943e-05,-0.00016906174,-0.0020471525,5
236260116,236259876,-0.91473174,-0.019507088,-0.003788665,-0.40357304,0.999998,5.8522943e-05,-0.00016906174,-0.0020471525,5
236310096,236309880,-0.914682,-0.020628447,-0.0046065846,-0.4036212,0.999998,5.8522943e-05,-0.00016906174,-0.0020471525,5
236360199,236359885,-0.91461676,-0.0212996,-0.0047018705,-0.40373304,0.999998,5.8522943e-05,-0.00016906174,-0.0020471525,5
236410144,236409889,-0.91454244,-0.021798935,-0.004421945,-0.40387797,0.999998,5.8522943e-05,-0.00016906174,-0.0020471525,5
236460110,236459894,-0.9144352,-0.021943484,-0.0040775207,-0.40411657,0.999998,5.8522943e-05,-0.00016906174,-0.0020471525,5
236510117,236509899,-0.91431236,-0.02204779,-0.003560708,-0.4043937,0.999998,5.8522943e-05,-0.00016906174,-0.0020471525,5
236560189,236559903,-0.91413677,-0.022556655,-0.0030738467,-0.40476638,0.999998,5.8522943e-05,-0.00016906174,-0.0020471525,5
236610124,236609908,-0.91392076,-0.023100216,-0.0028443395,-0.40522483,0.999998,5.8522943e-05,-0.00016906174,-0.0020471525,5
236660131,236659912,-0.9136853,-0.023912355,-0.0028590802,-0.40570816,0.999998,5.8522943e-05,-0.00016906174,-0.0020471525,5
236710138,236709917,-0.9133706,-0.025114976,-0.0029207459,-0.40634322,0.999998,5.8522943e-05,-0.00016906174,-0.0020471525,5
236760212,236759921,-0.9129743,-0.026499093,-0.0035594467,-0.40714014,0.999998,5.8522943e-05,-0.00016906174,-0.0020471525,5
236810167,236809925,-0.9126034,-0.027492791,-0.004738295,-0.4078932,0.999998,5.8522943e-05,-0.00016906174,-0.0020471525,5
236860147,236859930,-0.91214114,-0.027883455,-0.006141818,-0.40888068,0.999998,5.8522943e-05,-0.00016906174,-0.0020471525,5
236910151,236909935,-0.9116837,-0.027133163,-0.007424206,-0.4099287,0.999998,5.8522943e-05,-0.00016906174,-0.0020471525,5
236960244,236959939,-0.9112723,-0.025835726,-0.008301253,-0.41090927,0.999998,5.8522943e-05,-0.00016906174,-0.0020471525,5
237010213,237009944,-0.9108156,-0.02415802,-0.008097726,-0.41202644,0.999998,5.8522943e-05,-0.00016906174,-0.0020471525,5
237060172,237059948,-0.9103622,-0.02283546,-0.007098759,-0.41312104,0.999998,5.8522943e-05,-0.00016906174,-0.0020471525,5
237110173,237109953,-0.9099275,-0.021648295,-0.0053791148,-0.4141671,0.999998,5.8522943e-05,-0.00016906174,-0.0020471525,5
237160277,237159957,-0.90948373,-0.020522965,-0.0029720867,-0.41522214,0.999998,5.8522943e-05,-0.00016906174,-0.0020471525,5
237210196,237209962,-0.908996,-0.01983683,-0.00046414844,-0.4163324,0.999998,5.8522943e-05,-0.00016906174,-0.0020471525,5
237260186,237259967,-0.9085437,-0.019521605,0.0013329062,-0.41733146,0.999998,5.8522943e-05,-0.00016906174,-0.0020471525,5
237310195,237309971,-0.9080573,-0.019695198,0.0026178586,-0.4183746,0.999998,5.8522943e-05,-0.00016906174,-0.0020471525,5
237360338,237359975,-0.9075918,-0.020616893,0.0032096351,-0.41933498,0.999998,5.8522943e-05,-0.00016906174,-0.0020471525,5
237410200,237409980,-0.90715075,-0.022259803,0.002946842,-0.42020652,0.999998,5.8522943e-05,-0.00016906174,-0.0020471525,5
237460206,237459985,-0.9067086,-0.02453249,0.001974587,-0.42103904,0.999998,5.8522943e-05,-0.00016906174,-0.0020471525,5
237510205,237509989,-0.90638304,-0.026468566,0.00037288765,-0.4216267,0.999998,5.8522943e-05,-0.00016906174,-0.0020471525,5
237560323,237559993,-0.9061376,-0.027874975,-0.0008692969,-0.42206255,0.999998,5.8522943e-05,-0.00016906174,-0.0020471525,5
237610216,237609998,-0.90602386,-0.028299302,-0.0015980861,-0.42227647,0.999998,5.8522943e-05,-0.00016906174,-0.0020471525,5
237660220,237660003,-0.9060233,-0.027471356,-0.0012264142,-0.42233372,0.999998,5.8522943e-05,-0.00016906174,-0.0020471525,5
237710272,237710007,-0.90607744,-0.02600363,2.4279883e-05,-0.42231193,0.999998,5.8522943e-05,-0.00016906174,-0.0020471525,5
237760343,237760012,-0.90622306,-0.023889273,0.0023288494,-0.42211822,0.999998,5.8522943e-05,-0.00016906174,-0.0020471525,5
237810235,237810016,-0.90641505,-0.021496166,0.0047758366,-0.4218138,0.999998,5.8522943e-05,-0.00016906174,-0.0020471525,5
237860251,237860021,-0.9066487,-0.019296933,0.006819807,-0.4213898,0.999998,5.8522943e-05,-0.00016906174,-0.0020471525,5
237910244,237910026,-0.90689695,-0.017454125,0.0081245415,-0.42091238,0.999998,5.8522943e-05,-0.00016906174,-0.0020471525,5
237960395,237960030,-0.9071376,-0.016165312,0.008118787,-0.4204453,0.999998,5.8522943e-05,-0.00016906174,-0.0020471525,5
238010256,238010034,-0.90738577,-0.015526955,0.007135977,-0.41995132,0.999998,5.8522943e-05,-0.00016906174,-0.0020471525,5
238060276,238060039,-0.9076028,-0.015161886,0.0052973116,-0.4195227,0.999998,5.8522943e-05,-0.00016906174,-0.0020471525,5
238110264,238110044,-0.90779454,-0.014739449,0.0034779825,-0.41914156,0.999998,5.8522943e-05,-0.00016906174,-0.0020471525,5
238160455,238160048,-0.9079714,-0.01482356,0.0018324574,-0.41876614,0.999998,5.8522943e-05,-0.00016906174,-0.0020471525,5
238210277,238210053,-0.90813833,-0.015383235,0.0010996581,-0.41838637,0.999998,5.8522943e-05,-0.00016906174,-0.0020471525,5
238260344,238260057,-0.90831786,-0.016832642,0.0011611274,-0.41794023,0.999998,5.8522943e-05,-0.00016906174,-0.0020471525,5
238310278,238310062,-0.90851754,-0.018496117,0.0017600643,-0.4174337,0.999998,5.8522943e-05,-0.00016906174,-0.0020471525,5
238360469,238360067,-0.90872717,-0.02007661,0.0026214167,-0.41689938,0.999998,5.8522943e-05,-0.00016906174,-0.0020471525,5
238410293,238410071,-0.9089201,-0.021106761,0.0036586819,-0.41641957,0.999998,5.8522943e-05,-0.00016906174,-0.0020471525,5
238460294,238460076,-0.90914106,-0.021305816,0.0044107446,-0.41591957,0.999998,5.8522943e-05,-0.00016906174,-0.0020471525,5
238510303,238510080,-0.90931106,-0.020704152,0.0052497108,-0.4155687,0.999998,5.8522943e-05,-0.00016906174,-0.0020471525,5
238560489,238560087,-0.9094453,-0.01966801,0.0057490347,-0.41531852,0.999998,5.8522943e-05,-0.00016906174,-0.0020471525,5
238610366,238610089,-0.9095229,-0.01847934,0.005841944,-0.41520175,0.999998,5.8522943e-05,-0.00016906174,-0.0020471525,5
238660315,238660094,-0.9095277,-0.017672183,0.005528152,-0.41523087,0.999998,5.8522943e-05,-0.00016906174,-0.0020471525,5
238710320,238710099,-0.90949667,-0.01715206,0.005083171,-0.415326,0.999998,5.8522943e-05,-0.00016906174,-0.0020471525,5
238760366,238760103,-0.90944535,-0.017316429,0.004762709,-0.41543558,0.999998,5.8522943e-05,-0.00016906174,-0.0020471525,5
238810329,238810108,-0.9093293,-0.018148463,0.004421736,-0.4156579,0.999998,5.8522943e-05,-0.00016906174,-0.0020471525,5
238860335,238860112,-0.9092332,-0.01927829,0.003716132,-0.41582388,0.999998,5.8522943e-05,-0.00016906174,-0.0020471525,5
238910356,238910117,-0.90914965,-0.020710465,0.0029097393,-0.4159441,0.999998,5.8522943e-05,-0.00016906174,-0.0020471525,5
238960348,238960121,-0.9090613,-0.021965606,0.0020802307,-0.4160779,0.999998,5.8522943e-05,-0.00016906174,-0.0020471525,5
239010344,239010126,-0.90897685,-0.023171712,0.001595329,-0.41619927,0.999998,5.8522943e-05,-0.00016906174,-0.0020471525,5
239060345,239060131,-0.90894157,-0.023758803,0.0017418592,-0.41624224,0.999998,5.8522943e-05,-0.00016906174,-0.0020471525,5
239110359,239110135,-0.9088582,-0.024134055,0.0025941087,-0.4163984,0.999998,5.8522943e-05,-0.00016906174,-0.0020471525,5
239160400,239160140,-0.90880907,-0.023765579,0.0036649576,-0.41651902,0.999998,5.8522943e-05,-0.00016906174,-0.0020471525,5
239210361,239210144,-0.9087466,-0.022947622,0.0051242793,-0.41668534,0.999998,5.8522943e-05,-0.00016906174,-0.0020471525,5
239260366,239260149,-0.908679,-0.021544272,0.006355023,-0.41689083,0.999998,5.8522943e-05,-0.00016906174,-0.0020471525,5
239310368,239310153,-0.9085978,-0.020188117,0.0072528953,-0.41712102,0.999998,5.8522943e-05,-0.00016906174,-0.0020471525,5
239360382,239360158,-0.90846324,-0.019104596,0.0076167495,-0.41745865,0.999998,5.8522943e-05,-0.00016906174,-0.0020471525,5
239410396,239410163,-0.9083142,-0.01876193,0.007773122,-0.4177952,0.999998,5.8522943e-05,-0.00016906174,-0.0020471525,5
239460387,239460167,-0.9081286,-0.019313725,0.007527051,-0.41817787,0.999998,5.8522943e-05,-0.00016906174,-0.0020471525,5
239505424,239505171,-0.90795887,-0.020180691,0.0073970477,-0.41850784,0.999998,5.8522943e-05,-0.00016906174,-0.0020471525,5
239560405,239560176,-0.90777373,-0.021259144,0.0073727746,-0.41885644,0.999998,5.8522943e-05,-0.00016906174,-0.0020471525,5
239610398,239610181,-0.907633,-0.021897048,0.007298586,-0.4191296,0.999998,5.8522943e-05,-0.00016906174,-0.0020471525,5
239660403,239660185,-0.90747917,-0.022522373,0.0074273264,-0.41942725,0.999998,5.8522943e-05,-0.00016906174,-0.0020471525,5
239710412,239710190,-0.90733707,-0.02288603,0.0072607673,-0.4197178,0.999998,5.8522943e-05,-0.00016906174,-0.0020471525,5
239760425,239760195,-0.9071966,-0.023155669,0.0070937546,-0.42000926,0.999998,5.8522943e-05,-0.00016906174,-0.0020471525,5
239810352,239810199,-0.9070806,-0.023337789,0.0069178706,-0.42025277,0.999998,5.8522943e-05,-0.00016906174,-0.0020471525,5
239855457,239855203,-0.90695125,-0.023537546,0.0066651115,-0.42052487,0.999998,5.8522943e-05,-0.00016906174,-0.0020471525,5
239910424,239910208,-0.9068209,-0.023628345,0.006412348,-0.42080444,0.999998,5.8522943e-05,-0.00016906174,-0.0020471525,5
239960441,239960213,-0.90673625,-0.023497337,0.006349615,-0.42099527,0.999998,5.8522943e-05,-0.00016906174,-0.0020471525,5
240010447,240010218,-0.9066295,-0.023069402,0.006593387,-0.42124507,0.999998,5.8522943e-05,-0.00016906174,-0.0020471525,5
240060440,240060222,-0.90659064,-0.02243428,0.0068573053,-0.42135864,0.999998,5.8522943e-05,-0.00016906174,-0.0020471525,5
240110447,240110227,-0.9065331,-0.0218158,0.0072818096,-0.42150772,0.999998,5.8522943e-05,-0.00016906174,-0.0020471525,5
240160492,240160231,-0.90648246,-0.021150406,0.007508392,-0.42164654,0.999998,5.8522943e-05,-0.00016906174,-0.0020471525,5
240205473,240205235,-0.90645784,-0.020605713,0.007715083,-0.4217229,0.999998,5.8522943e-05,-0.00016906174,-0.0020471525,5
240260464,240260241,-0.9064226,-0.020171931,0.00793429,-0.42181548,0.999998,5.8522943e-05,-0.00016906174,-0.0020471525,5
240310488,240310245,-0.906386,-0.019936536,0.008153642,-0.4219011,0.999998,5.8522943e-05,-0.00016906174,-0.0020471525,5
240360477,240360250,-0.9063338,-0.020013217,0.008432974,-0.42200404,0.999998,5.8522943e-05,-0.00016906174,-0.0020471525,5
240410471,240410254,-0.90626943,-0.020098502,0.008664258,-0.42213356,0.999998,5.8522943e-05,-0.00016906174,-0.0020471525,5
240460480,240460259,-0.9061862,-0.02025212,0.008675699,-0.42230454,0.999998,5.8522943e-05,-0.00016906174,-0.0020471525,5
240510488,240510264,-0.9061081,-0.0203183,0.008489336,-0.42247295,0.999998,5.8522943e-05,-0.00016906174,-0.0020471525,5
240555498,240555268,-0.9060401,-0.020399684,0.008054528,-0.42262325,0.999998,5.8522943e-05,-0.00016906174,-0.0020471525,5
240610496,240610273,-0.90593964,-0.020575356,0.007534669,-0.42283967,0.999998,5.8522943e-05,-0.00016906174,-0.0020471525,5
240660496,240660277,-0.90590405,-0.020454999,0.0071495688,-0.4229283,0.999998,5.8522943e-05,-0.00016906174,-0.0020471525,5
240710498,240710282,-0.90588766,-0.020087129,0.007189121,-0.42298037,0.999998,5.8522943e-05,-0.00016906174,-0.0020471525,5
240760517,240760287,-0.9058861,-0.019467006,0.0072765746,-0.42301124,0.999998,5.8522943e-05,-0.00016906174,-0.0020471525,5
240810511,240810291,-0.90591663,-0.018717961,0.007543064,-0.422975,0.999998,5.8522943e-05,-0.00016906174,-0.0020471525,5
240860510,240860296,-0.9059598,-0.017942194,0.007869786,-0.42291015,0.999998,5.8522943e-05,-0.00016906174,-0.0020471525,5
240905529,240905300,-0.9059687,-0.017406868,0.007911687,-0.42291272,0.999998,5.8522943e-05,-0.00016906174,-0.0020471525,5
240960546,240960305,-0.90602535,-0.017094936,0.007831206,-0.4228055,0.999998,5.8522943e-05,-0.00016906174,-0.0020471525,5
241010530,241010310,-0.90608484,-0.016811348,0.007599483,-0.42269367,0.999998,5.8522943e-05,-0.00016906174,-0.0020471525,5
241060534,241060314,-0.9060921,-0.016731774,0.007427351,-0.4226841,0.999998,5.8522943e-05,-0.00016906174,-0.0020471525,5
241110542,241110319,-0.90616673,-0.016651941,0.0071619605,-0.42253214,0.999998,5.8522943e-05,-0.00016906174,-0.0020471525,5
241160552,241160323,-0.9062355,-0.016594658,0.007004797,-0.4223894,0.999998,5.8522943e-05,-0.00016906174,-0.0020471525,5
241210546,241210328,-0.90631944,-0.01658022,0.0065075634,-0.4222178,0.999998,5.8522943e-05,-0.00016906174,-0.0020471525,5
241255548,241255332,-0.90645546,-0.01661954,0.005921028,-0.42193285,0.999998,5.8522943e-05,-0.00016906174,-0.0020471525,5
241310555,241310337,-0.9066234,-0.016393485,0.005156941,-0.42159078,0.999998,5.8522943e-05,-0.00016906174,-0.0020471525,5
241360576,241360342,-0.9068197,-0.016150324,0.0042055086,-0.4211884,0.999998,5.8522943e-05,-0.00016906174,-0.0020471525,5
241410568,241410347,-0.9070187,-0.015803002,0.003159294,-0.42078203,0.999998,5.8522943e-05,-0.00016906174,-0.0020471525,5
241460590,241460351,-0.9072515,-0.0156464,0.0021422808,-0.42029208,0.999998,5.8522943e-05,-0.00016906174,-0.0020471525,5
241510573,241510356,-0.90745574,-0.015840158,0.0012947535,-0.41984695,0.999998,5.8522943e-05,-0.00016906174,-0.0020471525,5
241560617,241560360,-0.90767205,-0.016521027,0.00062605395,-0.41935435,0.999998,5.8522943e-05,-0.00016906174,-0.0020471525,5
