timestamp,timestamp_sample,q[0],q[1],q[2],q[3],delta_q_reset[0],delta_q_reset[1],delta_q_reset[2],delta_q_reset[3],quat_reset_counter
217903573,217903294,-0.85533935,-0.021045629,-0.00048640705,-0.5176404,0.999999,1.812642e-09,8.9957874e-10,-0.0014232155,3
218403620,218403335,-0.8549649,-0.021122675,-0.0005542936,-0.51825523,0.999999,1.812642e-09,8.9957874e-10,-0.0014232155,3
218903686,218903376,-0.8546384,-0.021240855,-0.00056210835,-0.5187889,0.999999,1.812642e-09,8.9957874e-10,-0.0014232155,3
219403690,219403418,-0.8542729,-0.021078674,-0.00047353312,-0.51939696,0.999999,1.812642e-09,8.9957874e-10,-0.0014232155,3
219903764,219903459,-0.8538646,-0.020083012,4.8739195e-05,-0.52010775,0.999999,1.812642e-09,8.9957874e-10,-0.0014232155,3
220403774,220403500,-0.85291404,-0.017074207,0.00040968182,-0.5217719,0.999999,1.812642e-09,8.9957874e-10,-0.0014232155,3
220903812,220903542,-0.8522936,-0.011765382,0.001016718,-0.52293056,0.999999,1.812642e-09,8.9957874e-10,-0.0014232155,3
221403859,221403584,-0.8517287,-0.008079008,-0.002463078,-0.52391493,0.999999,1.812642e-09,8.9957874e-10,-0.0014232155,3
221903893,221903626,-0.8496657,0.00504069,-0.01296549,-0.52713835,0.999999,1.812642e-09,8.9957874e-10,-0.0014232155,3
222403957,222403667,-0.8385137,0.0019984834,-0.013461617,-0.54471076,0.999999,1.812642e-09,8.9957874e-10,-0.0014232155,3
222904006,222903710,-0.8283941,0.0068506273,-0.0068380036,-0.5600621,0.999999,1.812642e-09,8.9957874e-10,-0.0014232155,3
223404061,223403752,-0.8297209,-0.00962432,0.0058823326,-0.5580646,0.999999,1.812642e-09,8.9957874e-10,-0.0014232155,3
223899519,223898794,-0.8330202,-0.026704159,-0.0026731393,-0.5525913,0.999999,1.812642e-09,8.9957874e-10,-0.0014232155,3
224404124,224403836,-0.83739805,-0.039966345,0.011448296,-0.54501027,0.999999,1.812642e-09,8.9957874e-10,-0.0014232155,3
224904291,224903879,-0.83817226,-0.023699222,0.017065736,-0.5446233,0.999999,1.812642e-09,8.9957874e-10,-0.0014232155,3
225404233,225403922,-0.8383254,-0.03268505,0.004373154,-0.5441719,0.999999,1.812642e-09,8.9957874e-10,-0.0014232155,3
225904291,225903964,-0.84267837,-0.013643981,0.0114206085,-0.5381233,0.999999,1.812642e-09,8.9957874e-10,-0.0014232155,3
226404276,226404007,0.873743,0.0050055706,-0.019464906,0.48597258,-0.99832785,-2.438307e-09,1.7469284e-10,0.057806443,4
226904328,226904050,0.8723884,0.005141155,-0.020749174,0.48834574,-0.99832785,-2.438307e-09,1.7469284e-10,0.057806443,4
227399614,227399093,0.8721403,0.0066839023,-0.016503716,0.4889317,-0.99832785,-2.438307e-09,1.7469284e-10,0.057806443,4
227904419,227904137,0.86514664,0.010409569,-0.014198292,0.5012099,-0.99832785,-2.438307e-09,1.7469284e-10,0.057806443,4
228404446,228404180,0.8535855,0.009234985,-0.0009786494,0.52087015,-0.99832785,-2.438307e-09,1.7469284e-10,0.057806443,4
228904517,228904223,0.84280545,0.00622354,-0.0040029334,0.5381675,-0.99832785,-2.438307e-09,1.7469284e-10,0.057806443,4
229404537,229404267,0.83734465,0.00825219,0.0032715122,0.5466033,-0.99832785,-2.438307e-09,1.7469284e-10,0.057806443,4
229904609,229904311,0.83469784,0.01680173,0.005931869,0.55042005,-0.99832785,-2.438307e-09,1.7469284e-10,0.057806443,4
230404649,230404355,0.8323794,0.025030227,0.011106171,0.55352944,-0.99832785,-2.438307e-09,1.7469284e-10,0.057806443,4
230899978,230899398,0.8305168,0.029562535,0.006444607,0.5561712,-0.99832785,-2.438307e-09,1.7469284e-10,0.057806443,4
231399965,231399442,0.82930857,0.023564592,0.0060572834,0.55826104,-0.99832785,-2.438307e-09,1.7469284e-10,0.057806443,4
231904795,231904487,0.8285127,0.019471247,-0.0021556288,0.5596276,-0.99832785,-2.438307e-09,1.7469284e-10,0.057806443,4
232404801,232404531,0.82994205,0.022684922,-0.0099161435,0.5573001,-0.99832785,-2.438307e-09,1.7469284e-10,0.057806443,4
232904846,232904575,0.8367325,0.02713196,-0.009446654,0.54685766,-0.99832785,-2.438307e-09,1.7469284e-10,0.057806443,4
233404893,233404620,0.8435234,0.025046414,-0.01496314,0.5362994,-0.99832785,-2.438307e-09,1.7469284e-10,0.057806443,4
233904930,233904664,0.8487188,0.019153865,-0.015568454,0.52826804,-0.99832785,-2.438307e-09,1.7469284e-10,0.057806443,4
234400266,234399709,0.8528761,0.01839498,-0.011290653,0.52166694,-0.99832785,-2.438307e-09,1.7469284e-10,0.057806443,4
234900281,234899754,0.8548402,0.017528633,-0.006545869,0.51855403,-0.99832785,-2.438307e-09,1.7469284e-10,0.057806443,4
235400367,235399798,0.85473967,0.011514166,-0.003911505,0.51891464,-0.99832785,-2.438307e-09,1.7469284e-10,0.057806443,4
235905156,235904844,0.8555356,0.01566566,-0.00588621,0.5174735,-0.99832785,-2.438307e-09,1.7469284e-10,0.057806443,4
236405160,236404889,0.8545635,0.02124477,0.0075620767,0.5188572,-0.99832785,-2.438307e-09,1.7469284e-10,0.057806443,4
236905208,236904934,0.8484627,0.02621296,0.0113204215,0.5284846,-0.99832785,-2.438307e-09,1.7469284e-10,0.057806443,4
237405254,237404980,0.8398923,0.022635268,0.00048771224,0.5422806,-0.99832785,-2.438307e-09,1.7469284e-10,0.057806443,4
237900559,237900025,0.83676845,0.019346192,-0.004776353,0.5471941,-0.99832785,-2.438307e-09,1.7469284e-10,0.057806443,4
238400607,238400070,0.836672,0.021884877,0.0002394643,0.5472668,-0.99832785,-2.438307e-09,1.7469284e-10,0.057806443,4
238900666,238900116,0.8342703,0.021431243,0.0005985496,0.5509387,-0.99832785,-2.438307e-09,1.7469284e-10,0.057806443,4
239400814,239400162,0.83040535,0.020711605,-0.004182688,0.55675906,-0.99832785,-2.438307e-09,1.7469284e-10,0.057806443,4
239905504,239905208,0.82558995,0.02534263,-0.001991335,0.5636976,-0.99832785,-2.438307e-09,1.7469284e-10,0.057806443,4
240405584,240405254,0.8219382,0.022309205,-0.004697908,0.5691202,-0.99832785,-2.438307e-09,1.7469284e-10,0.057806443,4
240905581,240905300,0.81858647,0.019526532,-0.004463597,0.57403404,-0.99832785,-2.438307e-09,1.7469284e-10,0.057806443,4
241400901,241400346,0.8169522,0.017195757,-0.00019506532,0.57644886,-0.99832785,-2.438307e-09,1.7469284e-10,0.057806443,4
241900954,241900392,0.81634647,0.014369076,0.0050063254,0.57736206,-0.99832785,-2.438307e-09,1.7469284e-10,0.057806443,4
242400989,242400438,0.81360334,0.015780132,0.008661573,0.5811416,-0.99832785,-2.438307e-09,1.7469284e-10,0.057806443,4
242901032,242900485,0.8139576,0.014706776,0.009431595,0.58066154,-0.99832785,-2.438307e-09,1.7469284e-10,0.057806443,4
243405825,243405531,0.81817144,0.014219144,0.0053174356,0.5747739,-0.99832785,-2.438307e-09,1.7469284e-10,0.057806443,4
243905850,243905578,0.8208612,0.016962206,-0.004269193,0.5708599,-0.99832785,-2.438307e-09,1.7469284e-10,0.057806443,4
244405922,244405625,0.81973284,0.024315478,-0.0071212896,0.5721855,-0.99832785,-2.438307e-09,1.7469284e-10,0.057806443,4
244901155,244900671,0.81814325,0.024750318,-0.008587419,0.5744173,-0.99832785,-2.438307e-09,1.7469284e-10,0.057806443,4
245401376,245400718,0.81669027,0.019071914,-0.010116383,0.57667243,-0.99832785,-2.438307e-09,1.7469284e-10,0.057806443,4
245901360,245900764,0.81401473,0.015441012,-0.012007428,0.58051485,-0.99832785,-2.438307e-09,1.7469284e-10,0.057806443,4
246401458,246400811,0.8134287,0.0077660116,-0.008534842,0.58155036,-0.99832785,-2.438307e-09,1.7469284e-10,0.057806443,4
246901451,246900858,0.8140193,0.0038696504,-0.009107478,0.58075356,-0.99832785,-2.438307e-09,1.7469284e-10,0.057806443,4
247406269,247405905,0.8164938,0.0005842512,-0.00011263742,0.577354,-0.99832785,-2.438307e-09,1.7469284e-10,0.057806443,4
247906257,247905952,0.8171311,0.0032397073,0.006799372,0.5764027,-0.99832785,-2.438307e-09,1.7469284e-10,0.057806443,4
248401625,248400999,0.8160922,0.006949641,0.011303677,0.5777696,-0.99832785,-2.438307e-09,1.7469284e-10,0.057806443,4
248901595,248901045,0.8129581,0.015568499,0.013705174,0.58195287,-0.99832785,-2.438307e-09,1.7469284e-10,0.057806443,4
249401716,249401093,0.8080237,0.024307638,0.011445715,0.58853716,-0.99832785,-2.438307e-09,1.7469284e-10,0.057806443,4
249901662,249901140,0.8015969,0.02766695,0.0019335714,0.5972213,-0.99832785,-2.438307e-09,1.7469284e-10,0.057806443,4
250401796,250401187,0.7944293,0.031895805,-0.0064558885,0.6064843,-0.99832785,-2.438307e-09,1.7469284e-10,0.057806443,4
250901790,250901234,0.78758407,0.034748495,-0.013761752,0.6150727,-0.99832785,-2.438307e-09,1.7469284e-10,0.057806443,4
251406559,251406282,0.7781123,-0.007579537,0.09222888,0.62127113,-0.99832785,-2.438307e-09,1.7469284e-10,0.057806443,4
251901850,251901328,0.76572996,-0.0025113253,0.028818626,0.64251137,-0.99832785,-2.438307e-09,1.7469284e-10,0.057806443,4
252401969,252401376,0.75055003,0.044147488,-0.052457035,0.6572472,-0.99832785,-2.438307e-09,1.7469284e-10,0.057806443,4
252901991,252901423,0.7367495,0.07829521,-0.009834348,0.67154557,-0.99832785,-2.438307e-09,1.7469284e-10,0.057806443,4
253402068,253401471,0.740898,0.02599305,-0.16393046,0.6507852,-0.99832785,-2.438307e-09,1.7469284e-10,0.057806443,4
253902073,253901518,0.7657151,0.003194891,-0.18922442,0.61470664,-0.99832785,-2.438307e-09,1.7469284e-10,0.057806443,4
254401909,254401566,0.80418515,-0.12779337,-0.05522799,0.5778451,-0.99832785,-2.438307e-09,1.7469284e-10,0.057806443,4
254906840,254906614,0.8191798,-0.11959611,-0.04925298,0.5587623,-0.99832785,-2.438307e-09,1.7469284e-10,0.057806443,4
255402057,255401661,0.8409302,-0.094896846,0.0002516571,0.53275794,-0.99832785,-2.438307e-09,1.7469284e-10,0.057806443,4
255902050,255901709,0.8579527,-0.05370192,0.09521867,0.50196284,-0.99832785,-2.438307e-09,1.7469284e-10,0.057806443,4
256402091,256401756,0.8694442,-0.02063925,0.1620567,0.46623883,-0.99832785,-2.438307e-09,1.7469284e-10,0.057806443,4
256902205,256901804,0.89493054,-0.05087941,0.06226718,0.43890035,-0.99832785,-2.438307e-09,1.7469284e-10,0.057806443,4
257402230,257401852,0.91173416,-0.026245294,-0.026108824,0.4091093,-0.99832785,-2.438307e-09,1.7469284e-10,0.057806443,4
257902231,257901900,0.91202086,0.04325085,-0.14077684,0.38279143,-0.99832785,-2.438307e-09,1.7469284e-10,0.057806443,4
258402275,258401948,0.9085251,0.056649722,-0.15449812,0.38406155,-0.99832785,-2.438307e-09,1.7469284e-10,0.057806443,4
258902342,258901996,0.91387707,0.011173275,-0.09223487,0.39521712,-0.99832785,-2.438307e-09,1.7469284e-10,0.057806443,4
259402448,259402045,0.9089262,0.013003447,-0.010731791,0.41661623,-0.99832785,-2.438307e-09,1.7469284e-10,0.057806443,4
259902473,259902093,0.9019419,-0.04646542,-0.07131012,0.4233872,-0.99832785,-2.438307e-09,1.7469284e-10,0.057806443,4
260402472,260402141,0.90482587,-0.042625815,-0.00020377344,0.42364267,-0.99832785,-2.438307e-09,1.7469284e-10,0.057806443,4
260902523,260902190,0.89694715,0.011201513,0.10279503,0.42987636,-0.99832785,-2.438307e-09,1.7469284e-10,0.057806443,4
261402574,261402238,0.8897098,-0.015531253,0.020026771,0.45582265,-0.99832785,-2.438307e-09,1.7469284e-10,0.057806443,4
261902694,261902287,0.87827796,0.008707236,-0.03598306,0.47671503,-0.99832785,-2.438307e-09,1.7469284e-10,0.057806443,4
262402719,262402335,0.8689189,0.01097143,-0.025726814,0.49416366,-0.99832785,-2.438307e-09,1.7469284e-10,0.057806443,4
262902724,262902384,0.862333,0.017098779,-0.006350526,0.50601286,-0.99832785,-2.438307e-09,1.7469284e-10,0.057806443,4
263402871,263402433,0.85781354,0.019936603,-0.009317983,0.51348984,-0.99832785,-2.438307e-09,1.7469284e-10,0.057806443,4
263902826,263902482,0.8540406,0.006482688,0.01074883,0.52005494,-0.99832785,-2.438307e-09,1.7469284e-10,0.057806443,4
264402991,264402533,0.84429705,-0.01068724,0.024822678,0.53519356,-0.99832785,-2.438307e-09,1.7469284e-10,0.057806443,4
264902920,264902580,0.835449,-0.05862936,0.017575908,0.5461491,-0.99832785,-2.438307e-09,1.7469284e-10,0.057806443,4
265402964,265402628,0.8503918,-0.06069831,0.022623867,0.52214736,-0.99832785,-2.438307e-09,1.7469284e-10,0.057806443,4
265903036,265902678,0.86534464,-0.05373187,0.016482063,0.49801588,-0.99832785,-2.438307e-09,1.7469284e-10,0.057806443,4
266403066,266402727,0.8659724,-0.04014716,0.0054333746,0.4984481,-0.99832785,-2.438307e-09,1.7469284e-10,0.057806443,4
266903192,266902776,0.8734988,-0.015109151,0.0052293083,0.48656386,-0.99832785,-2.438307e-09,1.7469284e-10,0.057806443,4
267403168,267402826,0.87267727,0.0060081948,0.0155162085,0.4880141,-0.99832785,-2.438307e-09,1.7469284e-10,0.057806443,4
267903326,267902875,0.86256397,0.012661618,0.015142046,0.5055629,-0.99832785,-2.438307e-09,1.7469284e-10,0.057806443,4
268403270,268402925,0.86693805,0.016243069,0.016733404,0.4978701,-0.99832785,-2.438307e-09,1.7469284e-10,0.057806443,4
268903379,268902974,0.8633407,0.0042788913,0.0213481,0.5041516,-0.99832785,-2.438307e-09,1.7469284e-10,0.057806443,4
269403336,269403024,0.8272534,0.23841843,0.10146497,0.4985111,-0.99832785,-2.438307e-09,1.7469284e-10,0.057806443,4
269903537,269903073,0.7009206,0.31992885,0.25900355,0.5824716,-0.99832785,-2.438307e-09,1.7469284e-10,0.057806443,4
270403503,270403123,0.64814085,0.19073759,0.1664979,0.71819997,-0.99832785,-2.438307e-09,1.7469284e-10,0.057806443,4
270903525,270903173,0.7022059,0.002793233,-0.054004468,0.7099173,-0.99832785,-2.438307e-09,1.7469284e-10,0.057806443,4
271403542,271403223,0.6995969,-0.05512502,-0.12390662,0.7015502,-0.99832785,-2.438307e-09,1.7469284e-10,0.057806443,4
271903622,271903272,0.7367301,-0.08271421,-0.14450315,0.6553671,-0.99832785,-2.438307e-09,1.7469284e-10,0.057806443,4
272403624,272403322,0.77124333,-0.06833419,-0.11000843,0.6232274,-0.99832785,-2.438307e-09,1.7469284e-10,0.057806443,4
272903747,272903372,0.7865292,-0.038294684,-0.0664259,0.6127749,-0.99832785,-2.438307e-09,1.7469284e-10,0.057806443,4
273403725,273403422,0.79494625,-0.016232153,-0.0426885,0.60495836,-0.99832785,-2.438307e-09,1.7469284e-10,0.057806443,4
273903795,273903471,0.8016394,-0.0043152985,-0.029397339,0.5970692,-0.99832785,-2.438307e-09,1.7469284e-10,0.057806443,4
274403825,274403521,0.80529064,0.012681483,-0.012844053,0.59260553,-0.99832785,-2.438307e-09,1.7469284e-10,0.057806443,4
274903906,274903571,0.80146915,0.021544749,-0.00093869,0.59764725,-0.99832785,-2.438307e-09,1.7469284e-10,0.057806443,4
275403936,275403621,0.79398006,-0.10940139,-0.09255379,0.5908139,-0.99832785,-2.438307e-09,1.7469284e-10,0.057806443,4
275903989,275903670,0.7736675,-0.34954077,-0.21427122,0.4830607,-0.99832785,-2.438307e-09,1.7469284e-10,0.057806443,4
276398901,276398719,0.8573705,-0.40944144,-0.119654395,0.28802148,-0.99832785,-2.438307e-09,1.7469284e-10,0.057806443,4
276904136,276903769,0.8920376,-0.44517314,-0.028600106,0.07260778,-0.99832785,-2.438307e-09,1.7469284e-10,0.057806443,4
277404140,277403819,0.89195454,-0.4295684,0.06442245,-0.12545094,-0.99832785,-2.438307e-09,1.7469284e-10,0.057806443,4
277904163,277903868,0.8450927,-0.40440285,0.1434527,-0.31890133,-0.99832785,-2.438307e-09,1.7469284e-10,0.057806443,4
278404220,278403918,0.7639551,-0.37317458,0.22041716,-0.47804767,-0.99832785,-2.438307e-09,1.7469284e-10,0.057806443,4
278904336,278903967,0.67102605,-0.31774992,0.26953042,-0.6132801,-0.99832785,-2.438307e-09,1.7469284e-10,0.057806443,4
279404332,279404016,0.53911966,-0.27746004,0.29723692,-0.7375746,-0.99832785,-2.438307e-09,1.7469284e-10,0.057806443,4
279899253,279899065,0.55936235,-0.13404049,0.05275971,-0.8163108,-0.99832785,-2.438307e-09,1.7469284e-10,0.057806443,4
280404591,280404114,0.5667547,0.0654472,-0.19675486,-0.79736656,-0.99832785,-2.438307e-09,1.7469284e-10,0.057806443,4
280904464,280904163,0.6171866,0.20343955,-0.2690914,-0.71083254,-0.99832785,-2.438307e-09,1.7469284e-10,0.057806443,4
281404513,281404212,0.7223582,0.18615286,-0.19806552,-0.6358583,-0.99832785,-2.438307e-09,1.7469284e-10,0.057806443,4
281904566,281904261,0.7484315,0.2162238,-0.17295042,-0.60264885,-0.99832785,-2.438307e-09,1.7469284e-10,0.057806443,4
282404643,282404310,0.79925495,0.2332162,-0.16548625,-0.5285982,-0.99832785,-2.438307e-09,1.7469284e-10,0.057806443,4
282904699,282904358,0.8456135,0.19969182,-0.11633069,-0.48117372,-0.99832785,-2.438307e-09,1.7469284e-10,0.057806443,4
283399595,283399406,0.8694874,0.17050764,-0.09109723,-0.45455486,-0.99832785,-2.438307e-09,1.7469284e-10,0.057806443,4
283899644,283899455,0.899867,0.12562972,-0.06665457,-0.41232735,-0.99832785,-2.438307e-09,1.7469284e-10,0.057806443,4
284405094,284404503,0.91543573,0.07617329,-0.0410327,-0.39305377,-0.99832785,-2.438307e-09,1.7469284e-10,0.057806443,4
284904882,284904551,0.9237246,0.04027112,-0.02645047,-0.38001505,-0.99832785,-2.438307e-09,1.7469284e-10,0.057806443,4
285404947,285404599,0.92904985,0.008187017,-0.011410175,-0.3696881,-0.99832785,-2.438307e-09,1.7469284e-10,0.057806443,4
285904951,285904647,0.9307699,-0.005171867,-0.0070157265,-0.36550182,-0.99832785,-2.438307e-09,1.7469284e-10,0.057806443,4
286405021,286404695,0.9241835,-0.008109929,-0.009433148,-0.38174632,-0.99832785,-2.438307e-09,1.7469284e-10,0.057806443,4
286899929,286899742,0.92014265,0.0006173726,-0.009199612,-0.39147505,-0.99832785,-2.438307e-09,1.7469284e-10,0.057806443,4
287400011,287399790,0.92338157,0.0012083775,-0.010552133,-0.3837365,-0.99832785,-2.438307e-09,1.7469284e-10,0.057806443,4
287900023,287899837,0.9188339,0.0009448522,-0.005052427,-0.394611,-0.99832785,-2.438307e-09,1.7469284e-10,0.057806443,4
288405245,288404885,0.9175036,0.002406259,-0.0026141205,-0.39771175,-0.99832785,-2.438307e-09,1.7469284e-10,0.057806443,4
288905255,288904932,0.91884184,0.010550883,0.0010629141,-0.39448372,-0.99832785,-2.438307e-09,1.7469284e-10,0.057806443,4
289405300,289404979,0.9178336,0.016257726,0.0014435336,-0.39662987,-0.99832785,-2.438307e-09,1.7469284e-10,0.057806443,4
289905318,289905026,0.91627187,0.023554746,0.0028115304,-0.39985394,-0.99832785,-2.438307e-09,1.7469284e-10,0.057806443,4
290400405,290400072,0.9216404,0.07631436,-0.01941944,-0.37997115,-0.99832785,-2.438307e-09,1.7469284e-10,0.057806443,4
290900303,290900119,0.93061846,0.07284022,-0.021487653,-0.35802516,-0.99832785,-2.438307e-09,1.7469284e-10,0.057806443,4
291400360,291400165,0.9390544,0.062549084,-0.017300233,-0.33758724,-0.99832785,-2.438307e-09,1.7469284e-10,0.057806443,4
291900399,291900211,0.9495655,0.055197097,-0.014928081,-0.30831146,-0.99832785,-2.438307e-09,1.7469284e-10,0.057806443,4
292405590,292405258,0.95216167,0.03425112,-0.011470281,-0.30345246,-0.99832785,-2.438307e-09,1.7469284e-10,0.057806443,4
292905632,292905304,0.9497056,0.01391257,-7.226169e-05,-0.31283492,-0.99832785,-2.438307e-09,1.7469284e-10,0.057806443,4
293405690,293405350,0.9491839,0.010233032,0.0061830143,-0.31449506,-0.99832785,-2.438307e-09,1.7469284e-10,0.057806443,4
293900627,293900395,0.95080966,0.00837021,0.010007913,-0.30950117,-0.99832785,-2.438307e-09,1.7469284e-10,0.057806443,4
294400635,294400441,0.94823664,0.015749285,0.005411441,-0.3171277,-0.99832785,-2.438307e-09,1.7469284e-10,0.057806443,4
294900680,294900487,0.94549006,0.0081571955,0.0021752678,-0.32554185,-0.99832785,-2.438307e-09,1.7469284e-10,0.057806443,4
295400720,295400532,0.9503989,0.017869426,-0.0043571857,-0.31048942,-0.99832785,-2.438307e-09,1.7469284e-10,0.057806443,4
295905875,295905578,0.95180655,0.02077646,-0.007811357,-0.30589503,-0.99832785,-2.438307e-09,1.7469284e-10,0.057806443,4
296405932,296405623,0.95212716,0.018214814,-0.0038762654,-0.30513453,-0.99832785,-2.438307e-09,1.7469284e-10,0.057806443,4
296905962,296905668,0.9495378,0.011045526,0.0071492936,-0.31337655,-0.99832785,-2.438307e-09,1.7469284e-10,0.057806443,4
297400898,297400713,0.95026994,0.020974608,0.0042635268,-0.31069142,-0.99832785,-2.438307e-09,1.7469284e-10,0.057806443,4
297900941,297900757,0.951594,0.017343763,0.0065269014,-0.3067988,-0.99832785,-2.438307e-09,1.7469284e-10,0.057806443,4
298400988,298400802,0.9511426,0.01616727,0.0023949381,-0.3083191,-0.99832785,-2.438307e-09,1.7469284e-10,0.057806443,4
298901030,298900847,0.9491249,0.018692162,-0.0021733183,-0.31433722,-0.99832785,-2.438307e-09,1.7469284e-10,0.057806443,4
299401075,299400891,0.94777286,0.0064211646,-0.0016014619,-0.31887758,-0.99832785,-2.438307e-09,1.7469284e-10,0.057806443,4
299906237,299905935,0.9486786,0.022459168,-0.0033020775,-0.3154262,-0.99832785,-2.438307e-09,1.7469284e-10,0.057806443,4
300406278,300405979,0.9543246,0.02645784,-0.0017139645,-0.2975933,-0.99832785,-2.438307e-09,1.7469284e-10,0.057806443,4
300901213,300901023,0.95616174,0.031159626,-7.050567e-05,-0.29117662,-0.99832785,-2.438307e-09,1.7469284e-10,0.057806443,4
301401251,301401067,0.92068475,0.2606384,-0.05844401,-0.28459018,-0.99832785,-2.438307e-09,1.7469284e-10,0.057806443,4
301901319,301901111,0.8884043,0.43273118,-0.035037726,-0.1491778,-0.99832785,-2.438307e-09,1.7469284e-10,0.057806443,4
302401383,302401154,0.89033854,0.44810608,0.06521868,0.047379363,-0.99832785,-2.438307e-09,1.7469284e-10,0.057806443,4
302901384,302901198,0.92383033,0.33491632,0.07803278,0.16816555,-0.99832785,-2.438307e-09,1.7469284e-10,0.057806443,4
303401428,303401241,0.9131029,0.3102731,0.09101086,0.24837643,-0.99832785,-2.438307e-09,1.7469284e-10,0.057806443,4
303906764,303906285,0.9288815,0.19647872,0.043103393,0.31099433,-0.99832785,-2.438307e-09,1.7469284e-10,0.057806443,4
304401525,304401327,0.91816133,0.13583982,0.027003067,0.371212,-0.99832785,-2.438307e-09,1.7469284e-10,0.057806443,4
304901598,304901371,0.9212866,0.07007516,0.011336328,0.38235062,-0.99832785,-2.438307e-09,1.7469284e-10,0.057806443,4
305401604,305401413,0.9103501,0.1675158,0.04103105,0.37618852,-0.99832785,-2.438307e-09,1.7469284e-10,0.057806443,4
305901642,305901456,0.82106125,0.3648943,0.14732938,0.41352716,-0.99832785,-2.438307e-09,1.7469284e-10,0.057806443,4
306401687,306401499,0.71282786,0.3369976,0.2675196,0.55384326,-0.99832785,-2.438307e-09,1.7469284e-10,0.057806443,4
306901726,306901541,0.58646005,0.27150542,0.3362879,0.6850255,-0.99832785,-2.438307e-09,1.7469284e-10,0.057806443,4
307406889,307406584,0.46022224,0.2055201,0.378401,0.7763823,-0.99832785,-2.438307e-09,1.7469284e-10,0.057806443,4
307901813,307901626,0.3263859,0.16357398,0.39700195,0.842084,-0.99832785,-2.438307e-09,1.7469284e-10,0.057806443,4
308401855,308401668,0.20233954,0.10170481,0.41589057,0.8807667,-0.99832785,-2.438307e-09,1.7469284e-10,0.057806443,4
308901898,308901710,0.065677665,0.06631105,0.36381152,0.9267851,-0.99832785,-2.438307e-09,1.7469284e-10,0.057806443,4
309401968,309401751,-0.028788509,0.057508748,0.2045928,0.97673225,-0.99832785,-2.438307e-09,1.7469284e-10,0.057806443,4
309901978,309901793,-0.03779653,0.06876706,0.01592832,0.9967892,-0.99832785,-2.438307e-09,1.7469284e-10,0.057806443,4
310402019,310401835,0.004607752,0.07146633,-0.107350364,0.9916387,-0.99832785,-2.438307e-09,1.7469284e-10,0.057806443,4
310902095,310901876,0.07771903,0.052428707,-0.15721297,0.9831049,-0.99832785,-2.438307e-09,1.7469284e-10,0.057806443,4
311402152,311401917,0.11661379,0.0452732,-0.13641062,0.9827227,-0.99832785,-2.438307e-09,1.7469284e-10,0.057806443,4
311902239,311901959,0.1452983,0.05135347,-0.10733214,0.98220724,-0.99832785,-2.438307e-09,1.7469284e-10,0.057806443,4
312402209,312402000,0.1919493,0.047839638,-0.091009416,0.97600424,-0.99832785,-2.438307e-09,1.7469284e-10,0.057806443,4
312902365,312902041,0.22314547,0.0476122,-0.06331015,0.9715612,-0.99832785,-2.438307e-09,1.7469284e-10,0.057806443,4
313402305,313402083,0.25153697,0.052936006,-0.044629727,0.9653679,-0.99832785,-2.438307e-09,1.7469284e-10,0.057806443,4
313902328,313902123,0.25218365,0.05223844,-0.026124025,0.9659152,-0.99832785,-2.438307e-09,1.7469284e-10,0.057806443,4
314402349,314402163,0.2543406,0.057082836,-0.0012837859,0.9654279,-0.99832785,-2.438307e-09,1.7469284e-10,0.057806443,4
314902443,314902204,0.2397635,0.05159856,-0.0041136537,0.9694504,-0.99832785,-2.438307e-09,1.7469284e-10,0.057806443,4
315402450,315402245,0.21602342,0.05824846,0.0131333945,0.97456074,-0.99832785,-2.438307e-09,1.7469284e-10,0.057806443,4
315902484,315902285,0.21188526,0.047906123,-0.0073205642,0.9760923,-0.99832785,-2.438307e-09,1.7469284e-10,0.057806443,4
316402516,316402325,0.22898567,0.048503306,-0.012485611,0.97214055,-0.99832785,-2.438307e-09,1.7469284e-10,0.057806443,4
316902572,316902366,0.20326556,0.045878075,0.006938639,0.9780236,-0.99832785,-2.438307e-09,1.7469284e-10,0.057806443,4
317402592,317402406,0.18480417,0.05191334,0.009416842,0.9813582,-0.99832785,-2.438307e-09,1.7469284e-10,0.057806443,4
317902636,317902446,0.20370145,0.07046553,0.12986529,0.9678199,-0.99832785,-2.438307e-09,1.7469284e-10,0.057806443,4
318402685,318402486,0.16580163,0.08038861,0.30747977,0.9335436,-0.99832785,-2.438307e-09,1.7469284e-10,0.057806443,4
318902717,318902529,-0.00770719,0.08304467,0.17329147,0.9813329,-0.99832785,-2.438307e-09,1.7469284e-10,0.057806443,4
319402753,319402566,-0.12550692,0.05819819,-0.019195426,0.99019825,-0.99832785,-2.438307e-09,1.7469284e-10,0.057806443,4
319902800,319902606,-0.01931084,0.04631541,-0.22515933,0.97302896,-0.99832785,-2.438307e-09,1.7469284e-10,0.057806443,4
320402846,320402645,0.15735473,-0.0150702745,-0.38744706,0.90823853,-0.99832785,-2.438307e-09,1.7469284e-10,0.057806443,4
320902907,320902685,0.3155278,-0.040526137,-0.26997545,0.9087977,-0.99832785,-2.438307e-09,1.7469284e-10,0.057806443,4
321402912,321402725,0.40875688,-0.012476871,-0.082396135,0.9088306,-0.99832785,-2.438307e-09,1.7469284e-10,0.057806443,4
321902952,321902765,0.4075143,0.037955955,0.08287107,0.90863854,-0.99832785,-2.438307e-09,1.7469284e-10,0.057806443,4
322402991,322402804,0.32189888,0.05090975,0.14493743,0.93422836,-0.99832785,-2.438307e-09,1.7469284e-10,0.057806443,4
322903031,322902845,0.24293248,0.031038793,0.14990906,0.9578872,-0.99832785,-2.438307e-09,1.7469284e-10,0.057806443,4
323403067,323402883,0.1926198,0.0003197891,0.084033936,0.9776686,-0.99832785,-2.438307e-09,1.7469284e-10,0.057806443,4
323903110,323902923,0.19488059,-0.014688822,0.051734958,0.9793515,-0.99832785,-2.438307e-09,1.7469284e-10,0.057806443,4
324403165,324402962,0.21452366,-0.026119737,0.0011174548,0.97636884,-0.99832785,-2.438307e-09,1.7469284e-10,0.057806443,4
324903218,324903002,0.18318132,-0.012027442,0.023568183,0.982723,-0.99832785,-2.438307e-09,1.7469284e-10,0.057806443,4
325403226,325403041,0.18326113,-0.008408364,-8.429646e-05,0.9830283,-0.99832785,-2.438307e-09,1.7469284e-10,0.057806443,4
325903269,325903080,0.20432046,-0.021503126,-0.02459936,0.9783586,-0.99832785,-2.438307e-09,1.7469284e-10,0.057806443,4
326403311,326403119,0.2041859,-0.023180507,-0.017323215,0.9785043,-0.99832785,-2.438307e-09,1.7469284e-10,0.057806443,4
326903346,326903159,0.21806304,-0.012196401,-0.0043039154,0.975849,-0.99832785,-2.438307e-09,1.7469284e-10,0.057806443,4
327403387,327403198,0.22947791,-0.011232354,-0.009971274,0.973198,-0.99832785,-2.438307e-09,1.7469284e-10,0.057806443,4
327903421,327903237,0.22053312,-0.023453137,0.014297371,0.9749927,-0.99832785,-2.438307e-09,1.7469284e-10,0.057806443,4
328403481,328403276,0.22360533,-0.024710078,-0.0033820684,0.9743607,-0.99832785,-2.438307e-09,1.7469284e-10,0.057806443,4
328903515,328903315,0.20984425,-0.014024248,0.008411529,0.97759813,-0.99832785,-2.438307e-09,1.7469284e-10,0.057806443,4
329403537,329403354,0.21309908,-0.021508727,-0.0026263054,0.9767903,-0.99832785,-2.438307e-09,1.7469284e-10,0.057806443,4
329903577,329903393,0.21501145,-0.025138013,-0.0003344379,0.97628796,-0.99832785,-2.438307e-09,1.7469284e-10,0.057806443,4
330403621,330403432,0.20839739,-0.014344154,0.008106241,0.9779055,-0.99832785,-2.438307e-09,1.7469284e-10,0.057806443,4
330903659,330903471,0.20402455,-0.0116796745,0.0065624043,0.9788741,-0.99832785,-2.438307e-09,1.7469284e-10,0.057806443,4
331403702,331403510,0.2005183,-0.015606047,0.01541787,0.9794443,-0.99832785,-2.438307e-09,1.7469284e-10,0.057806443,4
331903738,331903549,0.19134843,-0.013815283,-0.0005763748,0.9814248,-0.99832785,-2.438307e-09,1.7469284e-10,0.057806443,4
332403776,332403587,0.18007722,-0.008569761,-0.015502515,0.983493,-0.99832785,-2.438307e-09,1.7469284e-10,0.057806443,4
332903825,332903626,0.17894572,-0.008750777,0.0033558114,0.98381436,-0.99832785,-2.438307e-09,1.7469284e-10,0.057806443,4
333403850,333403667,0.19116099,-0.017159486,-0.003943318,0.9814008,-0.99832785,-2.438307e-09,1.7469284e-10,0.057806443,4
333903927,333903703,0.18834926,-0.008329463,0.0021154198,0.98206455,-0.99832785,-2.438307e-09,1.7469284e-10,0.057806443,4
334403950,334403742,0.18935375,-0.006636327,0.008106838,0.98185307,-0.99832785,-2.438307e-09,1.7469284e-10,0.057806443,4
334903963,334903780,0.191185,-0.017569417,0.018781729,0.9812171,-0.99832785,-2.438307e-09,1.7469284e-10,0.057806443,4
335404085,335403819,0.18621114,-0.021804031,0.006919926,0.9822435,-0.99832785,-2.438307e-09,1.7469284e-10,0.057806443,4
335899154,335898857,0.17855498,-0.04508048,0.0032166378,0.98289144,-0.99832785,-2.438307e-09,1.7469284e-10,0.057806443,4
336404212,336403896,0.18932909,-0.021024348,-0.004584238,0.98167795,-0.99832785,-2.438307e-09,1.7469284e-10,0.057806443,4
336904131,336903934,0.19946757,-0.07068586,-0.1140041,0.97067976,-0.99832785,-2.438307e-09,1.7469284e-10,0.057806443,4
337404169,337403973,0.23895194,-0.10781612,-0.17141704,0.949681,-0.99832785,-2.438307e-09,1.7469284e-10,0.057806443,4
337904193,337904011,0.31236982,-0.13337086,-0.18143164,0.92288667,-0.99832785,-2.438307e-09,1.7469284e-10,0.057806443,4
338404246,338404049,0.3655797,-0.14364928,-0.15378444,0.90667903,-0.99832785,-2.438307e-09,1.7469284e-10,0.057806443,4
338904273,338904087,0.41070643,-0.16300929,-0.17446141,0.8799496,-0.99832785,-2.438307e-09,1.7469284e-10,0.057806443,4
339399496,339399125,0.49095044,-0.18397553,-0.17104621,0.8341846,-0.99832785,-2.438307e-09,1.7469284e-10,0.057806443,4
339904354,339904164,0.5490649,-0.19579121,-0.14856814,0.79882485,-0.99832785,-2.438307e-09,1.7469284e-10,0.057806443,4
340404404,340404202,0.6147734,-0.182582,-0.11886828,0.75801575,-0.99832785,-2.438307e-09,1.7469284e-10,0.057806443,4
340904425,340904240,0.64380926,-0.20982262,-0.11977958,0.72604203,-0.99832785,-2.438307e-09,1.7469284e-10,0.057806443,4
341404464,341404278,0.6845654,-0.24002962,-0.13183105,0.6755566,-0.99832785,-2.438307e-09,1.7469284e-10,0.057806443,4
341904534,341904316,0.75307673,-0.24051549,-0.1065471,0.6030551,-0.99832785,-2.438307e-09,1.7469284e-10,0.057806443,4
342404537,342404354,0.7978995,-0.21238784,-0.06660762,0.5601888,-0.99832785,-2.438307e-09,1.7469284e-10,0.057806443,4
342899769,342899391,0.8178971,-0.20892356,-0.055013627,0.53326243,-0.99832785,-2.438307e-09,1.7469284e-10,0.057806443,4
343399747,343399429,0.84063566,-0.22920276,-0.05600181,0.48750556,-0.99832785,-2.438307e-09,1.7469284e-10,0.057806443,4
343904653,343904467,0.87369597,-0.23787597,-0.041447684,0.42231813,-0.99832785,-2.438307e-09,1.7469284e-10,0.057806443,4
344404728,344404505,0.90320003,-0.23497362,-0.021768307,0.3585294,-0.99832785,-2.438307e-09,1.7469284e-10,0.057806443,4
344904728,344904543,0.9266015,-0.22642516,0.00017047628,0.30023545,-0.99832785,-2.438307e-09,1.7469284e-10,0.057806443,4
345404764,345404581,0.94442075,-0.217625,0.013325172,0.24603112,-0.99832785,-2.438307e-09,1.7469284e-10,0.057806443,4
345904806,345904618,0.9561971,-0.22456542,0.02069226,0.18662651,-0.99832785,-2.438307e-09,1.7469284e-10,0.057806443,4
346399951,346399655,0.9643318,-0.22806184,0.03481711,0.12976864,-0.99832785,-2.438307e-09,1.7469284e-10,0.057806443,4
346900046,346899693,0.97968715,-0.18516092,0.047245655,0.06079824,-0.99832785,-2.438307e-09,1.7469284e-10,0.057806443,4
347400066,347399730,0.98346734,-0.1708328,0.055605456,0.022719286,-0.99832785,-2.438307e-09,1.7469284e-10,0.057806443,4
347905006,347904768,0.9786036,-0.19177541,0.067601204,-0.031422623,-0.99832785,-2.438307e-09,1.7469284e-10,0.057806443,4
348405009,348404806,0.97509384,-0.18943264,0.07843297,-0.0845905,-0.99832785,-2.438307e-09,1.7469284e-10,0.057806443,4
348905031,348904843,0.96402663,-0.1981126,0.09266286,-0.15105563,-0.99832785,-2.438307e-09,1.7469284e-10,0.057806443,4
349405076,349404880,0.9556342,-0.17446738,0.10075957,-0.21487667,-0.99832785,-2.438307e-09,1.7469284e-10,0.057806443,4
349900268,349899917,0.94354033,-0.17374702,0.091838144,-0.26666343,-0.99832785,-2.438307e-09,1.7469284e-10,0.057806443,4
350400307,350399954,0.921543,-0.19445476,0.106981136,-0.31859213,-0.99832785,-2.438307e-09,1.7469284e-10,0.057806443,4
350900331,350899991,0.90361315,-0.18636023,0.10750382,-0.3704,-0.99832785,-2.438307e-09,1.7469284e-10,0.057806443,4
351405218,351405029,0.8753435,-0.19112058,0.12342892,-0.4266288,-0.99832785,-2.438307e-09,1.7469284e-10,0.057806443,4
351905249,351905066,0.84977347,-0.18289462,0.12623547,-0.47801605,-0.99832785,-2.438307e-09,1.7469284e-10,0.057806443,4
352405293,352405103,0.8192467,-0.17471485,0.12780605,-0.53101337,-0.99832785,-2.438307e-09,1.7469284e-10,0.057806443,4
352905326,352905140,0.7834495,-0.16677505,0.13181567,-0.5839672,-0.99832785,-2.438307e-09,1.7469284e-10,0.057806443,4
353400513,353400176,0.7453001,-0.15560594,0.14194286,-0.6325874,-0.99832785,-2.438307e-09,1.7469284e-10,0.057806443,4
353900512,353900213,0.70418334,-0.14392781,0.15475689,-0.6778356,-0.99832785,-2.438307e-09,1.7469284e-10,0.057806443,4
354400551,354400250,0.6555293,-0.13921367,0.17055929,-0.7223645,-0.99832785,-2.438307e-09,1.7469284e-10,0.057806443,4
354900666,354900287,0.6072876,-0.12840344,0.18012796,-0.7630651,-0.99832785,-2.438307e-09,1.7469284e-10,0.057806443,4
355405509,355405324,0.5587611,-0.11560917,0.18577081,-0.7999436,-0.99832785,-2.438307e-09,1.7469284e-10,0.057806443,4
355905558,355905360,0.5098915,-0.10710962,0.19332714,-0.8313621,-0.99832785,-2.438307e-09,1.7469284e-10,0.057806443,4
356405604,356405397,0.4525495,-0.10241221,0.21648186,-0.85897994,-0.99832785,-2.438307e-09,1.7469284e-10,0.057806443,4
356900764,356900435,0.3986717,-0.08592511,0.22402737,-0.8851494,-0.99832785,-2.438307e-09,1.7469284e-10,0.057806443,4
357400806,357400469,0.33609107,-0.07967664,0.23709965,-0.9080078,-0.99832785,-2.438307e-09,1.7469284e-10,0.057806443,4
357900889,357900506,0.2503607,-0.06281323,0.24118918,-0.9355222,-0.99832785,-2.438307e-09,1.7469284e-10,0.057806443,4
358400841,358400542,0.16982758,-0.03506398,0.24536449,-0.95379525,-0.99832785,-2.438307e-09,1.7469284e-10,0.057806443,4
358905788,358905578,0.09053912,-0.017529178,0.2479428,-0.9643754,-0.99832785,-2.438307e-09,1.7469284e-10,0.057806443,4
359405806,359405615,-0.0019844356,0.0025188003,0.2488057,-0.9685481,-0.99832785,-2.438307e-09,1.7469284e-10,0.057806443,4
359905962,359905651,-0.07045294,0.025643349,0.23038568,-0.97020686,-0.99832785,-2.438307e-09,1.7469284e-10,0.057806443,4
360401125,360400687,-0.14120221,0.025292275,0.24630934,-0.9585166,-0.99832785,-2.438307e-09,1.7469284e-10,0.057806443,4
360901160,360900723,-0.22036555,0.043064,0.24425451,-0.943358,-0.99832785,-2.438307e-09,1.7469284e-10,0.057806443,4
361401061,361400758,-0.28390846,0.06733276,0.22888975,-0.92869365,-0.99832785,-2.438307e-09,1.7469284e-10,0.057806443,4
361901163,361900794,-0.37210813,0.09353914,0.24361126,-0.89075226,-0.99832785,-2.438307e-09,1.7469284e-10,0.057806443,4
362401168,362400831,-0.43685484,0.08690307,0.18720576,-0.875534,-0.99832785,-2.438307e-09,1.7469284e-10,0.057806443,4
362906068,362905866,-0.45316198,0.065984756,0.16906896,-0.87275773,-0.99832785,-2.438307e-09,1.7469284e-10,0.057806443,4
363406093,363405902,-0.52309316,0.105605334,0.22022256,-0.81653124,-0.99832785,-2.438307e-09,1.7469284e-10,0.057806443,4
363901341,363900938,-0.60379404,0.15820193,0.21934079,-0.7498631,-0.99832785,-2.438307e-09,1.7469284e-10,0.057806443,4
364401445,364400973,-0.6594591,0.14321673,0.17833804,-0.7160993,-0.99832785,-2.438307e-09,1.7469284e-10,0.057806443,4
364901355,364901009,-0.7059558,0.12271002,0.14809723,-0.6816421,-0.99832785,-2.438307e-09,1.7469284e-10,0.057806443,4
365401443,365401044,-0.73564476,0.12519822,0.13754225,-0.6513328,-0.99832785,-2.438307e-09,1.7469284e-10,0.057806443,4
365901397,365901080,-0.7687429,0.14466715,0.13411266,-0.60837466,-0.99832785,-2.438307e-09,1.7469284e-10,0.057806443,4
366406311,366406115,-0.80958015,0.17488314,0.123120174,-0.54666007,-0.99832785,-2.438307e-09,1.7469284e-10,0.057806443,4
366906343,366906151,-0.8476222,0.17319264,0.10226881,-0.49100107,-0.99832785,-2.438307e-09,1.7469284e-10,0.057806443,4
367401504,367401186,-0.87632227,0.15709195,0.08085741,-0.44815567,-0.99832785,-2.438307e-09,1.7469284e-10,0.057806443,4
367901519,367901221,-0.89884174,0.16471346,0.07038171,-0.3999993,-0.99832785,-2.438307e-09,1.7469284e-10,0.057806443,4
368401735,368401256,-0.9140618,0.16831009,0.06298654,-0.36358717,-0.99832785,-2.438307e-09,1.7469284e-10,0.057806443,4
368901624,368901291,-0.9358902,0.17393437,0.059760407,-0.3004748,-0.99832785,-2.438307e-09,1.7469284e-10,0.057806443,4
369401676,369401326,-0.9586167,0.17701413,0.045232024,-0.21834403,-0.99832785,-2.438307e-09,1.7469284e-10,0.057806443,4
369901785,369901362,-0.97500616,0.14064491,0.027495092,-0.16978224,-0.99832785,-2.438307e-09,1.7469284e-10,0.057806443,4
370406585,370406397,-0.9773595,0.15497032,0.024440113,-0.1419696,-0.99832785,-2.438307e-09,1.7469284e-10,0.057806443,4
370901900,370901431,-0.977806,0.19485612,0.015632408,-0.07538166,-0.99832785,-2.438307e-09,1.7469284e-10,0.057806443,4
371401817,371401466,-0.9831073,0.18235996,0.0063169505,-0.014317854,-0.99832785,-2.438307e-09,1.7469284e-10,0.057806443,4
371901797,371901501,-0.98480034,0.16810519,0.0029263287,0.043595582,-0.99832785,-2.438307e-09,1.7469284e-10,0.057806443,4
372401835,372401536,-0.9816628,0.1652583,-0.007409518,0.09472627,-0.99832785,-2.438307e-09,1.7469284e-10,0.057806443,4
372901903,372901571,-0.97514516,0.17510267,-0.023772106,0.13366325,-0.99832785,-2.438307e-09,1.7469284e-10,0.057806443,4
373401919,373401605,-0.96784675,0.16605341,-0.032091606,0.18619692,-0.99832785,-2.438307e-09,1.7469284e-10,0.057806443,4
373906827,373906640,-0.9539903,0.1691579,-0.04631278,0.24319413,-0.99832785,-2.438307e-09,1.7469284e-10,0.057806443,4
374402073,374401674,-0.93881667,0.17524162,-0.05399351,0.29154465,-0.99832785,-2.438307e-09,1.7469284e-10,0.057806443,4
374902209,374901709,-0.921678,0.17530692,-0.060699075,0.34072396,-0.99832785,-2.438307e-09,1.7469284e-10,0.057806443,4
375402068,375401743,-0.8989284,0.17190202,-0.07988508,0.39496323,-0.99832785,-2.438307e-09,1.7469284e-10,0.057806443,4
375902114,375901778,-0.87317085,0.16672722,-0.095274605,0.4479928,-0.99832785,-2.438307e-09,1.7469284e-10,0.057806443,4
376402312,376401815,-0.8426331,0.16408625,-0.11057049,0.5008188,-0.99832785,-2.438307e-09,1.7469284e-10,0.057806443,4
376902193,376901847,-0.8155613,0.15401186,-0.10831977,0.5471809,-0.99832785,-2.438307e-09,1.7469284e-10,0.057806443,4
377402211,377401881,-0.78683764,0.14145043,-0.109348774,0.59069544,-0.99832785,-2.438307e-09,1.7469284e-10,0.057806443,4
377902219,377901915,-0.74927425,0.14373642,-0.1271773,0.63384056,-0.99832785,-2.438307e-09,1.7469284e-10,0.057806443,4
378402251,378401949,-0.7022296,0.13926402,-0.14712784,0.68251926,-0.99832785,-2.438307e-09,1.7469284e-10,0.057806443,4
378902511,378901983,-0.6610237,0.12593243,-0.15825172,0.7225961,-0.99832785,-2.438307e-09,1.7469284e-10,0.057806443,4
379402321,379402017,-0.6203067,0.118917376,-0.16056676,0.7584831,-0.99832785,-2.438307e-09,1.7469284e-10,0.057806443,4
379902353,379902051,-0.5733232,0.11242658,-0.16506979,0.7946149,-0.99832785,-2.438307e-09,1.7469284e-10,0.057806443,4
380402455,380402085,-0.51982266,0.10414923,-0.17706388,0.82920796,-0.99832785,-2.438307e-09,1.7469284e-10,0.057806443,4
380902461,380902119,-0.4510485,0.10092034,-0.19550762,0.86495507,-0.99832785,-2.438307e-09,1.7469284e-10,0.057806443,4
381402502,381402153,-0.40095884,0.08322312,-0.21238594,0.8872419,-0.99832785,-2.438307e-09,1.7469284e-10,0.057806443,4
381902525,381902187,-0.3408712,0.07397929,-0.24217393,0.90536493,-0.99832785,-2.438307e-09,1.7469284e-10,0.057806443,4
382402548,382402221,-0.26096237,0.053318053,-0.24458988,0.9323259,-0.99832785,-2.438307e-09,1.7469284e-10,0.057806443,4
382902729,382902255,-0.18592499,0.030051926,-0.24508879,0.95103115,-0.99832785,-2.438307e-09,1.7469284e-10,0.057806443,4
383402701,383402288,-0.12394626,0.010791303,-0.21222103,0.96926945,-0.99832785,-2.438307e-09,1.7469284e-10,0.057806443,4
383902675,383902322,-0.037192475,-0.00112286,-0.09090312,0.9951644,-0.99832785,-2.438307e-09,1.7469284e-10,0.057806443,4
384402834,384402356,-0.002646274,-0.032541085,0.16906434,0.98506415,-0.99832785,-2.438307e-09,1.7469284e-10,0.057806443,4
384902819,384902389,-0.13099319,-0.0950383,0.4142242,0.8956712,-0.99832785,-2.438307e-09,1.7469284e-10,0.057806443,4
385402874,385402423,-0.34268892,-0.19346711,0.38668337,0.83403283,-0.99832785,-2.438307e-09,1.7469284e-10,0.057806443,4
385902805,385902456,-0.5161647,-0.25789756,0.3575243,0.7343291,-0.99832785,-2.438307e-09,1.7469284e-10,0.057806443,4
386402901,386402490,-0.6449388,-0.32722202,0.27442586,0.6337746,-0.99832785,-2.438307e-09,1.7469284e-10,0.057806443,4
386902873,386902524,-0.7980682,-0.19424437,0.1504163,0.55021024,-0.99832785,-2.438307e-09,1.7469284e-10,0.057806443,4
387402918,387402557,-0.85215664,-0.08934398,0.054365423,0.5127293,-0.99832785,-2.438307e-09,1.7469284e-10,0.057806443,4
387902972,387902590,-0.72751427,-0.29952472,-0.4745511,0.39472675,-0.99832785,-2.438307e-09,1.7469284e-10,0.057806443,4
388403023,388402623,-0.7333427,-0.27236742,-0.51921487,0.34415182,-0.99832785,-2.438307e-09,1.7469284e-10,0.057806443,4
388902992,388902657,-0.8727125,0.016864697,0.3377009,0.35220242,-0.99832785,-2.438307e-09,1.7469284e-10,0.057806443,4
389403100,389402690,-0.89180136,-0.024009053,-0.41982323,0.16692032,-0.99832785,-2.438307e-09,1.7469284e-10,0.057806443,4
389903104,389902723,-0.9820389,0.050827805,0.11469135,-0.14093325,-0.99832785,-2.438307e-09,1.7469284e-10,0.057806443,4
390403169,390402756,-0.9274093,-0.19162652,0.097702794,-0.30601555,-0.99832785,-2.438307e-09,1.7469284e-10,0.057806443,4
390903135,390902790,-0.89484984,0.21270879,0.062800296,-0.38736928,-0.99832785,-2.438307e-09,1.7469284e-10,0.057806443,4
391403255,391402823,-0.85074353,-0.22606897,0.094184265,-0.4650352,-0.99832785,-2.438307e-09,1.7469284e-10,0.057806443,4
391903242,391902856,-0.8298977,0.1851162,0.1522333,-0.5038123,-0.99832785,-2.438307e-09,1.7469284e-10,0.057806443,4
392403293,392402890,-0.8371985,-0.030230304,-0.005117266,-0.5460391,-0.99832785,-2.438307e-09,1.7469284e-10,0.057806443,4
392903322,392902923,-0.85102206,0.18055855,0.069375396,-0.48820803,-0.99832785,-2.438307e-09,1.7469284e-10,0.057806443,4
393403417,393402956,-0.9166871,0.058973037,0.07253058,-0.3885181,-0.99832785,-2.438307e-09,1.7469284e-10,0.057806443,4
393903394,393902989,-0.95710415,0.09214582,0.054622628,-0.26921588,-0.99832785,-2.438307e-09,1.7469284e-10,0.057806443,4
394403489,394403022,-0.98404574,-0.0027897428,0.051178504,-0.17037325,-0.99832785,-2.438307e-09,1.7469284e-10,0.057806443,4
394903482,394903056,-0.99350476,0.021131447,0.059672654,-0.09455714,-0.99832785,-2.438307e-09,1.7469284e-10,0.057806443,4
395403491,395403089,-0.9965867,0.0063141044,0.05575281,-0.0605549,-0.99832785,-2.438307e-09,1.7469284e-10,0.057806443,4
395903529,395903122,-0.9966678,-0.008755754,0.060422644,-0.054090228,-0.99832785,-2.438307e-09,1.7469284e-10,0.057806443,4
396403591,396403156,-0.9968996,0.00631851,0.05681313,-0.054069836,-0.99832785,-2.438307e-09,1.7469284e-10,0.057806443,4
396903586,396903189,-0.99678034,0.014745228,0.044278868,-0.06519896,-0.99832785,-2.438307e-09,1.7469284e-10,0.057806443,4
397403662,397403223,-0.9965417,-0.00046995518,0.048304036,-0.06761062,-0.99832785,-2.438307e-09,1.7469284e-10,0.057806443,4
397903710,397903256,-0.9947326,-0.0021159914,0.07319279,-0.0717309,-0.99832785,-2.438307e-09,1.7469284e-10,0.057806443,4
398403736,398403290,-0.9954267,0.0016345899,0.06270984,-0.07204583,-0.99832785,-2.438307e-09,1.7469284e-10,0.057806443,4
398903768,398903323,-0.99654627,0.015791945,0.054552693,-0.06058305,-0.99832785,-2.438307e-09,1.7469284e-10,0.057806443,4
399403767,399403357,-0.9971807,0.039587215,0.046146028,-0.04397756,-0.99832785,-2.438307e-09,1.7469284e-10,0.057806443,4
399903787,399903390,-0.9968093,0.05430391,0.05378298,-0.02301572,-0.99832785,-2.438307e-09,1.7469284e-10,0.057806443,4
400403849,400403424,-0.99865025,0.032004923,0.039261937,-0.011482073,-0.99832785,-2.438307e-09,1.7469284e-10,0.057806443,4
400903941,400903458,-0.99762297,0.045922764,0.050157655,0.011129087,-0.99832785,-2.438307e-09,1.7469284e-10,0.057806443,4
401403931,401403491,-0.9980604,0.043854292,0.041022114,0.016417112,-0.99832785,-2.438307e-09,1.7469284e-10,0.057806443,4
401903933,401903525,-0.9971942,0.036297824,0.058161326,0.030059533,-0.99832785,-2.438307e-09,1.7469284e-10,0.057806443,4
402403983,402403558,-0.99867266,0.014705502,0.03074619,0.038619604,-0.99832785,-2.438307e-09,1.7469284e-10,0.057806443,4
402903996,402903592,-0.99663776,0.0458213,0.048078522,0.04798005,-0.99832785,-2.438307e-09,1.7469284e-10,0.057806443,4
403404081,403403626,-0.99820644,0.019408442,0.034508187,0.044905044,-0.99832785,-2.438307e-09,1.7469284e-10,0.057806443,4
403904066,403903660,-0.99670583,0.048506815,0.036392014,0.053855084,-0.99832785,-2.438307e-09,1.7469284e-10,0.057806443,4
404404152,404403694,-0.9979743,0.019066328,0.026275756,0.054711614,-0.99832785,-2.438307e-09,1.7469284e-10,0.057806443,4
404904139,404903729,-0.9977515,0.028515797,0.039099157,0.046370447,-0.99832785,-2.438307e-09,1.7469284e-10,0.057806443,4
405404192,405403762,-0.9975251,0.040093366,0.03933548,0.04229651,-0.99832785,-2.438307e-09,1.7469284e-10,0.057806443,4
405899022,405898796,-0.99857795,0.017300861,0.035739113,0.035573367,-0.99832785,-2.438307e-09,1.7469284e-10,0.057806443,4
406404236,406403830,-0.9982997,0.02257071,-0.025412988,0.04735486,-0.99832785,-2.438307e-09,1.7469284e-10,0.057806443,4
406904256,406903865,-0.9983365,0.0062611615,-0.019929195,0.05374016,-0.99832785,-2.438307e-09,1.7469284e-10,0.057806443,4
407404334,407403899,-0.9973726,-0.0030167887,-0.058530096,0.042578716,-0.99832785,-2.438307e-09,1.7469284e-10,0.057806443,4
407904348,407903934,-0.9997086,0.009993498,-0.016694587,0.014294134,-0.99832785,-2.438307e-09,1.7469284e-10,0.057806443,4
408404373,408403968,-0.9996559,-0.0010619485,-0.012123366,-0.023235945,-0.99832785,-2.438307e-09,1.7469284e-10,0.057806443,4
408904480,408904002,-0.9978294,0.0131419385,0.028356083,-0.05796426,-0.99832785,-2.438307e-09,1.7469284e-10,0.057806443,4
409399262,409399037,-0.9902486,0.027211938,-0.116227984,-0.07182098,-0.99832785,-2.438307e-09,1.7469284e-10,0.057806443,4
409899350,409899071,-0.99370503,0.071434945,-0.023417791,-0.08306089,-0.99832785,-2.438307e-09,1.7469284e-10,0.057806443,4
410404516,410404106,-0.9840099,0.15530945,-0.046120316,-0.07400292,-0.99832785,-2.438307e-09,1.7469284e-10,0.057806443,4
410904687,410904142,-0.99169475,0.10661184,0.0022158546,-0.071906574,-0.99832785,-2.438307e-09,1.7469284e-10,0.057806443,4
411404628,411404176,-0.998198,0.01688291,0.017847924,-0.05474811,-0.99832785,-2.438307e-09,1.7469284e-10,0.057806443,4
411904680,411904211,-0.9973348,-0.027461892,0.058808226,-0.03332932,-0.99832785,-2.438307e-09,1.7469284e-10,0.057806443,4
412404624,412404247,-0.9979079,-0.01885813,0.056007765,-0.02621755,-0.99832785,-2.438307e-09,1.7469284e-10,0.057806443,4
412899554,412899281,-0.99814326,-0.025619207,0.043624826,-0.033920694,-0.99832785,-2.438307e-09,1.7469284e-10,0.057806443,4
413399555,413399317,-0.997453,-0.018180817,0.045348532,-0.051967006,-0.99832785,-2.438307e-09,1.7469284e-10,0.057806443,4
413904814,413904353,-0.99521124,-0.028373437,0.042543408,-0.08330506,-0.99832785,-2.438307e-09,1.7469284e-10,0.057806443,4
414404804,414404388,-0.992134,-0.026656225,0.041290604,-0.11512982,-0.99832785,-2.438307e-09,1.7469284e-10,0.057806443,4
414904879,414904424,-0.9890005,0.037944816,-0.03375958,-0.13891922,-0.99832785,-2.438307e-09,1.7469284e-10,0.057806443,4
415404970,415404459,-0.98048604,0.13911259,-0.033904076,-0.13470511,-0.99832785,-2.438307e-09,1.7469284e-10,0.057806443,4
415904942,415904495,-0.98448443,0.12227822,-0.02904911,-0.12245265,-0.99832785,-2.438307e-09,1.7469284e-10,0.057806443,4
416399791,416399531,-0.993006,0.044308715,0.028311957,-0.105709106,-0.99832785,-2.438307e-09,1.7469284e-10,0.057806443,4
416899837,416899567,-0.9930951,-0.07329862,0.030313218,-0.08643262,-0.99832785,-2.438307e-09,1.7469284e-10,0.057806443,4
417404999,417404603,-0.99138623,-0.09381641,0.040088553,-0.082126655,-0.99832785,-2.438307e-09,1.7469284e-10,0.057806443,4
417905056,417904640,-0.99022126,-0.052814867,0.07218114,-0.107062615,-0.99832785,-2.438307e-09,1.7469284e-10,0.057806443,4
418405076,418404676,-0.9886712,-0.030363105,0.0486592,-0.13870725,-0.99832785,-2.438307e-09,1.7469284e-10,0.057806443,4
418905124,418904712,-0.98414993,-0.025228767,0.04839792,-0.16873133,-0.99832785,-2.438307e-09,1.7469284e-10,0.057806443,4
419405163,419404749,-0.98056304,-0.020138297,0.026856037,-0.1933115,-0.99832785,-2.438307e-09,1.7469284e-10,0.057806443,4
419900046,419899785,-0.97732264,-0.010740317,0.020525245,-0.21048486,-0.99832785,-2.438307e-09,1.7469284e-10,0.057806443,4
420400042,420399822,-0.97456783,-0.014441118,0.026353408,-0.22206894,-0.99832785,-2.438307e-09,1.7469284e-10,0.057806443,4
420900078,420899859,-0.9726773,-0.012637068,0.025896776,-0.2303662,-0.99832785,-2.438307e-09,1.7469284e-10,0.057806443,4
421405303,421404896,-0.9713062,0.0067994315,0.011327621,-0.23746526,-0.99832785,-2.438307e-09,1.7469284e-10,0.057806443,4
421905352,421904933,-0.97065425,0.009921989,0.020757569,-0.23937617,-0.99832785,-2.438307e-09,1.7469284e-10,0.057806443,4
422405401,422404970,-0.9708867,0.012000424,0.029444184,-0.23741955,-0.99832785,-2.438307e-09,1.7469284e-10,0.057806443,4
422905432,422905008,-0.9721789,0.01210675,0.023252692,-0.23276822,-0.99832785,-2.438307e-09,1.7469284e-10,0.057806443,4
423400274,423400045,-0.9741416,0.0042029847,0.02070147,-0.22494903,-0.99832785,-2.438307e-09,1.7469284e-10,0.057806443,4
423900302,423900082,-0.9764131,0.0013209562,0.021622136,-0.21482168,-0.99832785,-2.438307e-09,1.7469284e-10,0.057806443,4
424400339,424400120,-0.9775988,0.0008521835,0.020847326,-0.20944028,-0.99832785,-2.438307e-09,1.7469284e-10,0.057806443,4
424900383,424900157,-0.97727484,-0.007200916,0.014711601,-0.21134266,-0.99832785,-2.438307e-09,1.7469284e-10,0.057806443,4
425405619,425405196,-0.9763802,-0.006253909,0.012700706,-0.21559496,-0.99832785,-2.438307e-09,1.7469284e-10,0.057806443,4
425905666,425905234,-0.9762409,0.0071993303,0.016616529,-0.21593069,-0.99832785,-2.438307e-09,1.7469284e-10,0.057806443,4
426405737,426405272,-0.9761738,-0.0064110546,0.01933484,-0.21603176,-0.99832785,-2.438307e-09,1.7469284e-10,0.057806443,4
426900528,426900310,-0.97615385,-0.0027105433,0.02583799,-0.21552005,-0.99832785,-2.438307e-09,1.7469284e-10,0.057806443,4
427400606,427400348,-0.97649264,-0.00083301874,0.024270076,-0.21417843,-0.99832785,-2.438307e-09,1.7469284e-10,0.057806443,4
427900633,427900386,-0.97685695,-0.001215024,0.024469545,-0.2124864,-0.99832785,-2.438307e-09,1.7469284e-10,0.057806443,4
428400647,428400425,-0.9775652,4.009775e-05,0.020615293,-0.2096221,-0.99832785,-2.438307e-09,1.7469284e-10,0.057806443,4
428905893,428905464,-0.9779356,-0.001762525,0.020907417,-0.20785044,-0.99832785,-2.438307e-09,1.7469284e-10,0.057806443,4
429405901,429405503,-0.9778224,0.005303334,0.025559312,-0.20780261,-0.99832785,-2.438307e-09,1.7469284e-10,0.057806443,4
429905959,429905542,-0.978386,0.009708646,0.028411265,-0.20459579,-0.99832785,-2.438307e-09,1.7469284e-10,0.057806443,4
430400804,430400581,-0.978752,-0.010760898,0.019200908,-0.20386277,-0.99832785,-2.438307e-09,1.7469284e-10,0.057806443,4
430900847,430900620,-0.98000276,0.015407491,0.03383118,-0.19548094,-0.99832785,-2.438307e-09,1.7469284e-10,0.057806443,4
431400879,431400659,-0.9824377,0.013418523,0.026734881,-0.18417777,-0.99832785,-2.438307e-09,1.7469284e-10,0.057806443,4
431900922,431900698,-0.98356587,0.0022839368,0.01680845,-0.17975141,-0.99832785,-2.438307e-09,1.7469284e-10,0.057806443,4
432400997,432400738,-0.98375666,-0.0019028097,0.017632587,-0.1786294,-0.99832785,-2.438307e-09,1.7469284e-10,0.057806443,4
432906274,432905778,-0.98357826,0.01411642,0.019300865,-0.17889145,-0.99832785,-2.438307e-09,1.7469284e-10,0.057806443,4
433406267,433405818,-0.98483473,0.017538719,0.012720534,-0.17213744,-0.99832785,-2.438307e-09,1.7469284e-10,0.057806443,4
433901079,433900858,-0.98654425,0.012593839,0.022761017,-0.16141151,-0.99832785,-2.438307e-09,1.7469284e-10,0.057806443,4
434401266,434400898,-0.9875005,0.0103556,0.021534484,-0.15579467,-0.99832785,-2.438307e-09,1.7469284e-10,0.057806443,4
434901161,434900938,-0.98754776,0.006122137,0.022101633,-0.15563951,-0.99832785,-2.438307e-09,1.7469284e-10,0.057806443,4
435401209,435400978,-0.987499,0.011013222,0.01915839,-0.15606901,-0.99832785,-2.438307e-09,1.7469284e-10,0.057806443,4
435901243,435901019,-0.9874601,0.015644515,0.022373382,-0.15549098,-0.99832785,-2.438307e-09,1.7469284e-10,0.057806443,4
436406575,436406060,-0.9875748,0.0009182175,0.02665969,-0.1548692,-0.99832785,-2.438307e-09,1.7469284e-10,0.057806443,4
436906493,436906101,-0.98612094,0.008471968,0.029482752,-0.1631701,-0.99832785,-2.438307e-09,1.7469284e-10,0.057806443,4
437401416,437401141,-0.9850879,-0.0043953937,0.021581965,-0.17063653,-0.99832785,-2.438307e-09,1.7469284e-10,0.057806443,4
437901406,437901182,-0.98385036,-0.008545577,0.021946048,-0.1774373,-0.99832785,-2.438307e-09,1.7469284e-10,0.057806443,4
438401489,438401223,-0.9845725,-0.0017417545,0.018861098,-0.17394878,-0.99832785,-2.438307e-09,1.7469284e-10,0.057806443,4
438901488,438901265,-0.9843239,-0.018277675,0.012863296,-0.17494856,-0.99832785,-2.438307e-09,1.7469284e-10,0.057806443,4
439401543,439401306,-0.9845164,-0.0058996473,0.017860947,-0.1742811,-0.99832785,-2.438307e-09,1.7469284e-10,0.057806443,4
439901573,439901348,-0.98540235,-0.0026190323,0.014406664,-0.16961072,-0.99832785,-2.438307e-09,1.7469284e-10,0.057806443,4
440406843,440406390,-0.9850036,-0.0076841284,0.018064981,-0.17141339,-0.99832785,-2.438307e-09,1.7469284e-10,0.057806443,4
440901659,440901431,-0.9847389,-0.010668354,0.016103113,-0.17296317,-0.99832785,-2.438307e-09,1.7469284e-10,0.057806443,4
441401713,441401473,-0.98364717,-0.009921041,0.029089011,-0.17746504,-0.99832785,-2.438307e-09,1.7469284e-10,0.057806443,4
441901812,441901516,-0.982905,-0.014388899,0.02231649,-0.18218872,-0.99832785,-2.438307e-09,1.7469284e-10,0.057806443,4
442401782,442401558,-0.98238343,0.002853156,0.02231184,-0.18551813,-0.99832785,-2.438307e-09,1.7469284e-10,0.057806443,4
442901852,442901601,-0.9818497,0.0062959124,0.024000186,-0.18803097,-0.99832785,-2.438307e-09,1.7469284e-10,0.057806443,4
443401876,443401643,-0.98179924,-0.0036591976,0.016338887,-0.18918227,-0.99832785,-2.438307e-09,1.7469284e-10,0.057806443,4
443901905,443901685,-0.98164743,0.006775471,0.019650606,-0.18956925,-0.99832785,-2.438307e-09,1.7469284e-10,0.057806443,4
444401956,444401729,-0.98225576,0.004759252,0.019040935,-0.18651673,-0.99832785,-2.438307e-09,1.7469284e-10,0.057806443,4
444901995,444901771,-0.9826858,0.0057576583,0.020674625,-0.18403305,-0.99832785,-2.438307e-09,1.7469284e-10,0.057806443,4
445402070,445401814,-0.98451024,0.011817623,0.021952074,-0.17354591,-0.99832785,-2.438307e-09,1.7469284e-10,0.057806443,4
445902081,445901858,-0.98672456,0.012315151,0.01943317,-0.16076472,-0.99832785,-2.438307e-09,1.7469284e-10,0.057806443,4
446402127,446401901,-0.98863715,0.008370517,0.017590007,-0.14905404,-0.99832785,-2.438307e-09,1.7469284e-10,0.057806443,4
446902174,446901945,-0.990691,0.0019191424,0.026041593,-0.1336023,-0.99832785,-2.438307e-09,1.7469284e-10,0.057806443,4
447402146,447401989,-0.9917401,0.016510235,0.024409298,-0.1248328,-0.99832785,-2.438307e-09,1.7469284e-10,0.057806443,4
447902256,447902032,-0.99273074,0.015393803,0.01713844,-0.11813136,-0.99832785,-2.438307e-09,1.7469284e-10,0.057806443,4
448402316,448402076,-0.9941392,0.0044123176,0.013446377,-0.107178204,-0.99832785,-2.438307e-09,1.7469284e-10,0.057806443,4
448902346,448902121,-0.99426013,-0.0056240982,0.01699284,-0.10548199,-0.99832785,-2.438307e-09,1.7469284e-10,0.057806443,4
449402387,449402165,-0.9931397,-0.013841086,0.014064743,-0.11525772,-0.99832785,-2.438307e-09,1.7469284e-10,0.057806443,4
449902486,449902209,-0.9915681,-0.017745614,0.01660998,-0.12728737,-0.99832785,-2.438307e-09,1.7469284e-10,0.057806443,4
450402475,450402254,-0.9893648,-0.02339346,0.022005722,-0.14186595,-0.99832785,-2.438307e-09,1.7469284e-10,0.057806443,4
450902521,450902299,-0.9880835,-0.009918084,0.01676283,-0.15268193,-0.99832785,-2.438307e-09,1.7469284e-10,0.057806443,4
451402568,451402344,-0.9860377,-0.010065188,0.017929444,-0.16524862,-0.99832785,-2.438307e-09,1.7469284e-10,0.057806443,4
451902686,451902388,-0.984272,-0.0036803817,0.008594315,-0.17641228,-0.99832785,-2.438307e-09,1.7469284e-10,0.057806443,4
452402661,452402434,-0.98266923,-0.006198693,0.013839961,-0.18474643,-0.99832785,-2.438307e-09,1.7469284e-10,0.057806443,4
452902713,452902479,-0.9817002,-0.0072669596,0.018597411,-0.18938337,-0.99832785,-2.438307e-09,1.7469284e-10,0.057806443,4
453402759,453402531,-0.98113,0.00084179826,0.01817927,-0.19249102,-0.99832785,-2.438307e-09,1.7469284e-10,0.057806443,4
453902798,453902571,-0.98091507,-0.001320253,0.021021584,-0.19329277,-0.99832785,-2.438307e-09,1.7469284e-10,0.057806443,4
454402904,454402618,-0.98055494,-0.017733676,0.031011103,-0.19296628,-0.99832785,-2.438307e-09,1.7469284e-10,0.057806443,4
454902884,454902662,-0.980753,0.004695173,0.029106472,-0.19301412,-0.99832785,-2.438307e-09,1.7469284e-10,0.057806443,4
455402937,455402708,-0.9809045,0.012428277,0.016896375,-0.19335537,-0.99832785,-2.438307e-09,1.7469284e-10,0.057806443,4
455902982,455902754,-0.98166144,-0.0027520435,0.019570023,-0.18960597,-0.99832785,-2.438307e-09,1.7469284e-10,0.057806443,4
456403028,456402801,-0.98328114,0.015597995,0.010256813,-0.18113473,-0.99832785,-2.438307e-09,1.7469284e-10,0.057806443,4
456903158,456902847,-0.98431444,0.0033478022,0.008236238,-0.17619884,-0.99832785,-2.438307e-09,1.7469284e-10,0.057806443,4
457403120,457402894,-0.9834823,0.0010113566,0.01594406,-0.18029787,-0.99832785,-2.438307e-09,1.7469284e-10,0.057806443,4
457903299,457902941,-0.9831382,-0.00014944148,0.018106516,-0.18196592,-0.99832785,-2.438307e-09,1.7469284e-10,0.057806443,4
458403220,458402988,-0.98347557,0.0036102515,0.016545262,-0.18024711,-0.99832785,-2.438307e-09,1.7469284e-10,0.057806443,4
458903411,458903035,-0.98373705,-0.0017591409,0.021504957,-0.17831443,-0.99832785,-2.438307e-09,1.7469284e-10,0.057806443,4
459403308,459403083,-0.9838212,-0.0062930463,0.022609873,-0.17760925,-0.99832785,-2.438307e-09,1.7469284e-10,0.057806443,4
459903360,459903129,-0.98342013,-0.0011090271,0.027303608,-0.1792713,-0.99832785,-2.438307e-09,1.7469284e-10,0.057806443,4
460403441,460403177,-0.9836298,0.00060209783,0.025037203,-0.17845227,-0.99832785,-2.438307e-09,1.7469284e-10,0.057806443,4
460903477,460903224,-0.98381263,-0.0031714076,0.019127162,-0.17814875,-0.99832785,-2.438307e-09,1.7469284e-10,0.057806443,4
461403495,461403272,-0.98277295,-0.010104415,0.015321787,-0.1839036,-0.99832785,-2.438307e-09,1.7469284e-10,0.057806443,4
461903567,461903320,-0.9827724,0.0056139505,0.025698759,-0.18293872,-0.99832785,-2.438307e-09,1.7469284e-10,0.057806443,4
462403610,462403368,-0.9829185,6.896336e-05,0.013677193,-0.18353252,-0.99832785,-2.438307e-09,1.7469284e-10,0.057806443,4
462903653,462903416,-0.9822055,-0.0047255238,0.016110392,-0.18705769,-0.99832785,-2.438307e-09,1.7469284e-10,0.057806443,4
463403725,463403465,-0.982005,0.004778951,0.015611394,-0.18814844,-0.99832785,-2.438307e-09,1.7469284e-10,0.057806443,4
463903739,463903513,-0.9824008,0.014850068,0.007776375,-0.18603154,-0.99832785,-2.438307e-09,1.7469284e-10,0.057806443,4
