timestamp,timestamp_sample,output_tracking_error[0],output_tracking_error[1],output_tracking_error[2],control_mode_flags,filter_fault_flags,pos_horiz_accuracy,pos_vert_accuracy,mag_test_ratio,vel_test_ratio,pos_test_ratio,hgt_test_ratio,tas_test_ratio,hagl_test_ratio,beta_test_ratio,time_slip,accel_device_id,gyro_device_id,baro_device_id,mag_device_id,gps_check_fail_flags,innovation_check_flags,solution_status_flags,reset_count_vel_ne,reset_count_vel_d,reset_count_pos_ne,reset_count_pod_d,reset_count_quat,pre_flt_fail_innov_heading,pre_flt_fail_innov_vel_horiz,pre_flt_fail_innov_vel_vert,pre_flt_fail_innov_height,pre_flt_fail_mag_field_disturbed,health_flags,timeout_flags
217458715,217358250,8.646678e-05,0.0031282904,0.0072638444,67109399,0,0.3687234,0.39687556,0.07836987,0.030368028,0.010523256,0.017497052,0.0,0.0,0.0,0.0,4259850,4325386,4028193,396321,0,0,895,2,1,2,0,3,0,0,0,0,0,0,0
217468911,217368251,0.00023250512,0.009005455,0.015034936,67109399,0,0.35309237,0.39317283,0.07836987,0.036031708,0.010389085,0.017497052,0.0,0.0,0.0,0.0,4259850,4325386,4028193,396321,0,0,895,2,1,2,0,3,0,0,0,0,0,0,0
217658915,217558266,0.001210223,0.008064616,0.014563092,67109399,0,0.3519432,0.39151943,0.16978405,0.019670794,0.0091040395,0.018466318,0.0,0.0,0.0,0.0,4259850,4325386,4028193,396321,0,0,895,2,1,2,0,3,0,0,0,0,0,0,0
217858781,217758282,0.0015961862,0.0036306633,0.008484482,67109399,0,0.36791438,0.39484018,0.18701266,0.019670794,0.0091040395,0.0115208635,0.0,0.0,0.0,0.0,4259850,4325386,4028193,396321,0,0,895,2,1,2,0,3,0,0,0,0,0,0,0
218058766,217958299,0.0015547575,0.001346327,0.0050161663,67109399,0,0.36748806,0.3963781,0.19944984,0.0056847255,0.008755646,0.020073405,0.0,0.0,0.0,0.0,4259850,4325386,4028193,396321,0,0,895,2,1,2,0,3,0,0,0,0,0,0,0
218258777,218158315,0.0012275361,0.0019710285,0.0059384853,67109399,0,0.36705273,0.3953868,0.16758192,0.01891984,0.009072129,0.017749779,0.0,0.0,0.0,0.0,4259850,4325386,4028193,396321,0,0,895,2,1,2,0,3,0,0,0,0,0,0,0
218458797,218358332,0.0015587326,0.002033723,0.0061613815,67109399,0,0.36660916,0.39694822,0.21017447,0.01981477,0.009528777,0.015788373,0.0,0.0,0.0,0.0,4259850,4325386,4028193,396321,0,0,895,2,1,2,0,3,0,0,0,0,0,0,0
218658799,218558348,0.0017128756,0.00059316086,0.0035141923,67109399,0,0.366086,0.39597836,0.19172348,0.006862513,0.0078085335,0.011776247,0.0,0.0,0.0,0.0,4259850,4325386,4028193,396321,0,0,895,2,1,2,0,3,0,0,0,0,0,0,0
218858815,218758364,0.0010979959,0.0012504897,0.0044157896,67109399,0,0.36563045,0.3950149,0.15404023,0.020015707,0.009223988,0.016960615,0.0,0.0,0.0,0.0,4259850,4325386,4028193,396321,0,0,895,2,1,2,0,3,0,0,0,0,0,0,0
219058965,218958381,0.0012199228,0.0024142272,0.0037333411,67109399,0,0.34869567,0.3922284,0.169852,0.010575747,0.009033962,0.01771063,0.0,0.0,0.0,0.0,4259850,4325386,4028193,396321,0,0,895,2,1,2,0,3,0,0,0,0,0,0,0
219258911,219158397,0.0015200328,0.0013454374,0.0017323515,1049239,0,0.36476997,0.39568192,0.15786062,0.010575747,0.009033962,0.01980376,0.0,0.0,0.0,0.0,4259850,4325386,4028193,396321,0,0,895,2,1,2,0,3,0,0,0,0,0,0,0
219458855,219358414,0.0008349088,0.0010012372,0.0036314786,1049239,0,0.36431086,0.3947541,0.06895891,0.011688448,0.008348274,1.1754944e-38,0.0,0.0,0.0,0.0,4259850,4325386,4028193,396321,0,0,895,2,1,2,0,3,0,0,0,0,0,0,0
219659099,219558430,0.0003064896,0.008269681,0.013517061,1049239,0,0.34733775,0.38955736,0.089832135,0.043718286,0.007015107,0.017534815,0.0,0.0,0.0,0.0,4259850,4325386,4028193,396321,0,0,895,2,1,2,0,3,0,0,0,0,0,0,0
219858934,219758447,0.0001516287,0.0037964834,0.008150925,1049239,0,0.36345562,0.395492,0.03105489,0.043718286,0.007015107,0.0134032415,0.0,0.0,0.0,0.0,4259850,4325386,4028193,396321,0,0,895,2,1,2,0,3,0,0,0,0,0,0,0
220058872,219958464,0.00023132977,0.0028835852,0.009141417,1049239,0,0.362987,0.39460212,0.008215535,0.029143898,0.007334607,0.020586496,0.0,0.0,0.0,0.0,4259850,4325386,4028193,396321,0,0,895,2,1,2,0,3,0,0,0,0,0,0,0
220259096,220158480,0.00014804082,0.004922599,0.009581652,1049239,0,0.34596553,0.3918478,0.020295002,0.013455615,0.0069495416,0.018771019,0.0,0.0,0.0,0.0,4259850,4325386,4028193,396321,0,0,895,2,1,2,0,3,0,0,0,0,0,0,0
220458990,220358497,0.0007397199,0.002271639,0.0069998247,1049239,0,0.3621228,0.395354,0.1752619,0.013455615,0.0069495416,0.020747384,0.0,0.0,0.0,0.0,4259850,4325386,4028193,396321,0,0,895,2,1,2,0,3,0,0,0,0,0,0,0
220659094,220558513,0.0014103692,0.0042177276,0.008701006,1049239,0,0.34505084,0.39013413,0.18987112,0.011915423,0.007855398,0.016192371,0.0,0.0,0.0,0.0,4259850,4325386,4028193,396321,0,0,895,2,1,2,0,3,0,0,0,0,0,0,0
220859159,220758530,0.001829007,0.005199671,0.010719582,1049239,0,0.34462872,0.38928467,0.21354848,0.020295529,0.0074701095,0.0040643616,0.0,0.0,0.0,0.0,4259850,4325386,4028193,396321,0,0,895,2,1,2,0,3,0,0,0,0,0,0,0
221059335,220958546,0.0021851142,0.0076545323,0.016170368,1049239,0,0.34419543,0.3884963,0.23861,0.024274107,0.008339584,0.03054915,0.0,0.0,0.0,0.0,4259850,4325386,4028193,396321,0,0,895,2,1,2,0,3,0,0,0,0,0,0,0
221258969,221158563,0.0019358041,0.0032182124,0.0071130726,1049239,0,0.36041424,0.39448765,0.27036157,0.024274107,0.008339584,0.017423954,0.0,0.0,0.0,0.0,4259850,4325386,4028193,396321,0,0,895,2,1,2,0,3,0,0,0,0,0,0,0
221459027,221358580,0.0025755642,0.0040411525,0.009774469,1049239,0,0.3599343,0.3936527,0.3238319,0.022023715,0.0086525595,0.0049350588,0.0,0.0,0.0,0.0,4259850,4325386,4028193,396321,0,0,895,2,1,2,0,3,0,0,0,0,0,0,0
221659262,221558596,0.0034825604,0.0053207967,0.010622517,1049239,0,0.3428182,0.39092746,0.37589872,0.015448555,0.009048068,0.01578844,0.0,0.0,0.0,0.0,4259850,4325386,4028193,396321,0,0,895,2,1,2,0,3,0,0,0,0,0,0,0
221859021,221758613,0.0029426275,0.0026880633,0.0065404605,1049239,0,0.35906148,0.3944912,0.40254548,0.015448555,0.009048068,0.031025372,0.0,0.0,0.0,0.0,4259850,4325386,4028193,396321,0,0,895,2,1,2,0,3,0,0,0,0,0,0,0
222059077,221958630,0.003814771,0.0035767825,0.009719629,1114775,0,0.35859507,0.3936601,0.45929462,0.042655032,0.0071464074,0.02509816,0.0,0.0,0.0,0.0,4259850,4325386,4028193,396321,0,0,895,2,1,2,0,3,0,0,0,0,1,0,0
222259237,222158647,0.0032956174,0.0043989555,0.005667331,1114775,0,0.34123394,0.39091974,0.5204278,0.023809323,0.007274977,0.018628703,0.0,0.0,0.0,0.0,4259850,4325386,4028193,396321,0,0,895,2,1,2,0,3,0,0,0,0,1,0,0
222458997,222358664,0.004255476,0.003101904,0.006571702,1114775,0,0.35744473,0.3944889,0.5678296,0.023809323,0.007274977,0.014235105,0.0,0.0,0.0,0.0,4259850,4325386,4028193,396321,0,0,895,2,1,2,0,3,0,0,0,0,1,0,0
222659106,222558681,0.005297768,0.0020909908,0.0068602557,1114775,0,0.35683802,0.39365003,0.6070396,0.032132465,0.01017313,0.0024124857,0.0,0.0,0.0,0.0,4259850,4325386,4028193,396321,0,0,895,2,1,2,0,3,0,0,0,0,1,0,0
222859359,222758697,0.004291238,0.0035275675,0.005328912,1114775,0,0.33981168,0.39095345,0.63307804,0.009124501,0.009520591,0.030422185,0.0,0.0,0.0,0.0,4259850,4325386,4028193,396321,0,0,895,2,1,2,0,3,0,0,0,0,1,0,0
223049142,222948713,0.00588249,0.0034545066,0.013501194,1114775,0,0.3551759,0.39384103,0.7176165,0.009124501,0.009520591,0.056248453,0.0,0.0,0.0,0.0,4259850,4325386,4028193,396321,0,0,895,2,1,2,0,3,0,0,0,0,1,0,0
223259226,223158731,0.0066353674,0.0069843703,0.028120816,1114775,0,0.35568073,0.39370286,0.7489726,0.042497426,0.009381827,0.04192788,0.0,0.0,0.0,0.0,4259850,4325386,4028193,396321,0,0,895,2,1,2,0,3,0,0,0,0,1,0,0
223459189,223358748,0.0056068134,0.006465112,0.030105684,1114775,0,0.35526046,0.39289817,0.74704045,0.021800337,0.0109413685,0.028871752,0.0,0.0,0.0,0.0,4259850,4325386,4028193,396321,0,0,895,2,1,2,0,3,0,0,0,0,1,0,0
223659170,223558765,0.0058413367,0.0027047058,0.01164072,1114775,0,0.35483634,0.39458668,0.63652843,0.061140236,0.009371569,0.06776677,0.0,0.0,0.0,0.0,4259850,4325386,4028193,396321,0,0,895,2,1,2,0,3,0,0,0,0,1,0,0
223859202,223758782,0.0038779508,0.0063875346,0.008983735,1114775,0,0.3543989,0.39377648,0.59928334,0.06959898,0.011670414,1.1754944e-38,0.0,0.0,0.0,0.0,4259850,4325386,4028193,396321,0,0,895,2,1,2,0,3,0,0,0,0,1,0,0
224059250,223958799,0.0047944225,0.005126646,0.0104005085,1114775,0,0.35396767,0.39297646,0.6472583,0.056020815,0.012291942,0.027683605,0.0,0.0,0.0,0.0,4259850,4325386,4028193,396321,0,0,895,2,1,2,0,3,0,0,0,0,1,0,0
224259389,224158816,0.0057445825,0.0055735186,0.014475065,1114775,0,0.33678293,0.39030156,0.64885306,0.020616883,0.011065644,0.01944549,0.0,0.0,0.0,0.0,4259850,4325386,4028193,396321,0,0,831,2,1,2,0,3,0,0,0,0,1,0,0
224459249,224358833,0.004230261,0.0027102826,0.014078097,1114775,0,0.35316157,0.39389768,0.6080065,0.020616883,0.011065644,0.007323336,0.0,0.0,0.0,0.0,4259850,4325386,4028193,396321,0,0,831,2,1,2,0,3,0,0,0,0,1,0,0
224659331,224558850,0.0047800466,0.0052265287,0.00866466,1114775,0,0.35265675,0.39309075,0.6137938,0.069905125,0.012232045,0.011257915,0.0,0.0,0.0,0.0,4259850,4325386,4028193,396321,0,0,831,2,1,2,0,3,0,0,0,0,1,0,0
224859295,224758866,0.0055087917,0.0054413867,0.010610941,1114775,0,0.3522592,0.39481437,0.6219353,0.07060406,0.0103112785,0.020106617,0.0,0.0,0.0,0.0,4259850,4325386,4028193,396321,0,0,831,2,1,2,0,3,0,0,0,0,1,0,0
225059453,224958884,0.004381593,0.002602238,0.008869259,1114775,0,0.33504564,0.38965797,0.61661285,0.01643521,0.01150873,0.008194554,0.0,0.0,0.0,0.0,4259850,4325386,4028193,396321,0,0,831,2,1,2,0,3,0,0,0,0,1,0,0
225259297,225158901,0.0050258674,0.0005662827,0.0050089927,1114775,0,0.35145918,0.39324367,0.6228273,0.01643521,0.01150873,0.018347176,0.0,0.0,0.0,0.0,4259850,4325386,4028193,396321,0,0,831,2,1,2,0,3,0,0,0,0,1,0,0
225459565,225358918,0.0056658858,0.018522674,0.034513585,1114775,0,0.33428532,0.3881662,0.59882927,0.084342845,0.012911666,0.020459345,0.0,0.0,0.0,0.0,4259850,4325386,4028193,396321,0,0,831,2,1,2,0,3,0,0,0,0,1,0,0
225659327,225558935,0.004358535,0.0075582084,0.015903812,1114775,0,0.35072327,0.39420307,0.59542435,0.084342845,0.012911666,0.010643193,0.0,0.0,0.0,0.0,4259850,4325386,4028193,396321,0,0,831,2,1,2,0,3,0,0,0,0,1,0,0
225859359,225758952,0.005088059,0.0030154902,0.013732181,1114775,0,0.35031885,0.3934348,0.6095943,0.022600919,0.010545396,1.1754944e-38,0.0,0.0,0.0,0.0,4259850,4325386,4028193,396321,0,0,831,2,1,2,0,3,0,0,0,0,1,0,0
226059445,225958969,0.005597171,0.008727728,0.015520224,1114775,0,0.3499118,0.39267397,0.59728086,0.09421881,0.011772395,0.06397282,0.0,0.0,0.0,0.0,4259850,4325386,4028193,396321,0,0,831,2,1,2,0,3,0,0,0,0,1,0,0
226259381,226158986,0.004408629,0.008496534,0.016331805,1114775,0,0.34953287,0.39440805,0.5942092,0.045088574,0.010953899,0.012821297,0.0,0.0,0.0,0.0,4259850,4325386,4028193,396321,0,0,831,2,1,2,0,3,0,0,0,0,1,0,0
226459440,226359003,0.004995046,0.0076081725,0.01434854,1114775,0,0.34915498,0.39364347,0.57365215,0.060612302,0.012585633,1.1754944e-38,0.0,0.0,0.0,0.0,4259850,4325386,4028193,396321,0,0,831,2,1,2,0,3,0,0,0,0,1,0,0
226659453,226559021,0.0038505532,0.0046165334,0.011194386,1114775,0,0.3487746,0.3928848,0.5911141,0.023897879,0.010502877,1.1754944e-38,0.0,0.0,0.0,0.0,4259850,4325386,4028193,396321,0,0,831,2,1,2,0,3,0,0,0,0,1,0,0
226859570,226759038,0.0044399374,0.014594505,0.028366648,1114775,0,0.33161694,0.3902274,0.5772175,0.05487758,0.013833014,1.1754944e-38,0.0,0.0,0.0,0.0,4259850,4325386,4028193,396321,0,0,831,2,1,2,0,3,0,0,0,0,1,0,0
227059595,226959055,0.0049507827,0.025629666,0.04208667,1114775,0,0.33129042,0.3895054,0.56554323,0.116093315,0.014489929,0.009588296,0.0,0.0,0.0,0.0,4259850,4325386,4028193,396321,0,0,831,2,1,2,0,3,0,0,0,0,1,0,0
227259462,227159072,0.0037108022,0.009622265,0.017462937,1114775,0,0.34776697,0.39312336,0.56145626,0.116093315,0.014489929,1.1754944e-38,0.0,0.0,0.0,0.0,4259850,4325386,4028193,396321,0,0,831,2,1,2,0,3,0,0,0,0,1,0,0
227459479,227359090,0.004396796,0.006890495,0.01291117,1114775,0,0.34736967,0.39485145,0.5510578,0.06252687,0.009101624,1.1754944e-38,0.0,0.0,0.0,0.0,4259850,4325386,4028193,396321,0,0,831,2,1,2,0,3,0,0,0,0,1,0,0
227659649,227559107,0.004841519,0.0052395156,0.009712066,1114775,0,0.33021122,0.38972425,0.54183525,0.05243796,0.0100718755,0.017132292,0.0,0.0,0.0,0.0,4259850,4325386,4028193,396321,0,0,831,2,1,2,0,3,0,0,0,0,1,0,0
227859519,227759124,0.0036866942,0.0010167535,0.0045584133,1114775,0,0.34669334,0.39333767,0.5462786,0.05243796,0.0100718755,0.0017851634,0.0,0.0,0.0,0.0,4259850,4325386,4028193,396321,0,0,831,2,1,2,0,3,0,0,0,0,1,0,0
228059781,227959141,0.0042865933,0.025588313,0.04877209,1114775,0,0.32953045,0.38823596,0.54094505,0.07123865,0.0132427905,1.1754944e-38,0.0,0.0,0.0,0.0,4259850,4325386,4028193,396321,0,0,831,2,1,2,0,3,0,0,0,0,1,0,0
228259741,228159159,0.0048593692,0.027404308,0.04884314,1114775,0,0.32922652,0.3899209,0.54970706,0.13205466,0.015493926,1.1754944e-38,0.0,0.0,0.0,0.0,4259850,4325386,4028193,396321,0,0,831,2,1,2,0,3,0,0,0,0,1,0,0
228459612,228359176,0.0037649926,0.009089187,0.018844813,1114775,0,0.3457284,0.39351156,0.5637369,0.13205466,0.015493926,1.1754944e-38,0.0,0.0,0.0,0.0,4259850,4325386,4028193,396321,0,0,831,2,1,2,0,3,0,0,0,0,1,0,0
228659787,228559193,0.00464302,0.0107249925,0.021666965,1114775,0,0.32842302,0.39078495,0.5759083,0.042132534,0.011280131,0.053079464,0.0,0.0,0.0,0.0,4259850,4325386,4028193,396321,0,0,831,2,1,2,0,3,0,0,0,0,1,0,0
228859830,228759211,0.005303417,0.008829284,0.02340484,1114775,0,0.32810706,0.38996848,0.5723549,0.043473322,0.015172253,1.1754944e-38,0.0,0.0,0.0,0.0,4259850,4325386,4028193,396321,0,0,831,2,1,2,0,3,0,0,0,0,1,0,0
229059645,228959228,0.004359894,0.0059057022,0.018444696,1114775,0,0.3446001,0.39597663,0.5715454,0.043473322,0.015172253,0.011040551,0.0,0.0,0.0,0.0,4259850,4325386,4028193,396321,0,0,831,2,1,2,0,3,0,0,0,0,1,0,0
229259785,229159246,0.003349502,0.011720386,0.023928862,1114775,0,0.3274057,0.39306962,0.56204826,0.04693541,0.015589912,1.1754944e-38,0.0,0.0,0.0,0.0,4259850,4325386,4028193,396321,0,0,831,2,1,2,0,3,0,0,0,0,1,0,0
229459662,229359263,0.0043187374,0.011222696,0.016688116,1114775,0,0.3271388,0.39210036,0.5767139,0.05802641,0.0138340015,0.011831626,0.0,0.0,0.0,0.0,4259850,4325386,4028193,396321,0,0,831,2,1,2,0,3,0,0,0,0,1,0,0
229660046,229559281,0.0050946902,0.01855211,0.030979961,1114775,0,0.3268031,0.3911433,0.5726559,0.06695118,0.015786622,0.031849552,0.0,0.0,0.0,0.0,4259850,4325386,4028193,396321,0,0,831,2,1,2,0,3,0,0,0,0,1,0,0
229859756,229759298,0.0042318013,0.011249118,0.021332925,1114775,0,0.3433362,0.39711764,0.5614269,0.06695118,0.015786622,0.0104819825,0.0,0.0,0.0,0.0,4259850,4325386,4028193,396321,0,0,831,2,1,2,0,3,0,0,0,0,1,0,0
230059882,229959316,0.0047633946,0.017792134,0.03324837,1114775,0,0.32606128,0.3916695,0.55031705,0.0604641,0.020525863,1.1754944e-38,0.0,0.0,0.0,0.0,4259850,4325386,4028193,396321,0,0,831,2,1,2,0,3,0,0,0,0,1,0,0
230259781,230159333,0.0050331657,0.006636701,0.01766938,1114775,0,0.34259945,0.39763656,0.5349452,0.0604641,0.020525863,0.0045670886,0.0,0.0,0.0,0.0,4259850,4325386,4028193,396321,0,0,831,2,1,2,0,3,0,0,0,0,1,0,0
230459752,230359351,0.003830176,0.0104279835,0.023058355,1114775,0,0.34218827,0.39663985,0.5044389,0.093410924,0.02002274,0.0015831866,0.0,0.0,0.0,0.0,4259850,4325386,4028193,396321,0,0,831,2,1,2,0,3,0,0,0,0,1,0,0
230659945,230559368,0.004510033,0.0132041825,0.02756224,1114775,0,0.3248685,0.39127272,0.52556896,0.069315396,0.01981422,1.1754944e-38,0.0,0.0,0.0,0.0,4259850,4325386,4028193,396321,0,0,831,2,1,2,0,3,0,0,0,0,1,0,0
230859954,230759386,0.0034721235,0.016455386,0.028212668,1114775,0,0.32455873,0.3903565,0.5136457,0.06334067,0.020990157,0.0018434051,0.0,0.0,0.0,0.0,4259850,4325386,4028193,396321,0,0,831,2,1,2,0,3,0,0,0,0,1,0,0
231059794,230959403,0.0037244067,0.0048334976,0.008439287,1114775,0,0.34110397,0.39629373,0.46498182,0.06334067,0.020990157,1.1754944e-38,0.0,0.0,0.0,0.0,4259850,4325386,4028193,396321,0,0,831,2,1,2,0,3,0,0,0,0,1,0,0
231259856,231159421,0.0043265754,0.004503463,0.008626744,1114775,0,0.3407478,0.39532313,0.50385576,0.038385194,0.018821625,1.1754944e-38,0.0,0.0,0.0,0.0,4259850,4325386,4028193,396321,0,0,831,2,1,2,0,3,0,0,0,0,1,0,0
231459860,231359439,0.0033890135,0.011893594,0.020929554,1114775,0,0.34040952,0.39686564,0.5223902,0.084601685,0.016586902,1.1754944e-38,0.0,0.0,0.0,0.0,4259850,4325386,4028193,396321,0,0,831,2,1,2,0,3,0,0,0,0,1,0,0
231660002,231559459,0.0037645488,0.011312523,0.019105636,1114775,0,0.3232199,0.39149505,0.47862744,0.06305529,0.01894621,1.1754944e-38,0.0,0.0,0.0,0.0,4259850,4325386,4028193,396321,0,0,831,2,1,2,0,3,0,0,0,0,1,0,0
231859870,231759474,0.004231855,0.005562074,0.014746149,1114775,0,0.33977306,0.3974707,0.4804697,0.06305529,0.01894621,1.1754944e-38,0.0,0.0,0.0,0.0,4259850,4325386,4028193,396321,0,0,831,2,1,2,0,3,0,0,0,0,1,0,0
232060053,231959491,0.0032586744,0.026290324,0.042234182,1114775,0,0.32264727,0.39203885,0.5002199,0.095384575,0.017725863,1.1754944e-38,0.0,0.0,0.0,0.0,4259850,4325386,4028193,396321,0,0,831,2,1,2,0,3,0,0,0,0,1,0,0
232259934,232159509,0.0039211297,0.012361792,0.02396635,1114775,0,0.3392114,0.39544708,0.49775195,0.095384575,0.017725863,1.1754944e-38,0.0,0.0,0.0,0.0,4259850,4325386,4028193,396321,0,0,831,2,1,2,0,3,0,0,0,0,1,0,0
232459926,232359527,0.0041347714,0.008565094,0.018316166,1114775,0,0.33887923,0.39701232,0.45988294,0.057219304,0.019480934,1.1754944e-38,0.0,0.0,0.0,0.0,4259850,4325386,4028193,396321,0,0,831,2,1,2,0,3,0,0,0,0,1,0,0
232659937,232559545,0.0031754987,0.0076481323,0.015151912,1114775,0,0.33847815,0.39600822,0.45171395,0.06636957,0.017829362,1.1754944e-38,0.0,0.0,0.0,0.0,4259850,4325386,4028193,396321,0,0,831,2,1,2,0,3,0,0,0,0,1,0,0
232859979,232759562,0.0037078976,0.008620374,0.017376468,1114775,0,0.33815327,0.395018,0.43626353,0.06326055,0.01715481,1.1754944e-38,0.0,0.0,0.0,0.0,4259850,4325386,4028193,396321,0,0,831,2,1,2,0,3,0,0,0,0,1,0,0
233060090,232959580,0.0039235894,0.008996531,0.018020386,1114775,0,0.3378226,0.39657888,0.4194639,0.06352008,0.014538996,1.1754944e-38,0.0,0.0,0.0,0.0,4259850,4325386,4028193,396321,0,0,831,2,1,2,0,3,0,0,0,0,1,0,0
233260140,233159598,0.0029705276,0.022146016,0.036248382,1114775,0,0.3207044,0.3912503,0.418079,0.078257665,0.014412843,1.1754944e-38,0.0,0.0,0.0,0.0,4259850,4325386,4028193,396321,0,0,831,2,1,2,0,3,0,0,0,0,1,0,0
233460035,233359618,0.003480525,0.006550617,0.01861714,66199,0,0.33727974,0.3946835,0.4028406,0.078257665,0.014412843,0.030490456,0.0,0.0,0.0,0.0,4259850,4325386,4028193,396321,0,0,831,2,1,2,0,3,0,0,0,0,1,0,0
233660077,233559633,0.0035682814,0.0066072377,0.028776744,66199,0,0.33700898,0.39628127,0.36377922,0.06208825,0.015132936,0.019320909,0.0,0.0,0.0,0.0,4259850,4325386,4028193,396321,0,0,831,2,1,2,0,3,0,0,0,0,1,0,0
233860043,233759651,0.00271515,0.011796747,0.046520546,66199,0,0.33674505,0.39536348,0.37634027,0.09718848,0.013300216,0.039332524,0.0,0.0,0.0,0.0,4259850,4325386,4028193,396321,0,0,831,2,1,2,0,3,0,0,0,0,1,0,0
234060076,233959669,0.0033735791,0.007431211,0.036982495,66199,0,0.33651143,0.39446285,0.39370477,0.06419203,0.012915505,0.022074275,0.0,0.0,0.0,0.0,4259850,4325386,4028193,396321,0,0,831,2,1,2,0,3,0,0,0,0,1,0,0
234260274,234159688,0.0024131972,0.013867912,0.048800867,66199,0,0.31951976,0.39166814,0.35805336,0.045412906,0.011017664,0.028271656,0.0,0.0,0.0,0.0,4259850,4325386,4028193,396321,0,0,831,2,1,2,0,3,0,0,0,0,1,0,0
234460116,234359705,0.002703751,0.009009329,0.03326236,66199,0,0.33614105,0.395133,0.3612118,0.045412906,0.011017664,0.02968772,0.0,0.0,0.0,0.0,4259850,4325386,4028193,396321,0,0,831,2,1,2,0,3,0,0,0,0,1,0,0
234660295,234559723,0.0031622548,0.014273457,0.05260762,66199,0,0.31901646,0.38986534,0.37312907,0.03503003,0.012779871,0.034948457,0.0,0.0,0.0,0.0,4259850,4325386,4028193,396321,0,0,831,2,1,2,0,3,0,0,0,0,1,0,0
234860319,234759741,0.0023356809,0.011145526,0.035573553,66199,0,0.318864,0.39142746,0.34886384,0.038903408,0.011652406,0.025423013,0.0,0.0,0.0,0.0,4259850,4325386,4028193,396321,0,0,831,2,1,2,0,3,0,0,0,0,1,0,0
235060313,234959759,0.002678195,0.02158273,0.05081843,66199,0,0.31870896,0.3905655,0.34950158,0.07473504,0.014270436,0.074138045,0.0,0.0,0.0,0.0,4259850,4325386,4028193,396321,0,0,831,2,1,2,0,3,0,0,0,0,1,0,0
235260338,235159777,0.0036561384,0.019416252,0.04516821,66199,0,0.31851804,0.38971028,0.44910252,0.08604354,0.0125861345,0.024947656,0.0,0.0,0.0,0.0,4259850,4325386,4028193,396321,0,0,831,2,1,2,0,3,0,0,0,0,1,0,0
235460381,235359795,0.0030684036,0.016918931,0.036567613,66199,0,0.3183265,0.3913011,0.4548088,0.059299022,0.011741669,0.014950636,0.0,0.0,0.0,0.0,4259850,4325386,4028193,396321,0,0,831,2,1,2,0,3,0,0,0,0,1,0,0
235660209,235559813,0.0037792677,0.008369569,0.021309558,66199,0,0.33523282,0.39481926,0.4661133,0.059299022,0.011741669,0.015248113,0.0,0.0,0.0,0.0,4259850,4325386,4028193,396321,0,0,831,2,1,2,0,3,0,0,0,0,1,0,0
235860367,235759831,0.0042225136,0.023452438,0.05436344,66199,0,0.31793442,0.3920375,0.42923567,0.0740909,0.010436459,0.053149667,0.0,0.0,0.0,0.0,4259850,4325386,4028193,396321,0,0,831,2,1,2,0,3,0,0,0,0,1,0,0
236060405,235959849,0.002827192,0.019216426,0.039624877,66199,0,0.31782758,0.39117715,0.3975037,0.03680898,0.010514961,0.005895921,0.0,0.0,0.0,0.0,4259850,4325386,4028193,396321,0,0,831,2,1,2,0,3,0,0,0,0,1,0,0
236260472,236159867,0.0029750771,0.011847013,0.025543828,66199,0,0.31773016,0.390322,0.34471294,0.011162813,0.008295184,0.052876722,0.0,0.0,0.0,0.0,4259850,4325386,4028193,396321,0,0,831,2,1,2,0,3,0,0,0,0,1,0,0
236460323,236359885,0.0028735031,0.007540841,0.02114278,66199,0,0.33482376,0.3963145,0.31248012,0.011162813,0.008295184,0.0073226537,0.0,0.0,0.0,0.0,4259850,4325386,4028193,396321,0,0,831,2,1,2,0,3,0,0,0,0,1,0,0
236660511,236559903,0.002459317,0.023824567,0.041124906,66199,0,0.31744227,0.39104518,0.36060235,0.059871033,0.012331677,0.0058275005,0.0,0.0,0.0,0.0,4259850,4325386,4028193,396321,0,0,831,2,1,2,0,3,0,0,0,0,1,0,0
236860472,236759921,0.0030498763,0.0132907275,0.030678093,66199,0,0.31729713,0.3902097,0.36241227,0.030641442,0.0106655685,0.0075473003,0.0,0.0,0.0,0.0,4259850,4325386,4028193,396321,0,0,831,2,1,2,0,3,0,0,0,0,1,0,0
237060612,236959939,0.0034244666,0.015644457,0.040107086,66199,0,0.31714854,0.38938913,0.37987944,0.047509193,0.010923607,0.000992542,0.0,0.0,0.0,0.0,4259850,4325386,4028193,396321,0,0,831,2,1,2,0,3,0,0,0,0,1,0,0
237260373,237159957,0.0028160086,0.017264696,0.050568998,66199,0,0.3170541,0.39100242,0.38770097,0.04316028,0.012267599,0.05735602,0.0,0.0,0.0,0.0,4259850,4325386,4028193,396321,0,0,831,2,1,2,0,3,0,0,0,0,1,0,0
237460525,237359975,0.0032984593,0.016031327,0.055703834,66199,0,0.31688064,0.39018056,0.38444817,0.03349203,0.009111058,0.029480847,0.0,0.0,0.0,0.0,4259850,4325386,4028193,396321,0,0,831,2,1,2,0,3,0,0,0,0,1,0,0
237660397,237559993,0.0024542806,0.009658225,0.039558023,66199,0,0.33380193,0.3937302,0.37481248,0.03349203,0.009111058,0.037048895,0.0,0.0,0.0,0.0,4259850,4325386,4028193,396321,0,0,831,2,1,2,0,3,0,0,0,0,1,0,0
237860592,237760012,0.0028657767,0.02408004,0.059035454,66199,0,0.31645757,0.39100072,0.39325115,0.06340227,0.01171917,0.024427043,0.0,0.0,0.0,0.0,4259850,4325386,4028193,396321,0,0,831,2,1,2,0,3,0,0,0,0,1,0,0
238060453,237960030,0.0035001049,0.012608341,0.047834523,66199,0,0.333308,0.39455262,0.40597203,0.06340227,0.01171917,0.033355866,0.0,0.0,0.0,0.0,4259850,4325386,4028193,396321,0,0,831,2,1,2,0,3,0,0,0,0,1,0,0
238260736,238160048,0.0026890642,0.013084121,0.03830641,66199,0,0.31601593,0.3893441,0.4320636,0.03650098,0.010897795,0.04041028,0.0,0.0,0.0,0.0,4259850,4325386,4028193,396321,0,0,831,2,1,2,0,3,0,0,0,0,1,0,0
238460471,238360067,0.003303654,0.0026246195,0.0053477646,66199,0,0.33280662,0.39534077,0.43443212,0.03650098,0.010897795,0.09775039,0.0,0.0,0.0,0.0,4259850,4325386,4028193,396321,0,0,831,2,1,2,0,3,0,0,0,0,1,0,0
238660494,238560087,0.0035535644,0.002498858,0.0027273907,66199,0,0.3325438,0.39448544,0.40083846,0.043941073,0.010694944,0.079403915,0.0,0.0,0.0,0.0,4259850,4325386,4028193,396321,0,0,831,2,1,2,0,3,0,0,0,0,1,0,0
238860562,238760103,0.0027150533,0.003452913,0.0024569805,66199,0,0.3322805,0.39364162,0.41647077,0.07940257,0.011022698,0.034051795,0.0,0.0,0.0,0.0,4259850,4325386,4028193,396321,0,0,831,2,1,2,0,3,0,0,0,0,1,0,0
239060522,238960121,0.0032656277,0.0076648574,0.027069215,66199,0,0.33204445,0.39530656,0.40379998,0.075790256,0.009918035,0.03796628,0.0,0.0,0.0,0.0,4259850,4325386,4028193,396321,0,0,831,2,1,2,0,3,0,0,0,0,1,0,0
239260543,239160140,0.003589043,0.005530389,0.01873197,66199,0,0.33180264,0.39447048,0.40084693,0.06932948,0.012652429,0.039902523,0.0,0.0,0.0,0.0,4259850,4325386,4028193,396321,0,0,831,2,1,2,0,3,0,0,0,0,1,0,0
239460591,239360158,0.0027815758,0.0050672237,0.008296528,66199,0,0.33156565,0.39364547,0.40693504,0.095055625,0.012726102,0.043087244,0.0,0.0,0.0,0.0,4259850,4325386,4028193,396321,0,0,831,2,1,2,0,3,0,0,0,0,1,0,0
239660724,239560176,0.0033090091,0.015627917,0.03233131,66199,0,0.3145193,0.3909298,0.41105852,0.04963698,0.010034621,0.03370443,0.0,0.0,0.0,0.0,4259850,4325386,4028193,396321,0,0,831,2,1,2,0,3,0,0,0,0,1,0,0
239860624,239760195,0.0036133702,0.0078205215,0.031812534,66199,0,0.3312237,0.3945078,0.39842084,0.04963698,0.010034621,0.05677186,0.0,0.0,0.0,0.0,4259850,4325386,4028193,396321,0,0,831,2,1,2,0,3,0,0,0,0,1,0,0
240060758,239960213,0.002723028,0.008134464,0.016647618,66199,0,0.31420624,0.38934264,0.38826913,0.035815112,0.010307291,0.054222677,0.0,0.0,0.0,0.0,4259850,4325386,4028193,396321,0,0,831,2,1,2,0,3,0,0,0,0,1,0,0
240260633,240160231,0.0031842128,0.006620626,0.027368978,66199,0,0.3309173,0.3953798,0.39686245,0.035815112,0.010307291,0.043584675,0.0,0.0,0.0,0.0,4259850,4325386,4028193,396321,0,0,831,2,1,2,0,3,0,0,0,0,1,0,0
240460645,240360250,0.003617355,0.005549689,0.013571566,66199,0,0.33073676,0.39456618,0.40078992,0.034068335,0.010808921,0.030163527,0.0,0.0,0.0,0.0,4259850,4325386,4028193,396321,0,0,831,2,1,2,0,3,0,0,0,0,1,0,0
240660700,240560268,0.0027983394,0.007815025,0.015564495,66199,0,0.3303954,0.3937365,0.4026217,0.052654065,0.0091876155,0.0592948,0.0,0.0,0.0,0.0,4259850,4325386,4028193,396321,0,0,831,2,1,2,0,3,0,0,0,0,1,0,0
240860674,240760287,0.0033308337,0.0041081505,0.008419456,66199,0,0.33014145,0.3954329,0.40078187,0.0112996595,0.0110028135,0.045669246,0.0,0.0,0.0,0.0,4259850,4325386,4028193,396321,0,0,831,2,1,2,0,3,0,0,0,0,1,0,0
241060903,240960305,0.003791458,0.007947024,0.028783929,66199,0,0.31324118,0.3902452,0.4071656,0.024579756,0.0105824405,0.03475522,0.0,0.0,0.0,0.0,4259850,4325386,4028193,396321,0,0,831,2,1,2,0,3,0,0,0,0,1,0,0
241250724,241150322,0.003184258,0.0065077194,0.017891757,66199,0,0.32903558,0.3931373,0.40674055,0.024579756,0.0105824405,0.04949986,0.0,0.0,0.0,0.0,4259850,4325386,4028193,396321,0,0,831,2,1,2,0,3,0,0,0,0,1,0,0
241460836,241360342,0.0034431207,0.0035065294,0.0069804643,66199,0,0.3297564,0.39302847,0.40530217,0.058209244,0.009765618,0.071106695,0.0,0.0,0.0,0.0,4259850,4325386,4028193,396321,0,0,831,2,1,2,0,3,0,0,0,0,1,0,0
241660898,241560360,0.0026309362,0.022899333,0.037346624,66199,0,0.31282073,0.39034697,0.39027837,0.066877976,0.014293697,0.028499914,0.0,0.0,0.0,0.0,4259850,4325386,4028193,396321,0,0,831,2,1,2,0,3,0,0,0,0,1,0,0
241860937,241760379,0.0029962095,0.014677279,0.026901308,66199,0,0.31272537,0.38955703,0.3833921,0.03897649,0.012658111,0.039278544,0.0,0.0,0.0,0.0,4259850,4325386,4028193,396321,0,0,831,2,1,2,0,3,0,0,0,0,1,0,0
242060845,241960398,0.0033541222,0.006658012,0.014833035,66199,0,0.32945016,0.39557698,0.3876277,0.03897649,0.012658111,0.09919326,0.0,0.0,0.0,0.0,4259850,4325386,4028193,396321,0,0,831,2,1,2,0,3,0,0,0,0,1,0,0
242260837,242160416,0.0025867438,0.0059247627,0.021162394,66199,0,0.3292818,0.39474124,0.39459673,0.03653938,0.014294897,0.0750887,0.0,0.0,0.0,0.0,4259850,4325386,4028193,396321,0,0,831,2,1,2,0,3,0,0,0,0,1,0,0
242460831,242360434,0.0030806994,0.0056373104,0.019954322,66199,0,0.32911447,0.39389932,0.3902528,0.023091238,0.016319424,0.032295942,0.0,0.0,0.0,0.0,4259850,4325386,4028193,396321,0,0,831,2,1,2,0,3,0,0,0,0,1,0,0
242650911,242550452,0.003578592,0.0083188005,0.024383277,66199,0,0.32808146,0.3948835,0.38642377,0.07100228,0.018616753,0.049119864,0.0,0.0,0.0,0.0,4259850,4325386,4028193,396321,0,0,831,2,1,2,0,3,0,0,0,0,1,0,0
242861038,242760471,0.0025581047,0.01992286,0.045974396,66199,0,0.3119811,0.3903767,0.3769405,0.0687316,0.023335902,0.0945971,0.0,0.0,0.0,0.0,4259850,4325386,4028193,396321,0,0,831,2,1,2,0,3,0,0,0,0,1,0,0
243060944,242960490,0.002956774,0.007913639,0.026461404,66199,0,0.32873237,0.3939755,0.37715718,0.0687316,0.023335902,0.013233113,0.0,0.0,0.0,0.0,4259850,4325386,4028193,396321,0,0,831,2,1,2,0,3,0,0,0,0,1,0,0
243260901,243160509,0.0031532731,0.004953463,0.013987521,66199,0,0.32856545,0.39319792,0.35552028,0.06914857,0.024362259,0.031641006,0.0,0.0,0.0,0.0,4259850,4325386,4028193,396321,0,0,831,2,1,2,0,3,0,0,0,0,1,0,0
243460926,243360527,0.0023667696,0.0050232196,0.009065071,66199,0,0.328415,0.39491886,0.35635012,0.062242255,0.021812731,0.017896973,0.0,0.0,0.0,0.0,4259850,4325386,4028193,396321,0,0,831,2,1,2,0,3,0,0,0,0,1,0,0
243661107,243560546,0.0026377665,0.019258618,0.030809285,66199,0,0.3114311,0.3897721,0.3341387,0.07364358,0.020483889,0.013802045,0.0,0.0,0.0,0.0,4259850,4325386,4028193,396321,0,0,831,2,1,2,0,3,0,0,0,0,1,0,0
243861107,243760564,0.0029320884,0.023866747,0.045082763,66199,0,0.3113502,0.38902542,0.34485698,0.09029014,0.018862493,0.04599328,0.0,0.0,0.0,0.0,4259850,4325386,4028193,396321,0,0,831,2,1,2,0,3,0,0,0,0,1,0,0
244051014,243950582,0.0023941288,0.012782389,0.029166445,66199,0,0.3272482,0.39441124,0.3255554,0.09029014,0.018862493,0.057630595,0.0,0.0,0.0,0.0,4259850,4325386,4028193,396321,0,0,831,2,1,2,0,3,0,0,0,0,1,0,0
244260998,244160602,0.0015765213,0.010601216,0.03203467,66199,0,0.3279718,0.3943274,0.0,0.06312921,0.01824553,0.054665193,0.0,0.0,0.0,0.0,4259850,4325386,4028193,396321,0,0,831,2,1,2,0,3,0,0,0,0,1,0,0
244461062,244360620,0.0005506685,0.0082078455,0.02017385,66199,0,0.3278291,0.39355326,0.0,0.050054077,0.017541649,0.020549402,0.0,0.0,0.0,0.0,4259850,4325386,4028193,396321,0,0,831,2,1,2,0,3,0,0,0,0,1,0,0
244661076,244560639,0.0002330149,0.009358211,0.018831825,66199,0,0.3276806,0.39277738,0.0,0.08243514,0.016150475,0.0040833973,0.0,0.0,0.0,0.0,4259850,4325386,4028193,396321,0,0,831,2,1,2,0,3,0,0,0,0,1,0,0
244861238,244760658,0.00027826836,0.012126613,0.020790666,66199,0,0.3106672,0.39011994,0.0,0.06548267,0.014192933,0.0837183,0.0,0.0,0.0,0.0,4259850,4325386,4028193,396321,0,0,831,2,1,2,0,3,0,0,0,0,1,0,0
245061145,244960676,0.00029507466,0.014670199,0.027312765,66199,0,0.31064975,0.38938877,0.0,0.05997606,0.010751046,0.08919891,0.0,0.0,0.0,0.0,4259850,4325386,4028193,396321,0,0,831,2,1,2,0,3,0,0,0,0,1,0,0
245251132,245150694,0.00012503192,0.011665036,0.045071833,66199,0,0.32659525,0.3923138,0.0,0.05997606,0.010751046,0.15115847,0.0,0.0,0.0,0.0,4259850,4325386,4028193,396321,0,0,831,2,1,2,0,3,0,0,0,0,1,0,0
245451116,245350713,0.00020574662,0.012267203,0.023005847,66199,0,0.32652926,0.39406505,0.0,0.0916199,0.009833137,0.006194076,0.0,0.0,0.0,0.0,4259850,4325386,4028193,396321,0,0,831,2,1,2,0,3,0,0,0,0,1,0,0
245661246,245560733,0.0006382982,0.028777508,0.050162643,66199,0,0.31052375,0.38963854,0.0,0.09460424,0.0074974946,0.032449324,0.0,0.0,0.0,0.0,4259850,4325386,4028193,396321,0,0,831,2,1,2,0,3,0,0,0,0,1,0,0
245861296,245760751,0.0004388887,0.023880271,0.045183066,66199,0,0.31046942,0.3889233,0.0,0.049435146,0.008781978,0.042855185,0.0,0.0,0.0,0.0,4259850,4325386,4028193,396321,0,0,831,2,1,2,0,3,0,0,0,0,1,0,0
246061338,245960770,0.0004227821,0.023107465,0.0510453,66199,0,0.3104258,0.38820568,0.0,0.07076684,0.0068158777,0.046074778,0.0,0.0,0.0,0.0,4259850,4325386,4028193,396321,0,0,831,2,1,2,0,3,0,0,0,0,1,0,0
246261314,246160789,0.0004739849,0.02243192,0.037820294,66199,0,0.31036666,0.38990363,0.0,0.06600778,0.004606839,0.052727435,0.0,0.0,0.0,0.0,4259850,4325386,4028193,396321,0,0,831,2,1,2,0,3,0,0,0,0,1,0,0
246461221,246360807,0.0001506889,0.011690685,0.03201121,66199,0,0.32727095,0.39354983,0.0,0.06600778,0.004606839,0.03019483,0.0,0.0,0.0,0.0,4259850,4325386,4028193,396321,0,0,831,2,1,2,0,3,0,0,0,0,1,0,0
246661407,246560826,0.0006059347,0.02474103,0.04103826,66199,0,0.31008413,0.3884402,0.0,0.0731044,0.004816922,0.01870777,0.0,0.0,0.0,0.0,4259850,4325386,4028193,396321,0,0,831,2,1,2,0,3,0,0,0,0,1,0,0
246851248,246750844,0.00017506834,0.011433091,0.02171874,66199,0,0.32605878,0.3938475,0.0,0.0731044,0.004816922,0.018343028,0.0,0.0,0.0,0.0,4259850,4325386,4028193,396321,0,0,831,2,1,2,0,3,0,0,0,0,1,0,0
247061393,246960863,0.0006951582,0.03075712,0.05500524,66199,0,0.31000254,0.38941872,0.0,0.11413325,0.0068119066,0.0456207,0.0,0.0,0.0,0.0,4259850,4325386,4028193,396321,0,0,831,2,1,2,0,3,0,0,0,0,1,0,0
247261447,247160882,0.0008575086,0.03692732,0.063070126,66199,0,0.30995432,0.3886981,0.0,0.1305891,0.009823729,0.033751577,0.0,0.0,0.0,0.0,4259850,4325386,4028193,396321,0,0,831,2,1,2,0,3,0,0,0,0,1,0,0
247461466,247360901,0.0008835417,0.038467344,0.06847304,66199,0,0.3099184,0.39039567,0.0,0.12295247,0.012116247,0.021220464,0.0,0.0,0.0,0.0,4259850,4325386,4028193,396321,0,0,831,2,1,2,0,3,0,0,0,0,1,0,0
247661322,247560920,0.0006602924,0.0319194,0.05874397,66199,0,0.3099446,0.38968423,0.0,0.08254276,0.010329873,0.02658712,0.0,0.0,0.0,0.0,4259850,4325386,4028193,396321,0,0,831,2,1,2,0,3,0,0,0,0,1,0,0
247861556,247760938,0.00061819365,0.030497102,0.053987157,66199,0,0.30989754,0.38896346,0.0,0.078716055,0.011970907,0.038627304,0.0,0.0,0.0,0.0,4259850,4325386,4028193,396321,0,0,831,2,1,2,0,3,0,0,0,0,1,0,0
248051364,247950956,0.00023270841,0.013015223,0.024444731,66199,0,0.32576725,0.39438444,0.0,0.078716055,0.011970907,0.019289067,0.0,0.0,0.0,0.0,4259850,4325386,4028193,396321,0,0,831,2,1,2,0,3,0,0,0,0,1,0,0
248251437,248150975,0.00036682576,0.016468039,0.030116357,66199,0,0.32567665,0.39362592,0.0,0.12917864,0.015186916,0.011547933,0.0,0.0,0.0,0.0,4259850,4325386,4028193,396321,0,0,831,2,1,2,0,3,0,0,0,0,1,0,0
248461433,248360995,0.00024685278,0.015084768,0.027736424,66199,0,0.32638907,0.3935516,0.0,0.11104751,0.013578824,0.0394315,0.0,0.0,0.0,0.0,4259850,4325386,4028193,396321,0,0,831,2,1,2,0,3,0,0,0,0,1,0,0
248661611,248561014,0.0007123481,0.03183441,0.05680519,66199,0,0.30951712,0.39085382,0.0,0.115715206,0.01671072,0.034578726,0.0,0.0,0.0,0.0,4259850,4325386,4028193,396321,0,0,831,2,1,2,0,3,0,0,0,0,1,0,0
248861572,248761032,0.0009259455,0.037288167,0.06319742,66199,0,0.30944562,0.3901118,0.0,0.14780739,0.018389275,0.03321047,0.0,0.0,0.0,0.0,4259850,4325386,4028193,396321,0,0,831,2,1,2,0,3,0,0,0,0,1,0,0
249061790,248961051,0.00097142305,0.03962379,0.06751066,66199,0,0.30935565,0.3893745,0.0,0.109269485,0.020192653,0.070993654,0.0,0.0,0.0,0.0,4259850,4325386,4028193,396321,0,0,831,2,1,2,0,3,0,0,0,0,1,0,0
249261462,249161070,0.00031421016,0.018644445,0.036836248,66199,0,0.32596725,0.39546415,0.0,0.109269485,0.020192653,0.02990709,0.0,0.0,0.0,0.0,4259850,4325386,4028193,396321,0,0,831,2,1,2,0,3,0,0,0,0,1,0,0
249451483,249351088,0.00030111027,0.016917974,0.031915642,66199,0,0.32490927,0.3939874,0.0,0.10084158,0.018519064,0.0024816655,0.0,0.0,0.0,0.0,4259850,4325386,4028193,396321,0,0,831,2,1,2,0,3,0,0,0,0,1,0,0
249651512,249551107,4.914467e-05,0.008093342,0.01688778,66199,0,0.3247527,0.3956771,0.0,0.075043365,0.014324531,0.016504174,0.0,0.0,0.0,0.0,4259850,4325386,4028193,396321,0,0,831,2,1,2,0,3,0,0,0,0,1,0,0
249861718,249761126,0.0007782304,0.032274842,0.05862774,66199,0,0.30884466,0.39110297,0.0,0.1145814,0.016020961,0.026511936,0.0,0.0,0.0,0.0,4259850,4325386,4028193,396321,0,0,831,2,1,2,0,3,0,0,0,0,1,0,0
250061716,249961145,0.0009040137,0.03627134,0.061485156,66199,0,0.3087965,0.39029998,0.0,0.13269643,0.015694344,0.047598958,0.0,0.0,0.0,0.0,4259850,4325386,4028193,396321,0,0,831,2,1,2,0,3,0,0,0,0,1,0,0
250261600,250161164,0.0011599421,0.045818713,0.07605908,66199,0,0.30881923,0.38950503,0.0,0.18777235,0.013550332,0.027600927,0.0,0.0,0.0,0.0,4259850,4325386,4028193,396321,0,0,831,2,1,2,0,3,0,0,0,0,1,0,0
250461578,250361183,0.00037130457,0.021045925,0.040047746,66199,0,0.32550701,0.39557132,0.0,0.18777235,0.013550332,0.018773567,0.0,0.0,0.0,0.0,4259850,4325386,4028193,396321,0,0,831,2,1,2,0,3,0,0,0,0,1,0,0
250661765,250561202,0.00095127523,0.04075473,0.069965586,66199,0,0.30871445,0.3903434,0.0,0.15415385,0.014544413,0.064568676,0.0,0.0,0.0,0.0,4259850,4325386,4028193,396321,0,0,831,2,1,2,0,3,0,0,0,0,1,0,0
250851708,250751220,0.00036196274,0.01910498,0.044183113,66199,0,0.32455513,0.39324003,0.0,0.15415385,0.014544413,0.04486276,0.0,0.0,0.0,0.0,4259850,4325386,4028193,396321,0,0,831,2,1,2,0,3,0,0,0,0,1,0,0
251051634,250951239,0.00022735384,0.015760913,0.038042493,66199,0,0.32458475,0.3949391,0.0,0.076147325,0.010456518,0.054646146,0.0,0.0,0.0,0.0,4259850,4325386,4028193,396321,0,0,831,2,1,2,0,3,0,0,0,0,1,0,0
251261637,251161259,0.00043818913,0.018467879,0.0402755,66199,0,0.32551956,0.39482197,0.0,0.17106266,0.010939047,0.024260122,0.0,0.0,0.0,0.0,4259850,4325386,4028193,396321,0,0,831,2,1,2,0,3,0,0,0,0,1,0,0
251461721,251361277,0.00023403708,0.014580942,0.034271497,66199,0,0.3254717,0.3939799,0.0,0.08910695,0.00830624,0.022482201,0.0,0.0,0.0,0.0,4259850,4325386,4028193,396321,0,0,831,2,1,2,0,3,0,0,0,0,1,0,0
251661859,251561297,0.0010970853,0.02790711,0.04163531,66199,0,0.30866283,0.3912286,0.0,0.1250146,0.011458322,0.0037622629,0.0,0.0,0.0,0.0,4259850,4325386,4028193,396321,0,0,831,2,1,2,0,3,0,0,0,0,1,0,0
251861904,251761315,0.002842387,0.0643474,0.09580016,66199,0,0.30870503,0.39041048,0.0,0.26261246,0.016371423,0.064181894,0.0,0.0,0.0,0.0,4259850,4325386,4028193,396321,0,0,831,2,1,2,0,3,0,0,0,0,1,0,0
252051681,251951333,0.0013131185,0.023773262,0.03984594,66199,0,0.3246943,0.39578605,0.0,0.26261246,0.016371423,0.022526694,0.0,0.0,0.0,0.0,4259850,4325386,4028193,396321,0,0,831,2,1,2,0,3,0,0,0,0,1,0,0
252251745,252151352,0.0014113123,0.030337589,0.05024523,66199,0,0.32479066,0.3949468,0.0,0.31086794,0.019661738,0.015948238,0.0,0.0,0.0,0.0,4259850,4325386,4028193,396321,0,0,831,2,1,2,0,3,0,0,0,0,1,0,0
252451797,252351371,0.0011157824,0.028688185,0.05274171,66199,0,0.32490328,0.39411685,0.0,0.30110955,0.020806463,0.043684702,0.0,0.0,0.0,0.0,4259850,4325386,4028193,396321,0,0,831,2,1,2,0,3,0,0,0,0,1,0,0
252661795,252561391,0.00103952,0.024295311,0.045831535,66199,0,0.32566592,0.39394945,0.0,0.31218156,0.02500642,0.01851522,0.0,0.0,0.0,0.0,4259850,4325386,4028193,396321,0,0,831,2,1,2,0,3,0,0,0,0,1,0,0
252861953,252761410,0.0015174472,0.04942998,0.07809649,66199,0,0.30885363,0.3912162,0.0,0.15458333,0.01634205,0.0028369916,0.0,0.0,0.0,0.0,4259850,4325386,4028193,396321,0,0,831,2,1,2,0,3,0,0,0,0,1,0,0
253061899,252961429,0.0004081408,0.022789206,0.0402866,66199,0,0.3257684,0.3948058,0.0,0.15458333,0.01634205,0.032343864,0.0,0.0,0.0,0.0,4259850,4325386,4028193,396321,0,0,831,2,1,2,0,3,0,0,0,0,1,0,0
253261889,253161448,0.00056087197,0.032414418,0.053526357,66199,0,0.32584727,0.39397904,0.0,0.18084179,0.013126043,0.1100076,0.0,0.0,0.0,0.0,4259850,4325386,4028193,396321,0,0,831,2,1,2,0,3,0,0,0,0,1,0,0
253451857,253351466,0.0009440832,0.041457847,0.06927426,66199,0,0.32506448,0.39494202,0.0,0.26090863,0.010229702,0.050956316,0.0,0.0,0.0,0.0,4259850,4325386,4028193,396321,0,0,831,2,1,2,0,3,0,0,0,0,1,0,0
253651927,253551485,0.0028051503,0.07093425,0.11939694,66199,0,0.325097,0.39402255,0.0,0.5368179,0.012427424,0.025895305,0.0,0.0,0.0,0.0,4259850,4325386,4028193,396321,0,0,831,2,1,2,0,3,0,0,0,0,1,0,0
253851906,253751504,0.004657394,0.0984465,0.1619228,66199,0,0.32523924,0.39562672,0.0,0.60562223,0.020467186,0.029193196,0.0,0.0,0.0,0.0,4259850,4325386,4028193,396321,0,0,831,2,1,2,0,3,0,0,0,0,1,0,0
254062088,253961524,0.022019913,0.30788153,0.4248543,66199,0,0.30951142,0.39103675,0.0,0.6717465,0.038499538,0.017963802,0.0,0.0,0.0,0.0,4259850,4325386,4028193,396321,0,0,831,2,1,2,0,3,0,0,0,0,1,0,0
254262066,254161543,0.028021501,0.37060934,0.49193233,66199,0,0.30971596,0.39260432,0.0,0.8616945,0.05533964,0.013924374,0.0,0.0,0.0,0.0,4259850,4325386,4028193,396321,0,0,831,2,1,2,0,3,0,0,0,0,1,0,0
254461892,254361562,0.009752544,0.14926253,0.23996933,66199,0,0.32691047,0.39605296,0.0,0.8616945,0.05533964,0.0065295533,0.0,0.0,0.0,0.0,4259850,4325386,4028193,396321,0,0,831,2,1,2,0,3,0,0,0,0,1,0,0
254661951,254561581,0.010249565,0.15169874,0.25205192,66199,0,0.32699224,0.39504653,0.0,0.9712004,0.066804305,0.019967137,0.0,0.0,0.0,0.0,4259850,4325386,4028193,396321,0,0,831,2,1,2,0,3,0,0,0,0,1,0,0
254851929,254751599,0.0010885939,0.052223112,0.11414827,66199,0,0.33422127,0.3958815,0.0,1.0542917,0.08050599,0.021372696,0.0,0.0,0.0,0.0,4259850,4325386,4028193,396321,0,1,1855,2,1,2,0,3,0,0,0,0,1,0,0
255051990,254951618,0.0002799861,0.034320217,0.06260166,66199,0,0.34338766,0.39486858,0.0,1.2082053,0.15762278,0.009217083,0.0,0.0,0.0,0.0,4259850,4325386,4028193,396321,0,1,1855,2,1,2,0,3,0,0,0,0,1,0,0
255252052,255151637,0.0005818271,0.043679442,0.06827647,66199,0,0.3535236,0.3963858,0.0,1.1669428,0.23167409,0.031431254,0.0,0.0,0.0,0.0,4259850,4325386,4028193,396321,0,1,1855,2,1,2,0,3,0,0,0,0,1,0,0
255462097,255361657,0.003106253,0.05613112,0.16602333,66199,0,0.3505204,0.39169258,0.0,1.1077441,0.36509827,0.040604692,0.0,0.0,0.0,0.0,4259850,4325386,4028193,396321,0,1,1855,2,1,2,0,3,0,0,0,0,1,0,0
255662151,255561676,0.0039458023,0.071214944,0.20948146,66199,0,0.36033502,0.39071837,0.0,1.0726563,0.4164196,0.033676587,0.0,0.0,0.0,0.0,4259850,4325386,4028193,396321,0,1,1855,2,1,2,0,3,0,0,0,0,1,0,0
255862199,255761695,0.023055647,0.397055,0.71222854,66199,0,0.35345,0.3922092,0.0,0.839396,0.45132932,0.09362806,0.0,0.0,0.0,0.0,4259850,4325386,4028193,396321,0,0,831,2,1,2,0,3,0,0,0,0,1,0,0
256052051,255951713,0.011858272,0.17647128,0.3494349,66199,0,0.37724918,0.39491126,0.0,0.839396,0.45132932,0.08055138,0.0,0.0,0.0,0.0,4259850,4325386,4028193,396321,0,0,831,2,1,2,0,3,0,0,0,0,1,0,0
256252093,256151733,0.0076490627,0.19267456,0.3901366,66199,0,0.3700824,0.39646572,0.0,0.6955662,0.37827814,0.06593234,0.0,0.0,0.0,0.0,4259850,4325386,4028193,396321,0,0,831,2,1,2,0,3,0,0,0,0,1,0,0
256452195,256351752,0.0038534612,0.14672334,0.30059642,66199,0,0.36442348,0.39550155,0.0,0.64315325,0.31594032,0.029572459,0.0,0.0,0.0,0.0,4259850,4325386,4028193,396321,0,0,831,2,1,2,0,3,0,0,0,0,1,0,0
256652154,256551771,0.0047486066,0.13544197,0.25214097,66199,0,0.3595124,0.39453852,0.0,0.68945277,0.2774439,0.041635733,0.0,0.0,0.0,0.0,4259850,4325386,4028193,396321,0,0,831,2,1,2,0,3,0,0,0,0,1,0,0
256862312,256761791,0.015149157,0.27565756,0.39468297,66199,0,0.334399,0.3900093,0.0,0.52734584,0.21472503,0.008925379,0.0,0.0,0.0,0.0,4259850,4325386,4028193,396321,0,0,831,2,1,2,0,3,0,0,0,0,1,0,0
257062304,256961810,0.016361212,0.28642023,0.39342684,66199,0,0.33195353,0.39154485,0.0,0.5788803,0.1937889,0.06231252,0.0,0.0,0.0,0.0,4259850,4325386,4028193,396321,0,0,831,2,1,2,0,3,0,0,0,0,1,0,0
257262155,257161829,0.0051055145,0.14864616,0.25970784,66199,0,0.35037723,0.39495513,0.0,0.5788803,0.1937889,0.094841056,0.0,0.0,0.0,0.0,4259850,4325386,4028193,396321,0,0,831,2,1,2,0,3,0,0,0,0,1,0,0
257452313,257351847,0.006333185,0.15341477,0.27419782,66199,0,0.34676993,0.39338106,0.0,0.6257647,0.17826588,0.07920548,0.0,0.0,0.0,0.0,4259850,4325386,4028193,396321,0,0,831,2,1,2,0,3,0,0,0,0,1,0,0
257652288,257551867,0.005866071,0.14201656,0.26235703,66199,0,0.3444811,0.39500538,0.0,0.63055795,0.16137841,0.006361724,0.0,0.0,0.0,0.0,4259850,4325386,4028193,396321,0,0,831,2,1,2,0,3,0,0,0,0,1,0,0
257852356,257751886,0.0038844151,0.12196812,0.24301076,66199,0,0.34255868,0.39412868,0.0,0.601827,0.14616051,0.034925018,0.0,0.0,0.0,0.0,4259850,4325386,4028193,396321,0,0,831,2,1,2,0,3,0,0,0,0,1,0,0
258052505,257951905,0.0050071278,0.16100904,0.2820024,66199,0,0.3221013,0.39143276,0.0,0.4077223,0.12531918,0.04219258,0.0,0.0,0.0,0.0,4259850,4325386,4028193,396321,0,0,831,2,1,2,0,3,0,0,0,0,1,0,0
258262492,258161927,0.003235379,0.15091838,0.26678136,66199,0,0.3216792,0.3912243,0.0,0.2984737,0.12028892,0.106923886,0.0,0.0,0.0,0.0,4259850,4325386,4028193,396321,0,0,831,2,1,2,0,3,0,0,0,0,1,0,0
258462284,258361944,0.0010274317,0.09017854,0.1900478,66199,0,0.33907017,0.394666,0.0,0.2984737,0.12028892,0.021967178,0.0,0.0,0.0,0.0,4259850,4325386,4028193,396321,0,0,831,2,1,2,0,3,0,0,0,0,1,0,0
258662518,258561964,0.0057407958,0.17857118,0.3037292,66199,0,0.31950632,0.38949585,0.0,0.4208151,0.11059812,0.10879559,0.0,0.0,0.0,0.0,4259850,4325386,4028193,396321,0,0,831,2,1,2,0,3,0,0,0,0,1,0,0
258852488,258751982,0.0020132812,0.1060719,0.19943061,66199,0,0.3357529,0.39471018,0.0,0.4208151,0.11059812,0.00597395,0.0,0.0,0.0,0.0,4259850,4325386,4028193,396321,0,0,831,2,1,2,0,3,0,0,0,0,1,0,0
259052389,258952001,0.0027485588,0.10831991,0.19715154,66199,0,0.33492607,0.39385158,0.0,0.49096298,0.10848738,0.0028549435,0.0,0.0,0.0,0.0,4259850,4325386,4028193,396321,0,0,831,2,1,2,0,3,0,0,0,0,1,0,0
259252635,259152021,0.0072423425,0.18140489,0.3010701,66199,0,0.3166866,0.38876358,0.0,0.35791448,0.100229904,0.023445142,0.0,0.0,0.0,0.0,4259850,4325386,4028193,396321,0,0,831,2,1,2,0,3,0,0,0,0,1,0,0
259452480,259352040,0.0017665873,0.08728087,0.1569661,66199,0,0.3335823,0.39467114,0.0,0.35791448,0.100229904,0.11469386,0.0,0.0,0.0,0.0,4259850,4325386,4028193,396321,0,0,831,2,1,2,0,3,0,0,0,0,1,0,0
259652418,259552061,0.001145679,0.06588343,0.11729325,66199,0,0.3330202,0.3938374,0.0,0.24861267,0.09243257,0.03178974,0.0,0.0,0.0,0.0,4259850,4325386,4028193,396321,0,0,831,2,1,2,0,3,0,0,0,0,1,0,0
259862716,259762080,0.00350397,0.102173045,0.17202854,66199,0,0.31614754,0.38940725,0.0,0.29291677,0.07747275,0.078545645,0.0,0.0,0.0,0.0,4259850,4325386,4028193,396321,0,0,831,2,1,2,0,3,0,0,0,0,1,0,0
260062729,259962099,0.002933598,0.08888568,0.14965482,66199,0,0.3158049,0.38861397,0.0,0.2745709,0.07580089,0.014959233,0.0,0.0,0.0,0.0,4259850,4325386,4028193,396321,0,0,831,2,1,2,0,3,0,0,0,0,1,0,0
260252509,260152117,0.00091381965,0.0315125,0.059048347,66199,0,0.331797,0.39390287,0.0,0.2745709,0.07580089,0.0119375475,0.0,0.0,0.0,0.0,4259850,4325386,4028193,396321,0,0,831,2,1,2,0,3,0,0,0,0,1,0,0
260452556,260352136,0.0005180774,0.017074717,0.037273876,66199,0,0.33150548,0.39309803,0.0,0.18573985,0.06997895,0.003400479,0.0,0.0,0.0,0.0,4259850,4325386,4028193,396321,0,0,831,2,1,2,0,3,0,0,0,0,1,0,0
260652692,260552156,0.000835532,0.021772768,0.04167719,66199,0,0.31431216,0.39045867,0.0,0.09136693,0.059816975,0.06714746,0.0,0.0,0.0,0.0,4259850,4325386,4028193,396321,0,0,831,2,1,2,0,3,0,0,0,0,1,0,0
260852543,260752175,0.0002449982,0.007278728,0.028594617,66199,0,0.33100978,0.3940104,0.0,0.09136693,0.059816975,0.037307143,0.0,0.0,0.0,0.0,4259850,4325386,4028193,396321,0,0,831,2,1,2,0,3,0,0,0,0,1,0,0
261062704,260962195,0.0024412058,0.06672945,0.11139858,66199,0,0.31485242,0.38959366,0.0,0.29092756,0.043703437,0.01213304,0.0,0.0,0.0,0.0,4259850,4325386,4028193,396321,0,0,831,2,1,2,0,3,0,0,0,0,1,0,0
261262676,261162215,0.0008849426,0.037044223,0.08378781,66199,0,0.33157036,0.39312968,0.0,0.29092756,0.043703437,0.07873188,0.0,0.0,0.0,0.0,4259850,4325386,4028193,396321,0,0,831,2,1,2,0,3,0,0,0,0,1,0,0
261452672,261352233,0.0020413506,0.050267518,0.10803995,66199,0,0.33049405,0.39415684,0.0,0.37656102,0.031073438,0.010944098,0.0,0.0,0.0,0.0,4259850,4325386,4028193,396321,0,0,831,2,1,2,0,3,0,0,0,0,1,0,0
261652644,261552253,0.0024017352,0.054862063,0.11614172,66199,0,0.33042884,0.39338407,0.0,0.43592405,0.023643699,0.00590043,0.0,0.0,0.0,0.0,4259850,4325386,4028193,396321,0,0,831,2,1,2,0,3,0,0,0,0,1,0,0
261852663,261752272,0.0020533833,0.05177301,0.11309144,66199,0,0.3303617,0.39507952,0.0,0.40290013,0.014860557,0.039826058,0.0,0.0,0.0,0.0,4259850,4325386,4028193,396321,0,0,831,2,1,2,0,3,0,0,0,0,1,0,0
262052736,261952292,0.0015640716,0.042773858,0.097940125,66199,0,0.33035424,0.3942765,0.0,0.3452051,0.009107645,0.07327657,0.0,0.0,0.0,0.0,4259850,4325386,4028193,396321,0,0,831,2,1,2,0,3,0,0,0,0,1,0,0
262252747,262152311,0.0013046523,0.03186106,0.079018675,66199,0,0.33033356,0.39348438,0.0,0.32604614,0.009143737,0.013440725,0.0,0.0,0.0,0.0,4259850,4325386,4028193,396321,0,0,831,2,1,2,0,3,0,0,0,0,1,0,0
262462728,262362331,0.001179567,0.024701716,0.065980546,66199,0,0.33119634,0.3933768,0.0,0.34052315,0.009564074,0.010387085,0.0,0.0,0.0,0.0,4259850,4325386,4028193,396321,0,0,831,2,1,2,0,3,0,0,0,0,1,0,0
262662952,262562351,0.0028056486,0.056725893,0.11045766,66199,0,0.3141964,0.39068955,0.0,0.23857577,0.008529673,0.011605125,0.0,0.0,0.0,0.0,4259850,4325386,4028193,396321,0,0,831,2,1,2,0,3,0,0,0,0,1,0,0
262852716,262752369,0.0008212827,0.013033558,0.041127868,66199,0,0.33012468,0.39359736,0.0,0.23857577,0.008529673,0.016009666,0.0,0.0,0.0,0.0,4259850,4325386,4028193,396321,0,0,831,2,1,2,0,3,0,0,0,0,1,0,0
263052764,262952389,0.0005694426,0.011235852,0.027116435,66199,0,0.3301402,0.39281765,0.0,0.2006582,0.01102877,0.006240999,0.0,0.0,0.0,0.0,4259850,4325386,4028193,396321,0,0,831,2,1,2,0,3,0,0,0,0,1,0,0
263252926,263152408,0.0011978329,0.014655461,0.040363535,66199,0,0.31352806,0.3901797,0.0,0.123445794,0.011685382,0.06829678,0.0,0.0,0.0,0.0,4259850,4325386,4028193,396321,0,0,831,2,1,2,0,3,0,0,0,0,1,0,0
263452795,263352428,0.0002791246,0.017179582,0.016361127,66199,0,0.33027765,0.3937523,0.0,0.123445794,0.011685382,0.023618827,0.0,0.0,0.0,0.0,4259850,4325386,4028193,396321,0,0,831,2,1,2,0,3,0,0,0,0,1,0,0
263652849,263552447,0.00036643614,0.017974408,0.017037706,66199,0,0.33028233,0.3929575,0.0,0.14279965,0.014665826,0.023585465,0.0,0.0,0.0,0.0,4259850,4325386,4028193,396321,0,0,831,2,1,2,0,3,0,0,0,0,1,0,0
263863025,263762468,0.00093746564,0.018127155,0.030028854,66199,0,0.314368,0.3909378,0.0,0.10848389,0.014289968,0.0051186965,0.0,0.0,0.0,0.0,4259850,4325386,4028193,396321,0,0,831,2,1,2,0,3,0,0,0,0,1,0,0
264063055,263962487,0.0021114838,0.063490875,0.1345112,66199,0,0.31440914,0.39015397,0.0,0.3289131,0.018803775,0.0016811474,0.0,0.0,0.0,0.0,4259850,4325386,4028193,396321,0,0,831,2,1,2,0,3,0,0,0,0,1,0,0
264252927,264152509,0.0009755567,0.03287676,0.10999536,66199,0,0.33031288,0.39306712,0.0,0.3289131,0.018803775,0.010257225,0.0,0.0,0.0,0.0,4259850,4325386,4028193,396321,0,0,831,2,1,2,0,3,0,0,0,0,1,0,0
264452932,264352532,0.002392799,0.059726503,0.14575882,66199,0,0.3303764,0.39477408,0.0,0.50580156,0.028659245,0.28409076,0.0,0.0,0.0,0.0,4259850,4325386,4028193,396321,0,0,831,2,1,2,0,3,0,0,0,0,1,0,0
264652905,264552547,0.007510164,0.11268965,0.19807702,66199,0,0.33023182,0.39396626,0.0,0.7853978,0.052903503,0.29354012,0.0,0.0,0.0,0.0,4259850,4325386,4028193,396321,0,0,831,2,1,2,0,3,0,0,0,0,1,0,0
264853104,264752565,0.007886706,0.14525373,0.2033911,66199,0,0.33038384,0.39319277,0.0,0.867587,0.05141061,0.049632657,0.0,0.0,0.0,0.0,4259850,4325386,4028193,396321,0,0,831,2,1,2,0,3,0,0,0,0,1,0,0
265052917,264952584,0.0088722175,0.17579776,0.24736375,66199,0,0.33047777,0.39491352,0.6861154,0.9813702,0.07027804,0.0795753,0.0,0.0,0.0,0.0,4259850,4325386,4028193,396321,0,0,831,2,1,2,0,3,0,0,0,0,1,0,0
265263110,265162605,0.0061236513,0.052120306,0.14312837,66199,0,0.32845786,0.39041245,0.6454755,1.1344856,0.14709422,0.044448644,0.0,0.0,0.0,0.0,4259850,4325386,4028193,396321,0,1,1855,2,1,2,0,3,0,0,0,0,1,0,0
265463185,265362625,0.004683154,0.025439847,0.12060851,66199,0,0.3378702,0.38968208,0.57382095,1.2542924,0.224028,0.09200079,0.0,0.0,0.0,0.0,4259850,4325386,4028193,396321,0,1,1855,2,1,2,0,3,0,0,0,0,1,0,0
265653094,265552643,0.00306535,0.04780317,0.055818845,66199,0,0.3615421,0.39517388,0.4722651,1.2542924,0.224028,0.07671801,0.0,0.0,0.0,0.0,4259850,4325386,4028193,396321,0,1,1855,2,1,2,0,3,0,0,0,0,1,0,0
265853111,265752663,0.0017711325,0.05211344,0.18851891,66199,0,0.35942054,0.3899853,0.4368422,1.47909,0.369251,0.056956064,0.0,0.0,0.0,0.0,4259850,4325386,4028193,396321,0,1,1855,2,1,2,0,3,0,0,0,0,1,0,0
266053011,265952683,0.0011941927,0.03606762,0.09643953,66199,0,0.38992095,0.39373687,0.43228963,1.47909,0.369251,0.06341562,0.0,0.0,0.0,0.0,4259850,4325386,4028193,396321,0,1,1855,2,1,2,0,3,0,0,0,0,1,0,0
266253063,266152702,0.00083113345,0.028549243,0.088967316,66199,0,0.4053754,0.39302063,0.41532186,1.5226653,0.45781052,0.089443326,0.0,0.0,0.0,0.0,4259850,4325386,4028193,396321,0,1,1855,2,1,2,0,3,0,0,0,0,1,0,0
266453174,266352722,0.001026161,0.03818292,0.11770742,66199,0,0.4211789,0.39481416,0.40784445,1.6043041,0.5267859,0.11581924,0.0,0.0,0.0,0.0,4259850,4325386,4028193,396321,0,1,1855,2,1,2,0,3,0,0,0,0,1,0,0
266663245,266562743,0.015688343,0.31945086,0.64782,66199,0,0.41351566,0.39019275,0.3776113,1.6557841,0.64766634,0.101359755,0.0,0.0,0.0,0.0,4259850,4325386,4028193,396321,0,1,1855,2,1,2,0,3,0,0,0,0,1,0,0
266853121,266752761,0.0037691055,0.1004257,0.2390839,66199,0,0.45152938,0.39332736,0.4026681,1.6557841,0.64766634,0.14658982,0.0,0.0,0.0,0.0,4259850,4325386,4028193,396321,0,1,1855,2,1,2,0,3,0,0,0,0,1,0,0
267053258,266952781,0.020166429,0.44511023,0.8869412,66199,0,0.4357505,0.39051723,0.3439899,1.6592712,0.7035254,0.09338677,0.0,0.0,0.0,0.0,4259850,4325386,4028193,396321,0,1,1855,2,1,2,0,3,0,0,0,0,1,0,0
267253303,267152801,0.02192867,0.48975614,0.9752028,66199,0,0.4462993,0.38985333,0.31727538,1.6093029,0.7204506,0.11416681,0.0,0.0,0.0,0.0,4259850,4325386,4028193,396321,0,1,1855,2,1,2,0,3,0,0,0,0,1,0,0
267453156,267352821,0.0053955754,0.13911179,0.32201207,66199,0,0.48979977,0.39381436,0.30888855,1.6093029,0.7204506,0.13759217,0.0,0.0,0.0,0.0,4259850,4325386,4028193,396321,0,1,1855,2,1,2,0,3,0,0,0,0,1,0,0
267653286,267552841,0.006191672,0.13904989,0.33390188,66199,0,0.49883327,0.39313677,0.32823494,1.5294323,0.7558853,0.11847757,0.0,0.0,0.0,0.0,4259850,4325386,4028193,396321,0,1,1855,2,1,2,0,3,0,0,0,0,1,0,0
267853200,267752860,0.0066587636,0.1332452,0.32352653,66199,0,0.5063351,0.39494684,0.34316763,1.476766,0.745375,0.09234134,0.0,0.0,0.0,0.0,4259850,4325386,4028193,396321,0,1,1855,2,1,2,0,3,0,0,0,0,1,0,0
268063352,267962881,0.020316763,0.4511997,0.9923879,66199,0,0.47483552,0.39029333,0.3789074,1.2697083,0.703464,0.13406254,0.0,0.0,0.0,0.0,4259850,4325386,4028193,396321,0,1,1855,2,1,2,0,3,0,0,0,0,1,0,0
268253353,268152900,0.0052046524,0.08075529,0.23600012,66199,0,0.51611376,0.39356443,0.36972705,1.2697083,0.703464,0.13231602,0.0,0.0,0.0,0.0,4259850,4325386,4028193,396321,0,1,1855,2,1,2,0,3,0,0,0,0,1,0,0
268453254,268352920,0.0051590265,0.055001777,0.17814198,66199,0,0.51916885,0.395352,0.3806929,1.2338455,0.67298824,0.13789049,0.0,0.0,0.0,0.0,4259850,4325386,4028193,396321,0,1,1855,2,1,2,0,3,0,0,0,0,1,0,0
268653273,268552939,0.0043454124,0.020762755,0.11596215,66199,0,0.5209915,0.3946312,0.3721198,1.1113576,0.6442177,0.14258964,0.0,0.0,0.0,0.0,4259850,4325386,4028193,396321,0,1,1855,2,1,2,0,3,0,0,0,0,1,0,0
268853249,268752959,0.0041337237,0.015304498,0.08573182,754583,0,0.5219322,0.39389187,0.3938248,1.0455815,0.607773,0.17807065,0.0,0.0,0.00037487777,0.0,4259850,4325386,4028193,396321,0,1,1855,2,1,2,0,3,0,0,0,0,1,0,0
269053307,268952979,0.017082252,0.21580105,0.4929954,9077655,0,0.47237724,0.39303473,7.634143e-08,0.9540718,0.5730981,0.051835217,0.23780334,0.0,0.0060068625,0.0,4259850,4325386,4028193,396321,0,0,831,2,1,2,0,3,0,0,0,0,0,0,0
269253338,269152999,0.006070688,0.09295989,0.2754457,9143271,0,0.44321024,0.39469787,1.7580949,0.6815215,0.40085706,0.15809728,0.19066113,0.0,0.007329698,0.0,4259850,4325386,4028193,396321,0,40,831,2,1,2,0,3,0,0,0,0,1,0,0
269463515,269363020,0.002569116,0.044315536,0.07467179,9143271,0,0.38704684,0.3900722,3.294366,0.13063428,0.28795898,0.16597077,0.13957639,0.0,0.020016195,0.0,4259850,4325386,4028193,396321,0,56,831,2,1,2,0,3,0,0,0,0,1,0,0
269653492,269553039,0.0020536482,0.17471574,0.30325478,9143271,0,0.37665215,0.3886948,2.9018734,0.06961457,0.23462842,0.070028335,0.046504986,0.0,0.0156233385,0.0,4259850,4325386,4028193,396321,0,56,831,2,1,2,0,3,0,0,0,0,1,0,0
269853359,269753059,0.0015346955,0.25501576,0.5588111,9143271,0,0.39816102,0.39477548,2.4619455,0.06961457,0.23462842,0.15154372,0.11692843,0.0,0.016907929,0.0,4259850,4325386,4028193,396321,0,56,831,2,1,2,0,3,0,0,0,0,1,0,0
270053369,269953078,0.008541005,0.33027676,0.75001353,9143271,0,0.3890645,0.39391792,2.1166856,0.51045555,0.23777105,0.13805605,0.2225659,0.0,0.03556869,0.0,4259850,4325386,4028193,396321,0,56,831,2,1,2,0,3,0,0,0,0,1,0,0
270253438,270153098,0.01880474,0.37353325,0.801577,9143271,0,0.3818887,0.39301407,1.5867321,0.5385481,0.21315815,0.046827365,0.06361876,0.0,0.020976475,0.0,4259850,4325386,4028193,396321,0,40,831,2,1,2,0,3,0,0,0,0,1,0,0
270453427,270353118,0.056993634,0.45016104,0.8024581,9143271,0,0.37573206,0.39464816,0.88310206,0.56480485,0.19924086,0.08898787,0.3455167,0.0,0.04252483,0.0,4259850,4325386,4028193,396321,0,0,831,2,1,2,0,3,0,0,0,0,1,0,0
270653433,270553138,0.10298861,0.51559746,0.7971395,9143271,0,0.3699218,0.39382592,0.53056777,0.6071701,0.19320892,0.03691531,0.22184828,0.0,0.100581884,0.0,4259850,4325386,4028193,396321,0,0,831,2,1,2,0,3,0,0,0,0,1,0,0
270863458,270763159,0.038600907,0.34113508,0.65709543,9143271,0,0.36596,0.39376557,0.43678203,0.39580682,0.19341446,0.00994596,0.23768838,0.0,0.09658708,0.0,4259850,4325386,4028193,396321,0,0,831,2,1,2,0,3,0,0,0,0,1,0,0
271053659,270953178,0.022935094,0.36665365,0.6084461,9143271,0,0.3409675,0.38797203,0.6340082,0.54917693,0.16840124,0.042606186,0.26010698,0.0,0.0853565,0.0,4259850,4325386,4028193,396321,0,0,831,2,1,2,0,3,0,0,0,0,1,0,0
271253513,271153198,0.021816483,0.20726043,0.46645662,9143271,0,0.35679474,0.39407176,0.9549096,0.54917693,0.16840124,0.08567108,0.14402622,0.0,0.09795445,0.0,4259850,4325386,4028193,396321,0,0,831,2,1,2,0,3,0,0,0,0,1,0,0
271453513,271353218,0.0733467,0.29361463,0.42289266,9143271,0,0.35372266,0.3932151,0.9530364,0.63925874,0.15578602,0.031591527,0.3653306,0.0,0.06512731,0.0,4259850,4325386,4028193,396321,0,0,831,2,1,2,0,3,0,0,0,0,1,0,0
271653721,271553238,0.10878796,0.45754394,0.4402551,9143271,0,0.35162705,0.39234266,0.9708651,0.6562647,0.13962117,0.051710896,0.33669737,0.0,0.007528782,0.0,4259850,4325386,4028193,396321,0,0,831,2,1,2,0,3,0,0,0,0,1,0,0
271853549,271753257,0.06796468,0.42475894,0.4257673,9143271,0,0.3499797,0.39398617,1.2328703,0.45660493,0.12089139,0.049909163,0.034646012,0.0,0.06509354,0.0,4259850,4325386,4028193,396321,0,8,831,2,1,2,0,3,0,0,0,0,1,0,0
272053582,271953277,0.015970616,0.2310904,0.34574607,9143271,0,0.3487984,0.39316592,1.2601734,0.16865565,0.10934221,0.051949896,0.008138665,0.0,0.09776184,0.0,4259850,4325386,4028193,396321,0,8,831,2,1,2,0,3,0,0,0,0,1,0,0
272253637,272153297,0.004151703,0.07702225,0.24689499,9143271,0,0.34750462,0.39235994,1.267369,0.17883387,0.10291396,0.045103617,0.024858838,0.0,0.102583595,0.0,4259850,4325386,4028193,396321,0,8,831,2,1,2,0,3,0,0,0,0,1,0,0
272453621,272353317,0.019040966,0.2049176,0.21460682,9143271,0,0.34635726,0.39403868,1.4413172,0.12854637,0.08978735,0.0090680225,0.033927057,0.0,0.079520285,0.0,4259850,4325386,4028193,396321,0,8,831,2,1,2,0,3,0,0,0,0,1,0,0
272653632,272553337,0.014743111,0.25104973,0.21595167,9143271,0,0.34474838,0.39320904,1.4756502,0.21553351,0.112316586,0.18011944,0.09121674,0.0,0.058281798,0.0,4259850,4325386,4028193,396321,0,8,831,2,1,2,0,3,0,0,0,0,1,0,0
272853662,272753357,0.014073181,0.26842183,0.24988475,9143271,0,0.3436313,0.3924074,1.4431394,0.28284395,0.06608355,0.029736478,0.13942038,0.0,0.029281532,0.0,4259850,4325386,4028193,396321,0,8,831,2,1,2,0,3,0,0,0,0,1,0,0
273053697,272953377,0.008997585,0.2388733,0.24802081,9143271,0,0.34262335,0.39408022,1.5923305,0.2750259,0.064415015,0.014530823,0.14062187,0.0,0.013725842,0.0,4259850,4325386,4028193,396321,0,8,831,2,1,2,0,3,0,0,0,0,1,0,0
273253758,273153397,0.007936692,0.20683086,0.23369923,9143271,0,0.34178215,0.3932719,1.5839964,0.26254076,0.050714675,0.06635085,0.053897433,0.0,0.00057478447,0.0,4259850,4325386,4028193,396321,0,8,831,2,1,2,0,3,0,0,0,0,1,0,0
273453730,273353417,0.0071719824,0.17895424,0.22382006,9143271,0,0.34100643,0.3924946,1.6928498,0.37679642,0.04129044,0.06877329,0.05256925,0.0,0.015472092,0.0,4259850,4325386,4028193,396321,0,40,831,2,1,2,0,3,0,0,0,0,1,0,0
