timestamp,timestamp_sample,gps_hvel[0],gps_hvel[1],gps_vvel,gps_hpos[0],gps_hpos[1],gps_vpos,ev_hvel[0],ev_hvel[1],ev_vvel,ev_hpos[0],ev_hpos[1],ev_vpos,rng_vpos,baro_vpos,aux_hvel[0],aux_hvel[1],aux_vvel,flow[0],flow[1],heading,mag_field[0],mag_field[1],mag_field[2],drag[0],drag[1],airspeed,beta,hagl,hagl_rate
217797055,217697930,0.10057083,0.10057907,0.21413952,1.2339667,1.2339864,0.0,0.0,0.0,0.0,0.0,0.0,0.0,0.0,12.406698,0.0,0.0,nan,0.0,0.0,0.09034504,0.0,0.0,0.0,0.0,0.0,0.0,0.0,0.0,0.0
218291060,218191822,0.100587666,0.10059029,0.21415274,1.2163596,1.2163754,0.0,0.0,0.0,0.0,0.0,0.0,0.0,0.0,12.4082,0.0,0.0,nan,0.0,0.0,0.09034539,0.0,0.0,0.0,0.0,0.0,0.0,0.0,0.0,0.0
218794740,218695593,0.10060105,0.100601174,0.21419147,1.2033216,1.2033348,0.0,0.0,0.0,0.0,0.0,0.0,0.0,0.0,12.406828,0.0,0.0,nan,0.0,0.0,0.0903456,0.0,0.0,0.0,0.0,0.0,0.0,0.0,0.0,0.0
219298948,219199364,0.100609444,0.10060726,0.21420366,1.1859056,1.1859152,0.0,0.0,0.0,0.0,0.0,0.0,0.0,0.0,12.404898,0.0,0.0,nan,0.0,0.0,0.09034592,0.0,0.0,0.0,0.0,0.0,0.0,0.0,0.0,0.0
219792345,219693257,0.10056014,0.10055722,0.21420094,1.1748736,1.1748811,0.0,0.0,0.0,0.0,0.0,0.0,0.0,0.0,12.405958,0.0,0.0,nan,0.0,0.0,0.090346426,0.0,0.0,0.0,0.0,0.0,0.0,0.0,0.0,0.0
220296223,220197029,0.10055167,0.10054839,0.21421112,1.1576431,1.1576478,0.0,0.0,0.0,0.0,0.0,0.0,0.0,0.0,12.404131,0.0,0.0,nan,0.0,0.0,0.090346605,0.0,0.0,0.0,0.0,0.0,0.0,0.0,0.0,0.0
220790012,220690922,0.100500174,0.10049712,0.21414745,1.1446539,1.1446573,0.0,0.0,0.0,0.0,0.0,0.0,0.0,0.0,12.405765,0.0,0.0,nan,0.0,0.0,0.09034711,0.0,0.0,0.0,0.0,0.0,0.0,0.0,0.0,0.0
221294255,221194694,0.10051027,0.100507714,0.21416685,1.1297458,1.1297473,0.0,0.0,0.0,0.0,0.0,0.0,0.0,0.0,12.403673,0.0,0.0,nan,0.0,0.0,0.0903474,0.0,0.0,0.0,0.0,0.0,0.0,0.0,0.0,0.0
221797560,221698465,0.10047151,0.100469746,0.2141665,1.1189836,1.1189841,0.0,0.0,0.0,0.0,0.0,0.0,0.0,0.0,12.405399,0.0,0.0,nan,0.0,0.0,0.09034776,0.0,0.0,0.0,0.0,0.0,0.0,0.0,0.0,0.0
222291586,222192359,0.10041754,0.10041629,0.21417019,1.1041709,1.1041703,0.0,0.0,0.0,0.0,0.0,0.0,0.0,0.0,12.403673,0.0,0.0,nan,0.0,0.0,0.09034818,0.0,0.0,0.0,0.0,0.0,0.0,0.0,0.0,0.0
222795275,222696131,0.10050218,0.100501575,0.21419053,1.0940421,1.094041,0.0,0.0,0.0,0.0,0.0,0.0,0.0,0.0,12.404875,0.0,0.0,nan,0.0,0.0,0.09034843,0.0,0.0,0.0,0.0,0.0,0.0,0.0,0.0,0.0
223299610,223199903,0.10046598,0.100461274,0.21415952,1.0812432,1.0812415,0.0,0.0,0.0,0.0,0.0,0.0,0.0,0.0,12.403841,0.0,0.0,nan,0.0,0.0,0.09034887,0.0,0.0,0.0,0.0,0.0,0.0,0.0,0.0,0.0
223792994,223693797,0.10055797,0.10055334,0.21415952,1.0687275,1.0687256,0.0,0.0,0.0,0.0,0.0,0.0,0.0,0.0,12.405637,0.0,0.0,nan,0.0,0.0,0.0903491,0.0,0.0,0.0,0.0,0.0,0.0,0.0,0.0,0.0
224296855,224197570,0.100479946,0.1004915,0.21412928,1.0540733,1.0540712,0.0,0.0,0.0,0.0,0.0,0.0,0.0,0.0,12.403452,0.0,0.0,nan,0.0,0.0,0.090349235,0.0,0.0,0.0,0.0,0.0,0.0,0.0,0.0,0.0
224790596,224691465,0.10059827,0.100602694,0.21415734,1.0482178,1.0482155,0.0,0.0,0.0,0.0,0.0,0.0,0.0,0.0,12.404733,0.0,0.0,nan,0.0,0.0,0.09034915,0.0,0.0,0.0,0.0,0.0,0.0,0.0,0.0,0.0
225294576,225195238,0.100524016,0.10051609,0.2141256,1.0337144,1.0337126,0.0,0.0,0.0,0.0,0.0,0.0,0.0,0.0,12.403256,0.0,0.0,nan,0.0,0.0,0.09034915,0.0,0.0,0.0,0.0,0.0,0.0,0.0,0.0,0.0
225798180,225699010,0.10048334,0.10047694,0.21413213,1.0254518,1.0254501,0.0,0.0,0.0,0.0,0.0,0.0,0.0,0.0,12.405101,0.0,0.0,nan,0.0,0.0,0.09034916,0.0,0.0,0.0,0.0,0.0,0.0,0.0,0.0,0.0
226292056,226192905,0.100526854,0.100524224,0.21419561,1.0156112,1.0156095,0.0,0.0,0.0,0.0,0.0,0.0,0.0,0.0,12.402979,0.0,0.0,nan,0.0,0.0,0.09034902,0.0,0.0,0.0,0.0,0.0,0.0,0.0,0.0,0.0
226795770,226696679,0.100451544,0.10045279,0.21413544,1.0074047,1.0074031,0.0,0.0,0.0,0.0,0.0,0.0,0.0,0.0,12.404293,0.0,0.0,nan,0.0,0.0,0.09034908,0.0,0.0,0.0,0.0,0.0,0.0,0.0,0.0,0.0
227289818,227190574,0.10041886,0.100427076,0.21415818,0.9954811,0.9954796,0.0,0.0,0.0,0.0,0.0,0.0,0.0,0.0,12.406219,0.0,0.0,nan,0.0,0.0,0.090349235,0.0,0.0,0.0,0.0,0.0,0.0,0.0,0.0,0.0
227793489,227694348,0.10035771,0.10036428,0.21416013,0.9892948,0.9892935,0.0,0.0,0.0,0.0,0.0,0.0,0.0,0.0,12.404737,0.0,0.0,nan,0.0,0.0,0.09034915,0.0,0.0,0.0,0.0,0.0,0.0,0.0,0.0,0.0
228297210,228198121,0.100285746,0.10029006,0.21413893,0.9791415,0.97914064,0.0,0.0,0.0,0.0,0.0,0.0,0.0,0.0,12.403677,0.0,0.0,nan,0.0,0.0,0.09034919,0.0,0.0,0.0,0.0,0.0,0.0,0.0,0.0,0.0
228791188,228692017,0.10026274,0.10026248,0.21417402,0.97133017,0.9713296,0.0,0.0,0.0,0.0,0.0,0.0,0.0,0.0,12.405997,0.0,0.0,nan,0.0,0.0,0.090349466,0.0,0.0,0.0,0.0,0.0,0.0,0.0,0.0,0.0
229294885,229195791,0.100261614,0.10025918,0.21423373,0.95962244,0.9596222,0.0,0.0,0.0,0.0,0.0,0.0,0.0,0.0,12.406043,0.0,0.0,nan,0.0,0.0,0.0903498,0.0,0.0,0.0,0.0,0.0,0.0,0.0,0.0,0.0
229798714,229699565,0.100227624,0.10022339,0.2142184,0.9516962,0.95169604,0.0,0.0,0.0,0.0,0.0,0.0,0.0,0.0,12.407004,0.0,0.0,nan,0.0,0.0,0.09035014,0.0,0.0,0.0,0.0,0.0,0.0,0.0,0.0,0.0
230292626,230193461,0.10022932,0.10022802,0.21420737,0.9400816,0.9400813,0.0,0.0,0.0,0.0,0.0,0.0,0.0,0.0,12.405468,0.0,0.0,nan,0.0,0.0,0.09034997,0.0,0.0,0.0,0.0,0.0,0.0,0.0,0.0,0.0
230796340,230697235,0.10017274,0.100182235,0.21413383,0.9340677,0.93406737,0.0,0.0,0.0,0.0,0.0,0.0,0.0,0.0,12.406449,0.0,0.0,nan,0.0,0.0,0.09034975,0.0,0.0,0.0,0.0,0.0,0.0,0.0,0.0,0.0
231290237,231191131,0.10025656,0.10028037,0.21417809,0.9284656,0.92846525,0.0,0.0,0.0,0.0,0.0,0.0,0.0,0.0,12.408554,0.0,0.0,nan,0.0,0.0,0.090349644,0.0,0.0,0.0,0.0,0.0,0.0,0.0,0.0,0.0
231793998,231694906,0.10014492,0.10016906,0.21412204,0.9222432,0.92224324,0.0,0.0,0.0,0.0,0.0,0.0,0.0,0.0,12.405949,0.0,0.0,nan,0.0,0.0,0.09034939,0.0,0.0,0.0,0.0,0.0,0.0,0.0,0.0,0.0
232297830,232198683,0.10023152,0.10024008,0.21416886,0.91302735,0.91302824,0.0,0.0,0.0,0.0,0.0,0.0,0.0,0.0,12.408534,0.0,0.0,nan,0.0,0.0,0.09034908,0.0,0.0,0.0,0.0,0.0,0.0,0.0,0.0,0.0
232791675,232692578,0.10023993,0.10023948,0.21420181,0.9073848,0.9073861,0.0,0.0,0.0,0.0,0.0,0.0,0.0,0.0,12.406454,0.0,0.0,nan,0.0,0.0,0.09034911,0.0,0.0,0.0,0.0,0.0,0.0,0.0,0.0,0.0
233295473,233196353,0.1001638,0.10015513,0.21415919,0.8994931,0.8994943,0.0,0.0,0.0,0.0,0.0,0.0,0.0,0.0,12.405122,0.0,0.0,nan,0.0,0.0,0.090349115,0.0,0.0,0.0,0.0,0.0,0.0,0.0,0.0,0.0
233799219,233700128,0.10019399,0.10018024,0.21419837,0.89759576,0.8975967,0.0,0.0,0.0,0.0,0.0,0.0,0.0,0.0,12.406164,0.0,0.0,nan,0.0,0.0,0.0903491,0.0,0.0,0.0,0.0,0.0,0.0,0.0,0.0,0.0
234293146,234194025,0.10015062,0.10014123,0.2141661,0.8935046,0.89350474,0.0,0.0,0.0,0.0,0.0,0.0,0.0,0.0,12.404805,0.0,0.0,nan,0.0,0.0,0.09034891,0.0,0.0,0.0,0.0,0.0,0.0,0.0,0.0,0.0
234796955,234697800,0.10009891,0.10009687,0.21415782,0.8895389,0.8895383,0.0,0.0,0.0,0.0,0.0,0.0,0.0,0.0,12.405859,0.0,0.0,nan,0.0,0.0,0.0903489,0.0,0.0,0.0,0.0,0.0,0.0,0.0,0.0,0.0
235290789,235191698,0.10024835,0.1002537,0.21417727,0.882162,0.8821608,0.0,0.0,0.0,0.0,0.0,0.0,0.0,0.0,12.404034,0.0,0.0,nan,0.0,0.0,0.0903489,0.0,0.0,0.0,0.0,0.0,0.0,0.0,0.0,0.0
235794562,235695474,0.10076333,0.100768834,0.21416096,0.8785163,0.87851506,0.0,0.0,0.0,0.0,0.0,0.0,0.0,0.0,12.405666,0.0,0.0,nan,0.0,0.0,0.090348735,0.0,0.0,0.0,0.0,0.0,0.0,0.0,0.0,0.0
236298369,236199249,0.10096173,0.100961454,0.21417391,0.87301844,0.8730179,0.0,0.0,0.0,0.0,0.0,0.0,0.0,0.0,12.404509,0.0,0.0,nan,0.0,0.0,0.090348735,0.0,0.0,0.0,0.0,0.0,0.0,0.0,0.0,0.0
236792274,236693147,0.10059752,0.10059657,0.2141706,0.86917514,0.86917514,0.0,0.0,0.0,0.0,0.0,0.0,0.0,0.0,12.40617,0.0,0.0,nan,0.0,0.0,0.09034883,0.0,0.0,0.0,0.0,0.0,0.0,0.0,0.0,0.0
237296033,237196924,0.10027061,0.10027647,0.21410076,0.8631718,0.8631723,0.0,0.0,0.0,0.0,0.0,0.0,0.0,0.0,12.403874,0.0,0.0,nan,0.0,0.0,0.090348706,0.0,0.0,0.0,0.0,0.0,0.0,0.0,0.0,0.0
237789915,237690822,0.10035319,0.10036004,0.21417806,0.860162,0.8601628,0.0,0.0,0.0,0.0,0.0,0.0,0.0,0.0,12.405602,0.0,0.0,nan,0.0,0.0,0.09034868,0.0,0.0,0.0,0.0,0.0,0.0,0.0,0.0,0.0
238293693,238194598,0.10011668,0.10012467,0.21420151,0.8543529,0.8543539,0.0,0.0,0.0,0.0,0.0,0.0,0.0,0.0,12.403826,0.0,0.0,nan,0.0,0.0,0.09034854,0.0,0.0,0.0,0.0,0.0,0.0,0.0,0.0,0.0
238797551,238698375,0.10009913,0.100105785,0.2141808,0.8525422,0.8525434,0.0,0.0,0.0,0.0,0.0,0.0,0.0,0.0,12.405006,0.0,0.0,nan,0.0,0.0,0.090348564,0.0,0.0,0.0,0.0,0.0,0.0,0.0,0.0,0.0
239291445,239192273,0.10007386,0.10007919,0.21419229,0.8488409,0.8488422,0.0,0.0,0.0,0.0,0.0,0.0,0.0,0.0,12.4039545,0.0,0.0,nan,0.0,0.0,0.09034857,0.0,0.0,0.0,0.0,0.0,0.0,0.0,0.0,0.0
239795144,239696050,0.09997544,0.0999783,0.2141472,0.846536,0.8465374,0.0,0.0,0.0,0.0,0.0,0.0,0.0,0.0,12.40572,0.0,0.0,nan,0.0,0.0,0.09034844,0.0,0.0,0.0,0.0,0.0,0.0,0.0,0.0,0.0
240298970,240199827,0.10007693,0.10007619,0.2142058,0.8449478,0.84494925,0.0,0.0,0.0,0.0,0.0,0.0,0.0,0.0,12.403482,0.0,0.0,nan,0.0,0.0,0.09034833,0.0,0.0,0.0,0.0,0.0,0.0,0.0,0.0,0.0
240792841,240693726,0.10014118,0.10013955,0.21422365,0.8416301,0.8416314,0.0,0.0,0.0,0.0,0.0,0.0,0.0,0.0,12.404699,0.0,0.0,nan,0.0,0.0,0.09034835,0.0,0.0,0.0,0.0,0.0,0.0,0.0,0.0,0.0
241296666,241197503,0.10001995,0.10001953,0.21414527,0.8374438,0.8374448,0.0,0.0,0.0,0.0,0.0,0.0,0.0,0.0,12.403693,0.0,0.0,nan,0.0,0.0,0.09034842,0.0,0.0,0.0,0.0,0.0,0.0,0.0,0.0,0.0
241790946,241691402,0.09999634,0.09999628,0.21414608,0.83543974,0.83544034,0.0,0.0,0.0,0.0,0.0,0.0,0.0,0.0,12.404294,0.0,0.0,nan,0.0,0.0,0.09034845,0.0,0.0,0.0,0.0,0.0,0.0,0.0,0.0,0.0
242294300,242195180,0.100098416,0.100096546,0.21420163,0.8303587,0.830359,0.0,0.0,0.0,0.0,0.0,0.0,0.0,0.0,12.404265,0.0,0.0,nan,0.0,0.0,0.09034839,0.0,0.0,0.0,0.0,0.0,0.0,0.0,0.0,0.0
242798207,242698957,0.100068204,0.10006435,0.21419676,0.8283534,0.8283536,0.0,0.0,0.0,0.0,0.0,0.0,0.0,0.0,12.404965,0.0,0.0,nan,0.0,0.0,0.090348445,0.0,0.0,0.0,0.0,0.0,0.0,0.0,0.0,0.0
243291980,243192857,0.10010117,0.10010016,0.2141543,0.8247684,0.8247685,0.0,0.0,0.0,0.0,0.0,0.0,0.0,0.0,12.406303,0.0,0.0,nan,0.0,0.0,0.09034827,0.0,0.0,0.0,0.0,0.0,0.0,0.0,0.0,0.0
243796207,243696634,0.09999168,0.09999422,0.2141149,0.8225342,0.8225342,0.0,0.0,0.0,0.0,0.0,0.0,0.0,0.0,12.405341,0.0,0.0,nan,0.0,0.0,0.090348296,0.0,0.0,0.0,0.0,0.0,0.0,0.0,0.0,0.0
244299555,244200412,0.10007608,0.100077674,0.21417762,0.8192425,0.8192424,0.0,0.0,0.0,0.0,0.0,0.0,0.0,0.0,12.4031925,0.0,0.0,nan,0.0,0.0,0.09034825,0.0,0.0,0.0,0.0,0.0,0.0,0.0,0.0,0.0
244793503,244694312,0.100040555,0.100038804,0.21411708,0.8155124,0.81551236,0.0,0.0,0.0,0.0,0.0,0.0,0.0,0.0,12.404508,0.0,0.0,nan,0.0,0.0,0.090348355,0.0,0.0,0.0,0.0,0.0,0.0,0.0,0.0,0.0
245297211,245198090,0.10009289,0.10008362,0.214143,0.81377,0.8137701,0.0,0.0,0.0,0.0,0.0,0.0,0.0,0.0,12.403093,0.0,0.0,nan,0.0,0.0,0.090348475,0.0,0.0,0.0,0.0,0.0,0.0,0.0,0.0,0.0
245791517,245691990,0.099992745,0.09998675,0.21410894,0.8133483,0.81334835,0.0,0.0,0.0,0.0,0.0,0.0,0.0,0.0,12.405013,0.0,0.0,nan,0.0,0.0,0.0903485,0.0,0.0,0.0,0.0,0.0,0.0,0.0,0.0,0.0
246294859,246195768,0.1000361,0.1000433,0.21413507,0.81164986,0.8116495,0.0,0.0,0.0,0.0,0.0,0.0,0.0,0.0,12.402936,0.0,0.0,nan,0.0,0.0,0.09034827,0.0,0.0,0.0,0.0,0.0,0.0,0.0,0.0,0.0
246798843,246699546,0.10002905,0.10004742,0.21411441,0.8116876,0.8116871,0.0,0.0,0.0,0.0,0.0,0.0,0.0,0.0,12.404282,0.0,0.0,nan,0.0,0.0,0.09034835,0.0,0.0,0.0,0.0,0.0,0.0,0.0,0.0,0.0
247292589,247193448,0.099964276,0.099983215,0.21413514,0.8099669,0.8099668,0.0,0.0,0.0,0.0,0.0,0.0,0.0,0.0,12.406238,0.0,0.0,nan,0.0,0.0,0.090348355,0.0,0.0,0.0,0.0,0.0,0.0,0.0,0.0,0.0
247796604,247697225,0.0998041,0.09981026,0.2140967,0.8078252,0.8078257,0.0,0.0,0.0,0.0,0.0,0.0,0.0,0.0,12.404794,0.0,0.0,nan,0.0,0.0,0.09034824,0.0,0.0,0.0,0.0,0.0,0.0,0.0,0.0,0.0
248290218,248191125,0.09971778,0.0996988,0.21420184,0.8083503,0.808352,0.0,0.0,0.0,0.0,0.0,0.0,0.0,0.0,12.403213,0.0,0.0,nan,0.0,0.0,0.25035277,0.0,0.0,0.0,0.0,0.0,0.0,0.0,0.0,0.0
248794050,248694904,0.09960648,0.09958672,0.2142,0.8064101,0.80641145,0.0,0.0,0.0,0.0,0.0,0.0,0.0,0.0,12.404555,0.0,0.0,nan,0.0,0.0,0.25035915,0.0,0.0,0.0,0.0,0.0,0.0,0.0,0.0,0.0
249297774,249198682,0.099602215,0.099612355,0.21421307,0.8029115,0.8029114,0.0,0.0,0.0,0.0,0.0,0.0,0.0,0.0,12.403454,0.0,0.0,nan,0.0,0.0,0.25036517,0.0,0.0,0.0,0.0,0.0,0.0,0.0,0.0,0.0
249791815,249692583,0.09960545,0.099640295,0.21420865,0.800968,0.8009669,0.0,0.0,0.0,0.0,0.0,0.0,0.0,0.0,12.405762,0.0,0.0,nan,0.0,0.0,0.25037047,0.0,0.0,0.0,0.0,0.0,0.0,0.0,0.0,0.0
250295455,250196362,0.099638514,0.09966915,0.21417312,0.802446,0.8024453,0.0,0.0,0.0,0.0,0.0,0.0,0.0,0.0,12.403507,0.0,0.0,nan,0.0,0.0,0.25037646,0.0,0.0,0.0,0.0,0.0,0.0,0.0,0.0,0.0
250799325,250700140,0.09974332,0.09974879,0.21415219,0.80426854,0.804269,0.0,0.0,0.0,0.0,0.0,0.0,0.0,0.0,12.405961,0.0,0.0,nan,0.0,0.0,0.25038296,0.0,0.0,0.0,0.0,0.0,0.0,0.0,0.0,0.0
251293165,251194041,0.09994523,0.099910766,0.21416177,0.804314,0.804316,0.0,0.0,0.0,0.0,0.0,0.0,0.0,0.0,12.404242,0.0,0.0,nan,0.0,0.0,0.2503884,0.0,0.0,0.0,0.0,0.0,0.0,0.0,0.0,0.0
251796912,251697820,0.099834606,0.09995018,0.21414547,0.8041853,0.80418587,0.0,0.0,0.0,0.0,0.0,0.0,0.0,0.0,12.4054575,0.0,0.0,nan,0.0,0.0,0.25039482,0.0,0.0,0.0,0.0,0.0,0.0,0.0,0.0,0.0
252290826,252191721,0.100054644,0.10024784,0.21415311,0.80775774,0.80776465,0.0,0.0,0.0,0.0,0.0,0.0,0.0,0.0,12.403717,0.0,0.0,nan,0.0,0.0,0.2503976,0.0,0.0,0.0,0.0,0.0,0.0,0.0,0.0,0.0
252794667,252695500,0.10013334,0.10013886,0.21415372,0.8098645,0.8098812,0.0,0.0,0.0,0.0,0.0,0.0,0.0,0.0,12.404906,0.0,0.0,nan,0.0,0.0,0.25040248,0.0,0.0,0.0,0.0,0.0,0.0,0.0,0.0,0.0
253298431,253199279,0.10028101,0.10016607,0.21411628,0.81499726,0.8150121,0.0,0.0,0.0,0.0,0.0,0.0,0.0,0.0,12.403884,0.0,0.0,nan,0.0,0.0,0.2504074,0.0,0.0,0.0,0.0,0.0,0.0,0.0,0.0,0.0
253792294,253693181,0.100452304,0.10107552,0.21412571,0.81868875,0.8187,0.0,0.0,0.0,0.0,0.0,0.0,0.0,0.0,12.405906,0.0,0.0,nan,0.0,0.0,0.25040603,0.0,0.0,0.0,0.0,0.0,0.0,0.0,0.0,0.0
254296074,254196960,0.100410774,0.10335853,0.21415167,0.82607746,0.8261313,0.0,0.0,0.0,0.0,0.0,0.0,0.0,0.0,12.404582,0.0,0.0,nan,0.0,0.0,0.25039685,0.0,0.0,0.0,0.0,0.0,0.0,0.0,0.0,0.0
254799881,254700739,0.10244116,0.106442675,0.21408387,0.83343184,0.8343458,0.0,0.0,0.0,0.0,0.0,0.0,0.0,0.0,12.407096,0.0,0.0,nan,0.0,0.0,0.2504017,0.0,0.0,0.0,0.0,0.0,0.0,0.0,0.0,0.0
255293749,255194641,0.10660674,0.110323355,0.21407111,0.8383282,0.8420898,0.0,0.0,0.0,0.0,0.0,0.0,0.0,0.0,12.405544,0.0,0.0,nan,0.0,0.0,0.2504036,0.0,0.0,0.0,0.0,0.0,0.0,0.0,0.0,0.0
255797516,255698420,0.109716445,0.11128677,0.21408728,0.84348947,0.84874105,0.0,0.0,0.0,0.0,0.0,0.0,0.0,0.0,12.406947,0.0,0.0,nan,0.0,0.0,0.25040433,0.0,0.0,0.0,0.0,0.0,0.0,0.0,0.0,0.0
256291413,256192323,0.10849924,0.107620746,0.21401776,0.8359724,0.8394863,0.0,0.0,0.0,0.0,0.0,0.0,0.0,0.0,12.404447,0.0,0.0,nan,0.0,0.0,0.25039482,0.0,0.0,0.0,0.0,0.0,0.0,0.0,0.0,0.0
256795196,256696102,0.10435973,0.10472022,0.21396197,0.83216697,0.8350226,0.0,0.0,0.0,0.0,0.0,0.0,0.0,0.0,12.405927,0.0,0.0,nan,0.0,0.0,0.25038576,0.0,0.0,0.0,0.0,0.0,0.0,0.0,0.0,0.0
257298972,257199881,0.10210309,0.103707336,0.21408516,0.83133596,0.8331313,0.0,0.0,0.0,0.0,0.0,0.0,0.0,0.0,12.404164,0.0,0.0,nan,0.0,0.0,0.2503735,0.0,0.0,0.0,0.0,0.0,0.0,0.0,0.0,0.0
257792875,257693783,0.101293236,0.10237631,0.21407606,0.82894015,0.83011734,0.0,0.0,0.0,0.0,0.0,0.0,0.0,0.0,12.405758,0.0,0.0,nan,0.0,0.0,0.25036836,0.0,0.0,0.0,0.0,0.0,0.0,0.0,0.0,0.0
258296664,258197563,0.10083665,0.10067718,0.21394299,0.8299161,0.8304607,0.0,0.0,0.0,0.0,0.0,0.0,0.0,0.0,12.403967,0.0,0.0,nan,0.0,0.0,0.2503687,0.0,0.0,0.0,0.0,0.0,0.0,0.0,0.0,0.0
258790558,258691465,0.100906596,0.100793704,0.2138981,0.832352,0.83272403,0.0,0.0,0.0,0.0,0.0,0.0,0.0,0.0,12.40504,0.0,0.0,nan,0.0,0.0,0.25036836,0.0,0.0,0.0,0.0,0.0,0.0,0.0,0.0,0.0
259294361,259195245,0.10074739,0.10073161,0.2139123,0.8361566,0.8364793,0.0,0.0,0.0,0.0,0.0,0.0,0.0,0.0,12.406196,0.0,0.0,nan,0.0,0.0,0.25036302,0.0,0.0,0.0,0.0,0.0,0.0,0.0,0.0,0.0
259798123,259699026,0.10082589,0.10038745,0.21398273,0.83922595,0.8395355,0.0,0.0,0.0,0.0,0.0,0.0,0.0,0.0,12.405142,0.0,0.0,nan,0.0,0.0,0.25035983,0.0,0.0,0.0,0.0,0.0,0.0,0.0,0.0,0.0
260292063,260192928,0.10044776,0.10032631,0.21403396,0.8440089,0.84423745,0.0,0.0,0.0,0.0,0.0,0.0,0.0,0.0,12.403479,0.0,0.0,nan,0.0,0.0,0.25036246,0.0,0.0,0.0,0.0,0.0,0.0,0.0,0.0,0.0
260795795,260696708,0.10025823,0.10017507,0.2140425,0.8453233,0.8455174,0.0,0.0,0.0,0.0,0.0,0.0,0.0,0.0,12.404723,0.0,0.0,nan,0.0,0.0,0.25036573,0.0,0.0,0.0,0.0,0.0,0.0,0.0,0.0,0.0
261299631,261200489,0.10032448,0.100957036,0.21404164,0.8489282,0.8490396,0.0,0.0,0.0,0.0,0.0,0.0,0.0,0.0,12.406042,0.0,0.0,nan,0.0,0.0,0.2503658,0.0,0.0,0.0,0.0,0.0,0.0,0.0,0.0,0.0
261793484,261694391,0.10024664,0.101153545,0.21405968,0.850431,0.850467,0.0,0.0,0.0,0.0,0.0,0.0,0.0,0.0,12.404365,0.0,0.0,nan,0.0,0.0,0.25036287,0.0,0.0,0.0,0.0,0.0,0.0,0.0,0.0,0.0
262297268,262198172,0.10017312,0.1006642,0.21409231,0.8521702,0.8521559,0.0,0.0,0.0,0.0,0.0,0.0,0.0,0.0,12.403394,0.0,0.0,nan,0.0,0.0,0.25036192,0.0,0.0,0.0,0.0,0.0,0.0,0.0,0.0,0.0
262791178,262692074,0.10014433,0.10043648,0.2140938,0.85370094,0.85368294,0.0,0.0,0.0,0.0,0.0,0.0,0.0,0.0,12.405174,0.0,0.0,nan,0.0,0.0,0.25036407,0.0,0.0,0.0,0.0,0.0,0.0,0.0,0.0,0.0
263294975,263195855,0.10010328,0.100215346,0.21408658,0.8535054,0.8534937,0.0,0.0,0.0,0.0,0.0,0.0,0.0,0.0,12.402543,0.0,0.0,nan,0.0,0.0,0.2503681,0.0,0.0,0.0,0.0,0.0,0.0,0.0,0.0,0.0
263798786,263699636,0.100098036,0.10014795,0.21408124,0.85364497,0.85363734,0.0,0.0,0.0,0.0,0.0,0.0,0.0,0.0,12.404844,0.0,0.0,nan,0.0,0.0,0.25037396,0.0,0.0,0.0,0.0,0.0,0.0,0.0,0.0,0.0
264293071,264193539,0.100620314,0.100645274,0.21415874,0.8555037,0.8555137,0.0,0.0,0.0,0.0,0.0,0.0,0.0,0.0,12.406162,0.0,0.0,nan,0.0,0.0,0.2503789,0.0,0.0,0.0,0.0,0.0,0.0,0.0,0.0,0.0
264796442,264697320,0.10197685,0.10268273,0.21438271,0.8578473,0.8577718,0.0,0.0,0.0,0.0,0.0,0.0,0.0,0.0,12.405675,0.0,0.0,nan,0.0,0.0,0.2503688,0.0,0.0,0.0,0.0,0.0,0.0,0.0,0.0,0.0
265300347,265201101,0.10805894,0.11276585,0.21475112,0.86620724,0.86666715,0.0,0.0,0.0,0.0,0.0,0.0,0.0,0.0,12.403496,0.0,0.0,nan,0.0,0.0,0.25037247,0.0,0.0,0.0,0.0,0.0,0.0,0.0,0.0,0.0
265794147,265695004,0.111604095,0.12053286,0.21492374,0.8717622,0.8743869,0.0,0.0,0.0,0.0,0.0,0.0,0.0,0.0,12.404336,0.0,0.0,nan,0.0,0.0,0.2503713,0.0,0.0,0.0,0.0,0.0,0.0,0.0,0.0,0.0
266298438,266198786,0.11553666,0.1329685,0.2152843,0.8819694,0.8919308,0.0,0.0,0.0,0.0,0.0,0.0,0.0,0.0,12.406372,0.0,0.0,nan,0.0,0.0,0.25035417,0.0,0.0,0.0,0.0,0.0,0.0,0.0,0.0,0.0
266791781,266692689,0.11750272,0.13955347,0.21552067,0.8905792,0.9080112,0.0,0.0,0.0,0.0,0.0,0.0,0.0,0.0,12.405245,0.0,0.0,nan,0.0,0.0,0.09033177,0.0,0.0,0.0,0.0,0.0,0.0,0.0,0.0,0.0
267295674,267196471,0.119117506,0.14226565,0.21558586,0.9024385,0.9294311,0.0,0.0,0.0,0.0,0.0,0.0,0.0,0.0,12.403343,0.0,0.0,nan,0.0,0.0,0.09028854,0.0,0.0,0.0,0.0,0.0,0.0,0.0,0.0,0.0
267799392,267700252,0.11955999,0.13977647,0.21549803,0.9108338,0.9412889,0.0,0.0,0.0,0.0,0.0,0.0,0.0,0.0,12.404888,0.0,0.0,nan,0.0,0.0,0.09025749,0.0,0.0,0.0,0.0,0.0,0.0,0.0,0.0,0.0
268293515,268194156,0.120123714,0.13277341,0.21526748,0.91562533,0.9445222,0.0,0.0,0.0,0.0,0.0,0.0,0.0,0.0,12.406461,0.0,0.0,nan,0.0,0.0,0.09023389,0.0,0.0,0.0,0.0,0.0,0.0,0.0,0.0,0.0
268797089,268697938,0.11964986,0.12811293,0.21508287,0.9207467,0.9458864,0.0,0.0,0.0,0.0,0.0,0.0,0.0,0.0,12.405535,0.0,0.0,nan,0.0,0.0,0.09020545,0.0,0.0,0.0,0.0,0.0,0.0,0.09341241,0.0,0.0
269291036,269191841,0.117828086,0.1205439,0.2144036,0.9003463,0.91212,0.0,0.0,0.0,0.0,0.0,0.0,0.0,0.0,12.403301,0.0,0.0,nan,0.0,0.0,0.09020294,0.0034014683,0.0035122917,0.003515752,0.0,0.0,2.521568,0.09442258,0.0,0.0
269794725,269695626,0.10924912,0.10777582,0.21420789,0.8870077,0.89353216,0.0,0.0,0.0,0.0,0.0,0.0,0.0,0.0,12.404108,0.0,0.0,nan,0.0,0.0,0.09020294,0.003420033,0.00407413,0.0039322786,0.0,0.0,2.3303823,0.09543865,0.0,0.0
270298948,270199405,0.11345878,0.14616172,0.21525665,0.8863174,0.8909954,0.0,0.0,0.0,0.0,0.0,0.0,0.0,0.0,12.403591,0.0,0.0,nan,0.0,0.0,0.09020294,0.0037779761,0.0038440828,0.0037810542,0.0,0.0,2.350452,0.09785287,0.0,0.0
270792460,270693309,0.1027689,0.12316557,0.21729445,0.8828718,0.88612694,0.0,0.0,0.0,0.0,0.0,0.0,0.0,0.0,12.404659,0.0,0.0,nan,0.0,0.0,0.09020294,0.0030189585,0.0029204616,0.0029170173,0.0,0.0,2.2843838,0.09838016,0.0,0.0
271296225,271197091,0.10195364,0.116366476,0.21461274,0.8850136,0.8867118,0.0,0.0,0.0,0.0,0.0,0.0,0.0,0.0,12.403061,0.0,0.0,nan,0.0,0.0,0.09020294,0.0026979556,0.0028090943,0.0027557642,0.0,0.0,2.237029,0.09930504,0.0,0.0
271800058,271700873,0.102357164,0.1586825,0.21456143,0.88786095,0.8888508,0.0,0.0,0.0,0.0,0.0,0.0,0.0,0.0,12.404282,0.0,0.0,nan,0.0,0.0,0.09020294,0.002671329,0.002737778,0.0028043226,0.0,0.0,2.2365627,0.0971981,0.0,0.0
272293994,272194781,0.10538534,0.15687428,0.21420343,0.8889373,0.8896181,0.0,0.0,0.0,0.0,0.0,0.0,0.0,0.0,12.402821,0.0,0.0,nan,0.0,0.0,0.09020294,0.0027440025,0.0027355212,0.0027567637,0.0,0.0,2.200419,0.09368164,0.0,0.0
272797665,272698559,0.10480359,0.13411824,0.21399754,0.887499,0.88822854,0.0,0.0,0.0,0.0,0.0,0.0,0.0,0.0,12.404527,0.0,0.0,nan,0.0,0.0,0.09020294,0.0027306736,0.002708335,0.0026931386,0.0,0.0,2.1856,0.092811584,0.0,0.0
273291609,273192463,0.10428658,0.11605857,0.21392976,0.8843748,0.8852919,0.0,0.0,0.0,0.0,0.0,0.0,0.0,0.0,12.402388,0.0,0.0,nan,0.0,0.0,0.09020294,0.0027310597,0.0026942766,0.0026744744,0.0,0.0,2.1684632,0.09247156,0.0,0.0
273795348,273696246,0.10393286,0.109841794,0.21389581,0.8815378,0.8824807,0.0,0.0,0.0,0.0,0.0,0.0,0.0,0.0,12.403641,0.0,0.0,nan,0.0,0.0,0.09020294,0.0027267316,0.0026838896,0.0026621032,0.0,0.0,2.1595857,0.09219618,0.0,0.0
274299433,274200028,0.10372785,0.10464779,0.21392922,0.88124514,0.88225514,0.0,0.0,0.0,0.0,0.0,0.0,0.0,0.0,12.402738,0.0,0.0,nan,0.0,0.0,0.09020294,0.0027232317,0.002678532,0.00265644,0.0,0.0,2.1513817,0.09216972,0.0,0.0
274793065,274693932,0.10327759,0.102608934,0.21399374,0.87924397,0.8801927,0.0,0.0,0.0,0.0,0.0,0.0,0.0,0.0,12.404052,0.0,0.0,nan,0.0,0.0,0.09020294,0.0027245616,0.002675771,0.002655095,0.0,0.0,2.1448624,0.092208594,0.0,0.0
275296879,275197714,0.103235364,0.10100735,0.21400753,0.8750973,0.8758551,0.0,0.0,0.0,0.0,0.0,0.0,0.0,0.0,12.402564,0.0,0.0,nan,0.0,0.0,0.09020294,0.0027271833,0.0026759936,0.002660766,0.0,0.0,2.1400478,0.09238294,0.0,0.0
275800635,275701496,0.10333374,0.101444535,0.21400994,0.8732887,0.87374747,0.0,0.0,0.0,0.0,0.0,0.0,0.0,0.0,12.403915,0.0,0.0,nan,0.0,0.0,0.09020294,0.0027602843,0.0029584633,0.002973798,0.0,0.0,2.1434422,0.091852725,0.0,0.0
276294496,276195400,0.10928831,0.13205743,0.2143703,0.8706589,0.87082714,0.0,0.0,0.0,0.0,0.0,0.0,0.0,0.0,12.402353,0.0,0.0,nan,0.0,0.0,0.09020294,0.0029301564,0.003159996,0.0032174226,0.0,0.0,2.199596,0.09084459,0.0,0.0
276798337,276699182,0.1255653,0.14449248,0.21601367,0.87264365,0.8732574,0.0,0.0,0.0,0.0,0.0,0.0,0.0,0.0,12.404722,0.0,0.0,nan,0.0,0.0,0.09020294,0.003336877,0.0032183728,0.0030489354,0.0,0.0,2.2704375,0.09030112,0.0,0.0
277292202,277193086,0.14247409,0.12815847,0.2509527,0.8836875,0.8845351,0.0,0.0,0.0,0.0,0.0,0.0,0.0,0.0,12.403056,0.0,0.0,nan,0.0,0.0,0.09020294,0.0036682691,0.0033338566,0.0028762217,0.0,0.0,2.2527733,0.090149134,0.0,0.0
277795978,277696868,0.127221,0.105857395,0.22070968,0.90101963,0.90164185,0.0,0.0,0.0,0.0,0.0,0.0,0.0,0.0,12.405078,0.0,0.0,nan,0.0,0.0,0.09020294,0.0037817922,0.0035247905,0.0027591954,0.0,0.0,2.2437594,0.09010599,0.0,0.0
278299783,278200650,0.1178954,0.10188441,0.22260304,0.93854654,0.93854624,0.0,0.0,0.0,0.0,0.0,0.0,0.0,0.0,12.403711,0.0,0.0,nan,0.0,0.0,0.09020294,0.0035929086,0.0037774434,0.0027938434,0.0,0.0,2.2034347,0.09010505,0.0,0.0
278793686,278694554,0.11251534,0.10290554,0.2236509,0.9675848,0.9670492,0.0,0.0,0.0,0.0,0.0,0.0,0.0,0.0,12.405656,0.0,0.0,nan,0.0,0.0,0.09020294,0.003313506,0.0039781583,0.0028706798,0.0,0.0,2.1632092,0.09012154,0.0,0.0
279297431,279198335,0.14744924,0.14698443,0.3183363,1.0000638,0.9985926,0.0,0.0,0.0,0.0,0.0,0.0,0.0,0.0,12.40383,0.0,0.0,nan,0.0,0.0,0.09020294,0.0029973048,0.0041489704,0.002946188,0.0,0.0,2.1394548,0.09012244,0.0,0.0
279791379,279692239,0.13542819,0.13872838,0.29644364,1.015277,1.013342,0.0,0.0,0.0,0.0,0.0,0.0,0.0,0.0,12.408123,0.0,0.0,nan,0.0,0.0,0.09020294,0.0028344586,0.0043537216,0.0027798195,0.0,0.0,2.135824,0.09018977,0.0,0.0
280295123,280196021,0.1018493,0.10414694,0.22354294,1.0216163,1.0198743,0.0,0.0,0.0,0.0,0.0,0.0,0.0,0.0,12.4101715,0.0,0.0,nan,0.0,0.0,0.09020294,0.0027710185,0.0036184997,0.0026460206,0.0,0.0,2.134031,0.09027447,0.0,0.0
280798901,280699802,0.118025266,0.118803196,0.25887927,1.0236305,1.0221066,0.0,0.0,0.0,0.0,0.0,0.0,0.0,0.0,12.4088745,0.0,0.0,nan,0.0,0.0,0.09020294,0.0026538437,0.0028285736,0.0026319264,0.0,0.0,2.1312704,0.09020708,0.0,0.0
281292806,281193705,0.10078996,0.10094401,0.21441771,1.0335363,1.0323391,0.0,0.0,0.0,0.0,0.0,0.0,0.0,0.0,12.405267,0.0,0.0,nan,0.0,0.0,0.09020294,0.002679323,0.0027824459,0.0026220595,0.0,0.0,2.1325462,0.09024805,0.0,0.0
281796613,281697487,0.10188108,0.10250084,0.21365203,1.0371844,1.0361485,0.0,0.0,0.0,0.0,0.0,0.0,0.0,0.0,12.405995,0.0,0.0,nan,0.0,0.0,0.09020294,0.0026470239,0.0026661805,0.0025888437,0.0,0.0,2.1405573,0.09029956,0.0,0.0
282300372,282201268,0.10352288,0.10390238,0.21347806,1.0387309,1.0379477,0.0,0.0,0.0,0.0,0.0,0.0,0.0,0.0,12.40345,0.0,0.0,nan,0.0,0.0,0.09020294,0.0026104806,0.0026102744,0.0025696557,0.0,0.0,2.148034,0.09032012,0.0,0.0
282794271,282695171,0.104473725,0.10446601,0.21375176,1.0429184,1.0423061,0.0,0.0,0.0,0.0,0.0,0.0,0.0,0.0,12.403554,0.0,0.0,nan,0.0,0.0,0.09020294,0.0025952149,0.0025807475,0.002558328,0.0,0.0,2.1608615,0.0903379,0.0,0.0
283298049,283198952,0.10432149,0.10344709,0.21400303,1.0646895,1.0642922,0.0,0.0,0.0,0.0,0.0,0.0,0.0,0.0,12.401525,0.0,0.0,nan,0.0,0.0,0.09020294,0.0025761765,0.002561925,0.0025501393,0.0,0.0,2.1629493,0.09035179,0.0,0.0
283792173,283692855,0.10383336,0.10265787,0.2141109,1.0729972,1.0727022,0.0,0.0,0.0,0.0,0.0,0.0,0.0,0.0,12.402102,0.0,0.0,nan,0.0,0.0,0.09020294,0.002565178,0.002555732,0.0025454273,0.0,0.0,2.1629493,0.09035245,0.0,0.0
284295806,284196636,0.10312056,0.10184364,0.21425769,1.0834179,1.0832145,0.0,0.0,0.0,0.0,0.0,0.0,0.0,0.0,12.401026,0.0,0.0,nan,0.0,0.0,0.09020294,0.0025575175,0.0025555936,0.002541373,0.0,0.0,2.1629493,0.09034667,0.0,0.0
284799519,284700417,0.10249608,0.10137843,0.21426032,1.0854362,1.0852652,0.0,0.0,0.0,0.0,0.0,0.0,0.0,0.0,12.402016,0.0,0.0,nan,0.0,0.0,0.09020294,0.002550221,0.0025662559,0.0025384412,0.0,0.0,2.1629493,0.090345256,0.0,0.0
285293413,285194319,0.10149597,0.100849226,0.21422192,1.083687,1.0835263,0.0,0.0,0.0,0.0,0.0,0.0,0.0,0.0,12.400606,0.0,0.0,nan,0.0,0.0,0.09020294,0.0025465088,0.0025676452,0.0025358947,0.0,0.0,2.1629493,0.09036373,0.0,0.0
285797299,285698100,0.101159364,0.10083769,0.21418679,1.0859549,1.0857894,0.0,0.0,0.0,0.0,0.0,0.0,0.0,0.0,12.402286,0.0,0.0,nan,0.0,0.0,0.09020294,0.0025409856,0.0025621399,0.0025329324,0.0,0.0,2.1629493,0.09035572,0.0,0.0
286301006,286201880,0.100735985,0.100759014,0.21414474,1.0838177,1.0836576,0.0,0.0,0.0,0.0,0.0,0.0,0.0,0.0,12.401043,0.0,0.0,nan,0.0,0.0,0.09020294,0.0025369455,0.0025559517,0.0025303995,0.0,0.0,2.1629493,0.09036844,0.0,0.0
286795319,286695782,0.10054374,0.10068813,0.21414113,1.0816725,1.0815231,0.0,0.0,0.0,0.0,0.0,0.0,0.0,0.0,12.402874,0.0,0.0,nan,0.0,0.0,0.09020294,0.0025342333,0.002553628,0.0025287247,0.0,0.0,2.1629493,0.090337284,0.0,0.0
287298657,287199562,0.10078147,0.10098754,0.2142118,1.0779723,1.0778546,0.0,0.0,0.0,0.0,0.0,0.0,0.0,0.0,12.401036,0.0,0.0,nan,0.0,0.0,0.09020294,0.0025317867,0.0025448932,0.0025265967,0.0,0.0,2.1629493,0.090356514,0.0,0.0
287792662,287693464,0.1006178,0.100753136,0.21422334,1.0717152,1.0716257,0.0,0.0,0.0,0.0,0.0,0.0,0.0,0.0,12.402405,0.0,0.0,nan,0.0,0.0,0.09020294,0.0025293955,0.0025386268,0.0025249098,0.0,0.0,2.1629493,0.09036119,0.0,0.0
288296343,288197243,0.10067605,0.10067816,0.21416654,1.0674152,1.0673666,0.0,0.0,0.0,0.0,0.0,0.0,0.0,0.0,12.403879,0.0,0.0,nan,0.0,0.0,0.09020294,0.002527432,0.0025342098,0.0025233508,0.0,0.0,2.1629493,0.09035644,0.0,0.0
288800589,288701023,0.10083575,0.10076055,0.21421663,1.0654347,1.0654094,0.0,0.0,0.0,0.0,0.0,0.0,0.0,0.0,12.403209,0.0,0.0,nan,0.0,0.0,0.0901419,0.0025274132,0.0025340056,0.0025231794,0.0,0.0,2.1629493,0.09036374,0.0,0.0
289294019,289194924,0.10078373,0.100618444,0.21420793,1.0591773,1.0591774,0.0,0.0,0.0,0.0,0.0,0.0,0.0,0.0,12.40188,0.0,0.0,nan,0.0,0.0,0.09015103,0.0025274132,0.0025340056,0.0025231794,0.0,0.0,2.1629493,0.09036995,0.0,0.0
289797922,289698704,0.10088856,0.100708544,0.21424198,1.0575312,1.0575427,0.0,0.0,0.0,0.0,0.0,0.0,0.0,0.0,12.403343,0.0,0.0,nan,0.0,0.0,0.090161294,0.0025274132,0.0025340056,0.0025231794,0.0,0.0,2.1629493,0.09037426,0.0,0.0
290291754,290192605,0.100940876,0.10078692,0.21427006,1.0532506,1.0532662,0.0,0.0,0.0,0.0,0.0,0.0,0.0,0.0,12.401961,0.0,0.0,nan,0.0,0.0,0.09017203,0.0025274132,0.0025340056,0.0025231794,0.0,0.0,2.1629493,0.090393,0.0,0.0
290795714,290696384,0.100890495,0.10084223,0.21419579,1.0530303,1.0530447,0.0,0.0,0.0,0.0,0.0,0.0,0.0,0.0,12.403883,0.0,0.0,nan,0.0,0.0,0.090182304,0.0025274132,0.0025340056,0.0025231794,0.0,0.0,2.1629493,0.09043062,0.0,0.0
291299256,291200163,0.10082309,0.10081932,0.21421316,1.0511118,1.0511246,0.0,0.0,0.0,0.0,0.0,0.0,0.0,0.0,12.4026375,0.0,0.0,nan,0.0,0.0,0.09019491,0.0025274132,0.0025340056,0.0025231794,0.0,0.0,2.1629493,0.09045885,0.0,0.0
291793248,291694063,0.1007165,0.10069542,0.21419293,1.0491909,1.0492036,0.0,0.0,0.0,0.0,0.0,0.0,0.0,0.0,12.404098,0.0,0.0,nan,0.0,0.0,0.09020732,0.0025274132,0.0025340056,0.0025231794,0.0,0.0,2.1629493,0.09051278,0.0,0.0
292296934,292197842,0.10068208,0.10063388,0.21423383,1.0489535,1.0489665,0.0,0.0,0.0,0.0,0.0,0.0,0.0,0.0,12.402138,0.0,0.0,nan,0.0,0.0,0.09021793,0.0025274132,0.0025340056,0.0025231794,0.0,0.0,2.1629493,0.090550825,0.0,0.0
292801020,292701620,0.10053237,0.10051429,0.21425311,1.0472853,1.0472982,0.0,0.0,0.0,0.0,0.0,0.0,0.0,0.0,12.404804,0.0,0.0,nan,0.0,0.0,0.09022988,0.0025274132,0.0025340056,0.0025231794,0.0,0.0,2.1629493,0.09053206,0.0,0.0
293294654,293195521,0.10050523,0.100548305,0.2142146,1.0430287,1.0430388,0.0,0.0,0.0,0.0,0.0,0.0,0.0,0.0,12.402801,0.0,0.0,nan,0.0,0.0,0.09024013,0.0025274132,0.0025340056,0.0025231794,0.0,0.0,2.1629493,0.090508975,0.0,0.0
293798463,293699298,0.100587524,0.10063206,0.21420547,1.0408728,1.040881,0.0,0.0,0.0,0.0,0.0,0.0,0.0,0.0,12.404743,0.0,0.0,nan,0.0,0.0,0.09025213,0.0025274132,0.0025340056,0.0025231794,0.0,0.0,2.1629493,0.09051525,0.0,0.0
294292390,294193198,0.10075869,0.100777686,0.2142088,1.0388919,1.0388992,0.0,0.0,0.0,0.0,0.0,0.0,0.0,0.0,12.402679,0.0,0.0,nan,0.0,0.0,0.09026356,0.0025274132,0.0025340056,0.0025231794,0.0,0.0,2.1629493,0.09053377,0.0,0.0
294796104,294696976,0.10085701,0.10085238,0.21413775,1.0366906,1.0366975,0.0,0.0,0.0,0.0,0.0,0.0,0.0,0.0,12.404055,0.0,0.0,nan,0.0,0.0,0.09027364,0.0025274132,0.0025340056,0.0025231794,0.0,0.0,2.1629493,0.09050881,0.0,0.0
295299862,295200755,0.10047011,0.10039078,0.21414664,1.0387384,1.0387443,0.0,0.0,0.0,0.0,0.0,0.0,0.0,0.0,12.403198,0.0,0.0,nan,0.0,0.0,0.090285026,0.0025274132,0.0025340056,0.0025231794,0.0,0.0,2.1629493,0.0905327,0.0,0.0
295793755,295694655,0.100327715,0.100252576,0.21415049,1.038601,1.0386051,0.0,0.0,0.0,0.0,0.0,0.0,0.0,0.0,12.404597,0.0,0.0,nan,0.0,0.0,0.09029458,0.0025274132,0.0025340056,0.0025231794,0.0,0.0,2.1629493,0.09056792,0.0,0.0
296297554,296198430,0.100511275,0.100456394,0.21415089,1.0369313,1.0369318,0.0,0.0,0.0,0.0,0.0,0.0,0.0,0.0,12.406034,0.0,0.0,nan,0.0,0.0,0.09030552,0.0025274132,0.0025340056,0.0025231794,0.0,0.0,2.1629493,0.09058658,0.0,0.0
296801437,296702207,0.100486875,0.10045352,0.2141456,1.0347376,1.0347363,0.0,0.0,0.0,0.0,0.0,0.0,0.0,0.0,12.405129,0.0,0.0,nan,0.0,0.0,0.090315625,0.0025274132,0.0025340056,0.0025231794,0.0,0.0,2.1629493,0.09057978,0.0,0.0
297295242,297196106,0.10065043,0.10059076,0.2141661,1.0348186,1.0348154,0.0,0.0,0.0,0.0,0.0,0.0,0.0,0.0,12.403563,0.0,0.0,nan,0.0,0.0,0.09032433,0.0025274132,0.0025340056,0.0025231794,0.0,0.0,2.1629493,0.09059304,0.0,0.0
297798973,297699883,0.10058554,0.10054735,0.21416092,1.0306762,1.0306715,0.0,0.0,0.0,0.0,0.0,0.0,0.0,0.0,12.404398,0.0,0.0,nan,0.0,0.0,0.09033407,0.0025274132,0.0025340056,0.0025231794,0.0,0.0,2.1629493,0.090605564,0.0,0.0
298292901,298193781,0.1004618,0.10044788,0.21417727,1.026733,1.0267266,0.0,0.0,0.0,0.0,0.0,0.0,0.0,0.0,12.402844,0.0,0.0,nan,0.0,0.0,0.09034232,0.0025274132,0.0025340056,0.0025231794,0.0,0.0,2.1629493,0.09062373,0.0,0.0
298796651,298697558,0.10042693,0.10041723,0.21415737,1.0248082,1.0248016,0.0,0.0,0.0,0.0,0.0,0.0,0.0,0.0,12.404178,0.0,0.0,nan,0.0,0.0,0.09035144,0.0025274132,0.0025340056,0.0025231794,0.0,0.0,2.1629493,0.090625614,0.0,0.0
299300491,299201334,0.100460686,0.10045154,0.2141322,1.018622,1.0186162,0.0,0.0,0.0,0.0,0.0,0.0,0.0,0.0,12.40331,0.0,0.0,nan,0.0,0.0,0.2503662,0.0025274132,0.0025340056,0.0025231794,0.0,0.0,2.1629493,0.09063316,0.0,0.0
299794347,299695232,0.10012198,0.10011019,0.21409006,1.0142277,1.0142229,0.0,0.0,0.0,0.0,0.0,0.0,0.0,0.0,12.404689,0.0,0.0,nan,0.0,0.0,0.25037938,0.0025274132,0.0025340056,0.0025231794,0.0,0.0,2.1629493,0.09064733,0.0,0.0
300298099,300199008,0.100338444,0.10032677,0.21415472,1.0085874,1.0085816,0.0,0.0,0.0,0.0,0.0,0.0,0.0,0.0,12.402623,0.0,0.0,nan,0.0,0.0,0.25039452,0.0025274132,0.0025340056,0.0025231794,0.0,0.0,2.1629493,0.09070547,0.0,0.0
300792000,300692906,0.10028459,0.100277625,0.21417636,1.0049448,1.0049386,0.0,0.0,0.0,0.0,0.0,0.0,0.0,0.0,12.403962,0.0,0.0,nan,0.0,0.0,0.25040784,0.0025274132,0.0025340056,0.0025231794,0.0,0.0,2.1629493,0.09076004,0.0,0.0
301295806,301196681,0.10038112,0.10033032,0.2141015,1.0004458,1.0004392,0.0,0.0,0.0,0.0,0.0,0.0,0.0,0.0,12.403613,0.0,0.0,nan,0.0,0.0,0.25042373,0.0025274132,0.0025340056,0.0025231794,0.0,0.0,2.1629493,0.09072383,0.0,0.0
301799551,301700457,0.102103055,0.10079396,0.21407905,0.99664766,0.99664,0.0,0.0,0.0,0.0,0.0,0.0,0.0,0.0,12.404435,0.0,0.0,nan,0.0,0.0,0.2504274,0.002576447,0.0026584815,0.0027458763,0.0,0.0,2.1629493,0.090465434,0.0,0.0
302293473,302194354,0.120833896,0.10198076,0.21458282,0.9943695,0.9943588,0.0,0.0,0.0,0.0,0.0,0.0,0.0,0.0,12.402347,0.0,0.0,nan,0.0,0.0,0.2504274,0.0025735514,0.002648096,0.002699629,0.0,0.0,2.1629493,0.09045683,0.0,0.0
302797231,302698129,0.14748757,0.10335904,0.21600981,1.0094476,1.0055335,0.0,0.0,0.0,0.0,0.0,0.0,0.0,0.0,12.404586,0.0,0.0,nan,0.0,0.0,0.2504274,0.0025712792,0.002625762,0.0026933174,0.0,0.0,2.1629493,0.09063416,0.0,0.0
303301258,303201904,0.16969869,0.10808955,0.21624285,1.0308222,1.0212352,0.0,0.0,0.0,0.0,0.0,0.0,0.0,0.0,12.403636,0.0,0.0,nan,0.0,0.0,0.2504274,0.0025548087,0.002581068,0.0026299234,0.0,0.0,2.1629493,0.09073485,0.0,0.0
303794917,303695801,0.12277286,0.10549805,0.21620849,1.0247197,1.020711,0.0,0.0,0.0,0.0,0.0,0.0,0.0,0.0,12.405073,0.0,0.0,nan,0.0,0.0,0.2504274,0.0025457507,0.0025598234,0.0026036133,0.0,0.0,2.1629493,0.090491585,0.0,0.0
304298672,304199576,0.10740977,0.103027165,0.21576327,1.0249243,1.0225139,0.0,0.0,0.0,0.0,0.0,0.0,0.0,0.0,12.403022,0.0,0.0,nan,0.0,0.0,0.2504274,0.0025391832,0.002548296,0.0025833792,0.0,0.0,2.1629493,0.09056518,0.0,0.0
304792593,304693472,0.10379261,0.10224136,0.21552679,1.0239086,1.0218309,0.0,0.0,0.0,0.0,0.0,0.0,0.0,0.0,12.405021,0.0,0.0,nan,0.0,0.0,0.2504274,0.0025366629,0.0025449824,0.0025771626,0.0,0.0,2.1629493,0.09065166,0.0,0.0
305296344,305197246,0.10142738,0.10129143,0.21499637,1.0199991,1.018326,0.0,0.0,0.0,0.0,0.0,0.0,0.0,0.0,12.4075985,0.0,0.0,nan,0.0,0.0,0.2504274,0.0025333182,0.0025417877,0.0025647539,0.0,0.0,2.1629493,0.090654686,0.0,0.0
305800122,305701021,0.100666866,0.10079672,0.21479827,1.0185837,1.0171753,0.0,0.0,0.0,0.0,0.0,0.0,0.0,0.0,12.405734,0.0,0.0,nan,0.0,0.0,0.2504274,0.0061026653,0.0069790613,0.007107664,0.0,0.0,2.1629493,0.09198281,0.0,0.0
306294148,306194917,0.10144501,0.10807414,0.21561545,1.0213404,1.0203722,0.0,0.0,0.0,0.0,0.0,0.0,0.0,0.0,12.404151,0.0,0.0,nan,0.0,0.0,0.2504274,0.0030134046,0.0032225403,0.0030859879,0.0,0.0,2.1629493,0.096957855,0.0,0.0
306797795,306698690,0.10181215,0.14061381,0.22018135,1.0283383,1.0276395,0.0,0.0,0.0,0.0,0.0,0.0,0.0,0.0,12.4061165,0.0,0.0,nan,0.0,0.0,0.2504274,0.0028104694,0.0028211826,0.002740807,0.0,0.0,2.1629493,0.098719865,0.0,0.0
307302181,307202464,0.11623493,0.1477142,0.23592949,1.0316514,1.0314852,0.0,0.0,0.0,0.0,0.0,0.0,0.0,0.0,12.403893,0.0,0.0,nan,0.0,0.0,0.2504274,0.0028137905,0.0026702865,0.0026448786,0.0,0.0,2.1629493,0.09641634,0.0,0.0
307795458,307696360,0.12706226,0.12308374,0.24196982,1.0351372,1.0354345,0.0,0.0,0.0,0.0,0.0,0.0,0.0,0.0,12.405712,0.0,0.0,nan,0.0,0.0,0.2504274,0.0028786324,0.002650455,0.0026328976,0.0,0.0,2.1629493,0.09278493,0.0,0.0
308299353,308200133,0.1285933,0.105819665,0.24496636,1.0487638,1.0494838,0.0,0.0,0.0,0.0,0.0,0.0,0.0,0.0,12.409095,0.0,0.0,nan,0.0,0.0,0.2504274,0.0031094642,0.002682353,0.0026825666,0.0,0.0,2.1629493,0.09204289,0.0,0.0
308793159,308694028,0.12429166,0.103732675,0.24420102,1.0524652,1.0533012,0.0,0.0,0.0,0.0,0.0,0.0,0.0,0.0,12.407862,0.0,0.0,nan,0.0,0.0,0.2504274,0.003283471,0.0027510636,0.002768333,0.0,0.0,2.1629493,0.09124119,0.0,0.0
309297287,309197801,0.112303875,0.106222935,0.23715188,1.0605062,1.0613478,0.0,0.0,0.0,0.0,0.0,0.0,0.0,0.0,12.40501,0.0,0.0,nan,0.0,0.0,0.2504274,0.0034068474,0.0029701518,0.002957548,0.0,0.0,2.1629493,0.09088444,0.0,0.0
309800769,309701574,0.10527464,0.10856459,0.2305959,1.0564258,1.0571678,0.0,0.0,0.0,0.0,0.0,0.0,0.0,0.0,12.408083,0.0,0.0,nan,0.0,0.0,0.2504274,0.0034208584,0.0034017758,0.0030715773,0.0,0.0,2.1629493,0.09090623,0.0,0.0
310294705,310195469,0.10077345,0.11031405,0.22187392,1.0525595,1.053156,0.0,0.0,0.0,0.0,0.0,0.0,0.0,0.0,12.405347,0.0,0.0,nan,0.0,0.0,0.2504274,0.003426025,0.0038998262,0.0030479815,0.0,0.0,2.1629493,0.09083711,0.0,0.0
310798353,310699242,0.10181723,0.11113426,0.21781881,1.0466707,1.0472353,0.0,0.0,0.0,0.0,0.0,0.0,0.0,0.0,12.40784,0.0,0.0,nan,0.0,0.0,0.2504274,0.0033885804,0.0041199895,0.0030770134,0.0,0.0,2.1629493,0.09075854,0.0,0.0
311292513,311193136,0.105922036,0.111319095,0.21473165,1.0367088,1.0372945,0.0,0.0,0.0,0.0,0.0,0.0,0.0,0.0,12.4052105,0.0,0.0,nan,0.0,0.0,0.2504274,0.003363391,0.004016811,0.0030824288,0.0,0.0,2.1629493,0.0907969,0.0,0.0
311796009,311696909,0.106998965,0.11003086,0.21402116,1.0325327,1.0330892,0.0,0.0,0.0,0.0,0.0,0.0,0.0,0.0,12.405932,0.0,0.0,nan,0.0,0.0,0.2504274,0.0033350927,0.003967745,0.0031090723,0.0,0.0,2.1629493,0.09070631,0.0,0.0
312299917,312200681,0.10546272,0.107247025,0.21369517,1.0266454,1.0271523,0.0,0.0,0.0,0.0,0.0,0.0,0.0,0.0,12.406627,0.0,0.0,nan,0.0,0.0,0.2504274,0.0033138345,0.0037770323,0.003088267,0.0,0.0,2.1629493,0.09061725,0.0,0.0
312793710,312694575,0.10486042,0.10628253,0.21372359,1.0227773,1.0232383,0.0,0.0,0.0,0.0,0.0,0.0,0.0,0.0,12.405113,0.0,0.0,nan,0.0,0.0,0.2504274,0.0032726396,0.0035828906,0.003104486,0.0,0.0,2.1629493,0.09064519,0.0,0.0
313297655,313198346,0.102673866,0.104302846,0.21375887,1.0166463,1.0170405,0.0,0.0,0.0,0.0,0.0,0.0,0.0,0.0,12.40275,0.0,0.0,nan,0.0,0.0,0.2504274,0.0032518725,0.003498777,0.0030748933,0.0,0.0,2.1629493,0.09067915,0.0,0.0
313801223,313702118,0.10191897,0.10343456,0.21385708,1.0147634,1.0151545,0.0,0.0,0.0,0.0,0.0,0.0,0.0,0.0,12.403812,0.0,0.0,nan,0.0,0.0,0.2504274,0.003227332,0.0034942706,0.0031001912,0.0,0.0,2.1629493,0.0906524,0.0,0.0
314295183,314196012,0.10133455,0.10256766,0.21389033,1.0127854,1.0131791,0.0,0.0,0.0,0.0,0.0,0.0,0.0,0.0,12.405524,0.0,0.0,nan,0.0,0.0,0.2504274,0.003233997,0.0033208206,0.0030497168,0.0,0.0,2.1629493,0.09065692,0.0,0.0
314798882,314699783,0.1010142,0.1019979,0.21392474,1.012558,1.0129465,0.0,0.0,0.0,0.0,0.0,0.0,0.0,0.0,12.404057,0.0,0.0,nan,0.0,0.0,0.2504274,0.0032362966,0.0033446178,0.0030725447,0.0,0.0,2.1629493,0.090661585,0.0,0.0
315292882,315193677,0.10077942,0.101442225,0.21394902,1.0122387,1.0126195,0.0,0.0,0.0,0.0,0.0,0.0,0.0,0.0,12.402546,0.0,0.0,nan,0.0,0.0,0.2504274,0.0032630665,0.0033533734,0.0030593853,0.0,0.0,2.1629493,0.09063061,0.0,0.0
315796553,315697448,0.10075066,0.10110797,0.21402244,1.0123457,1.0127337,0.0,0.0,0.0,0.0,0.0,0.0,0.0,0.0,12.403846,0.0,0.0,nan,0.0,0.0,0.2504274,0.003277969,0.0033815596,0.0030748348,0.0,0.0,2.1629493,0.09064127,0.0,0.0
316300378,316201219,0.10090727,0.10088504,0.21402518,1.0104142,1.0107895,0.0,0.0,0.0,0.0,0.0,0.0,0.0,0.0,12.405217,0.0,0.0,nan,0.0,0.0,0.2504274,0.0032728005,0.003361772,0.003058037,0.0,0.0,2.1629493,0.090692945,0.0,0.0
316794253,316695112,0.10094937,0.1009005,0.21405134,1.0121741,1.0125197,0.0,0.0,0.0,0.0,0.0,0.0,0.0,0.0,12.404381,0.0,0.0,nan,0.0,0.0,0.0904145,0.0032616025,0.0034333419,0.0030848,0.0,0.0,2.1629493,0.09072021,0.0,0.0
317297976,317198883,0.101056464,0.10081024,0.2140948,1.0122529,1.012541,0.0,0.0,0.0,0.0,0.0,0.0,0.0,0.0,12.402886,0.0,0.0,nan,0.0,0.0,0.090444334,0.0032616025,0.0034333419,0.0030848,0.0,0.0,2.1629493,0.09070033,0.0,0.0
317801773,317702653,0.10113627,0.10068378,0.21410942,1.0121273,1.0123802,0.0,0.0,0.0,0.0,0.0,0.0,0.0,0.0,12.404771,0.0,0.0,nan,0.0,0.0,0.09046693,0.0032616025,0.0034333419,0.0030848,0.0,0.0,2.1629493,0.0907339,0.0,0.0
318295667,318196546,0.10240162,0.100549586,0.2140904,1.0141976,1.0144005,0.0,0.0,0.0,0.0,0.0,0.0,0.0,0.0,12.4026985,0.0,0.0,nan,0.0,0.0,0.0904889,0.0032195032,0.0039576343,0.0042653363,0.0,0.0,2.1629493,0.09069295,0.0,0.0
318789620,318690439,0.1061147,0.100706056,0.2139696,1.0140245,1.0141855,0.0,0.0,0.0,0.0,0.0,0.0,0.0,0.0,12.403978,0.0,0.0,nan,0.0,0.0,0.0904889,0.0032738475,0.003931155,0.004236577,0.0,0.0,2.1629493,0.090564676,0.0,0.0
319293310,319194209,0.108854614,0.101085804,0.21419019,1.0141997,1.0142227,0.0,0.0,0.0,0.0,0.0,0.0,0.0,0.0,12.402924,0.0,0.0,nan,0.0,0.0,0.0904889,0.0032550935,0.0037222889,0.0044599306,0.0,0.0,2.1629493,0.09056174,0.0,0.0
319797072,319697980,0.105840355,0.10110042,0.21417332,1.0105554,1.0104392,0.0,0.0,0.0,0.0,0.0,0.0,0.0,0.0,12.404846,0.0,0.0,nan,0.0,0.0,0.0904889,0.0032338705,0.0037741144,0.0044245864,0.0,0.0,2.1629493,0.09052534,0.0,0.0
320300901,320201750,0.100531965,0.100661285,0.21379441,1.0030143,1.0026687,0.0,0.0,0.0,0.0,0.0,0.0,0.0,0.0,12.402749,0.0,0.0,nan,0.0,0.0,0.0904889,0.0032755868,0.0042054295,0.003952431,0.0,0.0,2.1629493,0.090362236,0.0,0.0
320794777,320695642,0.1056475,0.100778446,0.21357965,0.99724346,0.99689925,0.0,0.0,0.0,0.0,0.0,0.0,0.0,0.0,12.403929,0.0,0.0,nan,0.0,0.0,0.0904889,0.0027790964,0.002884844,0.0028742813,0.0,0.0,2.1629493,0.09032804,0.0,0.0
321298548,321199412,0.11363565,0.102011666,0.21385475,0.99656355,0.9965018,0.0,0.0,0.0,0.0,0.0,0.0,0.0,0.0,12.402871,0.0,0.0,nan,0.0,0.0,0.0904889,0.0026405836,0.0027139713,0.0027244869,0.0,0.0,2.1629493,0.09045916,0.0,0.0
321792400,321693304,0.11059146,0.102423675,0.21398997,1.0001769,1.000163,0.0,0.0,0.0,0.0,0.0,0.0,0.0,0.0,12.40405,0.0,0.0,nan,0.0,0.0,0.0904889,0.0026032028,0.0027273092,0.00267655,0.0,0.0,2.1629493,0.09048325,0.0,0.0
322296251,322197074,0.1044018,0.10161597,0.21387373,1.0101467,1.0100583,0.0,0.0,0.0,0.0,0.0,0.0,0.0,0.0,12.4025135,0.0,0.0,nan,0.0,0.0,0.0904889,0.002584941,0.0026801496,0.0026268815,0.0,0.0,2.1629493,0.0903879,0.0,0.0
322790198,322690966,0.1019453,0.10121481,0.21376772,1.0140935,1.0139475,0.0,0.0,0.0,0.0,0.0,0.0,0.0,0.0,12.40431,0.0,0.0,nan,0.0,0.0,0.0904889,0.0025777123,0.0026317113,0.002592388,0.0,0.0,2.1629493,0.09031347,0.0,0.0
323293863,323194736,0.10149391,0.10205756,0.21376593,1.0162702,1.0160832,0.0,0.0,0.0,0.0,0.0,0.0,0.0,0.0,12.402691,0.0,0.0,nan,0.0,0.0,0.0904889,0.0025698047,0.0025958244,0.0025726794,0.0,0.0,2.1629493,0.09030189,0.0,0.0
323797666,323698506,0.10186051,0.10213148,0.21382236,1.0144938,1.0143428,0.0,0.0,0.0,0.0,0.0,0.0,0.0,0.0,12.404546,0.0,0.0,nan,0.0,0.0,0.0904889,0.00256179,0.0025648482,0.0025586379,0.0,0.0,2.1629493,0.09033292,0.0,0.0
324301515,324202275,0.101627976,0.101254284,0.21386972,1.016241,1.0161651,0.0,0.0,0.0,0.0,0.0,0.0,0.0,0.0,12.402465,0.0,0.0,nan,0.0,0.0,0.0904889,0.002551252,0.0025536153,0.0025505598,0.0,0.0,2.1629493,0.090359434,0.0,0.0
324795261,324696167,0.10138495,0.10096307,0.2139369,1.0163188,1.0162873,0.0,0.0,0.0,0.0,0.0,0.0,0.0,0.0,12.40426,0.0,0.0,nan,0.0,0.0,0.0904889,0.0025464098,0.0025486422,0.0025452452,0.0,0.0,2.1629493,0.09037913,0.0,0.0
325289155,325190058,0.1012886,0.10075981,0.2140046,1.0164107,1.016412,0.0,0.0,0.0,0.0,0.0,0.0,0.0,0.0,12.40222,0.0,0.0,nan,0.0,0.0,0.0904889,0.0025424955,0.0025458161,0.002540495,0.0,0.0,2.1629493,0.0903971,0.0,0.0
325792927,325693828,0.10058746,0.100133575,0.21393648,1.0140916,1.0141009,0.0,0.0,0.0,0.0,0.0,0.0,0.0,0.0,12.40358,0.0,0.0,nan,0.0,0.0,0.0904889,0.0025375143,0.002541275,0.0025372815,0.0,0.0,2.1629493,0.09042994,0.0,0.0
326296744,326197597,0.10002379,0.0999147,0.21403049,1.012458,1.0124662,0.0,0.0,0.0,0.0,0.0,0.0,0.0,0.0,12.403241,0.0,0.0,nan,0.0,0.0,0.0904889,0.0025337816,0.002538036,0.0025339085,0.0,0.0,2.1629493,0.09045711,0.0,0.0
326790868,326691488,0.09996797,0.09998979,0.2140903,1.0144373,1.014442,0.0,0.0,0.0,0.0,0.0,0.0,0.0,0.0,12.404602,0.0,0.0,nan,0.0,0.0,0.0904889,0.0025308847,0.0025355085,0.0025313024,0.0,0.0,2.1629493,0.09047225,0.0,0.0
327294420,327195258,0.100171,0.100256,0.21413904,1.01445,1.0144552,0.0,0.0,0.0,0.0,0.0,0.0,0.0,0.0,12.4025545,0.0,0.0,nan,0.0,0.0,0.0904889,0.002528659,0.0025333688,0.0025295075,0.0,0.0,2.1629493,0.0904802,0.0,0.0
327798167,327699027,0.10000592,0.10007859,0.21409783,1.0123405,1.0123504,0.0,0.0,0.0,0.0,0.0,0.0,0.0,0.0,12.404448,0.0,0.0,nan,0.0,0.0,0.090323195,0.0025273936,0.002532347,0.0025281578,0.0,0.0,2.1629493,0.09048218,0.0,0.0
328292011,328192918,0.100154705,0.10018454,0.21410765,1.0118486,1.0118666,0.0,0.0,0.0,0.0,0.0,0.0,0.0,0.0,12.402844,0.0,0.0,nan,0.0,0.0,0.09033271,0.0025273936,0.002532347,0.0025281578,0.0,0.0,2.1629493,0.09047828,0.0,0.0
328795832,328696687,0.1005393,0.100554936,0.2141449,1.0102532,1.0102712,0.0,0.0,0.0,0.0,0.0,0.0,0.0,0.0,12.405369,0.0,0.0,nan,0.0,0.0,0.0903429,0.0025273936,0.002532347,0.0025281578,0.0,0.0,2.1629493,0.09046707,0.0,0.0
329289756,329190578,0.1007853,0.10079382,0.2141659,1.0083662,1.0083861,0.0,0.0,0.0,0.0,0.0,0.0,0.0,0.0,12.403742,0.0,0.0,nan,0.0,0.0,0.09035339,0.0025273936,0.002532347,0.0025281578,0.0,0.0,2.1629493,0.09046967,0.0,0.0
329793887,329694347,0.1005512,0.10055013,0.21416453,1.0063018,1.0063199,0.0,0.0,0.0,0.0,0.0,0.0,0.0,0.0,12.405579,0.0,0.0,nan,0.0,0.0,0.090361334,0.0025273936,0.002532347,0.0025281578,0.0,0.0,2.1629493,0.090491615,0.0,0.0
330297225,330198116,0.100553475,0.10055638,0.21417293,1.0024375,1.0024531,0.0,0.0,0.0,0.0,0.0,0.0,0.0,0.0,12.403371,0.0,0.0,nan,0.0,0.0,0.09037216,0.0025273936,0.002532347,0.0025281578,0.0,0.0,2.1629493,0.09050387,0.0,0.0
330791204,330692007,0.100481965,0.10050142,0.21410266,1.0022002,1.0022146,0.0,0.0,0.0,0.0,0.0,0.0,0.0,0.0,12.40465,0.0,0.0,nan,0.0,0.0,0.090380445,0.0025273936,0.002532347,0.0025281578,0.0,0.0,2.1629493,0.09051823,0.0,0.0
331294901,331195776,0.10032596,0.10034289,0.21416777,1.0006062,1.0006188,0.0,0.0,0.0,0.0,0.0,0.0,0.0,0.0,12.403717,0.0,0.0,nan,0.0,0.0,0.09038881,0.0025273936,0.002532347,0.0025281578,0.0,0.0,2.1629493,0.09053662,0.0,0.0
331798996,331699545,0.100131765,0.10013619,0.21417002,1.0004231,1.000434,0.0,0.0,0.0,0.0,0.0,0.0,0.0,0.0,12.405565,0.0,0.0,nan,0.0,0.0,0.09039542,0.0025273936,0.002532347,0.0025281578,0.0,0.0,2.1629493,0.090549946,0.0,0.0
332292533,332193435,0.10021395,0.10018782,0.21419248,0.9984941,0.99850357,0.0,0.0,0.0,0.0,0.0,0.0,0.0,0.0,12.402897,0.0,0.0,nan,0.0,0.0,0.09040088,0.0025273936,0.002532347,0.0025281578,0.0,0.0,2.1629493,0.090558246,0.0,0.0
332796404,332697204,0.09994683,0.099949166,0.21412992,0.99633986,0.9963473,0.0,0.0,0.0,0.0,0.0,0.0,0.0,0.0,12.4042225,0.0,0.0,nan,0.0,0.0,0.09040602,0.0025273936,0.002532347,0.0025281578,0.0,0.0,2.1629493,0.09056553,0.0,0.0
333290266,333191095,0.10004053,0.10001057,0.21414119,0.99630195,0.99630845,0.0,0.0,0.0,0.0,0.0,0.0,0.0,0.0,12.403307,0.0,0.0,nan,0.0,0.0,0.09041125,0.0025273936,0.002532347,0.0025281578,0.0,0.0,2.1629493,0.09056091,0.0,0.0
333794422,333694863,0.10015956,0.10014147,0.21414644,0.9942255,0.99422956,0.0,0.0,0.0,0.0,0.0,0.0,0.0,0.0,12.405197,0.0,0.0,nan,0.0,0.0,0.09041636,0.0025273936,0.002532347,0.0025281578,0.0,0.0,2.1629493,0.090556175,0.0,0.0
334297824,334198632,0.10025588,0.10024974,0.21416035,0.9923076,0.9923103,0.0,0.0,0.0,0.0,0.0,0.0,0.0,0.0,12.403089,0.0,0.0,nan,0.0,0.0,0.09042263,0.0025273936,0.002532347,0.0025281578,0.0,0.0,2.1629493,0.09054768,0.0,0.0
334791780,334692524,0.100129455,0.10018965,0.21409763,0.992127,0.99212813,0.0,0.0,0.0,0.0,0.0,0.0,0.0,0.0,12.4044285,0.0,0.0,nan,0.0,0.0,0.09043052,0.0025273936,0.002532347,0.0025281578,0.0,0.0,2.1629493,0.09053418,0.0,0.0
335295484,335196291,0.1002926,0.10058327,0.21411735,0.99215406,0.9921509,0.0,0.0,0.0,0.0,0.0,0.0,0.0,0.0,12.403541,0.0,0.0,nan,0.0,0.0,0.25043917,0.0025273936,0.002532347,0.0025281578,0.0,0.0,2.1629493,0.09052189,0.0,0.0
335789559,335690183,0.10053799,0.101064876,0.21417093,0.9903283,0.9903235,0.0,0.0,0.0,0.0,0.0,0.0,0.0,0.0,12.4049,0.0,0.0,nan,0.0,0.0,0.25044832,0.0025273936,0.002532347,0.0025281578,0.0,0.0,2.1629493,0.09050374,0.0,0.0
336293038,336193951,0.101417154,0.102254644,0.21420775,0.98848426,0.98848635,0.0,0.0,0.0,0.0,0.0,0.0,0.0,0.0,12.4028225,0.0,0.0,nan,0.0,0.0,0.25045088,0.0025273936,0.002532347,0.0025281578,0.0,0.0,2.1629493,0.09047728,0.0,0.0
336796903,336697718,0.100860365,0.1015185,0.21413572,0.9863857,0.98639804,0.0,0.0,0.0,0.0,0.0,0.0,0.0,0.0,12.404676,0.0,0.0,nan,0.0,0.0,0.25045115,0.0025273936,0.002532347,0.0025281578,0.0,0.0,2.1629493,0.09048734,0.0,0.0
337290761,337191608,0.10144582,0.100958,0.21407697,0.98232514,0.9823582,0.0,0.0,0.0,0.0,0.0,0.0,0.0,0.0,12.4032755,0.0,0.0,nan,0.0,0.0,0.25045204,0.0027396563,0.0027230077,0.0029129062,0.0,0.0,2.1629493,0.09045713,0.0,0.0
337794572,337695376,0.103378296,0.100703955,0.214102,0.9766824,0.97672665,0.0,0.0,0.0,0.0,0.0,0.0,0.0,0.0,12.404615,0.0,0.0,nan,0.0,0.0,0.25045204,0.0027377154,0.0027327216,0.0029033376,0.0,0.0,2.1629493,0.09042426,0.0,0.0
338298256,338199146,0.10863519,0.10184843,0.21424015,0.9728214,0.9728323,0.0,0.0,0.0,0.0,0.0,0.0,0.0,0.0,12.403024,0.0,0.0,nan,0.0,0.0,0.25045204,0.0027323316,0.002725253,0.0029057048,0.0,0.0,2.1629493,0.090416834,0.0,0.0
338792134,338693034,0.10783459,0.101951346,0.2142611,0.97244054,0.97238183,0.0,0.0,0.0,0.0,0.0,0.0,0.0,0.0,12.404837,0.0,0.0,nan,0.0,0.0,0.25045204,0.0027271495,0.0027243285,0.0029047185,0.0,0.0,2.1629493,0.0903853,0.0,0.0
339295915,339196802,0.1067507,0.10311795,0.2143842,0.97864956,0.978441,0.0,0.0,0.0,0.0,0.0,0.0,0.0,0.0,12.4061775,0.0,0.0,nan,0.0,0.0,0.25045204,0.0027143243,0.0027309854,0.0029015976,0.0,0.0,2.1629493,0.090360835,0.0,0.0
339799834,339700570,0.10554463,0.10440312,0.2145659,0.98271644,0.9824338,0.0,0.0,0.0,0.0,0.0,0.0,0.0,0.0,12.40522,0.0,0.0,nan,0.0,0.0,0.25045204,0.002703516,0.002735756,0.0029037164,0.0,0.0,2.1629493,0.09038472,0.0,0.0
340293572,340194460,0.10339528,0.106265225,0.21483831,0.99253196,0.9922209,0.0,0.0,0.0,0.0,0.0,0.0,0.0,0.0,12.403105,0.0,0.0,nan,0.0,0.0,0.25045204,0.0026959362,0.002737962,0.0029054913,0.0,0.0,2.1629493,0.090405256,0.0,0.0
340797324,340698228,0.10231857,0.10655907,0.21499191,1.00245,1.0021983,0.0,0.0,0.0,0.0,0.0,0.0,0.0,0.0,12.405024,0.0,0.0,nan,0.0,0.0,0.25045204,0.002687006,0.0027407866,0.002907067,0.0,0.0,2.1629493,0.09043449,0.0,0.0
341291219,341192118,0.10079914,0.10464926,0.21498674,1.0118401,1.0117381,0.0,0.0,0.0,0.0,0.0,0.0,0.0,0.0,12.402912,0.0,0.0,nan,0.0,0.0,0.25045204,0.002684256,0.0027445029,0.0029047613,0.0,0.0,2.1629493,0.0904484,0.0,0.0
341795086,341695886,0.100614175,0.10454645,0.21510628,1.0159708,1.0159897,0.0,0.0,0.0,0.0,0.0,0.0,0.0,0.0,12.405583,0.0,0.0,nan,0.0,0.0,0.25045204,0.002682216,0.0027475064,0.0029019937,0.0,0.0,2.1629493,0.09047056,0.0,0.0
342298751,342199653,0.10122724,0.10498716,0.21559587,1.0121891,1.0124143,0.0,0.0,0.0,0.0,0.0,0.0,0.0,0.0,12.403461,0.0,0.0,nan,0.0,0.0,0.25045204,0.0026845818,0.0027401347,0.002904588,0.0,0.0,2.1629493,0.090541005,0.0,0.0
342792705,342693543,0.10161584,0.10400964,0.2157081,1.0041937,1.004544,0.0,0.0,0.0,0.0,0.0,0.0,0.0,0.0,12.404957,0.0,0.0,nan,0.0,0.0,0.25045204,0.0026873879,0.002735041,0.00290582,0.0,0.0,2.1629493,0.090559155,0.0,0.0
343296430,343197311,0.10155393,0.10229214,0.21560991,0.9866692,0.98718005,0.0,0.0,0.0,0.0,0.0,0.0,0.0,0.0,12.403366,0.0,0.0,nan,0.0,0.0,0.25045204,0.0026917243,0.0027329845,0.0029022654,0.0,0.0,2.1629493,0.09054865,0.0,0.0
343800202,343701078,0.101727895,0.10178178,0.21560585,0.9731502,0.97370255,0.0,0.0,0.0,0.0,0.0,0.0,0.0,0.0,12.405622,0.0,0.0,nan,0.0,0.0,0.25045204,0.0026998941,0.002731976,0.002894944,0.0,0.0,2.1629493,0.09050374,0.0,0.0
344294063,344194968,0.10248116,0.10158774,0.2158156,0.953847,0.9543902,0.0,0.0,0.0,0.0,0.0,0.0,0.0,0.0,12.403981,0.0,0.0,nan,0.0,0.0,0.25045204,0.0027103052,0.0027213367,0.0028950474,0.0,0.0,2.1629493,0.09048645,0.0,0.0
344797827,344698735,0.102665015,0.101344794,0.21585946,0.94022304,0.9407186,0.0,0.0,0.0,0.0,0.0,0.0,0.0,0.0,12.406034,0.0,0.0,nan,0.0,0.0,0.25045204,0.0027208473,0.0027107927,0.0028936283,0.0,0.0,2.1629493,0.09044905,0.0,0.0
345291757,345192625,0.102830805,0.10126487,0.21588694,0.9267124,0.9271,0.0,0.0,0.0,0.0,0.0,0.0,0.0,0.0,12.40377,0.0,0.0,nan,0.0,0.0,0.25045204,0.0027280233,0.0027015398,0.0028949045,0.0,0.0,2.1629493,0.09040967,0.0,0.0
345795520,345696392,0.102684766,0.10124489,0.21578579,0.9188521,0.9191502,0.0,0.0,0.0,0.0,0.0,0.0,0.0,0.0,12.406025,0.0,0.0,nan,0.0,0.0,0.25045204,0.0027351426,0.0026954303,0.0028921922,0.0,0.0,2.1629493,0.0903769,0.0,0.0
346289405,346190282,0.10239994,0.10127408,0.21574454,0.9111575,0.9113181,0.0,0.0,0.0,0.0,0.0,0.0,0.0,0.0,12.404312,0.0,0.0,nan,0.0,0.0,0.25045204,0.002741868,0.0026918566,0.002888336,0.0,0.0,2.1629493,0.09034384,0.0,0.0
346793184,346694049,0.10281175,0.10173071,0.21586932,0.9071098,0.9071961,0.0,0.0,0.0,0.0,0.0,0.0,0.0,0.0,12.405806,0.0,0.0,nan,0.0,0.0,0.25045204,0.002745491,0.0026856007,0.002889019,0.0,0.0,2.1629493,0.090304725,0.0,0.0
347296932,347197816,0.10265318,0.102173336,0.21582808,0.90168136,0.9016433,0.0,0.0,0.0,0.0,0.0,0.0,0.0,0.0,12.407346,0.0,0.0,nan,0.0,0.0,0.25045204,0.0027466882,0.0026752714,0.0028957871,0.0,0.0,2.1629493,0.090290286,0.0,0.0
347790863,347691705,0.10172238,0.10175272,0.21554598,0.9011518,0.9010624,0.0,0.0,0.0,0.0,0.0,0.0,0.0,0.0,12.404991,0.0,0.0,nan,0.0,0.0,0.25045204,0.0027465397,0.0026794386,0.0028908034,0.0,0.0,2.1629493,0.09027392,0.0,0.0
348294644,348195472,0.101467125,0.10179936,0.21548934,0.89738935,0.8972577,0.0,0.0,0.0,0.0,0.0,0.0,0.0,0.0,12.407576,0.0,0.0,nan,0.0,0.0,0.25045204,0.0027437506,0.002681182,0.002890154,0.0,0.0,2.1629493,0.09025723,0.0,0.0
348798331,348699239,0.101230726,0.1016835,0.21545483,0.8955758,0.8954283,0.0,0.0,0.0,0.0,0.0,0.0,0.0,0.0,12.406427,0.0,0.0,nan,0.0,0.0,0.25045204,0.002738215,0.0026865823,0.0028896404,0.0,0.0,2.1629493,0.09025144,0.0,0.0
349292256,349193128,0.10119372,0.101763576,0.21543902,0.89157945,0.89143336,0.0,0.0,0.0,0.0,0.0,0.0,0.0,0.0,12.404087,0.0,0.0,nan,0.0,0.0,0.25045204,0.002730374,0.002691208,0.0028920106,0.0,0.0,2.1629493,0.090251215,0.0,0.0
349795985,349696895,0.101139694,0.10176622,0.21546769,0.889808,0.88966614,0.0,0.0,0.0,0.0,0.0,0.0,0.0,0.0,12.405988,0.0,0.0,nan,0.0,0.0,0.25045204,0.0027210629,0.0026936093,0.002897077,0.0,0.0,2.1629493,0.09025159,0.0,0.0
350289875,350190784,0.100615464,0.10118462,0.21530119,0.8894945,0.8893718,0.0,0.0,0.0,0.0,0.0,0.0,0.0,0.0,12.404192,0.0,0.0,nan,0.0,0.0,0.25045204,0.0027120968,0.002701744,0.0028970677,0.0,0.0,2.1629493,0.09026213,0.0,0.0
350793677,350694550,0.10058267,0.101247415,0.21529292,0.8876753,0.8875686,0.0,0.0,0.0,0.0,0.0,0.0,0.0,0.0,12.406286,0.0,0.0,nan,0.0,0.0,0.25045204,0.002701383,0.0027084854,0.0028996137,0.0,0.0,2.1629493,0.090269834,0.0,0.0
351297447,351198317,0.100318305,0.10100203,0.21526228,0.8839623,0.8838918,0.0,0.0,0.0,0.0,0.0,0.0,0.0,0.0,12.40451,0.0,0.0,nan,0.0,0.0,0.25045204,0.0026896545,0.0027202212,0.002898265,0.0,0.0,2.1629493,0.09028059,0.0,0.0
351791302,351692206,0.100259095,0.10111364,0.21527702,0.8798249,0.87977624,0.0,0.0,0.0,0.0,0.0,0.0,0.0,0.0,12.405408,0.0,0.0,nan,0.0,0.0,0.25045204,0.0026800476,0.00272703,0.0029003238,0.0,0.0,2.1629493,0.090298586,0.0,0.0
352295115,352195972,0.10027035,0.10124546,0.21534367,0.87247205,0.87247944,0.0,0.0,0.0,0.0,0.0,0.0,0.0,0.0,12.403729,0.0,0.0,nan,0.0,0.0,0.25045204,0.0026695768,0.0027337295,0.0029026268,0.0,0.0,2.1629493,0.09030466,0.0,0.0
352798835,352699739,0.100433856,0.10147055,0.21541835,0.8690762,0.8691302,0.0,0.0,0.0,0.0,0.0,0.0,0.0,0.0,12.405901,0.0,0.0,nan,0.0,0.0,0.25045204,0.00266053,0.0027406213,0.0029041371,0.0,0.0,2.1629493,0.09030873,0.0,0.0
353292829,353193627,0.100498915,0.101585865,0.21547936,0.8617118,0.8618322,0.0,0.0,0.0,0.0,0.0,0.0,0.0,0.0,12.40773,0.0,0.0,nan,0.0,0.0,0.25045204,0.0026548207,0.0027463424,0.0029033425,0.0,0.0,2.1629493,0.09031008,0.0,0.0
353796512,353697393,0.10041653,0.10144375,0.21543097,0.8593838,0.85954094,0.0,0.0,0.0,0.0,0.0,0.0,0.0,0.0,12.406612,0.0,0.0,nan,0.0,0.0,0.25045204,0.0026510719,0.0027480903,0.0029037988,0.0,0.0,2.1629493,0.09031388,0.0,0.0
354290705,354191282,0.100561604,0.10147368,0.21543892,0.8572682,0.85749,0.0,0.0,0.0,0.0,0.0,0.0,0.0,0.0,12.404307,0.0,0.0,nan,0.0,0.0,0.25045204,0.0026502674,0.0027467823,0.0029051406,0.0,0.0,2.1629493,0.0903212,0.0,0.0
354794143,354695048,0.10078572,0.10160399,0.21552661,0.857293,0.85755515,0.0,0.0,0.0,0.0,0.0,0.0,0.0,0.0,12.405702,0.0,0.0,nan,0.0,0.0,0.25045204,0.002652226,0.0027444027,0.0029041448,0.0,0.0,2.1629493,0.090319365,0.0,0.0
355298025,355198814,0.10099908,0.101542406,0.21557117,0.8591223,0.8594368,0.0,0.0,0.0,0.0,0.0,0.0,0.0,0.0,12.403964,0.0,0.0,nan,0.0,0.0,0.25045204,0.0026569262,0.0027406737,0.0029019155,0.0,0.0,2.1629493,0.09031356,0.0,0.0
355791797,355692703,0.10132305,0.10165919,0.21561141,0.86283934,0.86317486,0.0,0.0,0.0,0.0,0.0,0.0,0.0,0.0,12.406125,0.0,0.0,nan,0.0,0.0,0.25045204,0.0026633611,0.0027354164,0.0029002274,0.0,0.0,2.1629493,0.09031034,0.0,0.0
356295991,356196468,0.10123634,0.101279214,0.21555176,0.8681005,0.86843926,0.0,0.0,0.0,0.0,0.0,0.0,0.0,0.0,12.40387,0.0,0.0,nan,0.0,0.0,0.25045204,0.0026719999,0.002731004,0.0028951203,0.0,0.0,2.1629493,0.09030239,0.0,0.0
356789511,356690356,0.10151349,0.101322666,0.21568635,0.8737175,0.8740464,0.0,0.0,0.0,0.0,0.0,0.0,0.0,0.0,12.406389,0.0,0.0,nan,0.0,0.0,0.25045204,0.0026847015,0.002721788,0.002891636,0.0,0.0,2.1629493,0.0902817,0.0,0.0
357293321,357194122,0.10172591,0.10113121,0.2157228,0.87368345,0.8739807,0.0,0.0,0.0,0.0,0.0,0.0,0.0,0.0,12.4046,0.0,0.0,nan,0.0,0.0,0.25045204,0.0026946347,0.002714953,0.0028883687,0.0,0.0,2.1629493,0.09027685,0.0,0.0
357797056,357697888,0.10186385,0.10099667,0.21572667,0.873894,0.87415814,0.0,0.0,0.0,0.0,0.0,0.0,0.0,0.0,12.406784,0.0,0.0,nan,0.0,0.0,0.25045204,0.0027110418,0.0027036194,0.0028828972,0.0,0.0,2.1629493,0.090265036,0.0,0.0
358291177,358191776,0.102390386,0.100913055,0.2158606,0.8667991,0.8669843,0.0,0.0,0.0,0.0,0.0,0.0,0.0,0.0,12.404458,0.0,0.0,nan,0.0,0.0,0.25045204,0.0027258638,0.0026896498,0.002881804,0.0,0.0,2.1629493,0.09025454,0.0,0.0
358794658,358695541,0.10263533,0.10084346,0.215951,0.85433495,0.8544443,0.0,0.0,0.0,0.0,0.0,0.0,0.0,0.0,12.4059305,0.0,0.0,nan,0.0,0.0,0.25045204,0.0027343873,0.0026819843,0.0028812566,0.0,0.0,2.1629493,0.090250865,0.0,0.0
359298537,359199307,0.10301754,0.100956276,0.21599035,0.8488726,0.84885406,0.0,0.0,0.0,0.0,0.0,0.0,0.0,0.0,12.407469,0.0,0.0,nan,0.0,0.0,0.25045204,0.0027410693,0.0026831105,0.0028736792,0.0,0.0,2.1629493,0.090243645,0.0,0.0
359792332,359693194,0.10328371,0.10106503,0.2160938,0.841556,0.8414475,0.0,0.0,0.0,0.0,0.0,0.0,0.0,0.0,12.406454,0.0,0.0,nan,0.0,0.0,0.25045204,0.0027424817,0.0026795226,0.0028764238,0.0,0.0,2.1629493,0.09024189,0.0,0.0
360296363,360196960,0.10230708,0.10089116,0.21596009,0.8361333,0.83585817,0.0,0.0,0.0,0.0,0.0,0.0,0.0,0.0,12.404142,0.0,0.0,nan,0.0,0.0,0.25045204,0.0026737745,0.0026341355,0.0027332716,0.0,0.0,2.1629493,0.0902397,0.0,0.0
