timestamp,timestamp_sample,windspeed_north,windspeed_east,variance_north,variance_east,tas_innov,tas_innov_var,beta_innov,beta_innov_var
268797253,268697938,0.0022060468,-0.0012948056,0.9766739,0.99196434,0.0,0.0,-0.0044062915,0.09305919
268807043,268707816,0.0022060468,-0.0012948056,0.9766739,0.99196434,0.0,0.0,-0.0044062915,0.09305919
269794848,269695626,1.4696481,2.431158,0.6744633,0.31638536,0.08054924,2.3222165,-0.057936087,0.091716036
270792792,270693309,0.7918944,3.2440774,0.48934484,0.1283584,1.3363724,2.2755282,0.039639592,0.09192096
271800221,271700873,0.104164526,3.7961197,0.3884738,0.078695655,0.76488686,2.1803682,0.035350226,0.091649644
272797825,272698559,0.028155616,4.1011596,0.35106105,0.05982215,1.2448521,2.1598196,0.012563177,0.091492094
273795475,273696246,0.23194334,4.2942767,0.312962,0.050359223,0.47979546,2.152626,-0.0070348224,0.09134918
274793261,274693932,0.3891364,4.385551,0.28132138,0.044474903,0.018123627,2.144077,-0.003604588,0.09121376
275800760,275701496,0.5216414,4.438446,0.25426653,0.040316712,1.3232784,2.142545,-0.050008908,0.090797074
276798489,276699182,1.5169392,4.3729534,0.17806597,0.038951207,3.122508,2.251392,-0.0040567843,0.09021763
277796100,277696868,3.411711,3.8768237,0.10496431,0.034250684,4.397048,2.2009506,0.015707826,0.09009657
278793842,278694554,3.69538,3.7721498,0.09994059,0.033611625,9.690845,2.14205,-0.015136666,0.090114325
279791505,279692239,3.6972284,3.7707822,0.09923574,0.03366324,12.041663,2.1356916,0.035905786,0.090151265
280799204,280699802,3.6429636,3.7909791,0.09834728,0.033673026,10.489603,2.1326675,-0.07092907,0.09014264
281796793,281697487,3.578936,3.8117697,0.097492486,0.03371494,8.410223,2.1341689,-0.23538354,0.09018937
282794737,282695171,3.504923,3.8325667,0.09662132,0.03379058,7.1608667,2.144531,-0.31190577,0.09022966
283792489,283692855,3.407534,3.8522177,0.09561075,0.03388748,6.5048294,2.1455722,-0.32739905,0.09026401
284800092,284700417,3.283539,3.8631759,0.09437308,0.03399992,6.5048294,2.1455722,-0.357038,0.090279736
285797425,285698100,3.1738136,3.8674228,0.09331965,0.03411589,6.5048294,2.1455722,-0.37879688,0.090290576
286795476,286695782,3.0725589,3.8690608,0.09230994,0.034233365,6.5048294,2.1455722,-0.32724938,0.09027192
287792809,287693464,2.9674816,3.8705325,0.09118515,0.03435139,6.5048294,2.1455722,-0.34074655,0.09028116
288800723,288701023,2.8860433,3.8711553,0.09030978,0.03447108,6.5048294,2.1455722,-0.32282797,0.0902735
289798102,289698704,2.8075366,3.8712046,0.08948287,0.03458881,6.5048294,2.1455722,-0.30875143,0.09027222
290795837,290696384,2.7151697,3.87046,0.08854203,0.034704912,6.5048294,2.1455722,-0.34827965,0.0902933
291793369,291694063,2.6245074,3.8669364,0.0877538,0.03481626,6.5048294,2.1455722,-0.401912,0.09032821
292801236,292701620,2.5238326,3.859968,0.08696996,0.034923155,6.5048294,2.1455722,-0.3907229,0.090328984
293798740,293699298,2.42772,3.8511713,0.08617404,0.035025313,6.5048294,2.1455722,-0.3614099,0.09030983
294796233,294696976,2.350765,3.843357,0.085554846,0.035124425,6.5048294,2.1455722,-0.32605582,0.0902992
295793875,295694655,2.2763877,3.8360605,0.08494934,0.035219558,6.5048294,2.1455722,-0.37059712,0.09032337
296801608,296702207,2.184124,3.8266208,0.084244244,0.03531394,6.5048294,2.1455722,-0.355559,0.09032646
297799097,297699883,2.1101155,3.81882,0.083687805,0.03540677,6.5048294,2.1455722,-0.35994494,0.09033677
298796775,298697558,2.0374274,3.8106678,0.083154075,0.03549821,6.5048294,2.1455722,-0.3514279,0.09034536
299794467,299695232,1.9611202,3.8017445,0.08255887,0.03558967,6.5048294,2.1455722,-0.32977435,0.09035025
300792118,300692906,1.8891422,3.7933714,0.08205547,0.035683293,6.5048294,2.1455722,-0.38772509,0.09038845
301799676,301700457,1.8321077,3.7851808,0.08167188,0.035775658,6.5048294,2.1455722,-0.22079189,0.09024162
302797353,302698129,1.8666,3.7656808,0.08153169,0.035777517,6.5048294,2.1455722,-0.29196405,0.090264775
303795054,303695801,1.9237936,3.730398,0.08121612,0.035534352,6.5048294,2.1455722,-0.17846666,0.09036895
304792724,304693472,1.9755002,3.705316,0.080124795,0.035151556,6.5048294,2.1455722,-0.12620655,0.090509385
305800253,305701021,1.9921805,3.6979218,0.07839317,0.034738995,6.5048294,2.1455722,0.042212047,0.09050427
306798060,306698690,1.9676545,3.7002478,0.07745491,0.034748014,6.5048294,2.1455722,0.10161213,0.09027231
307795639,307696360,1.9551915,3.6999764,0.07717859,0.034842473,6.5048294,2.1455722,0.11178096,0.09012799
308793314,308694028,1.9562384,3.6946638,0.077237725,0.03487423,6.5048294,2.1455722,0.10649578,0.090101905
309800894,309701574,1.9634376,3.6883554,0.07726923,0.034815576,6.5048294,2.1455722,0.07706089,0.090168856
310798477,310699242,1.9753954,3.673188,0.07728107,0.034717616,6.5048294,2.1455722,0.17206505,0.09017477
311796279,311696909,1.9906723,3.6404164,0.07738627,0.034610473,6.5048294,2.1455722,0.22413103,0.090205975
312793867,312694575,1.999244,3.6045806,0.077566355,0.03455481,6.5048294,2.1455722,0.309331,0.09024055
313801350,313702118,2.0058146,3.5558105,0.07778735,0.034496985,6.5048294,2.1455722,0.3744757,0.09026553
314799008,314699783,2.0121932,3.4985895,0.07804111,0.034416534,6.5048294,2.1455722,0.35019037,0.09026188
315796684,315697448,2.0168967,3.4598134,0.078323156,0.03443007,6.5048294,2.1455722,0.27565014,0.090237975
316794407,316695112,2.0224853,3.4214153,0.07863043,0.034470044,6.5048294,2.1455722,0.3019855,0.09024632
317801894,317702653,2.0285902,3.3835943,0.07896061,0.034493275,6.5048294,2.1455722,0.27195308,0.0902505
318789743,318690439,2.0563765,3.3365583,0.07922082,0.034563847,6.5048294,2.1455722,0.29893363,0.09021775
319797195,319697980,2.0597665,3.3344824,0.07942245,0.034681525,6.5048294,2.1455722,-0.037485156,0.0902144
320794939,320695642,2.0598967,3.3223329,0.07976227,0.034885656,6.5048294,2.1455722,0.18881245,0.090172805
321792529,321693304,2.0264919,3.2831666,0.08006498,0.03509932,6.5048294,2.1455722,0.44329995,0.09031388
322790324,322690966,2.0018039,3.247424,0.08038632,0.03531637,6.5048294,2.1455722,0.2233648,0.09019329
323797855,323698506,1.9973811,3.2277966,0.080757864,0.03549967,6.5048294,2.1455722,0.15780988,0.0901877
324795547,324696167,1.9966652,3.204261,0.08109608,0.03564094,6.5048294,2.1455722,0.19858912,0.09020708
325793052,325693828,1.9968667,3.1839204,0.081395164,0.035735205,6.5048294,2.1455722,0.20582455,0.09022838
326791083,326691488,1.9966501,3.1584885,0.08166918,0.0357884,6.5048294,2.1455722,0.20800734,0.0902483
327798619,327699027,1.9943743,3.1263578,0.08193181,0.035799976,6.5048294,2.1455722,0.22681226,0.09025012
328796077,328696687,1.9919823,3.1013305,0.08217872,0.03584697,6.5048294,2.1455722,0.20248966,0.09024065
329794012,329694347,1.9895118,3.0804837,0.082403965,0.035886355,6.5048294,2.1455722,0.20325616,0.09025227
330791328,330692007,1.986422,3.0569282,0.082605824,0.03586931,6.5048294,2.1455722,0.16274741,0.090262465
331799118,331699545,1.9842396,3.0382323,0.082790755,0.035857182,6.5048294,2.1455722,0.16596119,0.09028067
332796545,332697204,1.9828638,3.0213954,0.082964554,0.035821114,6.5048294,2.1455722,0.1268005,0.090294294
333794559,333694863,1.9812961,3.0017064,0.08313476,0.035741873,6.5048294,2.1455722,0.14704344,0.090299815
334791918,334692524,1.9795777,2.9856417,0.08330301,0.035706326,6.5048294,2.1455722,0.14278333,0.090290666
335789682,335690183,1.9776738,2.9702337,0.08347114,0.035688207,6.5048294,2.1455722,0.12374191,0.09027401
336797024,336697718,1.9755526,2.9552433,0.083631545,0.035661712,6.5048294,2.1455722,0.14517991,0.090266
337794839,337695376,1.970318,2.941888,0.08376067,0.03567318,6.5048294,2.1455722,0.13775519,0.09024358
338792260,338693034,1.9550421,2.9303887,0.08376459,0.03569712,6.5048294,2.1455722,0.13759398,0.090248816
339789976,339690692,1.9224099,2.923021,0.08348313,0.03573844,6.5048294,2.1455722,0.2061996,0.090278685
340797473,340698228,1.8757883,2.9265578,0.082890935,0.035843752,6.5048294,2.1455722,0.21764569,0.09032291
341795241,341695886,1.8299297,2.9304695,0.08202582,0.035988316,6.5048294,2.1455722,0.1725776,0.09034922
342792829,342693543,1.7700568,2.943488,0.080567576,0.03608256,6.5048294,2.1455722,0.10793703,0.0904186
343800350,343701078,1.749472,2.948013,0.079437554,0.03613179,6.5048294,2.1455722,0.037646934,0.090378426
344797950,344698735,1.740276,2.950074,0.078645915,0.036116153,6.5048294,2.1455722,0.009042383,0.09034728
345795677,345696392,1.7432877,2.9462488,0.078179464,0.03600618,6.5048294,2.1455722,-0.04364575,0.090293035
346793312,346694049,1.7487717,2.937806,0.078203976,0.035976965,6.5048294,2.1455722,-0.072145045,0.09023934
347790985,347691705,1.7532861,2.9237282,0.07844631,0.03600049,6.5048294,2.1455722,-0.12562737,0.09021597
348798452,348699239,1.7502651,2.9060042,0.07873929,0.036096767,6.5048294,2.1455722,-0.13780396,0.09019914
349796106,349696895,1.7397225,2.8935168,0.07893784,0.036321636,6.5048294,2.1455722,-0.14181566,0.09020247
350793967,350694550,1.720231,2.8847353,0.078973986,0.03661863,6.5048294,2.1455722,-0.15161261,0.090218805
351791529,351692206,1.6884978,2.8795502,0.07872828,0.03695212,6.5048294,2.1455722,-0.15523508,0.09024129
352798959,352699739,1.6577798,2.879548,0.0784028,0.037287235,6.5048294,2.1455722,-0.13734448,0.09024805
353796644,353697393,1.6310683,2.882382,0.078006804,0.037588075,6.5048294,2.1455722,-0.116107665,0.090249866
354794268,354695048,1.6073298,2.8877144,0.07749202,0.0378367,6.5048294,2.1455722,-0.072933145,0.090251066
355791922,355692703,1.5945982,2.891729,0.07714992,0.038043387,6.5048294,2.1455722,-0.0475683,0.09024314
356789640,356690356,1.5867965,2.8953233,0.07691326,0.03820721,6.5048294,2.1455722,-0.033496477,0.09022118
357797210,357697888,1.5822315,2.8982325,0.07675615,0.038309146,6.5048294,2.1455722,0.0059124525,0.09021011
358794807,358695541,1.5893866,2.8923619,0.07677945,0.038392857,6.5048294,2.1455722,0.0889124,0.090202115
359792505,359693194,1.6005569,2.8774633,0.07690139,0.038455315,6.5048294,2.1455722,0.19593804,0.09020004
360790068,360690847,1.6073896,2.852896,0.07709657,0.03848062,6.5048294,2.1455722,0.24096185,0.0902127
361797713,361698378,1.5999748,2.829594,0.077292055,0.038548205,6.5048294,2.1455722,0.25860313,0.09021875
362795294,362696030,1.571467,2.8062956,0.07733667,0.038642082,6.5048294,2.1455722,0.24952298,0.09024844
363793300,363693684,1.5256336,2.7909567,0.07707251,0.03878354,6.5048294,2.1455722,0.29463586,0.09030254
364790658,364691334,1.4605978,2.7867596,0.07639557,0.038965836,6.5048294,2.1455722,0.257509,0.09037035
365798080,365698863,1.4023244,2.7928066,0.0753383,0.039127585,6.5048294,2.1455722,0.16544248,0.090389684
366795794,366696514,1.3553469,2.8045127,0.0739437,0.039183073,6.5048294,2.1455722,0.1213004,0.09042308
367793407,367694165,1.3313532,2.8144605,0.07285759,0.039115094,6.5048294,2.1455722,0.061941165,0.09040346
368791236,368691817,1.3265811,2.8164675,0.07208561,0.0389433,6.5048294,2.1455722,-0.022132028,0.09035992
369798560,369699343,1.3241553,2.8183792,0.07162186,0.038643915,6.5048294,2.1455722,0.014900264,0.09031363
370796225,370696993,1.3302566,2.8100984,0.07155358,0.038384035,6.5048294,2.1455722,-0.062743686,0.09027391
371793859,371694643,1.3325746,2.8011928,0.07164841,0.038181674,6.5048294,2.1455722,-0.07111626,0.09023965
372791978,372692293,1.328918,2.7856748,0.071749106,0.038012467,6.5048294,2.1455722,-0.13208531,0.0902353
373799350,373699819,1.3146836,2.7697763,0.07173768,0.03797719,6.5048294,2.1455722,-0.14792953,0.09023446
374796747,374697468,1.2939509,2.7579982,0.07157106,0.038014702,6.5048294,2.1455722,-0.15912193,0.090239644
375794715,375695117,1.2623175,2.7499132,0.07116125,0.03809988,6.5048294,2.1455722,-0.15271042,0.09025162
376792583,376692766,1.2348819,2.7476015,0.07070547,0.038213614,6.5048294,2.1455722,-0.13611978,0.09025992
377789740,377690414,1.2078952,2.748969,0.07018542,0.03832706,6.5048294,2.1455722,-0.12577292,0.09026168
378797695,378697939,1.1836523,2.7529411,0.06956965,0.038420144,6.5048294,2.1455722,-0.085388556,0.0902631
379794945,379695587,1.1679531,2.7575173,0.06910228,0.038485732,6.5048294,2.1455722,-0.072383374,0.09025974
380793147,380693236,1.1591293,2.760927,0.06872327,0.038522486,6.5048294,2.1455722,-0.02646131,0.090245515
381790404,381690882,1.159007,2.7616105,0.06846521,0.038531557,6.5048294,2.1455722,-0.019352729,0.09023561
382798201,382698407,1.1614367,2.7603662,0.06830441,0.03849042,6.5048294,2.1455722,0.04809922,0.090221785
383795453,383696055,1.1650019,2.7563577,0.0683204,0.038496114,6.5048294,2.1455722,0.062767155,0.09022218
384793409,384693700,1.1618233,2.756795,0.0684311,0.03860995,6.5048294,2.1455722,0.062767155,0.09022218
385790625,385691346,1.156646,2.7574656,0.06854668,0.03872974,6.5048294,2.1455722,0.062767155,0.09022218
386798703,386698870,1.1602376,2.7577431,0.0686659,0.038852762,6.5048294,2.1455722,0.062767155,0.09022218
387795827,387696516,1.1626664,2.7579498,0.06878465,0.038972706,6.5048294,2.1455722,0.062767155,0.09022218
388793404,388694161,1.1620983,2.7572763,0.06890128,0.039089594,6.5048294,2.1455722,0.062767155,0.09022218
389791170,389691807,1.161177,2.7570498,0.06901035,0.039199058,6.5048294,2.1455722,0.062767155,0.09022218
390798673,390699330,1.1604967,2.7564895,0.06915482,0.03934401,6.5048294,2.1455722,0.062767155,0.09022218
391796186,391696975,1.1598378,2.755989,0.06932927,0.039518982,6.5048294,2.1455722,0.062767155,0.09022218
392793908,392694620,1.1594523,2.75547,0.06952465,0.039714918,6.5048294,2.1455722,0.062767155,0.09022218
393376703,393277403,1.1596755,2.75538,0.06963828,0.039828945,6.5048294,2.1455722,0.062767155,0.09022218
