timestamp,timestamp_sample,time_last_fuse,device_id,observation,observation_variance,innovation,innovation_variance,test_ratio,estimator_instance,fusion_enabled,innovation_rejected,fused
3524000,3442914,0,0,-0.0017795563,12.25,4.3050386e-07,112.42326,6.594136e-17,0,0,0,0
3588000,3502907,0,0,0.02699089,12.25,-0.02535513,112.25,2.290896e-07,0,0,0,0
3644000,3563031,0,0,-0.06503868,12.25,0.065917164,112.25,1.5483554e-06,0,0,0,0
3708000,3623050,0,0,0.062683105,12.25,-0.06321492,112.25,1.4240094e-06,0,0,0,0
3764000,3683167,0,0,0.011629105,12.25,-0.010412016,62.249992,6.9661105e-08,0,0,0,0
3828000,3743192,0,0,0.0018959045,12.25,-0.0009187766,62.249992,5.424261e-10,0,0,0,0
3884000,3803276,0,0,-0.019691467,12.25,0.020299478,62.249992,2.647832e-07,0,0,0,0
3948000,3863305,0,0,-0.039438248,12.25,0.03939841,45.58333,1.3621072e-06,0,0,0,0
4004000,3923384,0,0,0.065374374,12.25,-0.065953955,45.58333,3.8171183e-06,0,0,0,0
4068000,3983396,0,0,0.041166306,12.25,-0.042456992,45.58333,1.581803e-06,0,0,0,0
4124000,4043470,0,0,-0.06093979,12.25,0.05897409,45.583363,3.051941e-06,0,0,0,0
4188000,4103486,4108000,0,-0.1830101,12.25,0.1806845,37.250046,3.505702e-05,0,0,0,0
4244000,4163544,4164000,0,-0.029109955,12.25,0.025830757,37.2501,7.164845e-07,0,1,0,1
4308000,4223558,4228000,0,-0.038499832,12.25,0.016681118,20.471523,5.43701e-07,0,1,0,1
4364000,4283608,4284000,0,-0.005634308,12.25,-0.02401372,17.169733,1.343431e-06,0,1,0,1
4428000,4343620,4348000,0,0.18686104,12.25,-0.21083038,15.760108,0.00011281509,0,1,0,1
4484000,4403663,4404000,0,-0.066669464,12.25,0.08841454,14.978396,2.087575e-05,0,1,0,1
4548000,4463673,4468000,0,0.013145447,12.25,-0.009009136,14.481501,2.2418818e-07,0,1,0,1
4604000,4523707,4524000,0,-0.024414062,12.25,0.02911401,14.137725,2.3981952e-06,0,1,0,1
4668000,4583719,4588000,0,0.05540085,12.25,-0.056145284,13.885808,9.080618e-06,0,1,0,1
4724000,4643748,4644000,0,-0.005634308,12.25,0.010055615,13.693254,2.9537284e-07,0,1,0,1
4788000,4703758,4708000,0,0.10704613,12.25,-0.10544213,13.541349,3.2841755e-05,0,1,0,1
4844000,4763786,4764000,0,-0.0009384155,12.25,0.012220747,13.418334,4.4520178e-07,0,1,0,1
4908000,4823790,4828000,0,-0.07136345,12.25,0.079906076,13.316868,1.9178628e-05,0,1,0,1
4964000,4883814,4884000,0,-0.024414062,12.25,0.025026495,13.231665,1.8934138e-06,0,1,0,1
5028000,4943821,4948000,0,0.13991165,12.25,-0.1412403,13.159011,6.063927e-05,0,1,0,1
5084000,5002842,5004000,0,-0.06197357,12.25,0.069097325,13.096519,1.4582319e-05,0,1,0,1
5148000,5063845,5068000,0,-0.038499832,12.25,0.039552428,13.042201,4.7979465e-06,0,1,0,1
5204000,5122863,5124000,0,0.013145447,12.25,-0.015996648,12.994479,7.876969e-07,0,1,0,1
5268000,5183868,5188000,0,0.008451462,12.25,-0.009837996,12.951992,2.9890745e-07,0,1,0,1
5324000,5243883,5244000,0,0.078876495,12.25,-0.08103954,12.914361,2.0341406e-05,0,1,0,1
5388000,5303885,5308000,0,-0.16526413,12.25,0.16562282,12.880719,8.518442e-05,0,1,0,1
5444000,5363898,5364000,0,-0.01971817,12.25,0.013078621,12.849887,5.32457e-07,0,1,0,1
5508000,5423902,5428000,0,0.022535324,12.25,-0.031170048,12.822421,3.0308533e-06,0,1,0,1
5564000,5483914,5484000,0,-0.04788971,12.25,0.039383788,12.797391,4.8481215e-06,0,1,0,1
5628000,5543915,5548000,0,0.0319252,12.25,-0.041022927,12.77404,5.2696887e-06,0,1,0,1
5684000,5603925,5604000,0,-0.024414062,12.25,0.015886132,12.753057,7.9155666e-07,0,1,0,1
5748000,5663927,5668000,0,-0.029109955,12.25,0.018533526,12.73386,1.0789865e-06,0,1,0,1
5804000,5723936,5724000,0,0.0741806,12.25,-0.086783856,12.716096,2.3691036e-05,0,1,0,1
5860000,5779938,5780000,0,-0.005634308,12.25,-0.0021466222,12.698911,1.4514589e-08,0,1,0,1
5916000,5831944,5836000,0,-0.066669464,12.25,0.057878297,12.683629,1.0564476e-05,0,1,0,1
5972000,5891946,5892000,0,-0.01971817,12.25,0.007798869,12.669438,1.920286e-07,0,1,0,1
6036000,5951951,5956000,0,-0.01971817,12.25,0.006145184,12.6563425,1.1934976e-07,0,1,0,1
6092000,6011954,6012000,0,0.01784134,12.25,-0.029811874,12.643105,2.8118027e-06,0,1,0,1
6156000,6071958,6076000,0,-0.04788971,12.25,0.035615616,12.631632,4.016811e-06,0,1,0,1
6212000,6131960,6132000,0,-0.005634308,12.25,-0.008858151,12.6208105,2.4869033e-07,0,1,0,1
6276000,6191964,6196000,0,0.008451462,12.25,-0.021031603,12.609773,1.4031286e-06,0,1,0,1
6332000,6251966,6252000,0,-0.024414062,12.25,0.0114047425,12.600177,4.1290895e-07,0,1,0,1
6396000,6311969,6316000,0,0.008451462,12.25,-0.022936808,12.591268,1.671308e-06,0,1,0,1
6452000,6371971,6372000,0,0.027231216,12.25,-0.042052615,12.58279,5.6217177e-06,0,1,0,1
6516000,6430639,6436000,0,0.050706863,12.25,-0.06294513,12.573765,1.2604304e-05,0,1,0,1
6572000,6491975,6492000,0,-0.094839096,12.25,0.08333451,12.566154,2.210586e-05,0,1,0,1
6636000,6551977,6556000,0,0.0319252,12.25,-0.046532996,12.559086,6.8964246e-06,0,1,0,1
6692000,6611979,6612000,0,-0.1323986,12.25,0.12043369,12.55112,4.6224635e-05,0,1,0,1
6756000,6671981,6676000,0,0.01784134,12.25,-0.033469953,12.544726,3.5719797e-06,0,1,0,1
6812000,6731982,6732000,0,0.06948662,12.25,-0.08501682,12.538576,2.3057988e-05,0,1,0,1
6876000,6791983,6796000,0,-0.066669464,12.25,0.0543736,12.531663,9.436859e-06,0,1,0,1
6932000,6851984,6852000,0,-0.01971817,12.25,0.0055168746,12.526058,9.7192284e-08,0,1,0,1
6996000,6911986,6916000,0,0.013145447,12.25,-0.028182216,12.520856,2.537326e-06,0,1,0,1
7052000,6971987,6972000,0,-0.0009384155,12.25,-0.014031179,12.515816,6.292007e-07,0,1,0,1
7116000,7031988,7036000,0,0.027231216,12.25,-0.04108712,12.509836,5.397837e-06,0,1,0,1
7172000,7091989,7092000,0,0.0037555695,12.25,-0.01717535,12.505206,9.4358353e-07,0,1,0,1
7236000,7151990,7156000,0,-0.0009384155,12.25,-0.012677082,12.500926,5.1422876e-07,0,1,0,1
7292000,7211990,7212000,0,0.008451462,12.25,-0.021003237,12.495436,1.4121507e-06,0,1,0,1
7356000,7271991,7276000,0,0.05540085,12.25,-0.06794218,12.491485,1.4781718e-05,0,1,0,1
7412000,7331992,7332000,0,0.01784134,12.25,-0.029411154,12.487619,2.7707954e-06,0,1,0,1
7476000,7391992,7396000,0,-0.0009384155,12.25,-0.010508653,12.484067,3.5383272e-07,0,1,0,1
7532000,7451993,7452000,0,0.0037555695,12.25,-0.014163353,12.479168,6.4299337e-07,0,1,0,1
7596000,7510660,7516000,0,-0.01971817,12.25,0.009146724,12.475868,2.6823804e-07,0,1,0,1
7652000,7571994,7572000,0,0.013145447,12.25,-0.024138805,12.472616,1.8686759e-06,0,1,0,1
7716000,7631995,7636000,0,-0.07136345,12.25,0.061288763,12.468251,1.2050808e-05,0,1,0,1
7772000,7691995,7692000,0,0.008451462,12.25,-0.019805087,12.465217,1.2586752e-06,0,1,0,1
7836000,7751995,7756000,0,0.01784134,12.25,-0.028972428,12.462445,2.6941796e-06,0,1,0,1
7892000,7811996,7812000,0,-0.094839096,12.25,0.0840579,12.459692,2.2683482e-05,0,1,0,1
7956000,7871996,7876000,0,0.008451462,12.25,-0.020222101,12.455726,1.3132383e-06,0,1,0,1
8012000,7931996,7932000,0,-0.06197357,12.25,0.050450448,12.453143,8.175439e-06,0,1,0,1
8076000,7991997,7996000,0,-0.005634308,12.25,-0.0068449387,12.450808,1.5052255e-07,0,1,0,1
8132000,8051997,8052000,0,0.036621094,12.25,-0.04867906,12.447021,7.6151596e-06,0,1,0,1
8196000,8111997,8116000,0,-0.024414062,12.25,0.012994017,12.444821,5.42698e-07,0,1,0,1
8252000,8171997,8172000,0,-0.043193817,12.25,0.031478714,12.442615,3.1855343e-06,0,1,0,1
8316000,8231998,8236000,0,-0.066669464,12.25,0.054356705,12.440641,9.499998e-06,0,1,0,1
8372000,8291998,8292000,0,0.05540085,12.25,-0.068251446,12.437128,1.4981787e-05,0,1,0,1
8436000,8351998,8356000,0,-0.03380394,12.25,0.021724125,12.435263,1.5180624e-06,0,1,0,1
8492000,8411998,8412000,0,-0.174654,12.25,0.16195925,12.433372,8.438836e-05,0,1,0,1
8556000,8471998,8476000,0,-0.0009384155,12.25,-0.013724551,12.430208,6.0614684e-07,0,1,0,1
8612000,8531999,8532000,0,-0.04788971,12.25,0.033254035,12.428414,3.559041e-06,0,1,0,1
8676000,8591999,8596000,0,-0.01971817,12.25,0.004434363,12.426831,6.329393e-08,0,1,0,1
8732000,8651999,8652000,0,-0.08436775,12.250812,0.05507257,13.251279,9.155306e-06,0,1,0,1
8796000,8711999,8716000,0,0.004840851,12.251893,-0.039511528,13.178806,4.7383983e-06,0,1,0,1
8852000,8771999,8772000,0,0.00013923645,12.25284,-0.033109725,13.117483,3.3428787e-06,0,1,0,1
8916000,8831999,8836000,0,-0.08437729,12.2539215,0.052358788,13.066201,8.39247e-06,0,1,0,1
8972000,8891999,8892000,0,0.12691307,12.254867,-0.16324914,13.021766,8.18638e-05,0,1,0,1
9036000,8951999,8956000,0,-0.05155945,12.255947,0.023730112,12.984696,1.7347136e-06,0,1,0,1
9092000,9011999,9012000,0,0.004793167,12.25689,-0.03226111,12.662899,3.2876492e-06,0,1,0,1
9156000,9072000,9076000,0,-0.0797348,12.257969,0.052417792,12.65396,8.685423e-06,0,1,0,1
9212000,9132000,9132000,0,-0.051532745,12.25891,0.021798668,12.645718,1.5030604e-06,0,1,0,1
9276000,9192000,9196000,0,-0.060907364,12.259986,0.02970766,12.639277,2.7930241e-06,0,1,0,1
9332000,9252000,9252000,0,-0.10313988,12.260924,0.07036797,12.6331625,1.5678263e-05,0,1,0,1
9396000,9312000,9316000,0,0.03307724,12.261997,-0.068723544,12.62883,1.4959185e-05,0,1,0,1
9452000,9372000,9372000,0,-0.023326874,12.262932,-0.011074152,12.624501,3.885677e-07,0,1,0,1
9516000,9432000,9436000,0,-0.013948441,12.264001,-0.020285022,12.522307,1.3143971e-06,0,1,0,1
9572000,9492000,9492000,0,0.02358818,12.264932,-0.058274105,12.521208,1.0848383e-05,0,1,0,1
9636000,9552000,9556000,0,0.0047397614,12.265995,-0.039237335,12.521222,4.9182695e-06,0,1,0,1
9692000,9612000,9612000,0,-0.08451462,12.266921,0.049953096,12.520983,7.9716165e-06,0,1,0,1
9756000,9672000,9676000,0,0.042316437,12.267981,-0.078840666,12.521913,1.9855914e-05,0,1,0,1
9812000,9732000,9732000,0,-0.023525238,12.268901,-0.012194589,12.522432,4.7501314e-07,0,1,0,1
9876000,9792000,9796000,0,0.04218483,12.269955,-0.07854436,12.524175,1.970339e-05,0,1,0,1
9932000,9852000,9852000,0,0.00919342,12.270869,-0.038927235,12.468272,4.861394e-06,0,1,0,1
9996000,9910666,9916000,0,-0.037820816,12.271915,0.008271351,12.470298,2.1945027e-07,0,1,0,1
10052000,9970000,9972000,0,-0.056585312,12.272823,0.026608516,12.471911,2.2707443e-06,0,1,0,1
10100000,10020000,10020000,0,0.13126373,12.273593,-0.16193601,12.473003,8.40961e-05,0,1,0,1
10164000,10080000,10084000,0,-0.033367157,12.274631,0.004916005,12.475794,7.7484785e-08,0,1,0,1
10220000,10140000,10140000,0,-0.09439278,12.275528,0.06559171,12.478029,1.3791511e-05,0,1,0,1
10284000,10200000,10204000,0,0.018419266,12.276557,-0.04856614,12.481298,7.559053e-06,0,1,0,1
10340000,10260000,10260000,0,-0.00046348572,12.277448,-0.02862115,12.443064,2.6333394e-06,0,1,0,1
10404000,10320000,10324000,0,-0.11790085,12.278468,0.08901264,12.446054,2.5464295e-05,0,1,0,1
10460000,10380000,10380000,0,0.06540871,12.279349,-0.0956891,12.44854,2.9421615e-05,0,1,0,1
10524000,10440000,10444000,0,-0.033411026,12.280362,0.0041928217,12.451901,5.6472512e-08,0,1,0,1
10580000,10500000,10500000,0,-0.028707504,12.281235,-0.0008054059,12.454681,2.0833248e-09,0,1,0,1
10644000,10560000,10564000,0,-0.019319534,12.282238,-0.010509206,12.458378,3.5459965e-07,0,1,0,1
10700000,10620000,10620000,0,-0.05221176,12.283101,0.02542911,12.4290085,2.0810658e-06,0,1,0,1
10764000,10680000,10684000,0,-0.033361435,12.284095,0.0062561966,12.432304,1.2592997e-07,0,1,0,1
10820000,10740000,10740000,0,0.037080765,12.284947,-0.06429312,12.435073,1.3296601e-05,0,1,0,1
10884000,10800000,10804000,0,0.018117905,12.285931,-0.044586368,12.438644,6.3927996e-06,0,1,0,1
10940000,10860000,10860000,0,0.008598328,12.286774,-0.034511738,12.441629,3.8292733e-06,0,1,0,1
11004000,10920000,10924000,0,-0.00089263916,12.287746,-0.024511784,12.445454,1.9310748e-06,0,1,0,1
11060000,10980000,10980000,0,-0.11364746,12.288578,0.08868399,12.44863,2.5271376e-05,0,1,0,1
11124000,11040000,11044000,0,-0.08520126,12.28954,0.06599599,12.42467,1.4022008e-05,0,1,0,1
11180000,11100000,11100000,0,0.041772842,12.29036,-0.061149094,12.427537,1.2035247e-05,0,1,0,1
11244000,11160000,11164000,0,-0.019460678,12.291311,0.0014341641,12.431153,6.6182975e-09,0,1,0,1
11300000,11220000,11220000,0,-0.11805153,12.292121,0.100655705,12.434188,3.2592623e-05,0,1,0,1
11364000,11280000,11284000,0,0.009054184,12.293059,-0.026831247,12.438002,2.3152136e-06,0,1,0,1
11420000,11340000,11340000,0,0.07938576,12.293857,-0.09613225,12.441184,2.9712315e-05,0,1,0,1
11484000,11400000,11404000,0,-0.014852524,12.294784,0.00013451651,12.445178,5.8158076e-11,0,1,0,1
11540000,11460000,11460000,0,-0.057107925,12.295569,0.038962916,12.423427,4.8878906e-06,0,1,0,1
11604000,11520000,11524000,0,0.06510544,12.296484,-0.08282964,12.427003,2.2083359e-05,0,1,0,1
11660000,11580000,11580000,0,0.022541046,12.297256,-0.038576066,12.430006,4.788776e-06,0,1,0,1
11724000,11638666,11644000,0,-0.010471344,12.298158,-0.0040915012,12.4337435,5.385468e-08,0,1,0,1
11780000,11700000,11700000,0,-0.024570465,12.298918,0.01105233,12.436867,3.928771e-07,0,1,0,1
11844000,11760000,11764000,0,-0.038612366,12.299808,0.026206076,12.440753,2.2080928e-06,0,1,0,1
11900000,11820000,11820000,0,-0.024421692,12.300554,8.9680776e-05,12.421368,2.5899375e-11,0,1,0,1
11964000,11880000,11884000,0,-0.043203354,12.30143,0.019666275,12.424859,1.2451243e-06,0,1,0,1
12020000,11940000,11940000,0,-0.06659508,12.302163,0.04358182,12.427791,6.1133155e-06,0,1,0,1
12084000,12000000,12004000,0,-0.014766693,12.303026,-0.007882906,12.43142,1.9994563e-07,0,1,0,1
12140000,12060000,12060000,0,0.027454376,12.303746,-0.049320057,12.434453,7.8249295e-06,0,1,0,1
12204000,12120000,12124000,0,0.0131549835,12.304596,-0.03379457,12.438209,3.6727895e-06,0,1,0,1
12260000,12180000,12180000,0,-0.05272484,12.305303,0.033154294,12.44133,3.5340504e-06,0,1,0,1
12324000,12238666,12244000,0,-0.09952736,12.306138,0.07833489,12.424005,1.9756448e-05,0,1,0,1
12380000,12298000,12300000,0,0.06984711,12.306831,-0.09111132,12.4268465,2.6720445e-05,0,1,0,1
12428000,12348000,12348000,0,-0.10897827,12.307383,0.089199185,12.429108,2.5606005e-05,0,1,0,1
12492000,12408000,12412000,0,-0.00058174133,12.308199,-0.019223439,12.432659,1.188935e-06,0,1,0,1
12548000,12468000,12468000,0,-0.13682556,12.308873,0.11796524,12.43562,4.4761087e-05,0,1,0,1
12612000,12528000,12532000,0,0.018667221,12.309676,-0.037880164,12.439281,4.614115e-06,0,1,0,1
12668000,12588000,12588000,0,-0.061328888,12.310336,0.043266717,12.442318,6.018199e-06,0,1,0,1
12732000,12648000,12652000,0,-0.07520294,12.311125,0.05630488,12.426039,1.0205149e-05,0,1,0,1
12788000,12708000,12708000,0,-0.01389122,12.31177,-0.0046947207,12.428811,7.093327e-08,0,1,0,1
12852000,12768000,12772000,0,-0.09372902,12.312546,0.07618652,12.432234,1.867528e-05,0,1,0,1
12908000,12828000,12828000,0,0.02872467,12.313177,-0.046094332,12.435084,6.834493e-06,0,1,0,1
12972000,12886666,12892000,0,-0.018461227,12.313938,0.0026376285,12.438607,2.237255e-08,0,1,0,1
13028000,12948000,12948000,0,-0.107652664,12.314555,0.092794456,12.441528,2.7684095e-05,0,1,0,1
13092000,13008000,13012000,0,0.0148983,12.315302,-0.038422383,12.440155,4.7468207e-06,0,1,0,1
13148000,13068000,13068000,0,-0.10268021,12.315906,0.079652496,12.428967,2.0418494e-05,0,1,0,1
13212000,13128000,13132000,0,-0.041223526,12.316638,0.018381942,12.432264,1.0871577e-06,0,1,0,1
13268000,13188000,13188000,0,-0.07398796,12.317227,0.051772557,12.435008,8.622102e-06,0,1,0,1
13332000,13248000,13252000,0,0.04366684,12.3179455,-0.065408155,12.4384,1.3758125e-05,0,1,0,1
13388000,13308000,13308000,0,0.048006058,12.318521,-0.06818448,12.441213,1.4947493e-05,0,1,0,1
13452000,13368000,13372000,0,0.01945877,12.319224,-0.037798382,12.444695,4.5922143e-06,0,1,0,1
13508000,13428000,13428000,0,-0.018310547,12.319786,0.0046734745,12.429397,7.0289374e-08,0,1,0,1
13572000,13488000,13492000,0,-0.0370636,12.320476,0.024715763,12.432576,1.9653817e-06,0,1,0,1
13628000,13548000,13548000,0,-0.013448715,12.321023,0.0021261834,12.435219,1.454146e-08,0,1,0,1
13692000,13608000,13612000,0,-0.083862305,12.321698,0.07391994,12.438492,1.7571769e-05,0,1,0,1
13748000,13668000,13668000,0,-0.10691261,12.322231,0.09754107,12.441203,3.058952e-05,0,1,0,1
13812000,13728000,13732000,0,-0.04061699,12.322894,0.03172879,12.444568,3.235841e-06,0,1,0,1
13868000,13788000,13788000,0,-0.040431976,12.323413,0.03249942,12.447342,3.394178e-06,0,1,0,1
13932000,13848000,13852000,0,-0.07780075,12.324062,0.060238615,12.433105,1.1674286e-05,0,1,0,1
13988000,13908000,13908000,0,0.021152496,12.324567,-0.038222097,12.435657,4.6991604e-06,0,1,0,1
14052000,13968000,13972000,0,-0.03541565,12.325202,0.019873342,12.438825,1.2700548e-06,0,1,0,1
14108000,14028000,14028000,0,-0.016515732,12.325693,0.0018256195,12.441445,1.0715432e-08,0,1,0,1
14172000,14088000,14092000,0,-0.054063797,12.326314,0.040616088,12.444704,5.3023887e-06,0,1,0,1
14228000,14148000,14148000,0,-0.02094841,12.326793,0.00830396,12.4473915,2.2159101e-07,0,1,0,1
14292000,14208000,14212000,0,0.030748367,12.3274,-0.046853416,12.446306,7.0550814e-06,0,1,0,1
14348000,14268000,14268000,0,-0.016494751,12.327866,0.0012529911,12.436139,5.0497566e-09,0,1,0,1
14412000,14328000,14332000,0,0.12905884,12.32846,-0.142905,12.43921,6.566924e-05,0,1,0,1
14468000,14388000,14388000,0,0.07181549,12.328911,-0.083143845,12.441749,2.2224849e-05,0,1,0,1
14532000,14448000,14452000,0,0.038425446,12.329493,-0.047475792,12.444914,7.244569e-06,0,1,0,1
14588000,14508000,14508000,0,0.042816162,12.329931,-0.050067093,12.447521,8.055304e-06,0,1,0,1
14652000,14568000,14572000,0,0.023714066,12.3305,-0.0289412,12.450778,2.6908938e-06,0,1,0,1
14708000,14628000,14628000,0,-0.060983658,12.330925,0.05447273,12.436672,9.543641e-06,0,1,0,1
14772000,14688000,14692000,0,-0.03245735,12.33148,0.027067669,12.439657,2.3558805e-06,0,1,0,1
14828000,14748000,14748000,0,-0.07923126,12.331893,0.075039536,12.442123,1.8102799e-05,0,1,0,1
14892000,14808000,14812000,0,-0.022396088,12.332436,0.019112755,12.445206,1.1740984e-06,0,1,0,1
14948000,14868000,14868000,0,-0.092695236,12.332836,0.09052204,12.447743,2.6331652e-05,0,1,0,1
15012000,14928000,14932000,0,-0.026363373,12.333366,0.024894394,12.450919,1.9909562e-06,0,1,0,1
15068000,14988000,14988000,0,-0.012111664,12.333755,0.011755089,12.453526,4.4383293e-07,0,1,0,1
15132000,15048000,15052000,0,-0.030813217,12.334272,0.02878187,12.440131,2.663625e-06,0,1,0,1
15188000,15108000,15108000,0,-0.007144928,12.334648,0.0061445762,12.442532,1.2137664e-07,0,1,0,1
15252000,15168000,15172000,0,-0.058748245,12.335154,0.059219986,12.44554,1.1271529e-05,0,1,0,1
15308000,15228000,15228000,0,-0.002002716,12.335518,0.0033576526,12.448016,3.6226915e-08,0,1,0,1
15372000,15288000,15292000,0,-0.1005764,12.336012,0.103640504,12.451123,3.4507262e-05,0,1,0,1
15428000,15348000,15348000,0,0.09263611,12.336364,-0.08899665,12.453671,2.5439575e-05,0,1,0,1
15492000,15408000,15412000,0,-0.07230759,12.336846,0.06850823,12.440647,1.5090462e-05,0,1,0,1
15548000,15468000,15468000,0,-0.024879456,12.337187,0.021893214,12.442992,1.5408283e-06,0,1,0,1
15612000,15528000,15532000,0,-0.113931656,12.337657,0.1123724,12.445936,4.058371e-05,0,1,0,1
15668000,15588000,15588000,0,-0.09436035,12.337986,0.09328126,12.4483595,2.7959968e-05,0,1,0,1
15732000,15648000,15652000,0,-0.02796936,12.338446,0.027780823,12.4514065,2.4793155e-06,0,1,0,1
15788000,15708000,15708000,0,0.052042007,12.338764,-0.05097906,12.453905,8.347148e-06,0,1,0,1
15852000,15768000,15772000,0,0.009422302,12.339213,-0.0060699983,12.457053,1.1831009e-07,0,1,0,1
15908000,15828000,15828000,0,0.051633835,12.33952,-0.053670295,12.443379,9.259545e-06,0,1,0,1
15972000,15888000,15892000,0,-0.033262253,12.339958,0.033469703,12.446266,3.6001834e-06,0,1,0,1
16028000,15948000,15948000,0,-0.056495667,12.340255,0.0579978,12.448639,1.0808394e-05,0,1,0,1
16092000,16008000,16012000,0,-0.060770035,12.340682,0.06348307,12.451631,1.2946415e-05,0,1,0,1
16148000,16068000,16068000,0,-0.01335907,12.340967,0.016994763,12.4540825,9.2763787e-07,0,1,0,1
16212000,16128000,16132000,0,-0.08835411,12.341385,0.09359761,12.457178,2.8130009e-05,0,1,0,1
16268000,16188000,16188000,0,-0.012548447,12.3416605,0.018600214,12.459707,1.1106777e-06,0,1,0,1
16332000,16248000,16252000,0,-0.02649498,12.342068,0.027493255,12.446611,2.4291885e-06,0,1,0,1
16388000,16308000,16308000,0,-0.026290894,12.342334,0.02862994,12.44894,2.6337132e-06,0,1,0,1
16452000,16368000,16372000,0,0.07720947,12.3427305,-0.07326877,12.451882,1.7244984e-05,0,1,0,1
16508000,16428000,16428000,0,-0.13461113,12.342986,0.140845,12.454294,6.371237e-05,0,1,0,1
16572000,16488000,16492000,0,-0.006793976,12.343373,0.013649758,12.457343,5.982525e-07,0,1,0,1
16628000,16548000,16548000,0,-0.044252396,12.343619,0.05270639,12.459834,8.91814e-06,0,1,0,1
16692000,16608000,16612000,0,-0.053245544,12.343998,0.064143695,12.458646,1.3209826e-05,0,1,0,1
16748000,16668000,16668000,0,-0.02928543,12.344235,0.038092114,12.449141,4.6621985e-06,0,1,0,1
16812000,16728000,16732000,0,-0.057167053,12.344604,0.06798517,12.452035,1.4847319e-05,0,1,0,1
16868000,16788000,16788000,0,-0.103601456,12.344831,0.11597595,12.454406,4.3198917e-05,0,1,0,1
16932000,16848000,16852000,0,-0.093328476,12.345191,0.107189916,12.45741,3.689267e-05,0,1,0,1
16988000,16908000,16908000,0,-0.026779175,12.345409,0.04190372,12.459863,5.6370495e-06,0,1,0,1
17052000,16968000,16972000,0,0.029880524,12.34576,-0.012532089,12.4629755,5.040634e-07,0,1,0,1
17108000,17028000,17028000,0,0.029785156,12.345971,-0.021290485,12.449281,1.4564206e-06,0,1,0,1
17172000,17088000,17092000,0,0.02492714,12.3463125,-0.013715355,12.452128,6.042692e-07,0,1,0,1
17228000,17148000,17148000,0,0.048295975,12.346515,-0.03470706,12.454461,3.8687494e-06,0,1,0,1
17292000,17208000,17212000,0,-0.06934929,12.346848,0.0858998,12.45742,2.3692788e-05,0,1,0,1
17348000,17268000,17268000,0,0.011133194,12.347041,0.007033445,12.459838,1.5881217e-07,0,1,0,1
17412000,17328000,17332000,0,-0.059236526,12.347367,0.080067694,12.462909,2.0575728e-05,0,1,0,1
17468000,17388000,17388000,0,0.035289764,12.347553,-0.012794029,12.46541,5.252524e-07,0,1,0,1
17532000,17448000,17452000,0,-0.021148682,12.347871,0.029238839,12.452155,2.7462227e-06,0,1,0,1
17588000,17508000,17508000,0,-0.1523819,12.348048,0.16231847,12.454449,8.461968e-05,0,1,0,1
17652000,17568000,17572000,0,-0.024337769,12.348358,0.035287526,12.457366,3.9983074e-06,0,1,0,1
17708000,17628000,17628000,0,0.069841385,12.348528,-0.05706808,12.459746,1.0455319e-05,0,1,0,1
17772000,17688000,17692000,0,0.031827927,12.34883,-0.016108973,12.462775,8.3287716e-07,0,1,0,1
17828000,17748000,17748000,0,-0.0011634827,12.348993,0.019069832,12.465242,1.1669518e-06,0,1,0,1
17892000,17808000,17812000,0,-0.0010128021,12.349288,0.015810192,12.463884,8.021966e-07,0,1,0,1
17948000,17868000,17868000,0,0.05075836,12.349443,-0.03865501,12.454358,4.7989943e-06,0,1,0,1
18012000,17928000,17932000,0,0.026973724,12.349731,-0.01241135,12.457232,4.9462545e-07,0,1,0,1
18068000,17988000,17988000,0,0.045654297,12.349879,-0.029137556,12.459577,2.725605e-06,0,1,0,1
18132000,18048000,18052000,0,-0.039089203,12.350161,0.058028832,12.462564,1.0807873e-05,0,1,0,1
18188000,18108000,18108000,0,-0.010450363,12.350302,0.030826028,12.464994,3.0493204e-06,0,1,0,1
18252000,18168000,18172000,0,-0.071237564,12.350576,0.09363373,12.468095,2.8127077e-05,0,1,0,1
18308000,18228000,18228000,0,-0.05639839,12.350711,0.07445222,12.454185,1.7803279e-05,0,1,0,1
18372000,18288000,18292000,0,0.108530045,12.350978,-0.088678814,12.457014,2.525142e-05,0,1,0,1
18428000,18348000,18348000,0,-0.06590462,12.351107,0.08868675,12.459322,2.5251258e-05,0,1,0,1
18492000,18408000,18412000,0,0.03810501,12.351367,-0.013560105,12.462265,5.9018623e-07,0,1,0,1
18548000,18468000,18468000,0,-0.004261017,12.351489,0.031156315,12.464661,3.1150978e-06,0,1,0,1
18612000,18528000,18532000,0,0.03355217,12.351745,-0.0044078864,12.467719,6.233526e-08,0,1,0,1
18668000,18588000,18588000,0,0.080467224,12.35186,-0.048963882,12.470199,7.6902115e-06,0,1,0,1
18732000,18648000,18652000,0,0.03781128,12.35211,-0.009927984,12.45676,3.1650242e-07,0,1,0,1
18788000,18708000,18708000,0,0.004863739,12.35222,0.025428033,12.459031,2.0758753e-06,0,1,0,1
18852000,18768000,18772000,0,-0.051267624,12.352463,0.084121436,12.461934,2.2713702e-05,0,1,0,1
18908000,18828000,18828000,0,-0.06935501,12.352567,0.10388293,12.4642935,3.463225e-05,0,1,0,1
18972000,18888000,18892000,0,-0.03094101,12.352804,0.06736287,12.46731,1.4558895e-05,0,1,0,1
19028000,18948000,18948000,0,-0.114896774,12.352902,0.15318528,12.469756,7.527246e-05,0,1,0,1
19092000,19008000,19012000,0,0.02252388,12.353135,0.007653322,12.468245,1.8791206e-07,0,1,0,1
19148000,19068000,19068000,0,-0.00088882446,12.353229,0.027878731,12.458594,2.4953818e-06,0,1,0,1
19212000,19128000,19132000,0,0.069767,12.353455,-0.040345035,12.461451,5.2248233e-06,0,1,0,1
19268000,19188000,19188000,0,-0.019773483,12.353542,0.05189687,12.463772,8.643564e-06,0,1,0,1
19332000,19248000,19252000,0,-0.005256653,12.353764,0.039631817,12.466743,5.0395874e-06,0,1,0,1
19388000,19308000,19308000,0,0.042022705,12.353847,-0.005606357,12.469153,1.00828785e-07,0,1,0,1
19452000,19368000,19372000,0,0.018501282,12.354063,0.020763338,12.472237,1.3826427e-06,0,1,0,1
19508000,19428000,19428000,0,0.03276062,12.354141,-0.004181534,12.458072,5.614104e-08,0,1,0,1
19572000,19488000,19492000,0,0.06559181,12.354352,-0.034430027,12.460881,3.805274e-06,0,1,0,1
19628000,19548000,19548000,0,-0.052072525,12.354424,0.08577765,12.463163,2.3614568e-05,0,1,0,1
19692000,19608000,19612000,0,-0.041963577,12.354631,0.0774468,12.466089,1.9245836e-05,0,1,0,1
19748000,19668000,19668000,0,0.0009422302,12.354699,0.03602201,12.468459,4.162777e-06,0,1,0,1
19812000,19728000,19732000,0,-0.07856941,12.354902,0.11770019,12.4714985,4.443198e-05,0,1,0,1
19868000,19788000,19788000,0,-0.030630112,12.354966,0.07083002,12.473954,1.6087573e-05,0,1,0,1
19932000,19848000,19852000,0,0.03569603,12.355165,-0.003161367,12.460283,3.2083513e-08,0,1,0,1
19988000,19908000,19908000,0,0.06383896,12.355223,-0.029106963,12.462526,2.719241e-06,0,1,0,1
20052000,19968000,19972000,0,-0.016222,12.355416,0.05374601,12.465407,9.269279e-06,0,1,0,1
20108000,20028000,20028000,0,-0.034547806,12.355471,0.073796496,12.467739,1.7472046e-05,0,1,0,1
20172000,20088000,20092000,0,-0.015144348,12.35566,0.05625545,12.470734,1.0150728e-05,0,1,0,1
20228000,20148000,20148000,0,0.13087845,12.355712,-0.088112615,12.473153,2.489774e-05,0,1,0,1
20292000,20206666,20212000,0,0.008060455,12.355897,0.029023517,12.471537,2.7017186e-06,0,1,0,1
20348000,20268000,20268000,0,0.059951782,12.355945,-0.028290521,12.461754,2.5689917e-06,0,1,0,1
20412000,20328000,20332000,0,0.06440544,12.356125,-0.030263264,12.464585,2.9390953e-06,0,1,0,1
20468000,20388000,20388000,0,0.18621826,12.356168,-0.14981535,12.466878,7.201367e-05,0,1,0,1
20532000,20448000,20452000,0,-0.016942978,12.356345,0.056975145,12.469823,1.0412873e-05,0,1,0,1
20588000,20508000,20508000,0,-0.025846481,12.356385,0.067475125,12.472203,1.4601726e-05,0,1,0,1
20652000,20568000,20572000,0,-0.044050217,12.356559,0.08749975,12.475261,2.4548446e-05,0,1,0,1
20708000,20628000,20628000,0,0.027122498,12.356595,0.006862268,12.460913,1.51163e-07,0,1,0,1
20772000,20688000,20692000,0,-0.015073776,12.356765,0.05123376,12.463695,8.424141e-06,0,1,0,1
20828000,20748000,20748000,0,-0.0005493164,12.356797,0.03825195,12.465947,4.695068e-06,0,1,0,1
20892000,20808000,20812000,0,0.0044727325,12.356963,0.03529073,12.468843,3.995352e-06,0,1,0,1
20948000,20868000,20868000,0,0.12215233,12.356993,-0.08053361,12.471184,2.0802072e-05,0,1,0,1
21012000,20928000,20932000,0,-0.014694214,12.357156,0.059563216,12.474193,1.1376373e-05,0,1,0,1
21068000,20988000,20988000,0,0.06093788,12.357182,-0.014415309,12.476617,6.662098e-07,0,1,0,1
21132000,21048000,21052000,0,0.09367752,12.357343,-0.055308796,12.462797,9.818223e-06,0,1,0,1
21188000,21108000,21108000,0,0.09320068,12.357365,-0.052119877,12.46501,8.717143e-06,0,1,0,1
21252000,21168000,21172000,0,-0.04809761,12.357521,0.09227513,12.46786,2.7317277e-05,0,1,0,1
21308000,21228000,21228000,0,0.15927887,12.357541,-0.11363052,12.470161,4.141693e-05,0,1,0,1
21372000,21288000,21292000,0,-0.038892746,12.357695,0.0882851,12.473124,2.4995374e-05,0,1,0,1
21428000,21348000,21348000,0,-0.05690956,12.357712,0.10795165,12.475511,3.736459e-05,0,1,0,1
21492000,21408000,21412000,0,0.09895897,12.357863,-0.05408468,12.473841,9.380119e-06,0,1,0,1
21548000,21468000,21468000,0,0.042150497,12.357877,-0.0026598386,12.46396,2.2704635e-08,0,1,0,1
21612000,21528000,21532000,0,-0.03299141,12.358025,0.075040326,12.466761,1.8067407e-05,0,1,0,1
21668000,21588000,21588000,0,0.0005245209,12.358035,0.043107703,12.469021,5.961251e-06,0,1,0,1
21732000,21648000,21652000,0,-0.046052933,12.35818,0.09194767,12.471934,2.7114873e-05,0,1,0,1
21788000,21708000,21708000,0,0.08620453,12.358189,-0.038885333,12.474282,4.8485967e-06,0,1,0,1
21852000,21768000,21772000,0,0.05300331,12.358332,-0.002723284,12.477306,2.3775248e-08,0,1,0,1
21908000,21828000,21828000,0,0.057674408,12.358337,-0.020774603,12.462866,1.3851842e-06,0,1,0,1
21972000,21888000,21892000,0,-0.012931824,12.358478,0.052304424,12.465618,8.778556e-06,0,1,0,1
22028000,21948000,21948000,0,-0.007780075,12.3584795,0.048715677,12.467837,7.613886e-06,0,1,0,1
22092000,22008000,22012000,0,0.020812988,12.358618,0.022030499,12.470703,1.5567458e-06,0,1,0,1
22148000,22068000,22068000,0,0.02100563,12.358618,0.023704153,12.47301,1.8019286e-06,0,1,0,1
22212000,22128000,22132000,0,0.021211624,12.358753,0.025706474,12.475987,2.118703e-06,0,1,0,1
22268000,22188000,22188000,0,0.0026550293,12.358752,0.04620787,12.478378,6.844374e-06,0,1,0,1
22332000,22248000,22252000,0,-0.03919792,12.358886,0.07721886,12.464493,1.9135163e-05,0,1,0,1
22388000,22308000,22308000,0,0.11641312,12.358881,-0.077003434,12.466675,1.9025214e-05,0,1,0,1
22452000,22368000,22372000,0,0.026533127,12.359012,0.015938435,12.469494,8.148967e-07,0,1,0,1
22508000,22428000,22428000,0,0.007892609,12.359005,0.03658677,12.471764,4.293191e-06,0,1,0,1
22572000,22488000,22492000,0,-0.024652481,12.359134,0.071343556,12.474694,1.632073e-05,0,1,0,1
22628000,22548000,22548000,0,0.04170227,12.359125,0.0066530593,12.477049,1.4190279e-07,0,1,0,1
22692000,22608000,22612000,0,-0.07561493,12.359253,0.12323743,12.475359,4.869588e-05,0,1,0,1
22748000,22668000,22668000,0,0.028755188,12.359242,0.01217499,12.465424,4.756529e-07,0,1,0,1
22812000,22728000,22732000,0,0.024168015,12.359366,0.019239563,12.468194,1.1875361e-06,0,1,0,1
22868000,22788000,22788000,0,-0.05547905,12.359354,0.101103164,12.470425,3.2787495e-05,0,1,0,1
22932000,22848000,22852000,0,-0.007642746,12.359476,0.05519105,12.473308,9.768225e-06,0,1,0,1
22988000,22908000,22908000,0,0.016317368,12.359462,0.033255428,12.475624,3.5458697e-06,0,1,0,1
23052000,22968000,22972000,0,-0.086681366,12.359583,0.13889726,12.478618,6.1841616e-05,0,1,0,1
23108000,23028000,23028000,0,0.064777374,12.359567,-0.02362677,12.464203,1.791448e-06,0,1,0,1
23172000,23088000,23092000,0,-0.034025192,12.359685,0.078268185,12.466928,1.9654912e-05,0,1,0,1
23228000,23148000,23148000,0,-0.03333664,12.359667,0.07952562,12.469122,2.0287953e-05,0,1,0,1
23292000,23208000,23212000,0,-0.0044670105,12.359784,0.05290025,12.47196,8.975129e-06,0,1,0,1
23348000,23268000,23268000,0,-0.06034088,12.359764,0.11088506,12.474241,3.942684e-05,0,1,0,1
23412000,23328000,23332000,0,0.025144577,12.3598795,0.027437732,12.47719,2.4134572e-06,0,1,0,1
23468000,23388000,23388000,0,-0.045038223,12.3598585,0.10011798,12.479554,3.2128104e-05,0,1,0,1
23532000,23448000,23452000,0,0.0732193,12.359973,-0.028476596,12.465641,2.6020853e-06,0,1,0,1
23588000,23508000,23508000,0,0.016626358,12.359949,0.03104673,12.467798,3.0924448e-06,0,1,0,1
23652000,23568000,23572000,0,0.021596909,12.360061,0.028887466,12.470592,2.6766513e-06,0,1,0,1
23708000,23628000,23628000,0,-0.043878555,12.360036,0.09684369,12.4728365,3.00772e-05,0,1,0,1
23772000,23688000,23692000,0,0.06496239,12.3601465,-0.009783644,12.475741,3.0689864e-07,0,1,0,1
23828000,23748000,23748000,0,-0.019634247,12.360121,0.07762438,12.478071,1.9315627e-05,0,1,0,1
23892000,23808000,23812000,0,0.065561295,12.36023,-0.006734103,12.476373,1.4538887e-07,0,1,0,1
23948000,23868000,23868000,0,-0.00022888184,12.360203,0.052412648,12.466407,8.814362e-06,0,1,0,1
24012000,23928000,23932000,0,0.04718399,12.360311,0.007652685,12.469154,1.8786709e-07,0,1,0,1
24068000,23988000,23988000,0,0.11767578,12.360281,-0.060117096,12.471362,1.1591565e-05,0,1,0,1
24132000,24048000,24052000,0,0.042024612,12.360388,0.019333016,12.474222,1.1985212e-06,0,1,0,1
24188000,24108000,24108000,0,0.06567192,12.360357,-0.0016086698,12.476516,8.296606e-09,0,1,0,1
24252000,24168000,24172000,0,0.06565857,12.360462,0.0017263442,12.4794855,9.552522e-09,0,1,0,1
24308000,24228000,24228000,0,0.14079285,12.360431,-0.086610354,12.465067,2.4071602e-05,0,1,0,1
24372000,24288000,24292000,0,0.03204155,12.360535,0.025832683,12.467771,2.140968e-06,0,1,0,1
24428000,24348000,24348000,0,-0.14614105,12.3605,0.20639348,12.469943,0.00013664304,0,1,0,1
24492000,24408000,24412000,0,0.02001381,12.360603,0.041417807,12.47276,5.5013797e-06,0,1,0,1
24548000,24468000,24468000,0,0.02507782,12.360569,0.03865537,12.47502,4.791135e-06,0,1,0,1
24612000,24528000,24532000,0,-0.012140274,12.36067,0.07856901,12.477947,1.9788798e-05,0,1,0,1
24668000,24588000,24588000,0,0.026117325,12.360635,0.04229954,12.48029,5.734645e-06,0,1,0,1
24732000,24648000,24652000,0,0.08752823,12.360736,-0.034072142,12.466381,3.724933e-06,0,1,0,1
24788000,24708000,24708000,0,0.002714157,12.360699,0.05351115,12.468519,9.186153e-06,0,1,0,1
24852000,24768000,24772000,0,0.012578964,12.360798,0.046143044,12.471293,6.8290606e-06,0,1,0,1
24908000,24828000,24828000,0,0.017684937,12.36076,0.043279994,12.47352,6.00683e-06,0,1,0,1
24972000,24888000,24892000,0,-0.019493103,12.360858,0.08309245,12.476406,2.2135719e-05,0,1,0,1
25028000,24946000,24948000,0,0.00941658,12.360819,0.05614765,12.478717,1.0105393e-05,0,1,0,1
25076000,24996000,24996000,0,-0.008867264,12.360646,0.07629882,12.480425,1.865805e-05,0,1,0,1
25140000,25056000,25060000,0,0.034065247,12.360746,0.025222797,12.466483,2.0412797e-06,0,1,0,1
25196000,25116000,25116000,0,0.18452835,12.360709,-0.12276325,12.468623,4.8347967e-05,0,1,0,1
25260000,25176000,25180000,0,0.09423447,12.360807,-0.02823314,12.471398,2.5566026e-06,0,1,0,1
25316000,25236000,25236000,0,0.037643433,12.360769,0.031464204,12.473626,3.1746858e-06,0,1,0,1
25380000,25296000,25300000,0,0.0003604889,12.3608675,0.07183031,12.476514,1.654178e-05,0,1,0,1
25436000,25356000,25356000,0,0.01508522,12.360828,0.0594538,12.4788265,1.1330406e-05,0,1,0,1
25500000,25416000,25420000,0,-0.036031723,12.360926,0.09154029,12.465126,2.6889822e-05,0,1,0,1
25556000,25476000,25476000,0,0.19014359,12.360886,-0.13281566,12.467233,5.659636e-05,0,1,0,1
25620000,25536000,25540000,0,0.038722992,12.360981,0.02275518,12.469968,1.6609447e-06,0,1,0,1
25676000,25596000,25596000,0,-0.017416,12.360939,0.08130308,12.472162,2.1199825e-05,0,1,0,1
25740000,25656000,25660000,0,0.0067825317,12.361034,0.05939161,12.475011,1.1310173e-05,0,1,0,1
25796000,25716000,25716000,0,0.08243179,12.360992,-0.01410456,12.477292,6.377621e-07,0,1,0,1
25860000,25776000,25780000,0,0.0071849823,12.361087,0.06447547,12.48025,1.3323727e-05,0,1,0,1
25916000,25836000,25836000,0,-0.04858017,12.361044,0.10548094,12.465788,3.5701647e-05,0,1,0,1
25980000,25896000,25900000,0,0.027479172,12.361136,0.03137025,12.46848,3.1570567e-06,0,1,0,1
26036000,25956000,25956000,0,-0.05205536,12.361093,0.11311895,12.470642,4.1043262e-05,0,1,0,1
26100000,26016000,26020000,0,-0.004098892,12.361184,0.0671486,12.473447,1.4459307e-05,0,1,0,1
26156000,26076000,26076000,0,0.09509659,12.361139,-0.029987238,12.475696,2.883156e-06,0,1,0,1
26220000,26136000,26140000,0,0.005622864,12.361231,0.06284754,12.478613,1.2661064e-05,0,1,0,1
26276000,26196000,26196000,0,0.08600044,12.361186,-0.01531329,12.480946,7.515355e-07,0,1,0,1
26340000,26256000,26260000,0,0.10933685,12.361277,-0.05295777,12.467002,8.998235e-06,0,1,0,1
26396000,26316000,26316000,0,0.02904892,12.36123,0.030421413,12.4691305,2.9688113e-06,0,1,0,1
26460000,26376000,26380000,0,0.06687927,12.36132,-0.0046227425,12.471894,6.85373e-08,0,1,0,1
26516000,26434000,26436000,0,-0.055233,12.361273,0.120260656,12.474112,4.637645e-05,0,1,0,1
26564000,26484000,26484000,0,0.049129486,12.361091,0.017173633,12.47575,9.4562233e-07,0,1,0,1
26628000,26544000,26548000,0,-0.011753082,12.361183,0.08113615,12.478671,2.1101847e-05,0,1,0,1
26684000,26604000,26604000,0,0.031225204,12.361139,0.036934786,12.476395,4.3736304e-06,0,1,0,1
26748000,26664000,26668000,0,-0.0670414,12.361231,0.12799206,12.467141,5.2560463e-05,0,1,0,1
26804000,26724000,26724000,0,-0.018949509,12.361185,0.08164388,12.469275,2.1382873e-05,0,1,0,1
26868000,26784000,26788000,0,-0.05578041,12.361275,0.12107373,12.472045,4.7013455e-05,0,1,0,1
26924000,26844000,26844000,0,0.034503937,12.361229,0.032731943,12.474268,3.4354887e-06,0,1,0,1
26988000,26904000,26908000,0,0.016016006,12.361319,0.054486312,12.477151,9.517423e-06,0,1,0,1
27044000,26964000,26964000,0,0.01650238,12.361272,0.056625426,12.479458,1.0277494e-05,0,1,0,1
27108000,27024000,27028000,0,0.002922058,12.361361,0.055007927,12.465753,9.709392e-06,0,1,0,1
27164000,27084000,27084000,0,0.04097557,12.361313,0.019441158,12.467855,1.2125859e-06,0,1,0,1
27228000,27144000,27148000,0,-0.0104961395,12.361401,0.07415313,12.470588,1.76373e-05,0,1,0,1
27284000,27204000,27204000,0,0.08406639,12.361352,-0.01801014,12.472779,1.0402337e-06,0,1,0,1
27348000,27264000,27268000,0,-0.014690399,12.361439,0.08455793,12.475623,2.2924847e-05,0,1,0,1
27404000,27324000,27324000,0,0.018930435,12.36139,0.05347287,12.477901,9.166118e-06,0,1,0,1
27468000,27384000,27388000,0,0.061662674,12.361477,0.014017239,12.480857,6.2971e-07,0,1,0,1
27524000,27444000,27444000,0,0.04770279,12.361428,0.013484761,12.466385,5.834532e-07,0,1,0,1
27588000,27504000,27508000,0,0.010263443,12.361513,0.05432429,12.469074,9.467033e-06,0,1,0,1
27644000,27564000,27564000,0,0.14221,12.361463,-0.07493383,12.471234,1.8009696e-05,0,1,0,1
27708000,27624000,27628000,0,0.08050537,12.361548,-0.008818448,12.474039,2.4936597e-07,0,1,0,1
27764000,27684000,27684000,0,0.005306244,12.361497,0.06988994,12.476286,1.5660444e-05,0,1,0,1
27828000,27744000,27748000,0,0.0012359619,12.361582,0.07742434,12.479201,1.9214462e-05,0,1,0,1
27884000,27804000,27804000,0,0.048877716,12.36153,0.03283137,12.481532,3.45438e-06,0,1,0,1
27948000,27864000,27868000,0,-0.035337448,12.361616,0.09767638,12.467575,3.060956e-05,0,1,0,1
28004000,27924000,27924000,0,-0.053245544,12.361563,0.11832686,12.469701,4.4912853e-05,0,1,0,1
28068000,27984000,27988000,0,0.08866501,12.361647,-0.020409696,12.4724655,1.3359208e-06,0,1,0,1
28124000,28044000,28044000,0,-0.0054187775,12.361593,0.077621266,12.474681,1.9319326e-05,0,1,0,1
28188000,28104000,28108000,0,0.05161476,12.361676,0.024209186,12.477557,1.8788444e-06,0,1,0,1
28244000,28164000,28164000,0,0.14103699,12.361624,-0.061590515,12.479858,1.2158444e-05,0,1,0,1
28308000,28224000,28228000,0,0.08884239,12.361707,-0.02674704,12.466085,2.2955214e-06,0,1,0,1
28364000,28284000,28284000,0,-0.0006046295,12.361652,0.06649239,12.468181,1.4184068e-05,0,1,0,1
28428000,28344000,28348000,0,0.042245865,12.361733,0.027278371,12.470903,2.386706e-06,0,1,0,1
28484000,28404000,28404000,0,-0.037324905,12.361679,0.110333204,12.473088,3.903898e-05,0,1,0,1
28548000,28464000,28468000,0,0.048173904,12.361761,0.028216287,12.475925,2.5526247e-06,0,1,0,1
28604000,28524000,28524000,0,-0.092422485,12.361706,0.17249814,12.478196,9.538433e-05,0,1,0,1
28668000,28584000,28588000,0,0.026496887,12.361788,0.05650098,12.481144,1.0230987e-05,0,1,0,1
28724000,28644000,28644000,0,-0.0011672974,12.3617325,0.06471852,12.466673,1.343899e-05,0,1,0,1
28788000,28704000,28708000,0,0.04166794,12.361813,0.025338031,12.469357,2.0594994e-06,0,1,0,1
28844000,28764000,28764000,0,0.041894913,12.361756,0.028548293,12.471509,2.6139742e-06,0,1,0,1
28908000,28824000,28828000,0,0.10318565,12.361836,-0.028695136,12.474307,2.640342e-06,0,1,0,1
28964000,28884000,28884000,0,-0.056703568,12.36178,0.13534562,12.476547,5.8729183e-05,0,1,0,1
29028000,28944000,28948000,0,0.0008506775,12.36186,0.08110974,12.479457,2.1086784e-05,0,1,0,1
29084000,29004000,29004000,0,0.10956192,12.361804,-0.024240464,12.481781,1.8830649e-06,0,1,0,1
29148000,29064000,29068000,0,-0.031505585,12.361884,0.1004679,12.467826,3.238351e-05,0,1,0,1
29204000,29124000,29124000,0,0.119636536,12.361827,-0.04751526,12.469947,7.2420517e-06,0,1,0,1
29268000,29184000,29188000,0,-0.040418625,12.361906,0.117665544,12.472706,4.4401528e-05,0,1,0,1
29324000,29244000,29244000,0,-0.015888214,12.361848,0.09627337,12.474915,2.9719038e-05,0,1,0,1
29388000,29304000,29308000,0,0.064790726,12.361927,0.01953996,12.477786,1.2239673e-06,0,1,0,1
29444000,29364000,29364000,0,-0.05710411,12.361869,0.14549026,12.480081,6.7843845e-05,0,1,0,1
29508000,29424000,29428000,0,0.09913635,12.361948,-0.027492352,12.4663105,2.4251901e-06,0,1,0,1
29564000,29484000,29484000,0,0.06602478,12.361889,0.009860203,12.468399,3.1190405e-07,0,1,0,1
29628000,29544000,29548000,0,0.075502396,12.361966,0.005085394,12.471118,8.2947594e-08,0,1,0,1
29684000,29604000,29604000,0,0.03329277,12.361908,0.051551014,12.473297,8.522228e-06,0,1,0,1
29748000,29664000,29668000,0,0.06192398,12.361985,0.027433857,12.47613,2.4129808e-06,0,1,0,1
29804000,29724000,29724000,0,0.20771599,12.361926,-0.11421894,12.4783945,4.1819374e-05,0,1,0,1
29868000,29784000,29788000,0,-0.065618515,12.362004,0.1652995,12.481338,8.75673e-05,0,1,0,1
29924000,29844000,29844000,0,0.11427498,12.361945,-0.035492204,12.466869,4.0417417e-06,0,1,0,1
29988000,29904000,29908000,0,0.04822731,12.362021,0.0355464,12.469548,4.053223e-06,0,1,0,1
30044000,29964000,29964000,0,-0.007795334,12.361961,0.0954561,12.471697,2.9224146e-05,0,1,0,1
30108000,30024000,30028000,0,0.04001236,12.362039,0.051647417,12.47449,8.553314e-06,0,1,0,1
30164000,30082000,30084000,0,0.08272934,12.361979,0.012796886,12.476727,5.250105e-07,0,1,0,1
30212000,30132000,30132000,0,0.0734539,12.361785,0.025674194,12.478376,2.1129806e-06,0,1,0,1
30276000,30192000,30196000,0,0.03142929,12.361865,0.07258014,12.481325,1.6882424e-05,0,1,0,1
30332000,30252000,30252000,0,-0.019563675,12.361809,0.1034377,12.466878,3.432891e-05,0,1,0,1
30396000,30312000,30316000,0,0.02361679,12.361887,0.0640164,12.4695635,1.3145928e-05,0,1,0,1
30452000,30372000,30372000,0,0.09931183,12.36183,-0.008148819,12.471719,2.1297227e-07,0,1,0,1
30516000,30432000,30436000,0,0.0335083,12.361909,0.06244248,12.47452,1.2502488e-05,0,1,0,1
30572000,30492000,30492000,0,0.052850723,12.361851,0.04670888,12.476761,6.994507e-06,0,1,0,1
30636000,30552000,30556000,0,0.08143997,12.36193,0.022558331,12.479673,1.631063e-06,0,1,0,1
30692000,30612000,30612000,0,0.015911102,12.361873,0.077768035,12.4773655,1.9388282e-05,0,1,0,1
30756000,30672000,30676000,0,0.016609192,12.361951,0.06846237,12.468056,1.5037137e-05,0,1,0,1
30812000,30732000,30732000,0,0.1299038,12.361893,-0.041406028,12.4701805,5.4993884e-06,0,1,0,1
30876000,30792000,30796000,0,0.040327072,12.36197,0.053294227,12.472942,9.108595e-06,0,1,0,1
30932000,30852000,30852000,0,-0.015533447,12.361911,0.112945005,12.475155,4.0902334e-05,0,1,0,1
30996000,30912000,30916000,0,-0.033302307,12.361989,0.13456625,12.47803,5.8047866e-05,0,1,0,1
31052000,30972000,30972000,0,0.06650162,12.36193,0.03779053,12.480329,4.5772003e-06,0,1,0,1
31116000,31032000,31036000,0,0.029279709,12.362008,0.05617865,12.466559,1.0126422e-05,0,1,0,1
31172000,31092000,31092000,0,0.029785156,12.361948,0.059190445,12.468653,1.1239414e-05,0,1,0,1
31236000,31152000,31156000,0,0.006843567,12.362024,0.086221844,12.471376,2.384406e-05,0,1,0,1
31292000,31212000,31212000,0,0.17663765,12.361964,-0.08022863,12.473559,2.0640884e-05,0,1,0,1
31356000,31272000,31276000,0,0.05854225,12.362041,0.04345067,12.476397,6.0529037e-06,0,1,0,1
31412000,31332000,31332000,0,0.15283203,12.361981,-0.046867847,12.478666,7.0411215e-06,0,1,0,1
31476000,31392000,31396000,0,-0.021305084,12.362058,0.13281135,12.481613,5.6527482e-05,0,1,0,1
31532000,31452000,31452000,0,0.16768837,12.361999,-0.08175956,12.467138,2.1447182e-05,0,1,0,1
31596000,31512000,31516000,0,0.12469864,12.362074,-0.033440888,12.469823,3.5871979e-06,0,1,0,1
31652000,31572000,31572000,0,0.044582367,12.362013,0.051053323,12.471975,8.359355e-06,0,1,0,1
31716000,31632000,31636000,0,0.049736023,12.362088,0.050228782,12.474774,8.089703e-06,0,1,0,1
31772000,31692000,31692000,0,0.031406403,12.362028,0.07234721,12.4770155,1.6780034e-05,0,1,0,1
31836000,31752000,31756000,0,0.121263504,12.362103,-0.013226591,12.479925,5.607172e-07,0,1,0,1
31892000,31812000,31812000,0,0.088279724,12.362042,0.012722172,12.477608,5.188612e-07,0,1,0,1
31956000,31872000,31876000,0,0.14003944,12.362119,-0.047292024,12.468284,7.175119e-06,0,1,0,1
32012000,31932000,31932000,0,0.09266281,12.362057,0.004537575,12.470406,6.604304e-08,0,1,0,1
32076000,31992000,31996000,0,-0.01997757,12.362131,0.12184831,12.4731655,4.7612648e-05,0,1,0,1
32132000,32052000,32052000,0,0.12666321,12.362069,-0.021714061,12.475376,1.5117796e-06,0,1,0,1
32196000,32112000,32116000,0,0.08421326,12.362144,0.025775239,12.4782505,2.1296669e-06,0,1,0,1
32252000,32172000,32172000,0,0.032798767,12.3620825,0.08128437,12.480546,2.1175832e-05,0,1,0,1
32316000,32232000,32236000,0,-0.018115997,12.362158,0.109258674,12.466758,3.8301725e-05,0,1,0,1
32372000,32292000,32292000,0,0.029817581,12.362095,0.06434645,12.468849,1.3282591e-05,0,1,0,1
32436000,32352000,32356000,0,0.030395508,12.362169,0.06783108,12.471572,1.4756936e-05,0,1,0,1
32492000,32412000,32412000,0,0.11082077,12.362106,-0.009103209,12.473752,2.6573693e-07,0,1,0,1
32556000,32472000,32476000,0,0.08726311,12.362181,0.019380413,12.476587,1.2041768e-06,0,1,0,1
32612000,32532000,32532000,0,0.07335281,12.362119,0.03740669,12.478855,4.485221e-06,0,1,0,1
32676000,32592000,32596000,0,0.054908752,12.362192,0.060473345,12.481801,1.1719545e-05,0,1,0,1
32732000,32652000,32652000,0,0.06014633,12.36213,0.0345836,12.467361,3.8373005e-06,0,1,0,1
32796000,32712000,32716000,0,0.06515312,12.362204,0.033885643,12.470047,3.6831836e-06,0,1,0,1
32852000,32772000,32772000,0,0.098321915,12.362141,0.004492916,12.472199,6.474013e-08,0,1,0,1
32916000,32832000,32836000,0,0.07488823,12.362214,0.032599427,12.474998,3.4075279e-06,0,1,0,1
32972000,32892000,32892000,0,0.0047569275,12.362151,0.10665708,12.477239,3.646875e-05,0,1,0,1
33036000,32952000,32956000,0,0.05266571,12.362225,0.062678285,12.480149,1.2591411e-05,0,1,0,1
33092000,33012000,33012000,0,-0.007806778,12.362162,0.116734855,12.477822,4.3683987e-05,0,1,0,1
33156000,33072000,33076000,0,0.01671791,12.362235,0.08314709,12.468478,2.2178936e-05,0,1,0,1
33212000,33132000,33132000,0,0.0550251,12.362171,0.048295423,12.470599,7.48143e-06,0,1,0,1
33276000,33192000,33196000,0,0.0038146973,12.362244,0.103819065,12.47336,3.456454e-05,0,1,0,1
33332000,33250000,33252000,0,0.018835068,12.36218,0.09205102,12.47557,2.7167947e-05,0,1,0,1
33380000,33300000,33300000,0,-0.00381279,12.361982,0.11748123,12.477201,4.424659e-05,0,1,0,1
33444000,33360000,33364000,0,0.053581238,12.362059,0.06385252,12.480119,1.3067645e-05,0,1,0,1
33500000,33420000,33420000,0,0.17153168,12.3619995,-0.06818545,12.46587,1.491835e-05,0,1,0,1
33564000,33480000,33484000,0,0.05354309,12.362075,0.054921746,12.468525,9.676841e-06,0,1,0,1
33620000,33540000,33540000,0,0.021173477,12.362014,0.090827644,12.470655,2.6461033e-05,0,1,0,1
33684000,33600000,33604000,0,0.13936424,12.362089,-0.02357658,12.473425,1.7825259e-06,0,1,0,1
33740000,33660000,33660000,0,0.08281326,12.362028,0.037242375,12.475643,4.4470476e-06,0,1,0,1
33804000,33720000,33724000,0,0.08314705,12.362103,0.041148536,12.478526,5.42757e-06,0,1,0,1
33860000,33780000,33780000,0,0.13985634,12.362043,-0.011934996,12.48083,4.565213e-07,0,1,0,1
33924000,33840000,33844000,0,0.045848846,12.362119,0.06306683,12.4670105,1.276144e-05,0,1,0,1
33980000,33900000,33900000,0,0.1027565,12.362057,0.009373382,12.46911,2.8184942e-07,0,1,0,1
34044000,33960000,33964000,0,-0.0051460266,12.362131,0.12160699,12.471841,4.7429276e-05,0,1,0,1
34100000,34020000,34020000,0,0.11332321,12.36207,0.005966641,12.4740305,1.1415975e-07,0,1,0,1
34164000,34080000,34084000,0,0.033561707,12.362144,0.0901681,12.476875,2.6065138e-05,0,1,0,1
34220000,34140000,34140000,0,0.14705276,12.3620825,-0.020205587,12.47915,1.3086332e-06,0,1,0,1
34284000,34200000,34204000,0,0.16095543,12.362158,-0.03991983,12.477485,5.1086995e-06,0,1,0,1
34340000,34260000,34260000,0,0.024442673,12.362096,0.08650827,12.467629,2.4009954e-05,0,1,0,1
34404000,34320000,34324000,0,0.14729118,12.362169,-0.033044226,12.470324,3.502462e-06,0,1,0,1
34460000,34380000,34380000,0,0.05778694,12.362107,0.06029255,12.472485,1.1658276e-05,0,1,0,1
34524000,34440000,34444000,0,0.030158997,12.362181,0.09144102,12.475292,2.6809668e-05,0,1,0,1
34580000,34500000,34500000,0,0.14835739,12.362119,-0.02407135,12.47754,1.8575132e-06,0,1,0,1
34644000,34560000,34564000,0,0.087106705,12.362193,0.04136072,12.48046,5.48284e-06,0,1,0,1
34700000,34620000,34620000,0,0.06400299,12.36213,0.038571328,12.4661045,4.773736e-06,0,1,0,1
34764000,34680000,34684000,0,0.073740005,12.362204,0.03185807,12.46876,3.2559349e-06,0,1,0,1
34820000,34740000,34740000,0,0.14914703,12.362141,-0.040862992,12.470889,5.3557824e-06,0,1,0,1
34884000,34800000,34804000,0,0.106523514,12.362213,0.0055534616,12.473658,9.889942e-08,0,1,0,1
34940000,34860000,34860000,0,0.050231934,12.36215,0.06484394,12.475876,1.3481173e-05,0,1,0,1
35004000,34920000,34924000,0,0.121240616,12.362224,-0.0033284202,12.478758,3.5511167e-08,0,1,0,1
35060000,34980000,34980000,0,-0.010250092,12.362161,0.13115364,12.481061,5.5127617e-05,0,1,0,1
35124000,35040000,35044000,0,0.0989151,12.362234,0.0058020726,12.467263,1.0800782e-07,0,1,0,1
35180000,35100000,35100000,0,0.12713623,12.36217,-0.019814476,12.469362,1.25945e-06,0,1,0,1
35244000,35160000,35164000,0,0.08939934,12.362243,0.02113644,12.4720955,1.4327957e-06,0,1,0,1
35300000,35220000,35220000,0,0.037944794,12.36218,0.07510165,12.474285,1.8086033e-05,0,1,0,1
35364000,35280000,35284000,0,0.10434914,12.362252,0.011165738,12.477131,3.9968708e-07,0,1,0,1
35420000,35340000,35340000,0,0.07158661,12.362188,0.046591446,12.479405,6.957904e-06,0,1,0,1
35484000,35400000,35404000,0,0.072006226,12.362262,0.048797272,12.482363,7.630522e-06,0,1,0,1
35540000,35460000,35460000,0,0.044273376,12.362199,0.049185157,12.467795,7.76137e-06,0,1,0,1
35604000,35520000,35524000,0,0.021242142,12.36227,0.074384615,12.470488,1.7747729e-05,0,1,0,1
35660000,35580000,35580000,0,0.012521744,12.3622055,0.08472435,12.472646,2.3020668e-05,0,1,0,1
35724000,35640000,35644000,0,0.09779358,12.362278,0.001270324,12.475453,5.1740745e-09,0,1,0,1
35780000,35700000,35700000,0,0.17761993,12.362214,-0.07629174,12.477699,1.8658662e-05,0,1,0,1
35844000,35758666,35764000,0,0.054862976,12.362287,0.049827874,12.480618,7.957353e-06,0,1,0,1
35900000,35820000,35820000,0,0.06939697,12.362223,0.019770786,12.466246,1.2542156e-06,0,1,0,1
35964000,35880000,35884000,0,0.13060951,12.362294,-0.039264746,12.468899,4.9458104e-06,0,1,0,1
36020000,35940000,35940000,0,0.07391739,12.362229,0.019842036,12.471026,1.2627875e-06,0,1,0,1
36084000,36000000,36004000,0,0.0036697388,12.362301,0.092264995,12.473795,2.7298282e-05,0,1,0,1
36140000,36060000,36060000,0,0.070230484,12.362236,0.027012326,12.47601,2.33942e-06,0,1,0,1
36204000,36120000,36124000,0,0.13620377,12.362308,-0.036746137,12.47889,4.3282007e-06,0,1,0,1
36260000,36180000,36180000,0,0.084228516,12.362244,0.017702915,12.481192,1.0043694e-06,0,1,0,1
36324000,36240000,36244000,0,0.07499695,12.362316,0.009755097,12.467331,3.053161e-07,0,1,0,1
36380000,36300000,36300000,0,0.09386444,12.36225,-0.0073730573,12.469427,1.7438484e-07,0,1,0,1
36444000,36360000,36364000,0,0.13605309,12.362322,-0.04743523,12.472157,7.216398e-06,0,1,0,1
36500000,36420000,36420000,0,0.13092995,12.362256,-0.040040933,12.474341,5.141037e-06,0,1,0,1
36564000,36478666,36484000,0,0.14465523,12.362328,-0.051246464,12.477183,8.419208e-06,0,1,0,1
36620000,36540000,36540000,0,0.026817322,12.362263,0.06897162,12.479456,1.52477305e-05,0,1,0,1
36684000,36600000,36604000,0,0.055606842,12.362334,0.041722417,12.482409,5.5782825e-06,0,1,0,1
36740000,36660000,36660000,0,0.05598259,12.36227,0.026815921,12.467849,2.3070334e-06,0,1,0,1
36804000,36720000,36724000,0,0.0656147,12.362341,0.018798552,12.470539,1.1335053e-06,0,1,0,1
36860000,36780000,36780000,0,0.065784454,12.362275,0.020075023,12.472694,1.2924443e-06,0,1,0,1
36924000,36840000,36844000,0,0.070661545,12.362346,0.016874492,12.475498,9.129847e-07,0,1,0,1
36980000,36900000,36900000,0,0.1271534,12.362281,-0.03816875,12.477741,4.6702476e-06,0,1,0,1
37044000,36960000,36964000,0,0.05638504,12.362351,0.03485219,12.480656,3.8929857e-06,0,1,0,1
37100000,37020000,37020000,0,0.10364914,12.362287,-0.026817247,12.466342,2.3075406e-06,0,1,0,1
37164000,37080000,37084000,0,0.056455612,12.362357,0.022306137,12.468995,1.5961631e-06,0,1,0,1
37220000,37140000,37140000,0,0.08482742,12.362291,-0.0047241524,12.471122,7.1581745e-08,0,1,0,1
37284000,37200000,37204000,0,0.103565216,12.362361,-0.021648712,12.473887,1.502873e-06,0,1,0,1
37340000,37260000,37260000,0,0.13623619,12.362296,-0.05254794,12.476104,8.85304e-06,0,1,0,1
37404000,37320000,37324000,0,0.1639328,12.362367,-0.07790269,12.478983,1.945296e-05,0,1,0,1
37460000,37380000,37380000,0,0.017684937,12.362301,0.07075239,12.481283,1.6042904e-05,0,1,0,1
37524000,37440000,37444000,0,0.10752678,12.362372,-0.030526951,12.467464,2.9898454e-06,0,1,0,1
37580000,37498000,37500000,0,0.022743225,12.362306,0.055921346,12.469561,1.0031458e-05,0,1,0,1
37628000,37548000,37548000,0,0.12653542,12.362105,-0.047156334,12.471112,7.1323866e-06,0,1,0,1
37692000,37608000,37612000,0,0.06977272,12.36218,0.011654161,12.473888,4.3553212e-07,0,1,0,1
37748000,37668000,37668000,0,0.11682701,12.362117,-0.03395038,12.476111,3.6954732e-06,0,1,0,1
37812000,37728000,37732000,0,0.093048096,12.362191,-0.007926427,12.479,2.013887e-07,0,1,0,1
37868000,37788000,37788000,0,0.15401268,12.362128,-0.06704761,12.481307,1.4406767e-05,0,1,0,1
37932000,37848000,37852000,0,0.03603363,12.362203,0.037844516,12.467492,4.5950133e-06,0,1,0,1
37988000,37908000,37908000,0,0.06454468,12.36214,0.010619491,12.469598,3.6175535e-07,0,1,0,1
38052000,37968000,37972000,0,0.11159134,12.362212,-0.03452439,12.472337,3.8226467e-06,0,1,0,1
38108000,38028000,38028000,0,0.1253643,12.362149,-0.046214834,12.474532,6.8485483e-06,0,1,0,1
38172000,38088000,38092000,0,0.09677887,12.362223,-0.015104361,12.477385,7.3137676e-07,0,1,0,1
38228000,38148000,38148000,0,0.0074386597,12.36216,0.07625962,12.479666,1.8640018e-05,0,1,0,1
38292000,38208000,38212000,0,0.055072784,12.362233,0.012040228,12.466014,4.6515936e-07,0,1,0,1
38348000,38268000,38268000,0,0.111522675,12.362169,-0.042743593,12.468089,5.8614105e-06,0,1,0,1
38412000,38328000,38332000,0,0.05949211,12.362242,0.01182463,12.470792,4.4847792e-07,0,1,0,1
38468000,38388000,38388000,0,0.050209045,12.362178,0.02295734,12.472958,1.6901828e-06,0,1,0,1
38532000,38448000,38452000,0,0.045719147,12.36225,0.029508755,12.475774,2.7918638e-06,0,1,0,1
38588000,38508000,38508000,0,0.013120651,12.362187,0.063928835,12.478027,1.3101096e-05,0,1,0,1
38652000,38568000,38572000,0,0.07003403,12.36226,0.00883767,12.480954,2.503155e-07,0,1,0,1
38708000,38628000,38628000,0,0.13114929,12.362197,-0.07148814,12.46654,1.6397667e-05,0,1,0,1
38772000,38686666,38692000,0,0.18684578,12.362268,-0.12442863,12.469202,4.966632e-05,0,1,0,1
38828000,38748000,38748000,0,0.09182739,12.362204,-0.02637712,12.471336,2.2315246e-06,0,1,0,1
38892000,38808000,38812000,0,0.15732002,12.362276,-0.089301646,12.474114,2.5572264e-05,0,1,0,1
38948000,38868000,38868000,0,0.001581192,12.362212,0.069347575,12.476337,1.5418262e-05,0,1,0,1
39012000,38928000,38932000,0,0.01159668,12.362285,0.06115257,12.479227,1.1986758e-05,0,1,0,1
39068000,38988000,38988000,0,0.07787514,12.362221,-0.003395632,12.481536,3.6951597e-08,0,1,0,1
39132000,39048000,39052000,0,0.09193039,12.362293,-0.031819094,12.467633,3.248266e-06,0,1,0,1
39188000,39108000,39108000,0,0.20432472,12.362228,-0.14172003,12.469737,6.442659e-05,0,1,0,1
39252000,39168000,39172000,0,0.08567238,12.3623,-0.019054584,12.472475,1.164411e-06,0,1,0,1
39308000,39228000,39228000,0,0.052635193,12.362235,0.01675713,12.474668,9.003893e-07,0,1,0,1
39372000,39288000,39292000,0,0.052785873,12.362307,0.019571945,12.477519,1.2280038e-06,0,1,0,1
39428000,39348000,39348000,0,0.13277817,12.362242,-0.057775915,12.479797,1.0699072e-05,0,1,0,1
39492000,39408000,39412000,0,0.12756348,12.362314,-0.056577012,12.478097,1.0261047e-05,0,1,0,1
39548000,39468000,39468000,0,0.028459549,12.362249,0.03567303,12.468156,4.082609e-06,0,1,0,1
39612000,39528000,39532000,0,0.09920502,12.362321,-0.03225135,12.470855,3.3362576e-06,0,1,0,1
39668000,39588000,39588000,0,0.051963806,12.362255,0.018077701,12.473017,1.0480329e-06,0,1,0,1
39732000,39648000,39652000,0,0.07090759,12.362327,0.0022999123,12.47583,1.6959502e-08,0,1,0,1
39788000,39708000,39708000,0,0.0005016327,12.362262,0.075644106,12.47808,1.8342664e-05,0,1,0,1
39852000,39768000,39772000,0,0.062217712,12.362333,0.016767628,12.481004,9.010601e-07,0,1,0,1
39908000,39828000,39828000,0,0.09053993,12.362268,-0.027866073,12.466596,2.491516e-06,0,1,0,1
39972000,39888000,39892000,0,0.1607132,12.362339,-0.09437073,12.4692545,2.856894e-05,0,1,0,1
40028000,39948000,39948000,0,0.037792206,12.362273,0.032526597,12.471387,3.393302e-06,0,1,0,1
40092000,40008000,40012000,0,0.085035324,12.362345,-0.011211477,12.474161,4.0306426e-07,0,1,0,1
40148000,40068000,40068000,0,0.014509201,12.362279,0.06287893,12.476381,1.2675981e-05,0,1,0,1
40212000,40128000,40132000,0,0.108976364,12.36235,-0.028047465,12.479268,2.5214952e-06,0,1,0,1
40268000,40188000,40188000,0,0.13220024,12.362285,-0.047263846,12.481572,7.158941e-06,0,1,0,1
40332000,40248000,40252000,0,-0.009077072,12.362356,0.07899539,12.467729,2.0020558e-05,0,1,0,1
40388000,40308000,40308000,0,0.024499893,12.36229,0.048273966,12.469831,7.475244e-06,0,1,0,1
40452000,40368000,40372000,0,0.14700508,12.362361,-0.07051356,12.472569,1.594591e-05,0,1,0,1
40508000,40428000,40428000,0,0.17453957,12.362295,-0.093676455,12.474761,2.8137703e-05,0,1,0,1
40572000,40488000,40492000,0,0.14552689,12.362366,-0.059370488,12.477611,1.1299774e-05,0,1,0,1
40628000,40548000,40548000,0,0.10743332,12.3623,-0.016738065,12.479889,8.979657e-07,0,1,0,1
40692000,40608000,40612000,0,0.19648743,12.362371,-0.10468854,12.478186,3.5132318e-05,0,1,0,1
40748000,40668000,40668000,0,0.12042427,12.362306,-0.036608905,12.468237,4.2996035e-06,0,1,0,1
40812000,40728000,40732000,0,0.09192467,12.362375,-0.0030267537,12.470935,2.9384283e-08,0,1,0,1
40868000,40788000,40788000,0,0.049642563,12.362309,0.043676816,12.473097,6.1176925e-06,0,1,0,1
40932000,40848000,40852000,0,0.17680168,12.36238,-0.07865677,12.475908,1.9836272e-05,0,1,0,1
40988000,40908000,40908000,0,0.096279144,12.362314,0.00726486,12.478157,1.6918587e-07,0,1,0,1
41052000,40968000,40972000,0,-0.0069465637,12.362385,0.11588865,12.48108,4.304172e-05,0,1,0,1
41108000,41028000,41028000,0,0.06921768,12.362319,0.013932571,12.466665,6.2283385e-07,0,1,0,1
41172000,41088000,41092000,0,0.102207184,12.362389,-0.014202632,12.469324,6.470752e-07,0,1,0,1
41228000,41148000,41148000,0,0.10207939,12.362322,-0.0094688535,12.471455,2.8756608e-07,0,1,0,1
41292000,41208000,41212000,0,0.120773315,12.362392,-0.022796802,12.474229,1.6664571e-06,0,1,0,1
41348000,41268000,41268000,0,-0.020282745,12.362326,0.12319567,12.476447,4.8658643e-05,0,1,0,1
41412000,41328000,41332000,0,0.1686287,12.362396,-0.061225638,12.479333,1.2015317e-05,0,1,0,1
