timestamp,data_rate,rate_multiplier,tx_rate_avg,tx_error_rate_avg,tx_message_count,tx_buffer_overruns,rx_rate_avg,rx_message_count,rx_message_lost_count,rx_buffer_overruns,rx_parse_errors,rx_packet_drop_count,rx_message_lost_rate,type,mode,flow_control,forwarding,mavlink_v2,ftp,streams,heartbeat_type_antenna_tracker,heartbeat_type_gcs,heartbeat_type_onboard_controller,heartbeat_type_gimbal,heartbeat_type_adsb,heartbeat_type_camera,heartbeat_type_parachute,heartbeat_type_open_drone_id,heartbeat_component_telemetry_radio,heartbeat_component_log,heartbeat_component_osd,heartbeat_component_obstacle_avoidance,heartbeat_component_vio,heartbeat_component_pairing_manager,heartbeat_component_udp_bridge,heartbeat_component_uart_bridge,avoidance_system_healthy,open_drone_id_system_healthy,parachute_system_healthy
3556000,4000000.0,1.0,0.0,0.0,2,0,0.0,0,0,0,0,0,0.0,0,2,0,1,1,1,59,0,0,0,0,0,0,0,0,0,0,0,0,0,0,0,0,0,0,0
4812000,4000000.0,1.0,22882.47,0.0,458,0,0.0,0,0,0,0,0,0.0,0,2,0,1,1,1,59,0,0,0,0,0,0,0,0,0,0,0,0,0,0,0,0,0,0,0
6068000,4000000.0,1.0,24500.0,0.0,958,0,0.0,0,0,0,0,0,0.0,0,2,0,1,1,1,59,0,0,0,0,0,0,0,0,0,0,0,0,0,0,0,0,0,0,0
7320000,4000000.0,1.0,24179.283,0.0,1441,0,0.0,0,0,0,0,0,0.0,0,2,0,1,1,1,59,0,0,0,0,0,0,0,0,0,0,0,0,0,0,0,0,0,0,0
8320000,4000000.0,1.0,24426.295,0.0,1836,0,0.0,0,0,0,0,0,0.0,0,2,0,1,1,1,59,0,0,0,0,0,0,0,0,0,0,0,0,0,0,0,0,0,0,0
8580000,4000000.0,1.0,24221.117,0.0,1949,0,0.0,0,0,0,0,0,0.0,0,2,0,1,1,1,59,0,0,0,0,0,0,0,0,0,0,0,0,0,0,0,0,0,0,0
9840000,4000000.0,1.0,26390.44,0.0,2512,0,0.0,0,0,0,0,0,0.0,0,2,0,1,1,1,59,0,0,0,0,0,0,0,0,0,0,0,0,0,0,0,0,0,0,0
11100000,4000000.0,1.0,26213.148,0.0,3062,0,0.0,0,0,0,0,0,0.0,0,2,0,1,1,1,59,0,0,0,0,0,0,0,0,0,0,0,0,0,0,0,0,0,0,0
12352000,4000000.0,1.0,26852.59,0.0,3623,0,0.0,0,0,0,0,0,0.0,0,2,0,1,1,1,59,0,0,0,0,0,0,0,0,0,0,0,0,0,0,0,0,0,0,0
13352000,4000000.0,1.0,26272.908,0.0,4065,0,0.0,0,0,0,0,0,0.0,0,2,0,1,1,1,59,0,0,0,0,0,0,0,0,0,0,0,0,0,0,0,0,0,0,0
13608000,4000000.0,1.0,26523.904,0.0,4184,0,0.0,0,0,0,0,0,0.0,0,2,0,1,1,1,59,0,0,0,0,0,0,0,0,0,0,0,0,0,0,0,0,0,0,0
14868000,4000000.0,1.0,26206.176,0.0,4741,0,0.0,0,0,0,0,0,0.0,0,2,0,1,1,1,59,0,0,0,0,0,0,0,0,0,0,0,0,0,0,0,0,0,0,0
16120000,4000000.0,1.0,26439.244,0.0,5290,0,0.0,0,0,0,0,0,0.0,0,2,0,1,1,1,59,0,0,0,0,0,0,0,0,0,0,0,0,0,0,0,0,0,0,0
17372000,4000000.0,1.0,26242.033,0.0,5846,0,0.0,0,0,0,0,0,0.0,0,2,0,1,1,1,59,0,0,0,0,0,0,0,0,0,0,0,0,0,0,0,0,0,0,0
18372000,4000000.0,1.0,26500.0,0.0,6291,0,0.0,0,0,0,0,0,0.0,0,2,0,1,1,1,59,0,0,0,0,0,0,0,0,0,0,0,0,0,0,0,0,0,0,0
18624000,4000000.0,1.0,26294.822,0.0,6406,0,0.0,0,0,0,0,0,0.0,0,2,0,1,1,1,59,0,0,0,0,0,0,0,0,0,0,0,0,0,0,0,0,0,0,0
19884000,4000000.0,1.0,26751.992,0.0,6969,0,0.0,0,0,0,0,0,0.0,0,2,0,1,1,1,59,0,0,0,0,0,0,0,0,0,0,0,0,0,0,0,0,0,0,0
21144000,4000000.0,1.0,26198.207,0.0,7529,0,0.0,0,0,0,0,0,0.0,0,2,0,1,1,1,59,0,0,0,0,0,0,0,0,0,0,0,0,0,0,0,0,0,0,0
22404000,4000000.0,1.0,26478.088,0.0,8079,0,0.0,0,0,0,0,0,0.0,0,2,0,1,1,1,59,0,0,0,0,0,0,0,0,0,0,0,0,0,0,0,0,0,0,0
23404000,4000000.0,1.0,26287.85,0.0,8520,0,0.0,0,0,0,0,0,0.0,0,2,0,1,1,1,59,0,0,0,0,0,0,0,0,0,0,0,0,0,0,0,0,0,0,0
23664000,4000000.0,1.0,26496.018,0.0,8649,0,0.0,0,0,0,0,0,0.0,0,2,0,1,1,1,59,0,0,0,0,0,0,0,0,0,0,0,0,0,0,0,0,0,0,0
24924000,4000000.0,1.0,26265.938,0.0,9199,0,0.0,0,0,0,0,0,0.0,0,2,0,1,1,1,59,0,0,0,0,0,0,0,0,0,0,0,0,0,0,0,0,0,0,0
26176000,4000000.0,1.0,26415.34,0.0,9758,0,0.0,0,0,0,0,0,0.0,0,2,0,1,1,1,59,0,0,0,0,0,0,0,0,0,0,0,0,0,0,0,0,0,0,0
27436000,4000000.0,1.0,26252.988,0.0,10304,0,0.0,0,0,0,0,0,0.0,0,2,0,1,1,1,59,0,0,0,0,0,0,0,0,0,0,0,0,0,0,0,0,0,0,0
28436000,4000000.0,1.0,27274.9,0.0,10751,0,0.0,0,0,0,0,0,0.0,0,2,0,1,1,1,59,0,0,0,0,0,0,0,0,0,0,0,0,0,0,0,0,0,0,0
28696000,4000000.0,1.0,26295.818,0.0,10876,0,0.0,0,0,0,0,0,0.0,0,2,0,1,1,1,59,0,0,0,0,0,0,0,0,0,0,0,0,0,0,0,0,0,0,0
29952000,4000000.0,1.0,26453.188,0.0,11439,0,0.0,0,0,0,0,0,0.0,0,2,0,1,1,1,59,0,0,0,0,0,0,0,0,0,0,0,0,0,0,0,0,0,0,0
31204000,4000000.0,1.0,26228.088,0.0,11985,0,0.0,0,0,0,0,0,0.0,0,2,0,1,1,1,59,0,0,0,0,0,0,0,0,0,0,0,0,0,0,0,0,0,0,0
32464000,4000000.0,1.0,26454.184,0.0,12546,0,0.0,0,0,0,0,0,0.0,0,2,0,1,1,1,59,0,0,0,0,0,0,0,0,0,0,0,0,0,0,0,0,0,0,0
33464000,4000000.0,1.0,26284.861,0.0,12988,0,0.0,0,0,0,0,0,0.0,0,2,0,1,1,1,59,0,0,0,0,0,0,0,0,0,0,0,0,0,0,0,0,0,0,0
33724000,4000000.0,1.0,26521.914,0.0,13107,0,0.0,0,0,0,0,0,0.0,0,2,0,1,1,1,59,0,0,0,0,0,0,0,0,0,0,0,0,0,0,0,0,0,0,0
34984000,4000000.0,1.0,26239.045,0.0,13668,0,0.0,0,0,0,0,0,0.0,0,2,0,1,1,1,59,0,0,0,0,0,0,0,0,0,0,0,0,0,0,0,0,0,0,0
36236000,4000000.0,1.0,26426.295,0.0,14214,0,0.0,0,0,0,0,0,0.0,0,2,0,1,1,1,59,0,0,0,0,0,0,0,0,0,0,0,0,0,0,0,0,0,0,0
37496000,4000000.0,1.0,26537.85,0.0,14774,0,0.0,0,0,0,0,0,0.0,0,2,0,1,1,1,59,0,0,0,0,0,0,0,0,0,0,0,0,0,0,0,0,0,0,0
38496000,4000000.0,1.0,26499.004,0.0,15221,0,0.0,0,0,0,0,0,0.0,0,2,0,1,1,1,59,0,0,0,0,0,0,0,0,0,0,0,0,0,0,0,0,0,0,0
38752000,4000000.0,1.0,26375.498,0.0,15345,0,0.0,0,0,0,0,0,0.0,0,2,0,1,1,1,59,0,0,0,0,0,0,0,0,0,0,0,0,0,0,0,0,0,0,0
40004000,4000000.0,1.0,26433.268,0.0,15883,0,0.0,0,0,0,0,0,0.0,0,2,0,1,1,1,59,0,0,0,0,0,0,0,0,0,0,0,0,0,0,0,0,0,0,0
41264000,4000000.0,1.0,26136.455,0.0,16429,0,0.0,0,0,0,0,0,0.0,0,2,0,1,1,1,59,0,0,0,0,0,0,0,0,0,0,0,0,0,0,0,0,0,0,0
42512000,4000000.0,1.0,26280.877,0.0,16964,0,0.0,0,0,0,0,0,0.0,0,2,0,1,1,1,59,0,0,0,0,0,0,0,0,0,0,0,0,0,0,0,0,0,0,0
43512000,4000000.0,1.0,26223.107,0.0,17398,0,0.0,0,0,0,0,0,0.0,0,2,0,1,1,1,59,0,0,0,0,0,0,0,0,0,0,0,0,0,0,0,0,0,0,0
43772000,4000000.0,1.0,26325.697,0.0,17523,0,0.0,0,0,0,0,0,0.0,0,2,0,1,1,1,59,0,0,0,0,0,0,0,0,0,0,0,0,0,0,0,0,0,0,0
45024000,4000000.0,1.0,26461.156,0.0,18059,0,0.0,0,0,0,0,0,0.0,0,2,0,1,1,1,59,0,0,0,0,0,0,0,0,0,0,0,0,0,0,0,0,0,0,0
46280000,4000000.0,1.0,26254.98,0.0,18607,0,0.0,0,0,0,0,0,0.0,0,2,0,1,1,1,59,0,0,0,0,0,0,0,0,0,0,0,0,0,0,0,0,0,0,0
47280000,4000000.0,1.0,26177.291,0.0,19040,0,0.0,0,0,0,0,0,0.0,0,2,0,1,1,1,59,0,0,0,0,0,0,0,0,0,0,0,0,0,0,0,0,0,0,0
47532000,4000000.0,1.0,26177.291,0.0,19140,0,0.0,0,0,0,0,0,0.0,0,2,0,1,1,1,59,0,0,0,0,0,0,0,0,0,0,0,0,0,0,0,0,0,0,0
48792000,4000000.0,1.0,26236.057,0.0,19701,0,0.0,0,0,0,0,0,0.0,0,2,0,1,1,1,59,0,0,0,0,0,0,0,0,0,0,0,0,0,0,0,0,0,0,0
50052000,4000000.0,1.0,26282.87,0.0,20251,0,0.0,0,0,0,0,0,0.0,0,2,0,1,1,1,59,0,0,0,0,0,0,0,0,0,0,0,0,0,0,0,0,0,0,0
51308000,4000000.0,1.0,26291.834,0.0,20800,0,0.0,0,0,0,0,0,0.0,0,2,0,1,1,1,59,0,0,0,0,0,0,0,0,0,0,0,0,0,0,0,0,0,0,0
52308000,4000000.0,1.0,26425.299,0.0,21246,0,0.0,0,0,0,0,0,0.0,0,2,0,1,1,1,59,0,0,0,0,0,0,0,0,0,0,0,0,0,0,0,0,0,0,0
52564000,4000000.0,1.0,26425.299,0.0,21369,0,0.0,0,0,0,0,0,0.0,0,2,0,1,1,1,59,0,0,0,0,0,0,0,0,0,0,0,0,0,0,0,0,0,0,0
53820000,4000000.0,1.0,26457.172,0.0,21919,0,0.0,0,0,0,0,0,0.0,0,2,0,1,1,1,59,0,0,0,0,0,0,0,0,0,0,0,0,0,0,0,0,0,0,0
55072000,4000000.0,1.0,26317.73,0.0,22475,0,0.0,0,0,0,0,0,0.0,0,2,0,1,1,1,59,0,0,0,0,0,0,0,0,0,0,0,0,0,0,0,0,0,0,0
56332000,4000000.0,1.0,26358.566,0.0,23027,0,0.0,0,0,0,0,0,0.0,0,2,0,1,1,1,59,0,0,0,0,0,0,0,0,0,0,0,0,0,0,0,0,0,0,0
57332000,4000000.0,1.0,26307.77,0.0,23468,0,0.0,0,0,0,0,0,0.0,0,2,0,1,1,1,59,0,0,0,0,0,0,0,0,0,0,0,0,0,0,0,0,0,0,0
57584000,4000000.0,1.0,26307.77,0.0,23597,0,0.0,0,0,0,0,0,0.0,0,2,0,1,1,1,59,0,0,0,0,0,0,0,0,0,0,0,0,0,0,0,0,0,0,0
58840000,4000000.0,1.0,26564.742,0.0,24160,0,0.0,0,0,0,0,0,0.0,0,2,0,1,1,1,59,0,0,0,0,0,0,0,0,0,0,0,0,0,0,0,0,0,0,0
60092000,4000000.0,1.0,27190.24,0.0,24721,0,0.0,0,0,0,0,0,0.0,0,2,0,1,1,1,59,0,0,0,0,0,0,0,0,0,0,0,0,0,0,0,0,0,0,0
61348000,4000000.0,1.0,27176.295,0.0,25295,0,0.0,0,0,0,0,0,0.0,0,2,0,1,1,1,59,0,0,0,0,0,0,0,0,0,0,0,0,0,0,0,0,0,0,0
62348000,4000000.0,1.0,27504.98,0.0,25750,0,0.0,0,0,0,0,0,0.0,0,2,0,1,1,1,59,0,0,0,0,0,0,0,0,0,0,0,0,0,0,0,0,0,0,0
62608000,4000000.0,1.0,27504.98,0.0,25867,0,0.0,0,0,0,0,0,0.0,0,2,0,1,1,1,59,0,0,0,0,0,0,0,0,0,0,0,0,0,0,0,0,0,0,0
63868000,4000000.0,1.0,27277.889,0.0,26440,0,0.0,0,0,0,0,0,0.0,0,2,0,1,1,1,59,0,0,0,0,0,0,0,0,0,0,0,0,0,0,0,0,0,0,0
65128000,4000000.0,1.0,27099.602,0.0,27003,0,0.0,0,0,0,0,0,0.0,0,2,0,1,1,1,59,0,0,0,0,0,0,0,0,0,0,0,0,0,0,0,0,0,0,0
66388000,4000000.0,1.0,27181.275,0.0,27579,0,0.0,0,0,0,0,0,0.0,0,2,0,1,1,1,59,0,0,0,0,0,0,0,0,0,0,0,0,0,0,0,0,0,0,0
67388000,4000000.0,1.0,27114.543,0.0,28031,0,0.0,0,0,0,0,0,0.0,0,2,0,1,1,1,59,0,0,0,0,0,0,0,0,0,0,0,0,0,0,0,0,0,0,0
67648000,4000000.0,1.0,27114.543,0.0,28161,0,0.0,0,0,0,0,0,0.0,0,2,0,1,1,1,59,0,0,0,0,0,0,0,0,0,0,0,0,0,0,0,0,0,0,0
68908000,4000000.0,1.0,27157.371,0.0,28723,0,0.0,0,0,0,0,0,0.0,0,2,0,1,1,1,59,0,0,0,0,0,0,0,0,0,0,0,0,0,0,0,0,0,0,0
70164000,4000000.0,1.0,27502.988,0.0,29297,0,0.0,0,0,0,0,0,0.0,0,2,0,1,1,1,59,0,0,0,0,0,0,0,0,0,0,0,0,0,0,0,0,0,0,0
71424000,4000000.0,1.0,27073.705,0.0,29858,0,0.0,0,0,0,0,0,0.0,0,2,0,1,1,1,59,0,0,0,0,0,0,0,0,0,0,0,0,0,0,0,0,0,0,0
72424000,4000000.0,1.0,27208.168,0.0,30313,0,0.0,0,0,0,0,0,0.0,0,2,0,1,1,1,59,0,0,0,0,0,0,0,0,0,0,0,0,0,0,0,0,0,0,0
72676000,4000000.0,1.0,27208.168,0.0,30438,0,0.0,0,0,0,0,0,0.0,0,2,0,1,1,1,59,0,0,0,0,0,0,0,0,0,0,0,0,0,0,0,0,0,0,0
73936000,4000000.0,1.0,27319.723,0.0,31001,0,0.0,0,0,0,0,0,0.0,0,2,0,1,1,1,59,0,0,0,0,0,0,0,0,0,0,0,0,0,0,0,0,0,0,0
75196000,4000000.0,1.0,27045.818,0.0,31575,0,0.0,0,0,0,0,0,0.0,0,2,0,1,1,1,59,0,0,0,0,0,0,0,0,0,0,0,0,0,0,0,0,0,0,0
76456000,4000000.0,1.0,27249.004,0.0,32149,0,0.0,0,0,0,0,0,0.0,0,2,0,1,1,1,59,0,0,0,0,0,0,0,0,0,0,0,0,0,0,0,0,0,0,0
77456000,4000000.0,1.0,27046.814,0.0,32601,0,0.0,0,0,0,0,0,0.0,0,2,0,1,1,1,59,0,0,0,0,0,0,0,0,0,0,0,0,0,0,0,0,0,0,0
77716000,4000000.0,1.0,27046.814,0.0,32723,0,0.0,0,0,0,0,0,0.0,0,2,0,1,1,1,59,0,0,0,0,0,0,0,0,0,0,0,0,0,0,0,0,0,0,0
78976000,4000000.0,1.0,27102.59,0.0,33297,0,0.0,0,0,0,0,0,0.0,0,2,0,1,1,1,59,0,0,0,0,0,0,0,0,0,0,0,0,0,0,0,0,0,0,0
80236000,4000000.0,1.0,27275.896,0.0,33859,0,0.0,0,0,0,0,0,0.0,0,2,0,1,1,1,59,0,0,0,0,0,0,0,0,0,0,0,0,0,0,0,0,0,0,0
81496000,4000000.0,1.0,27004.98,0.0,34430,0,0.0,0,0,0,0,0,0.0,0,2,0,1,1,1,59,0,0,0,0,0,0,0,0,0,0,0,0,0,0,0,0,0,0,0
82496000,4000000.0,1.0,27287.85,0.0,34886,0,0.0,0,0,0,0,0,0.0,0,2,0,1,1,1,59,0,0,0,0,0,0,0,0,0,0,0,0,0,0,0,0,0,0,0
82748000,4000000.0,1.0,27287.85,0.0,35013,0,0.0,0,0,0,0,0,0.0,0,2,0,1,1,1,59,0,0,0,0,0,0,0,0,0,0,0,0,0,0,0,0,0,0,0
84004000,4000000.0,1.0,27319.723,0.0,35574,0,0.0,0,0,0,0,0,0.0,0,2,0,1,1,1,59,0,0,0,0,0,0,0,0,0,0,0,0,0,0,0,0,0,0,0
85256000,4000000.0,1.0,27073.705,0.0,36143,0,0.0,0,0,0,0,0,0.0,0,2,0,1,1,1,59,0,0,0,0,0,0,0,0,0,0,0,0,0,0,0,0,0,0,0
86516000,4000000.0,1.0,27285.857,0.0,36708,0,0.0,0,0,0,0,0,0.0,0,2,0,1,1,1,59,0,0,0,0,0,0,0,0,0,0,0,0,0,0,0,0,0,0,0
87516000,4000000.0,1.0,27343.627,0.0,37160,0,0.0,0,0,0,0,0,0.0,0,2,0,1,1,1,59,0,0,0,0,0,0,0,0,0,0,0,0,0,0,0,0,0,0,0
87768000,4000000.0,1.0,27343.627,0.0,37290,0,0.0,0,0,0,0,0,0.0,0,2,0,1,1,1,59,0,0,0,0,0,0,0,0,0,0,0,0,0,0,0,0,0,0,0
89024000,4000000.0,1.0,27161.355,0.0,37850,0,0.0,0,0,0,0,0,0.0,0,2,0,1,1,1,59,0,0,0,0,0,0,0,0,0,0,0,0,0,0,0,0,0,0,0
90276000,4000000.0,1.0,27232.072,0.0,38428,0,0.0,0,0,0,0,0,0.0,0,2,0,1,1,1,59,0,0,0,0,0,0,0,0,0,0,0,0,0,0,0,0,0,0,0
91276000,4000000.0,1.0,27204.184,0.0,38885,0,0.0,0,0,0,0,0,0.0,0,2,0,1,1,1,59,0,0,0,0,0,0,0,0,0,0,0,0,0,0,0,0,0,0,0
91528000,4000000.0,1.0,27204.184,0.0,38991,0,0.0,0,0,0,0,0,0.0,0,2,0,1,1,1,59,0,0,0,0,0,0,0,0,0,0,0,0,0,0,0,0,0,0,0
92780000,4000000.0,1.0,27209.164,0.0,39578,0,0.0,0,0,0,0,0,0.0,0,2,0,1,1,1,59,0,0,0,0,0,0,0,0,0,0,0,0,0,0,0,0,0,0,0
94040000,4000000.0,1.0,27389.443,0.0,40160,0,0.0,0,0,0,0,0,0.0,0,2,0,1,1,1,59,0,0,0,0,0,0,0,0,0,0,0,0,0,0,0,0,0,0,0
95300000,4000000.0,1.0,27487.053,0.0,40723,0,0.0,0,0,0,0,0,0.0,0,2,0,1,1,1,59,0,0,0,0,0,0,0,0,0,0,0,0,0,0,0,0,0,0,0
96300000,4000000.0,1.0,27235.06,0.0,41190,0,0.0,0,0,0,0,0,0.0,0,2,0,1,1,1,59,0,0,0,0,0,0,0,0,0,0,0,0,0,0,0,0,0,0,0
96552000,4000000.0,1.0,27235.06,0.0,41320,0,0.0,0,0,0,0,0,0.0,0,2,0,1,1,1,59,0,0,0,0,0,0,0,0,0,0,0,0,0,0,0,0,0,0,0
97808000,4000000.0,1.0,27591.635,0.0,41908,0,0.0,0,0,0,0,0,0.0,0,2,0,1,1,1,59,0,0,0,0,0,0,0,0,0,0,0,0,0,0,0,0,0,0,0
99060000,4000000.0,1.0,27572.71,0.0,42486,0,0.0,0,0,0,0,0,0.0,0,2,0,1,1,1,59,0,0,0,0,0,0,0,0,0,0,0,0,0,0,0,0,0,0,0
100316000,4000000.0,1.0,27738.049,0.0,43070,0,0.0,0,0,0,0,0,0.0,0,2,0,1,1,1,59,0,0,0,0,0,0,0,0,0,0,0,0,0,0,0,0,0,0,0
101316000,4000000.0,1.0,27849.602,0.0,43543,0,0.0,0,0,0,0,0,0.0,0,2,0,1,1,1,59,0,0,0,0,0,0,0,0,0,0,0,0,0,0,0,0,0,0,0
101580000,4000000.0,1.0,27849.602,0.0,43681,0,0.0,0,0,0,0,0,0.0,0,2,0,1,1,1,59,0,0,0,0,0,0,0,0,0,0,0,0,0,0,0,0,0,0,0
102840000,4000000.0,1.0,28007.969,0.0,44279,0,0.0,0,0,0,0,0,0.0,0,2,0,1,1,1,59,0,0,0,0,0,0,0,0,0,0,0,0,0,0,0,0,0,0,0
104096000,4000000.0,1.0,28050.797,0.0,44865,0,0.0,0,0,0,0,0,0.0,0,2,0,1,1,1,59,0,0,0,0,0,0,0,0,0,0,0,0,0,0,0,0,0,0,0
105348000,4000000.0,1.0,27888.447,0.0,45462,0,0.0,0,0,0,0,0,0.0,0,2,0,1,1,1,59,0,0,0,0,0,0,0,0,0,0,0,0,0,0,0,0,0,0,0
106348000,4000000.0,1.0,28017.93,0.0,45945,0,0.0,0,0,0,0,0,0.0,0,2,0,1,1,1,59,0,0,0,0,0,0,0,0,0,0,0,0,0,0,0,0,0,0,0
106600000,4000000.0,1.0,28017.93,0.0,46065,0,0.0,0,0,0,0,0,0.0,0,2,0,1,1,1,59,0,0,0,0,0,0,0,0,0,0,0,0,0,0,0,0,0,0,0
107860000,4000000.0,1.0,28004.98,0.0,46666,0,0.0,0,0,0,0,0,0.0,0,2,0,1,1,1,59,0,0,0,0,0,0,0,0,0,0,0,0,0,0,0,0,0,0,0
109120000,4000000.0,1.0,27962.152,0.0,47253,0,0.0,0,0,0,0,0,0.0,0,2,0,1,1,1,59,0,0,0,0,0,0,0,0,0,0,0,0,0,0,0,0,0,0,0
110368000,4000000.0,1.0,28004.98,0.0,47849,0,0.0,0,0,0,0,0,0.0,0,2,0,1,1,1,59,0,0,0,0,0,0,0,0,0,0,0,0,0,0,0,0,0,0,0
111368000,4000000.0,1.0,28217.133,0.0,48322,0,0.0,0,0,0,0,0,0.0,0,2,0,1,1,1,59,0,0,0,0,0,0,0,0,0,0,0,0,0,0,0,0,0,0,0
111628000,4000000.0,1.0,28217.133,0.0,48448,0,0.0,0,0,0,0,0,0.0,0,2,0,1,1,1,59,0,0,0,0,0,0,0,0,0,0,0,0,0,0,0,0,0,0,0
112880000,4000000.0,1.0,28017.93,0.0,49042,0,0.0,0,0,0,0,0,0.0,0,2,0,1,1,1,59,0,0,0,0,0,0,0,0,0,0,0,0,0,0,0,0,0,0,0
114140000,4000000.0,1.0,28048.805,0.0,49644,0,0.0,0,0,0,0,0,0.0,0,2,0,1,1,1,59,0,0,0,0,0,0,0,0,0,0,0,0,0,0,0,0,0,0,0
115396000,4000000.0,1.0,27927.291,0.0,50227,0,0.0,0,0,0,0,0,0.0,0,2,0,1,1,1,59,0,0,0,0,0,0,0,0,0,0,0,0,0,0,0,0,0,0,0
116396000,4000000.0,1.0,27975.1,0.0,50702,0,0.0,0,0,0,0,0,0.0,0,2,0,1,1,1,59,0,0,0,0,0,0,0,0,0,0,0,0,0,0,0,0,0,0,0
116648000,4000000.0,1.0,27975.1,0.0,50834,0,0.0,0,0,0,0,0,0.0,0,2,0,1,1,1,59,0,0,0,0,0,0,0,0,0,0,0,0,0,0,0,0,0,0,0
117908000,4000000.0,1.0,27899.402,0.0,51425,0,0.0,0,0,0,0,0,0.0,0,2,0,1,1,1,59,0,0,0,0,0,0,0,0,0,0,0,0,0,0,0,0,0,0,0
119160000,4000000.0,1.0,27943.229,0.0,52017,0,0.0,0,0,0,0,0,0.0,0,2,0,1,1,1,59,0,0,0,0,0,0,0,0,0,0,0,0,0,0,0,0,0,0,0
120416000,4000000.0,1.0,28298.805,0.0,52605,0,0.0,0,0,0,0,0,0.0,0,2,0,1,1,1,59,0,0,0,0,0,0,0,0,0,0,0,0,0,0,0,0,0,0,0
121416000,4000000.0,1.0,27935.26,0.0,53087,0,0.0,0,0,0,0,0,0.0,0,2,0,1,1,1,59,0,0,0,0,0,0,0,0,0,0,0,0,0,0,0,0,0,0,0
121668000,4000000.0,1.0,27935.26,0.0,53221,0,0.0,0,0,0,0,0,0.0,0,2,0,1,1,1,59,0,0,0,0,0,0,0,0,0,0,0,0,0,0,0,0,0,0,0
122920000,4000000.0,1.0,28095.62,0.0,53806,0,0.0,0,0,0,0,0,0.0,0,2,0,1,1,1,59,0,0,0,0,0,0,0,0,0,0,0,0,0,0,0,0,0,0,0
124180000,4000000.0,1.0,28061.754,0.0,54408,0,0.0,0,0,0,0,0,0.0,0,2,0,1,1,1,59,0,0,0,0,0,0,0,0,0,0,0,0,0,0,0,0,0,0,0
125436000,4000000.0,1.0,27957.172,0.0,54991,0,0.0,0,0,0,0,0,0.0,0,2,0,1,1,1,59,0,0,0,0,0,0,0,0,0,0,0,0,0,0,0,0,0,0,0
126436000,4000000.0,1.0,27962.152,0.0,55465,0,0.0,0,0,0,0,0,0.0,0,2,0,1,1,1,59,0,0,0,0,0,0,0,0,0,0,0,0,0,0,0,0,0,0,0
126688000,4000000.0,1.0,27962.152,0.0,55597,0,0.0,0,0,0,0,0,0.0,0,2,0,1,1,1,59,0,0,0,0,0,0,0,0,0,0,0,0,0,0,0,0,0,0,0
127940000,4000000.0,1.0,27925.299,0.0,56196,0,0.0,0,0,0,0,0,0.0,0,2,0,1,1,1,59,0,0,0,0,0,0,0,0,0,0,0,0,0,0,0,0,0,0,0
129200000,4000000.0,1.0,27952.191,0.0,56780,0,0.0,0,0,0,0,0,0.0,0,2,0,1,1,1,59,0,0,0,0,0,0,0,0,0,0,0,0,0,0,0,0,0,0,0
130460000,4000000.0,1.0,28015.938,0.0,57381,0,0.0,0,0,0,0,0,0.0,0,2,0,1,1,1,59,0,0,0,0,0,0,0,0,0,0,0,0,0,0,0,0,0,0,0
131460000,4000000.0,1.0,27977.092,0.0,57863,0,0.0,0,0,0,0,0,0.0,0,2,0,1,1,1,59,0,0,0,0,0,0,0,0,0,0,0,0,0,0,0,0,0,0,0
131720000,4000000.0,1.0,27977.092,0.0,57990,0,0.0,0,0,0,0,0,0.0,0,2,0,1,1,1,59,0,0,0,0,0,0,0,0,0,0,0,0,0,0,0,0,0,0,0
132980000,4000000.0,1.0,28054.781,0.0,58589,0,0.0,0,0,0,0,0,0.0,0,2,0,1,1,1,59,0,0,0,0,0,0,0,0,0,0,0,0,0,0,0,0,0,0,0
134232000,4000000.0,1.0,28036.854,0.0,59174,0,0.0,0,0,0,0,0,0.0,0,2,0,1,1,1,59,0,0,0,0,0,0,0,0,0,0,0,0,0,0,0,0,0,0,0
135484000,4000000.0,1.0,27903.387,0.0,59768,0,0.0,0,0,0,0,0,0.0,0,2,0,1,1,1,59,0,0,0,0,0,0,0,0,0,0,0,0,0,0,0,0,0,0,0
136484000,4000000.0,1.0,28323.705,0.0,60244,0,0.0,0,0,0,0,0,0.0,0,2,0,1,1,1,59,0,0,0,0,0,0,0,0,0,0,0,0,0,0,0,0,0,0,0
136732000,4000000.0,1.0,28323.705,0.0,60362,0,0.0,0,0,0,0,0,0.0,0,2,0,1,1,1,59,0,0,0,0,0,0,0,0,0,0,0,0,0,0,0,0,0,0,0
137996000,4000000.0,1.0,27913.348,0.0,60974,0,0.0,0,0,0,0,0,0.0,0,2,0,1,1,1,59,0,0,0,0,0,0,0,0,0,0,0,0,0,0,0,0,0,0,0
139256000,4000000.0,1.0,27970.121,0.0,61571,0,0.0,0,0,0,0,0,0.0,0,2,0,1,1,1,59,0,0,0,0,0,0,0,0,0,0,0,0,0,0,0,0,0,0,0
140508000,4000000.0,1.0,28059.762,0.0,62159,0,0.0,0,0,0,0,0,0.0,0,2,0,1,1,1,59,0,0,0,0,0,0,0,0,0,0,0,0,0,0,0,0,0,0,0
141508000,4000000.0,1.0,27807.77,0.0,62631,0,0.0,0,0,0,0,0,0.0,0,2,0,1,1,1,59,0,0,0,0,0,0,0,0,0,0,0,0,0,0,0,0,0,0,0
141764000,4000000.0,1.0,27807.77,0.0,62767,0,0.0,0,0,0,0,0,0.0,0,2,0,1,1,1,59,0,0,0,0,0,0,0,0,0,0,0,0,0,0,0,0,0,0,0
143016000,4000000.0,1.0,28060.758,0.0,63350,0,0.0,0,0,0,0,0,0.0,0,2,0,1,1,1,59,0,0,0,0,0,0,0,0,0,0,0,0,0,0,0,0,0,0,0
144268000,4000000.0,1.0,28093.627,0.0,63945,0,0.0,0,0,0,0,0,0.0,0,2,0,1,1,1,59,0,0,0,0,0,0,0,0,0,0,0,0,0,0,0,0,0,0,0
145268000,4000000.0,1.0,28142.432,0.0,64418,0,0.0,0,0,0,0,0,0.0,0,2,0,1,1,1,59,0,0,0,0,0,0,0,0,0,0,0,0,0,0,0,0,0,0,0
145528000,4000000.0,1.0,28142.432,0.0,64533,0,0.0,0,0,0,0,0,0.0,0,2,0,1,1,1,59,0,0,0,0,0,0,0,0,0,0,0,0,0,0,0,0,0,0,0
146780000,4000000.0,1.0,28020.918,0.0,65140,0,0.0,0,0,0,0,0,0.0,0,2,0,1,1,1,59,0,0,0,0,0,0,0,0,0,0,0,0,0,0,0,0,0,0,0
148036000,4000000.0,1.0,27834.662,0.0,65727,0,0.0,0,0,0,0,0,0.0,0,2,0,1,1,1,59,0,0,0,0,0,0,0,0,0,0,0,0,0,0,0,0,0,0,0
149288000,4000000.0,1.0,27877.49,0.0,66322,0,0.0,0,0,0,0,0,0.0,0,2,0,1,1,1,59,0,0,0,0,0,0,0,0,0,0,0,0,0,0,0,0,0,0,0
150288000,4000000.0,1.0,28106.574,0.0,66796,0,0.0,0,0,0,0,0,0.0,0,2,0,1,1,1,59,0,0,0,0,0,0,0,0,0,0,0,0,0,0,0,0,0,0,0
150540000,4000000.0,1.0,28106.574,0.0,66928,0,0.0,0,0,0,0,0,0.0,0,2,0,1,1,1,59,0,0,0,0,0,0,0,0,0,0,0,0,0,0,0,0,0,0,0
151800000,4000000.0,1.0,27809.762,0.0,67518,0,0.0,0,0,0,0,0,0.0,0,2,0,1,1,1,59,0,0,0,0,0,0,0,0,0,0,0,0,0,0,0,0,0,0,0
153060000,4000000.0,1.0,28062.75,0.0,68113,0,0.0,0,0,0,0,0,0.0,0,2,0,1,1,1,59,0,0,0,0,0,0,0,0,0,0,0,0,0,0,0,0,0,0,0
154312000,4000000.0,1.0,28119.523,0.0,68701,0,0.0,0,0,0,0,0,0.0,0,2,0,1,1,1,59,0,0,0,0,0,0,0,0,0,0,0,0,0,0,0,0,0,0,0
155312000,4000000.0,1.0,27885.459,0.0,69175,0,0.0,0,0,0,0,0,0.0,0,2,0,1,1,1,59,0,0,0,0,0,0,0,0,0,0,0,0,0,0,0,0,0,0,0
155568000,4000000.0,1.0,27885.459,0.0,69311,0,0.0,0,0,0,0,0,0.0,0,2,0,1,1,1,59,0,0,0,0,0,0,0,0,0,0,0,0,0,0,0,0,0,0,0
156820000,4000000.0,1.0,28191.236,0.0,69906,0,0.0,0,0,0,0,0,0.0,0,2,0,1,1,1,59,0,0,0,0,0,0,0,0,0,0,0,0,0,0,0,0,0,0,0
158068000,4000000.0,1.0,28086.654,0.0,70507,0,0.0,0,0,0,0,0,0.0,0,2,0,1,1,1,59,0,0,0,0,0,0,0,0,0,0,0,0,0,0,0,0,0,0,0
159332000,4000000.0,1.0,27893.428,0.0,71095,0,0.0,0,0,0,0,0,0.0,0,2,0,1,1,1,59,0,0,0,0,0,0,0,0,0,0,0,0,0,0,0,0,0,0,0
160332000,4000000.0,1.0,28065.738,0.0,71571,0,0.0,0,0,0,0,0,0.0,0,2,0,1,1,1,59,0,0,0,0,0,0,0,0,0,0,0,0,0,0,0,0,0,0,0
160588000,4000000.0,1.0,28065.738,0.0,71704,0,0.0,0,0,0,0,0,0.0,0,2,0,1,1,1,59,0,0,0,0,0,0,0,0,0,0,0,0,0,0,0,0,0,0,0
161840000,4000000.0,1.0,28156.375,0.0,72302,0,0.0,0,0,0,0,0,0.0,0,2,0,1,1,1,59,0,0,0,0,0,0,0,0,0,0,0,0,0,0,0,0,0,0,0
163088000,4000000.0,1.0,28051.793,0.0,72884,0,0.0,0,0,0,0,0,0.0,0,2,0,1,1,1,59,0,0,0,0,0,0,0,0,0,0,0,0,0,0,0,0,0,0,0
164348000,4000000.0,1.0,28105.578,0.0,73485,0,0.0,0,0,0,0,0,0.0,0,2,0,1,1,1,59,0,0,0,0,0,0,0,0,0,0,0,0,0,0,0,0,0,0,0
165348000,4000000.0,1.0,27835.658,0.0,73958,0,0.0,0,0,0,0,0,0.0,0,2,0,1,1,1,59,0,0,0,0,0,0,0,0,0,0,0,0,0,0,0,0,0,0,0
165600000,4000000.0,1.0,27835.658,0.0,74077,0,0.0,0,0,0,0,0,0.0,0,2,0,1,1,1,59,0,0,0,0,0,0,0,0,0,0,0,0,0,0,0,0,0,0,0
166860000,4000000.0,1.0,28034.861,0.0,74677,0,0.0,0,0,0,0,0,0.0,0,2,0,1,1,1,59,0,0,0,0,0,0,0,0,0,0,0,0,0,0,0,0,0,0,0
168112000,4000000.0,1.0,27913.348,0.0,75274,0,0.0,0,0,0,0,0,0.0,0,2,0,1,1,1,59,0,0,0,0,0,0,0,0,0,0,0,0,0,0,0,0,0,0,0
169372000,4000000.0,1.0,28200.2,0.0,75890,0,0.0,0,0,0,0,0,0.0,0,2,0,1,1,1,59,0,0,0,0,0,0,0,0,0,0,0,0,0,0,0,0,0,0,0
170372000,4000000.0,1.0,28539.842,0.0,76369,0,0.0,0,0,0,0,0,0.0,0,2,0,1,1,1,59,0,0,0,0,0,0,0,0,0,0,0,0,0,0,0,0,0,0,0
170632000,4000000.0,1.0,28539.842,0.0,76492,0,0.0,0,0,0,0,0,0.0,0,2,0,1,1,1,59,0,0,0,0,0,0,0,0,0,0,0,0,0,0,0,0,0,0,0
171892000,4000000.0,1.0,27975.1,0.0,77098,0,0.0,0,0,0,0,0,0.0,0,2,0,1,1,1,59,0,0,0,0,0,0,0,0,0,0,0,0,0,0,0,0,0,0,0
173148000,4000000.0,1.0,28288.846,0.0,77703,0,0.0,0,0,0,0,0,0.0,0,2,0,1,1,1,59,0,0,0,0,0,0,0,0,0,0,0,0,0,0,0,0,0,0,0
174408000,4000000.0,1.0,28288.846,0.0,78298,0,0.0,0,0,0,0,0,0.0,0,2,0,1,1,1,59,0,0,0,0,0,0,0,0,0,0,0,0,0,0,0,0,0,0,0
175408000,4000000.0,1.0,28084.662,0.0,78776,0,0.0,0,0,0,0,0,0.0,0,2,0,1,1,1,59,0,0,0,0,0,0,0,0,0,0,0,0,0,0,0,0,0,0,0
175672000,4000000.0,1.0,28084.662,0.0,78913,0,0.0,0,0,0,0,0,0.0,0,2,0,1,1,1,59,0,0,0,0,0,0,0,0,0,0,0,0,0,0,0,0,0,0,0
176932000,4000000.0,1.0,28190.24,0.0,79505,0,0.0,0,0,0,0,0,0.0,0,2,0,1,1,1,59,0,0,0,0,0,0,0,0,0,0,0,0,0,0,0,0,0,0,0
178180000,4000000.0,1.0,28027.889,0.0,80110,0,0.0,0,0,0,0,0,0.0,0,2,0,1,1,1,59,0,0,0,0,0,0,0,0,0,0,0,0,0,0,0,0,0,0,0
179440000,4000000.0,1.0,28069.723,0.0,80712,0,0.0,0,0,0,0,0,0.0,0,2,0,1,1,1,59,0,0,0,0,0,0,0,0,0,0,0,0,0,0,0,0,0,0,0
180440000,4000000.0,1.0,28231.076,0.0,81192,0,0.0,0,0,0,0,0,0.0,0,2,0,1,1,1,59,0,0,0,0,0,0,0,0,0,0,0,0,0,0,0,0,0,0,0
180704000,4000000.0,1.0,28231.076,0.0,81317,0,0.0,0,0,0,0,0,0.0,0,2,0,1,1,1,59,0,0,0,0,0,0,0,0,0,0,0,0,0,0,0,0,0,0,0
181964000,4000000.0,1.0,28002.988,0.0,81924,0,0.0,0,0,0,0,0,0.0,0,2,0,1,1,1,59,0,0,0,0,0,0,0,0,0,0,0,0,0,0,0,0,0,0,0
183216000,4000000.0,1.0,28231.076,0.0,82514,0,0.0,0,0,0,0,0,0.0,0,2,0,1,1,1,59,0,0,0,0,0,0,0,0,0,0,0,0,0,0,0,0,0,0,0
184476000,4000000.0,1.0,28295.818,0.0,83120,0,0.0,0,0,0,0,0,0.0,0,2,0,1,1,1,59,0,0,0,0,0,0,0,0,0,0,0,0,0,0,0,0,0,0,0
185476000,4000000.0,1.0,28035.857,0.0,83598,0,0.0,0,0,0,0,0,0.0,0,2,0,1,1,1,59,0,0,0,0,0,0,0,0,0,0,0,0,0,0,0,0,0,0,0
185736000,4000000.0,1.0,28035.857,0.0,83723,0,0.0,0,0,0,0,0,0.0,0,2,0,1,1,1,59,0,0,0,0,0,0,0,0,0,0,0,0,0,0,0,0,0,0,0
186996000,4000000.0,1.0,28542.83,0.0,84327,0,0.0,0,0,0,0,0,0.0,0,2,0,1,1,1,59,0,0,0,0,0,0,0,0,0,0,0,0,0,0,0,0,0,0,0
188248000,4000000.0,1.0,28049.8,0.0,84933,0,0.0,0,0,0,0,0,0.0,0,2,0,1,1,1,59,0,0,0,0,0,0,0,0,0,0,0,0,0,0,0,0,0,0,0
189504000,4000000.0,1.0,28083.666,0.0,85522,0,0.0,0,0,0,0,0,0.0,0,2,0,1,1,1,59,0,0,0,0,0,0,0,0,0,0,0,0,0,0,0,0,0,0,0
190504000,4000000.0,1.0,28264.941,0.0,86004,0,0.0,0,0,0,0,0,0.0,0,2,0,1,1,1,59,0,0,0,0,0,0,0,0,0,0,0,0,0,0,0,0,0,0,0
190756000,4000000.0,1.0,28264.941,0.0,86135,0,0.0,0,0,0,0,0,0.0,0,2,0,1,1,1,59,0,0,0,0,0,0,0,0,0,0,0,0,0,0,0,0,0,0,0
192008000,4000000.0,1.0,28036.854,0.0,86729,0,0.0,0,0,0,0,0,0.0,0,2,0,1,1,1,59,0,0,0,0,0,0,0,0,0,0,0,0,0,0,0,0,0,0,0
193268000,4000000.0,1.0,28193.229,0.0,87331,0,0.0,0,0,0,0,0,0.0,0,2,0,1,1,1,59,0,0,0,0,0,0,0,0,0,0,0,0,0,0,0,0,0,0,0
194268000,4000000.0,1.0,28153.387,0.0,87811,0,0.0,0,0,0,0,0,0.0,0,2,0,1,1,1,59,0,0,0,0,0,0,0,0,0,0,0,0,0,0,0,0,0,0,0
194524000,4000000.0,1.0,28191.236,0.0,87925,0,0.0,0,0,0,0,0,0.0,0,2,0,1,1,1,59,0,0,0,0,0,0,0,0,0,0,0,0,0,0,0,0,0,0,0
195776000,4000000.0,1.0,28350.598,0.0,88538,0,0.0,0,0,0,0,0,0.0,0,2,0,1,1,1,59,0,0,0,0,0,0,0,0,0,0,0,0,0,0,0,0,0,0,0
197028000,4000000.0,1.0,28201.195,0.0,89129,0,0.0,0,0,0,0,0,0.0,0,2,0,1,1,1,59,0,0,0,0,0,0,0,0,0,0,0,0,0,0,0,0,0,0,0
198288000,4000000.0,1.0,28029.88,0.0,89734,0,0.0,0,0,0,0,0,0.0,0,2,0,1,1,1,59,0,0,0,0,0,0,0,0,0,0,0,0,0,0,0,0,0,0,0
199288000,4000000.0,1.0,28258.965,0.0,90212,0,0.0,0,0,0,0,0,0.0,0,2,0,1,1,1,59,0,0,0,0,0,0,0,0,0,0,0,0,0,0,0,0,0,0,0
199540000,4000000.0,1.0,28084.662,0.0,90347,0,0.0,0,0,0,0,0,0.0,0,2,0,1,1,1,59,0,0,0,0,0,0,0,0,0,0,0,0,0,0,0,0,0,0,0
200792000,4000000.0,1.0,28232.072,0.0,90935,0,0.0,0,0,0,0,0,0.0,0,2,0,1,1,1,59,0,0,0,0,0,0,0,0,0,0,0,0,0,0,0,0,0,0,0
202052000,4000000.0,1.0,28070.719,0.0,91542,0,0.0,0,0,0,0,0,0.0,0,2,0,1,1,1,59,0,0,0,0,0,0,0,0,0,0,0,0,0,0,0,0,0,0,0
203300000,4000000.0,1.0,28160.36,0.0,92131,0,0.0,0,0,0,0,0,0.0,0,2,0,1,1,1,59,0,0,0,0,0,0,0,0,0,0,0,0,0,0,0,0,0,0,0
204300000,4000000.0,1.0,29000.0,0.0,92611,0,0.0,0,0,0,0,0,0.0,0,2,0,1,1,1,59,0,0,0,0,0,0,0,0,0,0,0,0,0,0,0,0,0,0,0
204556000,4000000.0,1.0,28191.236,0.0,92743,0,0.0,0,0,0,0,0,0.0,0,2,0,1,1,1,59,0,0,0,0,0,0,0,0,0,0,0,0,0,0,0,0,0,0,0
205812000,4000000.0,1.0,28094.623,0.0,93340,0,0.0,0,0,0,0,0,0.0,0,2,0,1,1,1,59,0,0,0,0,0,0,0,0,0,0,0,0,0,0,0,0,0,0,0
207064000,4000000.0,1.0,28176.295,0.0,93938,0,0.0,0,0,0,0,0,0.0,0,2,0,1,1,1,59,0,0,0,0,0,0,0,0,0,0,0,0,0,0,0,0,0,0,0
208324000,4000000.0,1.0,28042.83,0.0,94535,0,0.0,0,0,0,0,0,0.0,0,2,0,1,1,1,59,0,0,0,0,0,0,0,0,0,0,0,0,0,0,0,0,0,0,0
209324000,4000000.0,1.0,28260.957,0.0,95012,0,0.0,0,0,0,0,0,0.0,0,2,0,1,1,1,59,0,0,0,0,0,0,0,0,0,0,0,0,0,0,0,0,0,0,0
209576000,4000000.0,1.0,28086.654,0.0,95147,0,0.0,0,0,0,0,0,0.0,0,2,0,1,1,1,59,0,0,0,0,0,0,0,0,0,0,0,0,0,0,0,0,0,0,0
210836000,4000000.0,1.0,28175.299,0.0,95739,0,0.0,0,0,0,0,0,0.0,0,2,0,1,1,1,59,0,0,0,0,0,0,0,0,0,0,0,0,0,0,0,0,0,0,0
212096000,4000000.0,1.0,28439.244,0.0,96345,0,0.0,0,0,0,0,0,0.0,0,2,0,1,1,1,59,0,0,0,0,0,0,0,0,0,0,0,0,0,0,0,0,0,0,0
213356000,4000000.0,1.0,28133.467,0.0,96950,0,0.0,0,0,0,0,0,0.0,0,2,0,1,1,1,59,0,0,0,0,0,0,0,0,0,0,0,0,0,0,0,0,0,0,0
214356000,4000000.0,1.0,28155.379,0.0,97430,0,0.0,0,0,0,0,0,0.0,0,2,0,1,1,1,59,0,0,0,0,0,0,0,0,0,0,0,0,0,0,0,0,0,0,0
214608000,4000000.0,1.0,28185.26,0.0,97553,0,0.0,0,0,0,0,0,0.0,0,2,0,1,1,1,59,0,0,0,0,0,0,0,0,0,0,0,0,0,0,0,0,0,0,0
215868000,4000000.0,1.0,28090.639,0.0,98157,0,0.0,0,0,0,0,0,0.0,0,2,0,1,1,1,59,0,0,0,0,0,0,0,0,0,0,0,0,0,0,0,0,0,0,0
217120000,4000000.0,1.0,28196.217,0.0,98753,0,0.0,0,0,0,0,0,0.0,0,2,0,1,1,1,59,0,0,0,0,0,0,0,0,0,0,0,0,0,0,0,0,0,0,0
218380000,4000000.0,1.0,28087.65,0.0,99360,0,0.0,0,0,0,0,0,0.0,0,2,0,1,1,1,59,0,0,0,0,0,0,0,0,0,0,0,0,0,0,0,0,0,0,0
219380000,4000000.0,1.0,28154.383,0.0,99833,0,0.0,0,0,0,0,0,0.0,0,2,0,1,1,1,59,0,0,0,0,0,0,0,0,0,0,0,0,0,0,0,0,0,0,0
219632000,4000000.0,1.0,27902.39,0.0,99953,0,0.0,0,0,0,0,0,0.0,0,2,0,1,1,1,59,0,0,0,0,0,0,0,0,0,0,0,0,0,0,0,0,0,0,0
220888000,4000000.0,1.0,28314.742,0.0,100550,0,0.0,0,0,0,0,0,0.0,0,2,0,1,1,1,59,0,0,0,0,0,0,0,0,0,0,0,0,0,0,0,0,0,0,0
222144000,4000000.0,1.0,27899.402,0.0,101150,0,0.0,0,0,0,0,0,0.0,0,2,0,1,1,1,59,0,0,0,0,0,0,0,0,0,0,0,0,0,0,0,0,0,0,0
223400000,4000000.0,1.0,27977.092,0.0,101735,0,0.0,0,0,0,0,0,0.0,0,2,0,1,1,1,59,0,0,0,0,0,0,0,0,0,0,0,0,0,0,0,0,0,0,0
224400000,4000000.0,1.0,27985.06,0.0,102210,0,0.0,0,0,0,0,0,0.0,0,2,0,1,1,1,59,0,0,0,0,0,0,0,0,0,0,0,0,0,0,0,0,0,0,0
224652000,4000000.0,1.0,28021.914,0.0,102339,0,0.0,0,0,0,0,0,0.0,0,2,0,1,1,1,59,0,0,0,0,0,0,0,0,0,0,0,0,0,0,0,0,0,0,0
225912000,4000000.0,1.0,27943.229,0.0,102930,0,0.0,0,0,0,0,0,0.0,0,2,0,1,1,1,59,0,0,0,0,0,0,0,0,0,0,0,0,0,0,0,0,0,0,0
227172000,4000000.0,1.0,28031.873,0.0,103536,0,0.0,0,0,0,0,0,0.0,0,2,0,1,1,1,59,0,0,0,0,0,0,0,0,0,0,0,0,0,0,0,0,0,0,0
228432000,4000000.0,1.0,28023.904,0.0,104132,0,0.0,0,0,0,0,0,0.0,0,2,0,1,1,1,59,0,0,0,0,0,0,0,0,0,0,0,0,0,0,0,0,0,0,0
229432000,4000000.0,1.0,29036.854,0.0,104606,0,0.0,0,0,0,0,0,0.0,0,2,0,1,1,1,59,0,0,0,0,0,0,0,0,0,0,0,0,0,0,0,0,0,0,0
229684000,4000000.0,1.0,27971.117,0.0,104737,0,0.0,0,0,0,0,0,0.0,0,2,0,1,1,1,59,0,0,0,0,0,0,0,0,0,0,0,0,0,0,0,0,0,0,0
230944000,4000000.0,1.0,28026.893,0.0,105337,0,0.0,0,0,0,0,0,0.0,0,2,0,1,1,1,59,0,0,0,0,0,0,0,0,0,0,0,0,0,0,0,0,0,0,0
232196000,4000000.0,1.0,27910.36,0.0,105921,0,0.0,0,0,0,0,0,0.0,0,2,0,1,1,1,59,0,0,0,0,0,0,0,0,0,0,0,0,0,0,0,0,0,0,0
233456000,4000000.0,1.0,27890.44,0.0,106505,0,0.0,0,0,0,0,0,0.0,0,2,0,1,1,1,59,0,0,0,0,0,0,0,0,0,0,0,0,0,0,0,0,0,0,0
234456000,4000000.0,1.0,27613.547,0.0,106970,0,0.0,0,0,0,0,0,0.0,0,2,0,1,1,1,59,0,0,0,0,0,0,0,0,0,0,0,0,0,0,0,0,0,0,0
234708000,4000000.0,1.0,27664.344,0.0,107089,0,0.0,0,0,0,0,0,0.0,0,2,0,1,1,1,59,0,0,0,0,0,0,0,0,0,0,0,0,0,0,0,0,0,0,0
235968000,4000000.0,1.0,27565.738,0.0,107682,0,0.0,0,0,0,0,0,0.0,0,2,0,1,1,1,59,0,0,0,0,0,0,0,0,0,0,0,0,0,0,0,0,0,0,0
237228000,4000000.0,1.0,28102.59,0.0,108258,0,0.0,0,0,0,0,0,0.0,0,2,0,1,1,1,59,0,0,0,0,0,0,0,0,0,0,0,0,0,0,0,0,0,0,0
238488000,4000000.0,1.0,27304.781,0.0,108834,0,0.0,0,0,0,0,0,0.0,0,2,0,1,1,1,59,0,0,0,0,0,0,0,0,0,0,0,0,0,0,0,0,0,0,0
239488000,4000000.0,1.0,27107.57,0.0,109285,0,0.0,0,0,0,0,0,0.0,0,2,0,1,1,1,59,0,0,0,0,0,0,0,0,0,0,0,0,0,0,0,0,0,0,0
239740000,4000000.0,1.0,27107.57,0.0,109417,0,0.0,0,0,0,0,0,0.0,0,2,0,1,1,1,59,0,0,0,0,0,0,0,0,0,0,0,0,0,0,0,0,0,0,0
240996000,4000000.0,1.0,27276.893,0.0,109975,0,0.0,0,0,0,0,0,0.0,0,2,0,1,1,1,59,0,0,0,0,0,0,0,0,0,0,0,0,0,0,0,0,0,0,0
242248000,4000000.0,1.0,27072.71,0.0,110547,0,0.0,0,0,0,0,0,0.0,0,2,0,1,1,1,59,0,0,0,0,0,0,0,0,0,0,0,0,0,0,0,0,0,0,0
243508000,4000000.0,1.0,27133.467,0.0,111108,0,0.0,0,0,0,0,0,0.0,0,2,0,1,1,1,59,0,0,0,0,0,0,0,0,0,0,0,0,0,0,0,0,0,0,0
244508000,4000000.0,1.0,27560.758,0.0,111564,0,0.0,0,0,0,0,0,0.0,0,2,0,1,1,1,59,0,0,0,0,0,0,0,0,0,0,0,0,0,0,0,0,0,0,0
244760000,4000000.0,1.0,27560.758,0.0,111690,0,0.0,0,0,0,0,0,0.0,0,2,0,1,1,1,59,0,0,0,0,0,0,0,0,0,0,0,0,0,0,0,0,0,0,0
246016000,4000000.0,1.0,27060.758,0.0,112252,0,0.0,0,0,0,0,0,0.0,0,2,0,1,1,1,59,0,0,0,0,0,0,0,0,0,0,0,0,0,0,0,0,0,0,0
247268000,4000000.0,1.0,27264.941,0.0,112821,0,0.0,0,0,0,0,0,0.0,0,2,0,1,1,1,59,0,0,0,0,0,0,0,0,0,0,0,0,0,0,0,0,0,0,0
248268000,4000000.0,1.0,27086.654,0.0,113275,0,0.0,0,0,0,0,0,0.0,0,2,0,1,1,1,59,0,0,0,0,0,0,0,0,0,0,0,0,0,0,0,0,0,0,0
248528000,4000000.0,1.0,27280.877,0.0,113385,0,0.0,0,0,0,0,0,0.0,0,2,0,1,1,1,59,0,0,0,0,0,0,0,0,0,0,0,0,0,0,0,0,0,0,0
249788000,4000000.0,1.0,27119.523,0.0,113971,0,0.0,0,0,0,0,0,0.0,0,2,0,1,1,1,59,0,0,0,0,0,0,0,0,0,0,0,0,0,0,0,0,0,0,0
251048000,4000000.0,1.0,27235.06,0.0,114542,0,0.0,0,0,0,0,0,0.0,0,2,0,1,1,1,59,0,0,0,0,0,0,0,0,0,0,0,0,0,0,0,0,0,0,0
252308000,4000000.0,1.0,27101.594,0.0,115107,0,0.0,0,0,0,0,0,0.0,0,2,0,1,1,1,59,0,0,0,0,0,0,0,0,0,0,0,0,0,0,0,0,0,0,0
253308000,4000000.0,1.0,27179.283,0.0,115559,0,0.0,0,0,0,0,0,0.0,0,2,0,1,1,1,59,0,0,0,0,0,0,0,0,0,0,0,0,0,0,0,0,0,0,0
253560000,4000000.0,1.0,28495.021,0.0,115687,0,0.0,0,0,0,0,0,0.0,0,2,0,1,1,1,59,0,0,0,0,0,0,0,0,0,0,0,0,0,0,0,0,0,0,0
254820000,4000000.0,1.0,27064.742,0.0,116250,0,0.0,0,0,0,0,0,0.0,0,2,0,1,1,1,59,0,0,0,0,0,0,0,0,0,0,0,0,0,0,0,0,0,0,0
256080000,4000000.0,1.0,27261.953,0.0,116825,0,0.0,0,0,0,0,0,0.0,0,2,0,1,1,1,59,0,0,0,0,0,0,0,0,0,0,0,0,0,0,0,0,0,0,0
257332000,4000000.0,1.0,27074.701,0.0,117380,0,0.0,0,0,0,0,0,0.0,0,2,0,1,1,1,59,0,0,0,0,0,0,0,0,0,0,0,0,0,0,0,0,0,0,0
258332000,4000000.0,1.0,27236.057,0.0,117836,0,0.0,0,0,0,0,0,0.0,0,2,0,1,1,1,59,0,0,0,0,0,0,0,0,0,0,0,0,0,0,0,0,0,0,0
258592000,4000000.0,1.0,27123.506,0.0,117964,0,0.0,0,0,0,0,0,0.0,0,2,0,1,1,1,59,0,0,0,0,0,0,0,0,0,0,0,0,0,0,0,0,0,0,0
259852000,4000000.0,1.0,27291.834,0.0,118540,0,0.0,0,0,0,0,0,0.0,0,2,0,1,1,1,59,0,0,0,0,0,0,0,0,0,0,0,0,0,0,0,0,0,0,0
261112000,4000000.0,1.0,27048.805,0.0,119102,0,0.0,0,0,0,0,0,0.0,0,2,0,1,1,1,59,0,0,0,0,0,0,0,0,0,0,0,0,0,0,0,0,0,0,0
262372000,4000000.0,1.0,27622.512,0.0,119679,0,0.0,0,0,0,0,0,0.0,0,2,0,1,1,1,59,0,0,0,0,0,0,0,0,0,0,0,0,0,0,0,0,0,0,0
263372000,4000000.0,1.0,27022.908,0.0,120131,0,0.0,0,0,0,0,0,0.0,0,2,0,1,1,1,59,0,0,0,0,0,0,0,0,0,0,0,0,0,0,0,0,0,0,0
263624000,4000000.0,1.0,27349.602,0.0,120246,0,0.0,0,0,0,0,0,0.0,0,2,0,1,1,1,59,0,0,0,0,0,0,0,0,0,0,0,0,0,0,0,0,0,0,0
264884000,4000000.0,1.0,27051.793,0.0,120819,0,0.0,0,0,0,0,0,0.0,0,2,0,1,1,1,59,0,0,0,0,0,0,0,0,0,0,0,0,0,0,0,0,0,0,0
266144000,4000000.0,1.0,27290.838,0.0,121395,0,0.0,0,0,0,0,0,0.0,0,2,0,1,1,1,59,0,0,0,0,0,0,0,0,0,0,0,0,0,0,0,0,0,0,0
267404000,4000000.0,1.0,27049.8,0.0,121956,0,0.0,0,0,0,0,0,0.0,0,2,0,1,1,1,59,0,0,0,0,0,0,0,0,0,0,0,0,0,0,0,0,0,0,0
268404000,4000000.0,1.0,27236.057,0.0,122413,0,0.0,0,0,0,0,0,0.0,0,2,0,1,1,1,59,0,0,0,0,0,0,0,0,0,0,0,0,0,0,0,0,0,0,0
268656000,4000000.0,1.0,27134.463,0.0,122533,0,0.0,0,0,0,0,0,0.0,0,2,0,1,1,1,59,0,0,0,0,0,0,0,0,0,0,0,0,0,0,0,0,0,0,0
269916000,4000000.0,1.0,27565.738,0.0,123100,0,0.0,0,0,0,0,0,0.0,0,2,0,1,1,1,59,0,0,0,0,0,0,0,0,0,0,0,0,0,0,0,0,0,0,0
271168000,4000000.0,1.0,27048.805,0.0,123670,0,0.0,0,0,0,0,0,0.0,0,2,0,1,1,1,59,0,0,0,0,0,0,0,0,0,0,0,0,0,0,0,0,0,0,0
272428000,4000000.0,1.0,27290.838,0.0,124234,0,0.0,0,0,0,0,0,0.0,0,2,0,1,1,1,59,0,0,0,0,0,0,0,0,0,0,0,0,0,0,0,0,0,0,0
273428000,4000000.0,1.0,27025.896,0.0,124685,0,0.0,0,0,0,0,0,0.0,0,2,0,1,1,1,59,0,0,0,0,0,0,0,0,0,0,0,0,0,0,0,0,0,0,0
273680000,4000000.0,1.0,27338.646,0.0,124814,0,0.0,0,0,0,0,0,0.0,0,2,0,1,1,1,59,0,0,0,0,0,0,0,0,0,0,0,0,0,0,0,0,0,0,0
274940000,4000000.0,1.0,27080.678,0.0,125389,0,0.0,0,0,0,0,0,0.0,0,2,0,1,1,1,59,0,0,0,0,0,0,0,0,0,0,0,0,0,0,0,0,0,0,0
276192000,4000000.0,1.0,27264.941,0.0,125948,0,0.0,0,0,0,0,0,0.0,0,2,0,1,1,1,59,0,0,0,0,0,0,0,0,0,0,0,0,0,0,0,0,0,0,0
277448000,4000000.0,1.0,27061.754,0.0,126525,0,0.0,0,0,0,0,0,0.0,0,2,0,1,1,1,59,0,0,0,0,0,0,0,0,0,0,0,0,0,0,0,0,0,0,0
