timestamp,timestamp_sample,xyz[0],xyz[1],xyz[2]
3564000,3564000,0.002070298,0.0012944243,5.2308897e-05
3568000,3568000,-0.0005138203,0.00088047935,-0.00032524415
3584000,3584000,1.531004e-05,0.0017291179,0.00035111478
3600000,3600000,0.0012041314,-0.00043664422,0.0006687631
3624000,3624000,-2.9656163e-05,-0.0018749367,-0.00045799717
3644000,3644000,0.0014723607,0.0028858802,-0.0006454114
3664000,3664000,0.00085681514,0.00041215093,0.00029555568
3684000,3684000,3.377616e-05,0.00051765225,0.00051474647
3704000,3704000,0.00068689504,0.0019908627,-0.00067514036
3724000,3724000,0.00031299144,0.0003020504,0.00011117817
3744000,3744000,-0.0008152737,6.436746e-05,-0.00049443875
3764000,3764000,0.011783723,0.00075424847,-0.00012214805
3784000,3784000,0.0137552945,-0.0031620152,0.000256644
3804000,3804000,0.009354884,-0.00027787033,0.00047896832
3824000,3824000,0.011602034,0.00046715618,-7.780546e-05
3844000,3844000,0.007811851,-0.00033856175,-0.00024630208
3860000,3860000,0.011245954,-6.7376386e-05,0.0012228204
3884000,3884000,0.0115456795,0.0008931103,0.00072475144
3900000,3900000,0.009916572,0.0019114456,-0.0006329362
3924000,3924000,0.010040726,0.0010662449,0.00031855708
3944000,3944000,0.010956688,0.0006871578,0.00095728086
3964000,3964000,0.013038208,0.001034263,0.00028140142
3984000,3984000,0.012115757,0.0003205015,-0.0002516953
4004000,4004000,0.014528414,-0.0019225617,0.001019486
4024000,4024000,0.0130207725,0.001599851,0.00022501952
4044000,4044000,0.011909582,0.00010584213,-0.0005262645
4064000,4064000,0.009358183,0.0016395304,-0.00042863144
4084000,4084000,0.009798525,0.0006492768,9.934458e-05
4104000,4104000,0.00980955,0.0012487442,-0.00068070064
4124000,4124000,0.008238441,0.00051180663,-7.027459e-05
4144000,4144000,0.011377356,0.0028468214,0.0007202662
4164000,4164000,0.010036354,0.00044238698,0.00014754164
4184000,4184000,0.012124199,0.0011900666,5.860351e-05
4204000,4204000,0.011888981,-0.0007328178,-0.00033208143
4224000,4224000,0.0069649993,0.0022985768,0.00048201228
4244000,4244000,0.0101026455,0.0016701291,0.00017757686
4264000,4264000,0.01441398,-0.00080337323,0.0010866914
4284000,4284000,0.0105315745,-0.00062658393,0.0001246409
4304000,4304000,0.012552793,-0.00059109926,0.0012554064
4324000,4324000,0.010104605,0.0008467816,-0.00080707803
4344000,4344000,0.012831288,0.00017600111,1.32657215e-05
4364000,4364000,0.009567184,-0.00018883441,-0.00071649154
4384000,4384000,0.009786389,-0.0006172807,0.00045879395
4404000,4404000,0.011409543,0.0005885913,-0.00032386952
4424000,4424000,0.009643474,0.00045294882,0.0003510351
4444000,4444000,0.010565758,0.00027530635,0.00030528416
4464000,4464000,0.00802344,0.0009338341,-2.2974136e-05
4484000,4484000,0.01081217,0.00029096275,0.0008978126
4500000,4500000,0.009213428,0.0018118613,-0.00036574304
4524000,4524000,0.009020195,0.0026198355,0.00016589352
4540000,4540000,0.0119068045,0.0010250176,0.0008503561
4564000,4564000,0.011798771,-8.024843e-05,0.0002373299
4584000,4584000,0.01091762,-0.00020494082,0.00060760684
4600000,4600000,0.009474092,0.0019947686,-0.00072056166
4620000,4620000,0.0077208923,0.00087145664,-0.00023356306
4644000,4644000,0.011659446,0.0008959015,-0.00022045025
4664000,4664000,0.009614146,0.0015276573,0.00038529548
4684000,4684000,0.008231281,-0.00015611819,-0.0002125822
4700000,4700000,0.009655315,-9.557788e-05,0.0003060545
4724000,4724000,0.009455816,0.0021056873,-0.0006712374
4744000,4744000,0.011446435,0.0017090307,-0.00051178783
4764000,4764000,0.010676874,-0.000118769356,-0.00031132935
4780000,4780000,0.010250816,0.0013510362,-0.00027941243
4804000,4804000,0.010789585,0.0012780963,-0.0004942298
4824000,4824000,0.008200895,0.0036164704,-0.0010535812
4844000,4844000,0.012140375,0.00032525358,-0.0010515462
4864000,4864000,0.010684508,-0.00038755307,-0.00029754717
4884000,4884000,0.010397457,0.0012681724,-0.0004135441
4904000,4904000,0.012103262,0.0019770842,-0.0005939649
4924000,4924000,0.010778805,0.00074950623,-0.0010835227
4944000,4944000,0.009736564,-0.0008351613,-0.0009084639
4964000,4964000,0.008443162,0.0017010833,0.00021945126
4984000,4984000,0.0061028404,0.00063767866,0.00023895009
5004000,5004000,0.008775027,0.0023169196,0.001571052
5024000,5024000,0.009514921,0.0007933206,0.00034085236
5044000,5044000,0.009881457,0.001405674,0.00026684735
5060000,5060000,0.0069157244,0.00012394408,0.0007962359
5084000,5084000,0.010600003,0.0006842007,-0.00031099323
5104000,5104000,0.006496757,0.0007891852,0.00013024533
5124000,5124000,0.011533737,-0.00019133074,0.00081446255
5144000,5144000,0.0076886257,0.0016096863,0.00086285005
5164000,5164000,0.010654479,0.00033928978,-0.0008668135
5184000,5184000,0.00871957,-0.0005114829,-0.0006200598
5204000,5204000,0.01026873,0.0013425677,0.00045196648
5224000,5224000,0.00797559,0.0007282121,0.00084715843
5244000,5244000,0.008604779,0.00043999057,0.00046433508
5260000,5260000,0.009974732,0.00035672425,0.0008611825
5284000,5284000,0.009375711,0.0009267386,2.1863329e-05
5300000,5300000,0.008029097,-0.00054946,0.00027563368
5324000,5324000,0.010100523,0.0011117242,-0.00011241657
5344000,5344000,0.010663745,0.00081114867,0.00082156825
5364000,5364000,0.008629858,0.0013443995,-0.0003618608
5380000,5380000,0.01050863,0.00089011295,2.0125319e-05
5404000,5404000,0.008996949,0.0015684085,0.00048881164
5424000,5424000,0.0118309045,-0.00024623322,0.00017627692
5444000,5444000,0.009182177,-0.0018456004,-0.0008035539
5460000,5460000,0.007164524,0.001901278,-5.909583e-05
5484000,5484000,0.010918352,0.00016758838,0.0001894607
5500000,5500000,0.006611132,0.00082518335,0.0008726205
5524000,5524000,0.008178913,-0.0015762189,-0.0008618518
5544000,5544000,0.011315621,0.0030874887,-0.00092223566
5564000,5564000,0.006929516,0.00046436922,7.7011726e-05
5584000,5584000,0.010002184,-0.00013315887,-0.00014382099
5604000,5604000,0.0072476366,-2.2649998e-05,-9.842181e-05
5624000,5624000,0.007968747,0.0008685972,-8.092613e-05
5644000,5644000,0.011229258,0.00033963216,-0.0011728363
5664000,5664000,0.009590674,0.000113369024,0.00024151351
5684000,5684000,0.009292764,0.00034903162,-0.00022097847
5704000,5704000,0.010934377,0.0013547272,-0.000791907
5724000,5724000,0.008232186,0.00092540914,-0.00010749367
5744000,5744000,0.007767495,0.0010361243,-6.0712493e-05
5764000,5764000,0.010495297,0.0016166267,-0.00035830546
5784000,5784000,0.009521223,-0.00020977546,-0.00029258008
5800000,5800000,0.008108077,0.0007113813,0.0011462782
5824000,5824000,0.008658527,0.00039721534,-0.00023350406
5844000,5844000,0.00810762,-0.00019498449,1.47206565e-05
5864000,5864000,0.00953597,-0.00063706253,-0.00042195324
5884000,5884000,0.009161577,-0.00065885443,-0.00024026849
5900000,5900000,0.011133746,0.0018298944,0.00087578036
5924000,5924000,0.009485688,-0.00024793856,0.000284039
5940000,5940000,0.009749081,-0.0008169582,0.0001950987
5964000,5964000,0.010687288,4.3129403e-05,0.00026495717
5984000,5984000,0.011989692,-0.00021310692,0.00039495513
6004000,6004000,0.010768704,0.0014717134,-0.00013207567
6024000,6024000,0.0086567355,0.00052065396,0.0007209179
6044000,6044000,0.009566548,0.0011793057,0.00058366725
6064000,6064000,0.0070355185,-0.00025065267,-0.00056409946
6084000,6084000,0.008896097,-0.001137543,0.00025659235
6104000,6104000,0.010823783,-0.0006865478,-0.0005768138
6120000,6120000,0.0073838066,0.00011586622,0.0002626704
6140000,6140000,0.011429494,0.0003591886,-0.00044413522
6164000,6164000,0.008191243,-0.00018257432,-0.0005995888
6184000,6184000,0.008458446,0.00023532077,-0.00016301646
6204000,6204000,0.0109792305,-0.000922474,0.0002814533
6224000,6224000,0.010558922,-0.00032298424,-0.00079166715
6244000,6244000,0.008999563,-0.00011937821,-0.0005897029
6264000,6264000,0.010227274,0.0008278855,0.00034845356
6284000,6284000,0.006310237,-0.00060608843,0.0003293961
6304000,6304000,0.010844082,0.0010352071,-0.0001663066
6324000,6324000,0.012073294,0.0012550114,-0.0003012349
6344000,6344000,0.006431967,0.0013495416,0.001130122
6364000,6364000,0.008628753,-0.0017815467,-0.00056435633
6380000,6380000,0.007835476,0.00097254163,0.0018206768
6404000,6404000,0.008490332,-0.000280287,-0.0014638188
6424000,6424000,0.0064329742,-1.4256804e-05,-6.0948918e-05
6444000,6444000,0.008130063,0.00292585,-0.0006447159
6464000,6464000,0.005395152,-0.001176412,-0.0011945366
6484000,6484000,0.008632178,0.0010535467,-0.0002251782
6504000,6504000,0.0074470006,0.0009927015,-0.00024588066
6524000,6524000,0.006485729,-0.00037255185,-0.00020442296
6544000,6544000,0.008182212,-0.00062356144,-0.00020311434
6564000,6564000,0.009722037,-0.0016179688,-0.0003475064
6580000,6580000,0.009199972,0.0024728542,0.000651401
6604000,6604000,0.008219027,-0.002279114,4.538166e-05
6624000,6624000,0.0086340215,-0.00037182408,0.0005755191
6644000,6644000,0.008779842,-0.0013213365,-0.0010204536
6664000,6664000,0.008514386,0.0011545836,0.0009669563
6684000,6684000,0.009040148,0.0003855944,0.00051860494
6704000,6704000,0.0068887714,0.0004434583,0.00028311345
6724000,6724000,0.008436155,-0.00017646591,3.052381e-05
6744000,6744000,0.003997705,-0.0004907532,-0.00134902
6764000,6764000,0.008747547,-0.0014797563,-0.001133243
6784000,6784000,0.010288975,-0.00029138057,-0.00024291837
6804000,6804000,0.0050463732,0.001175088,-0.0007861989
6824000,6824000,0.008896234,-0.00063542684,-0.00024680022
6844000,6844000,0.004656245,0.0007381771,-3.3947763e-05
6864000,6864000,0.008837328,-4.0653424e-05,-0.0007684769
6884000,6884000,0.007341867,0.00070799416,0.0006464822
6904000,6904000,0.006089051,0.00012952491,0.00036545433
6924000,6924000,0.009139081,0.00026611937,-0.00065902097
6944000,6944000,0.010449601,-0.0015315831,0.00083178526
6964000,6964000,0.0075014634,-0.00054327433,-0.00022868696
6984000,6984000,0.0059535285,0.00016549035,5.0285566e-05
7004000,7004000,0.007169449,0.00012860354,0.00064997014
7024000,7024000,0.0055956594,0.0009958324,0.00095327914
7044000,7044000,0.0083921235,0.00014555176,-4.4711283e-05
7064000,7064000,0.0035949657,0.00033965343,-0.00048342958
7084000,7084000,0.010282977,-0.0021688323,6.139527e-05
7104000,7104000,0.004926193,0.002825542,0.00025851923
7124000,7124000,0.0073373523,-0.0005042894,0.00012443154
7144000,7144000,0.007894868,0.00025064358,0.00091281114
7164000,7164000,0.00712384,-0.0022699218,-6.4570344e-07
7180000,7180000,0.007875908,0.00086139515,0.0009763711
7204000,7204000,0.006297838,0.0020872885,-0.0001113778
7224000,7224000,0.0083108265,-0.001092156,0.00068390684
7244000,7244000,0.009251282,7.4795564e-05,-5.598468e-05
7260000,7260000,0.009541064,0.0006279471,0.0008794895
7284000,7284000,0.0055731637,-0.0015656063,0.0010000872
7304000,7304000,0.009084938,-0.001365495,0.0010496224
7324000,7324000,0.006382241,0.0021639229,0.00065855705
7344000,7344000,0.0087197125,0.0017613077,0.0002128901
7364000,7364000,0.010248865,-0.0015968784,-0.0008284583
7380000,7380000,0.006642753,0.0012121116,0.00085067836
7404000,7404000,0.010330671,0.0009183709,-0.00027023887
7424000,7424000,0.0059471084,0.000720327,0.0010629363
7444000,7444000,0.006830341,-2.655512e-05,-2.2913891e-05
7464000,7464000,0.006795408,-0.00016137268,0.0001075961
7480000,7480000,0.006140612,-0.0019759955,-0.0003017691
7504000,7504000,0.0052931397,0.0003622603,-0.00014578424
7520000,7520000,0.009223846,0.0028318025,-0.0003515533
7540000,7540000,0.010460768,-0.00048752787,0.000534306
7564000,7564000,0.010976697,0.0014674121,-0.00027269297
7580000,7580000,0.008083614,-0.0013590788,8.396402e-05
7604000,7604000,0.008787994,0.0027609398,0.00021940672
7620000,7620000,0.008181246,-0.0012360978,4.292449e-05
7644000,7644000,0.0080339145,0.0017567358,0.00067359995
7660000,7660000,0.007890619,-0.00057223876,0.00015954277
7684000,7684000,0.0093330275,0.0010628897,2.6203705e-05
7704000,7704000,0.007890683,0.00022061449,0.0010756343
7724000,7724000,0.007591231,7.753404e-05,0.0005397518
7744000,7744000,0.008013502,0.0005054843,0.00048998086
7764000,7764000,0.006340788,0.0012464826,0.001260997
7784000,7784000,0.008163243,0.0005349852,0.00038217692
7804000,7804000,0.010868255,0.00038432644,0.00091348187
7824000,7824000,0.006067019,1.0434931e-05,0.000332354
7844000,7844000,0.0061415667,-0.0004260977,-0.00038568486
7864000,7864000,0.0079327375,8.504082e-05,0.00024719033
7884000,7884000,0.009465817,0.002788857,-0.0002919899
7904000,7904000,0.0093869595,-0.00026277814,0.0005595785
7924000,7924000,0.009387214,7.518273e-05,0.00027722624
7944000,7944000,0.0080356,-0.0005378215,-7.262235e-05
7964000,7964000,0.0079249665,0.00012579659,-8.318597e-05
7980000,7980000,0.0071596275,-0.0010158215,0.00029194084
8004000,8004000,0.010670209,-0.0022798306,-4.988685e-06
8020000,8020000,0.0071895346,-0.0009792034,8.400158e-05
8044000,8044000,0.0071103126,-0.00020060029,0.00067969685
8064000,8064000,0.011822367,-0.0011621831,-0.00039434736
8084000,8084000,0.0075260373,-0.0004516811,0.0010631797
8104000,8104000,0.008839173,0.00017641639,0.0017064831
8120000,8120000,0.00899787,-0.0001153264,0.00023438621
8144000,8144000,0.008292501,0.00021671761,2.0022262e-05
8164000,8164000,0.009554077,-0.00042886444,-0.000109661465
8184000,8184000,0.009720962,-0.0002472265,-0.00016228706
8204000,8204000,0.009872205,-9.5062256e-05,0.0005542768
8224000,8224000,0.008403426,0.0009561189,0.0010903566
8244000,8244000,0.0073486813,-0.0010552576,0.00021928285
8264000,8264000,0.007874801,0.00064260757,0.00071908644
8284000,8284000,0.008935424,-0.0008362187,0.00064738066
8300000,8300000,0.008929359,-0.00096086296,0.00042465515
8324000,8324000,0.00900271,-0.0006476062,0.00016013079
8344000,8344000,0.004680675,0.0002869235,0.00059451384
8364000,8364000,0.0077054463,-0.001739768,0.00071336917
8384000,8384000,0.008992069,-0.0017808031,-0.00035147578
8404000,8404000,0.007966061,-0.00044215366,0.00040543225
8424000,8424000,0.008956949,-0.0008375546,-2.9573057e-06
8444000,8444000,0.007930197,0.0005784953,0.0010756504
8464000,8464000,0.011005656,0.0010959674,0.0003378695
8484000,8484000,0.008627587,-0.00059641723,-0.00042594093
8504000,8504000,0.0073989932,-0.001960774,-0.0004296894
8524000,8524000,0.0073644784,-0.0008192905,0.00010486252
8540000,8540000,0.0097852545,-0.00019406603,0.00056512136
8564000,8564000,0.009047118,0.000104305276,-0.00022985405
8580000,8580000,0.006287605,-0.0008630264,0.0005109828
8604000,8604000,0.008815383,0.00022673537,0.0008103436
8624000,8624000,0.00868147,-0.0013113606,-0.0005764011
8644000,8644000,0.0076306034,-0.00046674348,-0.00031962193
8664000,8664000,0.0072864746,-0.00016906107,0.00012367357
8684000,8684000,0.0067605115,-0.0013495595,0.0011681949
8704000,8704000,0.008234105,-0.00094738725,-0.0007290641
8724000,8724000,0.0069545,-0.00057459425,8.604637e-05
8744000,8744000,0.007982282,-0.00036671307,1.4982171e-05
8764000,8764000,0.007110483,9.780403e-05,0.00010596174
8780000,8780000,0.0072309733,-0.0007799042,-0.00061418186
8804000,8804000,0.0075932452,-0.000758608,-0.00054424413
8824000,8824000,0.009303662,8.3356994e-05,-0.0006653542
8844000,8844000,0.006098174,-0.00075248536,0.00031884096
8864000,8864000,0.010119657,-0.00221604,-1.6023112e-05
8884000,8884000,0.0094027575,-0.0013370769,0.00078149757
8900000,8900000,0.008384508,-0.001965271,0.00031507487
8924000,8924000,0.0076683764,0.0008304216,-3.7872116e-05
8944000,8944000,0.0076717413,-0.0019191757,0.0009240213
8964000,8964000,0.008742403,-0.00085187436,0.00075182517
8984000,8984000,0.0106168855,-0.0015233837,0.00064528675
9004000,9004000,0.0059361123,0.0031998358,0.000120839606
9024000,9024000,0.00995248,-0.0014674291,0.0003872233
9044000,9044000,0.0066706785,-0.001370668,0.00032719751
9064000,9064000,0.00981459,0.0022996278,0.00036741348
9084000,9084000,0.0044216253,-0.0007584421,-0.00043337405
9104000,9104000,0.009832756,-0.00043124805,0.0002539007
9124000,9124000,0.007165281,-0.0008388125,0.00020530679
9144000,9144000,0.008865804,-0.0012785982,-0.00023134428
9164000,9164000,0.0064071394,0.0013088336,-0.00035414266
9180000,9180000,0.008495538,-0.0019537937,1.6317059e-05
9204000,9204000,0.008889162,-0.00033833302,0.0002944874
9224000,9224000,0.0063066315,0.0009858151,-0.00027307557
9244000,9244000,0.009452883,-0.001952997,-9.5278774e-05
9264000,9264000,0.005583996,-0.0006497136,0.00017412224
9284000,9284000,0.00887762,-0.0006386029,-0.00035033686
9304000,9304000,0.009509694,-0.0012416209,-0.0001384658
9324000,9324000,0.010001541,0.0021215817,-0.00017028172
9344000,9344000,0.008091597,-0.0011098906,0.0007732712
9364000,9364000,0.007959076,-0.0012400664,0.00077193254
9384000,9384000,0.008843896,-0.0012766811,-5.9240294e-05
9404000,9404000,0.009104598,-0.0003127342,0.0010201186
9424000,9424000,0.006896676,0.0018005515,-0.0006410718
9444000,9444000,0.005964962,-0.0012383566,-0.0009015249
9464000,9464000,0.007929215,0.001195915,0.0005202531
9484000,9484000,0.008433836,-0.0011623751,-0.00025133864
9504000,9504000,0.008717112,-0.0027248962,-0.0014351929
9524000,9524000,0.007807382,-0.00018884288,0.0004639356
9544000,9544000,0.008194512,-0.00027677725,-0.00019795168
9564000,9564000,0.011626437,0.00012624911,-0.00063854887
9580000,9580000,0.008036783,-0.0037068815,-0.00054162316
9604000,9604000,0.007964835,-0.002122242,-0.0014117676
9624000,9624000,0.00833773,-0.0006960198,-0.0003867724
9644000,9644000,0.0073763602,0.00070699526,0.00057808886
9664000,9664000,0.008685551,-0.0017220845,0.00046928864
9684000,9684000,0.007657906,-0.0018191948,0.0002977198
9704000,9704000,0.008010376,0.00024769478,0.0003485531
9724000,9724000,0.007922098,-0.0022300452,0.00019682186
9744000,9744000,0.008307245,0.0011044791,0.00041733775
9764000,9764000,0.005999647,-0.0014668105,6.120543e-05
9784000,9784000,0.006684895,-0.0008991733,-0.0002968599
9804000,9804000,0.007579492,-0.0013775283,0.00035294163
9824000,9824000,0.01055312,-0.0009355377,0.00012647093
9844000,9844000,0.0062473137,-0.00014025415,1.12334765e-05
9864000,9864000,0.009743673,-0.0032156948,0.00023130164
9884000,9884000,0.006562315,-0.0012607534,0.00035262253
9904000,9904000,0.0073206355,-0.0005915855,5.67095e-05
9924000,9924000,0.0063750325,4.899886e-05,-0.0006637875
9944000,9944000,0.008495315,-0.00024049729,0.00069304346
9964000,9964000,0.0102043,-0.00077895226,0.0006520403
9980000,9980000,0.0064990786,-0.0019763676,-1.2081216e-05
10004000,10004000,0.007846907,-0.0026233539,0.00039949678
10024000,10024000,0.009795044,-0.001140864,-0.0002352726
10044000,10044000,0.0068743858,-0.0032708405,1.6524265e-05
10064000,10064000,0.011201132,-0.0005137105,-0.00030278243
10084000,10084000,0.005826842,-0.00028119213,0.0009519869
10104000,10104000,0.007869422,0.0017444456,0.0011027693
10124000,10124000,0.0040229224,-0.001137007,-0.0007548716
10144000,10144000,0.008712524,-9.7387936e-05,3.1412044e-05
10160000,10160000,0.0052262144,-0.0039797937,7.3303704e-06
10184000,10184000,0.007370615,-0.0002568059,-0.00021790869
10204000,10204000,0.009306556,-0.00021782983,-6.305517e-05
10224000,10224000,0.0069985315,-0.0023012902,0.0006588706
10244000,10244000,0.009336876,0.00043933868,0.00033252907
10264000,10264000,0.008702753,-0.00041856917,2.6369895e-05
10284000,10284000,0.007733399,-0.0009047247,-0.00020248645
10304000,10304000,0.007756823,-0.0020434693,0.00046552956
10324000,10324000,0.009388974,-0.0019395159,0.0003849681
10344000,10344000,0.010217638,0.0009817308,-4.476617e-05
10364000,10364000,0.0083917575,-0.0018410734,-0.00019971107
10384000,10384000,0.0071695466,-0.0017035189,-9.185566e-06
10400000,10400000,0.008616683,-0.00083402166,-8.1779865e-05
10420000,10420000,0.007743397,-0.0015004454,0.00068669894
10444000,10444000,0.008532357,-0.0022719211,0.0002919498
10464000,10464000,0.0041763475,-0.0015476844,0.000926912
10484000,10484000,0.010289127,-0.0017838536,0.0002981307
10500000,10500000,0.008668877,-0.0015021509,0.00039406648
10524000,10524000,0.00975183,-0.0019329326,3.096049e-05
10544000,10544000,0.005607375,-0.00101025,-6.8025724e-06
10564000,10564000,0.011491464,-0.0008769272,-0.0001770351
10584000,10584000,0.008940201,-0.00059647096,-0.00026051962
10604000,10604000,0.007951497,-0.0020104232,0.00027800334
10624000,10624000,0.008372739,-0.0030571125,2.2668672e-05
10644000,10644000,0.007843972,0.0018092147,-0.00069068826
10664000,10664000,0.0068695624,-0.0009436145,0.00084123464
10684000,10684000,0.011096689,-0.004498753,-0.00045192745
10704000,10704000,0.01012373,0.0012056159,0.00023030199
10724000,10724000,0.0092063,-0.0025259499,0.0005298507
10744000,10744000,0.006876354,-0.00056904415,0.00034090868
10764000,10764000,0.0072018933,-0.00088418945,-0.00019991952
10784000,10784000,0.007856119,5.3002354e-05,6.397563e-05
10804000,10804000,0.00659943,-0.0014374892,-0.00017091329
10824000,10824000,0.00805182,-0.00088859454,0.00017215089
10844000,10844000,0.007435994,-0.0021052007,-0.0009448202
10864000,10864000,0.009689748,-0.0010521158,0.00015928532
10884000,10884000,0.0057326276,-0.0022164986,0.0006265613
10904000,10904000,0.0045382604,-0.0013353575,0.00096872303
10924000,10924000,0.008960379,-0.002569906,-0.00050690223
10944000,10944000,0.007744799,-0.0024239547,-0.00040892945
10964000,10964000,0.008921477,-0.0041720243,-0.00028344247
10980000,10980000,0.009722419,-9.004155e-05,-0.0006699142
11000000,11000000,0.007486799,-0.0020687934,-0.00082090637
11024000,11024000,0.0070764096,-0.0015935202,-0.00018525943
11044000,11044000,0.007267769,-5.146567e-05,-3.6326186e-05
11064000,11064000,0.009727974,0.0002888504,0.0006892929
11084000,11084000,0.0065117404,-0.0010855552,0.00068331155
11104000,11104000,0.008462198,-0.0022181266,0.00019219876
11124000,11124000,0.008756135,0.0006699164,0.0005104368
11144000,11144000,0.008316253,-0.001522506,0.0004522036
11164000,11164000,0.0075724246,-0.0003887957,0.00032467453
11184000,11184000,0.008728842,-0.0009892,0.00066611863
11204000,11204000,0.0078695845,-0.0051236944,-0.00020545919
11224000,11224000,0.008778362,-7.413246e-05,-0.00026575007
11244000,11244000,0.0115618715,-0.001837536,-0.000118262964
11260000,11260000,0.009110311,-0.00043743342,-0.0006720131
11284000,11284000,0.008399346,-5.5203447e-05,-0.00041885008
11304000,11304000,0.009062946,-0.0014720566,0.001664882
11324000,11324000,0.007092935,-0.0012960661,-0.00014808094
11344000,11344000,0.0090303905,-0.0013649347,6.2667855e-06
11364000,11364000,0.008397443,-0.0038365494,0.00046505636
11384000,11384000,0.009297124,-0.0016683739,0.0011318886
11404000,11404000,0.0071454286,-0.0015220339,0.00037175615
11420000,11420000,0.009147239,-0.0014255526,7.83119e-05
11444000,11444000,0.0075399554,-0.0013886894,-0.00030094385
11464000,11464000,0.006259843,-0.0031113902,-0.00086303067
11484000,11484000,0.006235987,-0.0005801128,-0.00019721016
11504000,11504000,0.009185025,-0.00094653934,-0.00044296324
11524000,11524000,0.009048242,-0.0029955348,-0.00021347869
11544000,11544000,0.0055156965,0.0003603691,-0.00011250555
11564000,11564000,0.0085407775,-0.0023974983,0.0004394982
11580000,11580000,0.0068538226,0.0010359453,-0.00048573382
11600000,11600000,0.009370214,-0.0028227866,-0.00022937558
11624000,11624000,0.00794813,-0.0022329788,-0.00031005405
11644000,11644000,0.008554007,-0.0009861782,3.1272804e-05
11664000,11664000,0.0068011694,-0.003006971,0.00026510016
11684000,11684000,0.008236366,-0.0013878455,-8.010309e-05
11704000,11704000,0.008652405,-0.00077954977,0.0007340494
11724000,11724000,0.008574764,-0.0021785009,0.0002854056
11744000,11744000,0.008915052,-0.0018061625,0.0003647631
11764000,11764000,0.008432528,0.00098206,0.00030211886
11784000,11784000,0.009346111,-0.0006446894,-0.0004459812
11804000,11804000,0.005617144,-0.003814703,-0.0002306694
11824000,11824000,0.008584567,9.2428876e-05,-0.0001592821
11844000,11844000,0.009386567,-0.0014418995,-0.00060564483
11864000,11864000,0.008363003,-0.0023138197,0.00046525584
11884000,11884000,0.008930839,-0.0026263003,9.7250035e-05
11900000,11900000,0.009508371,-0.00022424822,5.2441205e-06
11924000,11924000,0.010289177,-0.00048450386,0.0002578376
11944000,11944000,0.009518244,0.000796171,0.00022463936
11964000,11964000,0.0080446955,-0.005103348,0.0004483392
11980000,11980000,0.010093042,-0.0010025365,0.00054188544
12004000,12004000,0.008859811,-0.0024583002,-0.0002361137
12024000,12024000,0.0082200365,-0.0010224839,-8.294539e-05
12044000,12044000,0.006492391,-0.0023933263,0.0006769844
12064000,12064000,0.008627066,-0.0021854162,0.00052157755
12084000,12084000,0.009439719,-0.0017771791,0.00062897796
12104000,12104000,0.009871296,-0.0003165779,0.00028919557
12124000,12124000,0.007936818,-0.0020618085,0.0006678994
12140000,12140000,0.0071684998,-0.0016929678,0.00037882966
12164000,12164000,0.008310102,-0.0007041997,0.00021596796
12184000,12184000,0.0074011455,-0.00463833,-0.000100432626
12204000,12204000,0.007658259,-0.00063002354,-0.000110018416
12224000,12224000,0.008437232,-0.0022142436,-0.0004889176
12244000,12244000,0.008768612,-0.0041157976,-0.0005736662
12264000,12264000,0.0077993935,-0.0019054089,-0.0003994539
12284000,12284000,0.008334732,-0.00172118,-0.00052346976
12304000,12304000,0.009617396,-0.003451164,0.000898307
12324000,12324000,0.007544166,-0.00024380232,0.0005442709
12344000,12344000,0.0054667615,-0.0032898977,0.00016127682
12364000,12364000,0.007113705,-0.002885397,-0.0003802953
12380000,12380000,0.0076598655,-0.0010441628,0.00063290674
12404000,12404000,0.006835724,-0.0014454989,0.00057927286
12424000,12424000,0.007451084,-0.002194325,0.00010525128
12444000,12444000,0.008011643,-0.0017354118,0.00015633668
12464000,12464000,0.0067664576,-0.0022219128,0.0005599626
12484000,12484000,0.0076622176,-0.003140618,0.0006263565
12504000,12504000,0.006891163,-0.00068740814,9.0962356e-05
12524000,12524000,0.00991871,-0.0017548859,-0.00013270763
12544000,12544000,0.008772883,-0.00063359033,-0.0010281565
12564000,12564000,0.008588819,-0.0035584783,-0.0015606345
12580000,12580000,0.0054158526,-0.0003667344,0.00015770904
12604000,12604000,0.0077156196,-0.001451131,0.0012095878
12624000,12624000,0.00812607,4.4281245e-05,0.00018780972
12644000,12644000,0.0071219164,-0.0012711424,0.00042939372
12664000,12664000,0.009175725,-0.0017771111,-0.00031817643
12684000,12684000,0.00791622,-0.0026770197,-0.00031956154
12704000,12704000,0.010376077,-0.0035860604,-4.0699688e-05
12724000,12724000,0.008337693,-0.001479405,-0.0001972998
12744000,12744000,0.009279265,-0.001554066,-1.9265432e-05
12764000,12764000,0.008706715,-0.00087168696,0.00037663907
12784000,12784000,0.007042502,-0.0027236394,-0.0001949044
12804000,12804000,0.007264966,-0.0033870193,0.0012680673
12824000,12824000,0.010285184,-0.0013099983,0.00073672313
12844000,12844000,0.008437251,-0.0006629974,-0.00040705618
12864000,12864000,0.008215176,-0.00061682693,0.0003780498
12884000,12884000,0.0095239915,-0.0012004552,0.0008531657
12904000,12904000,0.007764919,-0.0019439342,0.0006944256
12924000,12924000,0.010368848,-0.0014890142,0.00013755393
12944000,12944000,0.0049671745,-0.0024041357,-5.1091356e-05
12964000,12964000,0.008088618,-0.00026954783,-0.00025583073
12984000,12984000,0.008581685,-0.0012129878,-0.00013552528
13004000,13004000,0.008099366,-0.0028095106,0.0008260281
13024000,13024000,0.008723076,-0.00064798177,0.0011428838
13044000,13044000,0.007712405,-0.0016481954,0.00026424997
13064000,13064000,0.0074162767,-0.0018240835,0.00029861406
13084000,13084000,0.0065129157,-8.050783e-05,0.0005165541
13104000,13104000,0.0061506163,-0.0035130088,-0.0011651132
13124000,13124000,0.007169708,0.0010256559,0.00044289377
13144000,13144000,0.0069032377,-0.0011000969,-8.588063e-05
13164000,13164000,0.0072610704,0.00078745454,0.0004322913
13184000,13184000,0.006252781,-0.0012861274,0.0005234155
13204000,13204000,0.007352648,-0.0007170654,-0.00026912065
13224000,13224000,0.009806027,-9.012059e-05,0.0003256752
13244000,13244000,0.007862531,-0.0016431959,-0.0005872534
13264000,13264000,0.009293519,-0.0036254288,-0.00045183967
13284000,13284000,0.007008029,-0.002256462,0.00084351114
13304000,13304000,0.008584123,-3.826921e-05,-0.0006553303
13324000,13324000,0.008456396,0.0011136641,0.00023539735
13344000,13344000,0.0068564266,-0.0047476403,-0.00026188887
13364000,13364000,0.008109508,-0.0016370341,0.0005905574
13380000,13380000,0.006971164,-0.0018461376,-0.00066302915
13404000,13404000,0.008513006,-0.0019444188,0.00010692382
13424000,13424000,0.0065821866,-0.0021798343,-0.00029600118
13444000,13444000,0.0074067614,-0.0027636855,-0.00015597518
13464000,13464000,0.006821488,-0.0005109681,0.00011751263
13484000,13484000,0.008284564,-0.0030863527,0.0013061892
13504000,13504000,0.00780707,-0.0019838596,0.00023010773
13524000,13524000,0.009352724,-0.0012121672,0.0007411192
13544000,13544000,0.0071535027,-0.0011311725,0.00039744563
13564000,13564000,0.008472607,-0.0031908662,-0.00061435165
13584000,13584000,0.0077153766,-0.0009672956,0.0015027844
13604000,13604000,0.008400958,-0.0012428269,3.7936243e-05
13624000,13624000,0.0069425823,-0.0022025546,-0.00020612532
13644000,13644000,0.010473342,-0.0017523244,9.355827e-05
13664000,13664000,0.008671577,0.00070976594,0.000108648186
13684000,13684000,0.0068021202,-0.0017879873,-0.00016665633
13704000,13704000,0.0063965037,9.340001e-06,-0.00012718792
13724000,13724000,0.0068565775,-0.00056634814,5.2700983e-05
13744000,13744000,0.0076524937,-0.0018196417,4.154701e-05
13764000,13764000,0.007351135,-0.0016378232,-0.00067203236
13784000,13784000,0.0061508073,-0.001619051,0.00043994203
13804000,13804000,0.006487285,-0.002306858,-0.00026803368
13824000,13824000,0.00991581,0.00021927455,-0.00023305012
13844000,13844000,0.0055831107,-0.0032682177,0.0015131506
13864000,13864000,0.0058979695,-0.0014789852,0.00012395486
13884000,13884000,0.00607679,0.0001877324,6.326598e-05
13904000,13904000,0.0084065,-0.0020574809,-0.00035032755
13924000,13924000,0.0090932585,-0.0028209707,-0.00041532537
13940000,13940000,0.0101020895,-0.00085761404,6.7871e-05
13964000,13964000,0.007917387,-0.0009159975,0.0006675305
13984000,13984000,0.011572395,-0.0010021578,0.00055240205
14004000,14004000,0.00827442,-0.0014635904,-0.00054742553
14024000,14024000,0.0074003623,-0.0006960436,0.0008809484
14044000,14044000,0.0055303574,-0.001540954,0.0005783318
14064000,14064000,0.009225517,-0.003034957,0.0006054685
14084000,14084000,0.009835543,-0.0007097198,-0.00051202177
14104000,14104000,0.010264551,-0.0012318352,0.00020453041
14124000,14124000,0.005363106,-0.0031781653,0.00010025008
14144000,14144000,0.008754198,-0.002280935,-0.0007807023
14164000,14164000,0.0064954218,-0.0025371169,-0.000567966
14184000,14184000,0.010488085,-0.0043561896,0.000101240694
14204000,14204000,0.0059580635,-0.0021995257,-0.0004264831
14224000,14224000,0.006928861,-0.0021053422,-0.00082777644
14244000,14244000,0.009667336,-0.0026236726,0.00041132324
14264000,14264000,0.0063378224,-0.0023946357,-5.7908917e-05
14284000,14284000,0.007318314,-0.0016844312,0.00021552421
14304000,14304000,0.006299589,-0.0009311065,0.00042049517
14324000,14324000,0.009600943,-0.0022766865,-0.00020217558
14344000,14344000,0.0062506143,-0.0019744101,0.00036653734
14364000,14364000,0.008493399,-0.002197402,0.00033433503
14384000,14384000,0.005003581,-0.0006737212,0.0007061994
14404000,14404000,0.00846507,-0.00080720364,-0.0003824967
14424000,14424000,0.010871284,-0.0010902944,0.0004331232
14444000,14444000,0.0065297936,-0.0039468203,-0.00038390062
14464000,14464000,0.0095266495,-0.002535597,0.0005244393
14484000,14484000,0.005130443,-0.0022821468,0.000311317
14504000,14504000,0.009025113,-0.0011059584,0.0005072173
14524000,14524000,0.008230434,-0.0022766779,0.00014562356
14544000,14544000,0.0060271192,-0.00095965195,0.00041397367
14564000,14564000,0.006178295,-0.0033391016,0.00016613418
14584000,14584000,0.007270069,-0.0008985116,0.00033451893
14604000,14604000,0.007547168,0.0006865822,0.00013298322
14624000,14624000,0.009438507,-0.0035091054,0.00030833672
14644000,14644000,0.005031859,-0.0008717162,0.001124521
14664000,14664000,0.010208484,-0.0016984823,-6.5076216e-05
14684000,14684000,0.0061065797,-0.00012347789,-0.00019869684
14704000,14704000,0.008610119,-0.0042926446,0.000312714
14724000,14724000,0.0057567186,-0.0020998511,-0.00097161654
14740000,14740000,0.0077707497,-0.0024325908,-0.0003752636
14764000,14764000,0.008684131,-0.0015926121,7.692864e-05
14784000,14784000,0.0059231073,-0.0017121269,3.796501e-05
14804000,14804000,0.008493556,-0.0011072154,0.0007520095
14824000,14824000,0.0077609876,-0.0010058766,-0.00055130746
14844000,14844000,0.006061388,-0.0007376705,-0.0003915383
14864000,14864000,0.0086856745,-0.002766357,8.319419e-05
14884000,14884000,0.0066308756,-0.0052523967,-0.0010169024
14904000,14904000,0.0060185674,-0.0015118718,0.00066285254
14924000,14924000,0.011594346,-0.0035290865,-0.00022246152
14944000,14944000,0.0073208814,-0.0028315643,-0.0002234005
14960000,14960000,0.0074234204,-0.0030990837,0.00084397243
14984000,14984000,0.010219762,-0.002818948,-0.00052413344
15004000,15004000,0.006201729,-0.0010390447,-0.00064879225
15020000,15020000,0.0053668767,-0.0030875616,0.00015962376
15044000,15044000,0.004866782,-0.0028741742,-2.996878e-05
15060000,15060000,0.008998746,-0.0004408011,0.00078825525
15084000,15084000,0.0091700265,-0.0028032667,0.0004498283
15104000,15104000,0.0044504465,-0.0031370334,-0.00042080632
15124000,15124000,0.009215524,-0.0036042177,-0.000514899
15144000,15144000,0.007642569,-0.0024249572,-0.0004926145
15164000,15164000,0.011791409,-0.00048198947,0.00085774856
15184000,15184000,0.0070041413,-0.0029626528,0.0005427475
15204000,15204000,0.0067747217,-0.00082703476,-0.00026746604
15224000,15224000,0.006788822,-0.0024570145,-0.00131076
15244000,15244000,0.005154494,0.0010702243,3.9874258e-06
15264000,15264000,0.008443171,-0.002764042,-0.00047327133
15284000,15284000,0.0073027387,-0.0018583008,0.000997924
15300000,15300000,0.0073820055,-0.002391828,-0.0005787785
15324000,15324000,0.0103212055,-0.0006490209,0.00040557887
15344000,15344000,0.0056029125,-0.0026763976,-0.00045866542
15360000,15360000,0.00573406,-0.0021111236,0.00031598794
15384000,15384000,0.008491117,-0.0032112605,0.0009701351
15404000,15404000,0.007432754,-0.00079919223,0.0006257901
15424000,15424000,0.005239978,-0.0023601085,0.00017656425
15444000,15444000,0.0077771517,-0.0034366252,0.0006750044
15464000,15464000,0.008243706,-0.0034884217,-0.0006948431
15484000,15484000,0.00858075,-0.0038226768,0.0005663368
15504000,15504000,0.00582874,-0.0016282494,-0.0005125051
15524000,15524000,0.00573947,-0.0016132445,-0.0008064638
15544000,15544000,0.0056792763,-0.0038822475,-0.0010972872
15564000,15564000,0.009094491,-0.0033332987,0.00019383522
15584000,15584000,0.006295664,-0.003903577,-0.00045780637
15604000,15604000,0.005560505,-0.0020392737,-0.00074268127
15624000,15624000,0.0062021744,-0.0031239209,0.0004447402
15644000,15644000,0.008573888,-0.0031507937,-0.00056532485
15664000,15664000,0.004380752,-0.003001306,0.00066792377
15684000,15684000,0.0055431807,-0.002634133,0.00023054928
15704000,15704000,0.0062782355,-0.0043783663,0.00018256236
15724000,15724000,0.004422674,-0.0041063195,-0.00085592753
15744000,15744000,0.008250014,-0.0034508766,0.00082908274
15764000,15764000,0.008750521,-0.0026658387,4.234267e-05
15784000,15784000,0.007168765,-0.0006163748,1.643499e-05
15804000,15804000,0.008197378,-0.0033621232,-0.0007097439
15824000,15824000,0.007859382,-0.0029685013,0.0013141716
15844000,15844000,0.005459464,-0.0048372,-0.0009923114
15864000,15864000,0.0069283494,-0.00094286376,-0.00036362009
15884000,15884000,0.004455993,-0.0027094071,0.00013494183
15904000,15904000,0.006205056,-0.0026306144,-0.00034142434
15924000,15924000,0.007031618,-0.004239136,-0.00094669947
15940000,15940000,0.0074479277,-0.004628526,-0.000114005576
15964000,15964000,0.0076868497,-0.0024816853,-0.0003669524
15984000,15984000,0.0054394817,-0.0033856388,0.0002498879
16004000,16004000,0.0070521776,-0.003333649,0.0002440735
16024000,16024000,0.007197075,-0.0031119303,-0.00030054298
16044000,16044000,0.006499476,-0.001309658,0.0003189995
16064000,16064000,0.008520258,-0.0027670132,-0.0007227266
16084000,16084000,0.0053890077,-0.0017555455,-0.0004576544
16104000,16104000,0.007190646,-0.004355279,-0.0007787013
16124000,16124000,0.0073674247,-0.002921094,0.0002573773
16144000,16144000,0.009862117,-0.002958463,-0.00035953458
16164000,16164000,0.007067103,-0.004507232,0.0011195255
16184000,16184000,0.0067194114,-0.0033573497,0.00035949267
16200000,16200000,0.007394397,-0.0047142273,-0.0005376493
16224000,16224000,0.007897113,-0.0043643466,-0.00012244347
16244000,16244000,0.006887087,-0.0040913834,-0.00093462935
16260000,16260000,0.008855177,-0.0014292987,0.0008099773
16284000,16284000,0.006438897,-0.0006715269,0.00033385193
16304000,16304000,0.0061701187,-0.0040310775,0.00022380178
16324000,16324000,0.0052166674,-0.0012268558,0.0001099593
16344000,16344000,0.009864025,-0.0058429325,-0.0006786178
16364000,16364000,0.0063176192,-0.0017161081,-0.0004308745
16384000,16384000,0.009495748,-0.0026716876,0.0013890557
16404000,16404000,0.0083611645,-0.003498083,0.00066227437
16424000,16424000,0.0072203563,-0.0036127113,0.00092372217
16444000,16444000,0.009529786,-0.0020017286,8.444656e-05
16464000,16464000,0.0061943247,-0.003720929,-0.00030090974
16484000,16484000,0.011253976,-0.0026143459,-0.0007281908
16504000,16504000,0.006545512,-0.005430463,0.00064279314
16524000,16524000,0.007875458,-0.0023386069,-0.00018238997
16544000,16544000,0.0057830396,-0.0032978894,0.00080645963
16564000,16564000,0.0076015424,-0.002619048,-5.663739e-05
16584000,16584000,0.008755399,-0.0028238355,0.0004191133
16604000,16604000,0.009349611,-0.0031773862,-0.00030403503
16620000,16620000,0.0075200847,-0.0015160032,-0.00037146852
16644000,16644000,0.0074919593,-0.0055399383,5.8196903e-05
16664000,16664000,0.00625491,-0.0011013392,-0.0006677607
16684000,16684000,0.007432629,-0.002663738,0.00050734816
16704000,16704000,0.009540584,-0.004095797,-0.0005474603
16724000,16724000,0.006826992,-0.00249573,-3.8124075e-05
16744000,16744000,0.0045923684,-0.0014364343,-3.154391e-05
16764000,16764000,0.007283881,-0.0036474394,-0.000109379056
16784000,16784000,0.010435331,-0.0025972717,0.00015432708
16804000,16804000,0.009012304,-0.0032036407,0.00016865126
16824000,16824000,0.008377336,-0.0026126222,-0.00043892182
16844000,16844000,0.009190039,-0.0020756656,0.00019466123
16864000,16864000,0.0064355214,-0.0037947032,-0.0006066567
16884000,16884000,0.0085076615,-0.0025740606,0.0003436819
16904000,16904000,0.006913441,-0.0022613644,0.00021036019
16924000,16924000,0.0075772484,-0.005692813,0.000795055
16944000,16944000,0.007501659,-0.0039036346,-0.0004070174
16964000,16964000,0.007790734,-0.004395065,-0.0002580536
16984000,16984000,0.006834979,-0.0045247152,-0.0003685888
17004000,17004000,0.0072809104,-0.0042343712,-0.0011525674
17024000,17024000,0.012813158,-0.0021829766,-2.611085e-05
17044000,17044000,0.007072411,-0.0032750904,-0.00029687554
17064000,17064000,0.010259342,-0.0032943403,-0.0010112803
17084000,17084000,0.0078069586,-0.0052140485,4.8507354e-07
17104000,17104000,0.008367516,-0.0055240714,-0.00039611082
17124000,17124000,0.007804172,-0.0015865959,-0.00016815319
17144000,17144000,0.0074499026,-0.004429767,-7.68938e-05
17160000,17160000,0.008681816,-0.0037420623,0.0008060997
17184000,17184000,0.0065794736,-0.00084752333,0.00037204043
17204000,17204000,0.006808671,-0.0022493568,-0.0008527481
17224000,17224000,0.0070393053,-0.0034112157,0.00044980535
17244000,17244000,0.0076978127,-0.0036762904,-0.00026235465
17264000,17264000,0.008191762,-0.0039338465,-0.0006963098
17280000,17280000,0.0075696674,-0.0017619722,-0.0002761376
17304000,17304000,0.005035064,-0.0038015295,5.676548e-06
17324000,17324000,0.008121854,-0.004473567,0.00020859102
17344000,17344000,0.0076103583,-0.0026979633,0.00035059554
17360000,17360000,0.00666426,-0.0017123619,9.1748974e-05
17380000,17380000,0.008695507,-0.0017441802,-0.000827429
17400000,17400000,0.008591288,-0.005000299,0.00013419561
17424000,17424000,0.0075989375,-0.0043052034,0.00053088315
17444000,17444000,0.008165334,-0.0043405504,7.619312e-05
17464000,17464000,0.009442196,-0.0040928596,-0.0007736058
17484000,17484000,0.0058357767,-0.0026866468,-0.00018082846
17504000,17504000,0.008014095,-0.0016628167,3.9854745e-05
17524000,17524000,0.009839716,-0.0048368117,-0.00074967986
17544000,17544000,0.0052660475,-0.0037788805,0.00029588828
17564000,17564000,0.0075899367,-0.0036501854,-0.00094971975
17584000,17584000,0.008811405,-0.0054029175,0.00066236354
17604000,17604000,0.005945936,-0.0038751964,-6.744655e-05
17624000,17624000,0.006680153,-0.0023794607,0.0008522574
17644000,17644000,0.0055242036,-0.004058676,-0.00022787499
17664000,17664000,0.0073769726,-0.004075255,-0.00024344624
17684000,17684000,0.0066740965,-0.0031481166,-9.6861564e-05
17704000,17704000,0.009540387,-0.001834964,0.00054135866
17724000,17724000,0.007854066,-0.0032746762,0.000520826
17744000,17744000,0.006467867,-0.0037909106,0.0014623954
17760000,17760000,0.0053673424,-0.004082551,-0.00027466452
17784000,17784000,0.0068269484,-0.0031514016,0.00014063621
17804000,17804000,0.0074783503,-0.0021850774,-0.00088823633
17824000,17824000,0.008984622,-0.004428712,0.00036070682
17844000,17844000,0.007183117,-0.0043629133,-0.00019410651
17860000,17860000,0.008646312,-0.0025867869,-1.8988552e-05
17884000,17884000,0.0061676167,-0.002490833,-0.0005124001
17900000,17900000,0.008471809,-0.0043316265,0.0006513183
17924000,17924000,0.006108204,-0.0020342595,-0.0008329892
17944000,17944000,0.0063951006,-0.0043318197,-0.00035100195
17964000,17964000,0.008136781,-0.0025956603,0.00014793364
17984000,17984000,0.0040879324,-0.0032474354,-0.0011269643
18004000,18004000,0.0052669565,-0.0029344666,0.00021142558
18024000,18024000,0.00735488,-0.0027967924,0.00014084543
18044000,18044000,0.0062008863,-0.005188643,-0.0007110686
18064000,18064000,0.009277844,-0.0030916382,0.000399441
18084000,18084000,0.0056758327,-0.004500823,1.429712e-05
18104000,18104000,0.008039915,-0.0026840363,0.00011809869
18124000,18124000,0.009823325,-0.00097301044,-8.351361e-05
18144000,18144000,0.006271312,-0.0035007452,0.0005219703
18160000,18160000,0.0081137335,-0.0028572588,-0.00013153655
18184000,18184000,0.008496372,-0.0028748447,0.0005003633
18204000,18204000,0.009657232,-0.00546824,-0.000107368534
18224000,18224000,0.0056744074,-0.0039303973,5.0896353e-05
18244000,18244000,0.006804653,-0.0043073916,-0.0006357552
18260000,18260000,0.0062978854,-0.0011899133,0.0007063572
18284000,18284000,0.0076881675,-0.002271984,0.0005916628
18304000,18304000,0.0073626093,-0.004596191,1.3991842e-06
18324000,18324000,0.011579077,-0.003996969,-0.0012794376
18340000,18340000,0.004415841,-0.0043129083,0.00070114876
18364000,18364000,0.008330201,-0.0049529206,-0.00020123599
18380000,18380000,0.007322172,-0.0034681892,-0.0005556914
18404000,18404000,0.007371555,-0.0027539397,-0.00012156198
18424000,18424000,0.008973538,-0.00572945,0.0006094219
18444000,18444000,0.0078708045,-0.002163691,-0.00018650047
18464000,18464000,0.0055792024,-0.0049276366,0.000122010664
18484000,18484000,0.0073168674,-0.0028134033,0.00011562973
18504000,18504000,0.0072168857,-0.0043144845,0.00028094958
18524000,18524000,0.004100672,-0.0041302186,-0.0008180178
18544000,18544000,0.008590033,-0.0048659756,0.0004701138
18564000,18564000,0.011112634,-0.00333196,-0.000451414
18580000,18580000,0.006680524,-0.0036759994,0.001151637
18604000,18604000,0.008932508,-0.004673649,-0.00041712934
18624000,18624000,0.0070587406,-0.004492054,-0.00084427325
18644000,18644000,0.004430792,-0.0030929826,-0.00057506835
18660000,18660000,0.009697165,-0.0043538697,-0.00037790704
18684000,18684000,0.007207639,-0.005242236,-0.0007752362
18704000,18704000,0.008688866,-0.004092722,-0.00054735166
18724000,18724000,0.0084060915,-0.0043293005,0.00026771176
18744000,18744000,0.0066835964,-0.00337062,-0.00017297236
18764000,18764000,0.006143414,-0.004374388,0.0002679188
18784000,18784000,0.006214067,-0.0057191127,0.00056273275
18804000,18804000,0.007382448,-0.0034781364,-0.0009875172
18824000,18824000,0.007851612,-0.005381116,-0.0007593195
18844000,18844000,0.007913459,-0.005921209,0.00026773824
18864000,18864000,0.008090284,-0.0037283143,-0.00067923014
18884000,18884000,0.009409771,-0.0039196587,0.00090793596
18904000,18904000,0.009785988,-0.0030346045,-0.0009072031
18924000,18924000,0.005948481,-0.005682497,-0.00020229619
18944000,18944000,0.007274907,-0.004666071,-0.0013745866
18964000,18964000,0.008240125,-0.003433601,1.6198313e-05
18984000,18984000,0.008811619,-0.0061430885,0.00034443784
19004000,19004000,0.005916149,-0.0014404982,0.00037061566
19024000,19024000,0.0082007395,-0.0043958267,-0.0005416088
19044000,19044000,0.009515236,-0.005883743,9.796431e-05
19064000,19064000,0.008599813,-0.0038655445,0.00083839474
19084000,19084000,0.0056209974,-0.004396577,0.0015705255
19104000,19104000,0.00771324,-0.0033469214,0.00020664472
19124000,19124000,0.0060288575,-0.0038127797,0.00036415466
19144000,19144000,0.007055129,-0.005229444,7.297565e-05
19164000,19164000,0.007573412,-0.0048144185,-0.0005229391
19184000,19184000,0.009901546,-0.004864784,-9.625995e-05
19204000,19204000,0.008927163,-0.005147814,0.00046517147
19224000,19224000,0.0071988925,-0.004188453,-0.00078797265
19244000,19244000,0.0075852117,-0.004802439,0.0003074787
19264000,19264000,0.007345761,-0.004341084,-0.0006053272
19284000,19284000,0.009906549,-0.004486637,-0.0005686577
19304000,19304000,0.008088323,-0.00541279,0.0011802444
19324000,19324000,0.0072508357,-0.005113495,0.0010550132
19344000,19344000,0.0076638046,-0.004619556,0.000568789
19364000,19364000,0.0076989434,-0.005112493,-0.00036847242
19384000,19384000,0.008485497,-0.0056368606,0.0004443082
19404000,19404000,0.009589961,-0.0041915607,0.0012836177
19424000,19424000,0.008000193,-0.0041273013,0.0004871936
19444000,19444000,0.009107484,-0.0044059493,-0.0005701263
19464000,19464000,0.005769482,-0.005639639,0.0010211096
19484000,19484000,0.0067779706,-0.0038070402,0.0008816494
19504000,19504000,0.008192642,-0.0037279215,0.00022956215
19524000,19524000,0.008644974,-0.0036896358,-0.00046239575
19540000,19540000,0.006366745,-0.0050765453,0.0011953979
19564000,19564000,0.00805932,-0.0024028071,-0.00012495888
19584000,19584000,0.004562095,-0.0044647465,-0.00038140142
19604000,19604000,0.008748412,-0.0047463207,-0.0002162969
19624000,19624000,0.006999834,-0.007498523,0.00017007254
19644000,19644000,0.007300216,-0.0049594007,-0.000621785
19664000,19664000,0.0071275,-0.0050480007,0.0011486617
19684000,19684000,0.0098551,-0.004604886,-0.00047231474
19704000,19704000,0.008294906,-0.00606123,6.46538e-05
19724000,19724000,0.0099580055,-0.0047902907,0.00057901186
19744000,19744000,0.0069562127,-0.0043970128,0.00024644288
19764000,19764000,0.009935392,-0.0044887406,-0.0006095903
19784000,19784000,0.0076591866,-0.0029835892,-0.0002316464
19804000,19804000,0.008304904,-0.0051166634,-1.4225595e-05
19820000,19820000,0.006153057,-0.004931613,-0.0002058324
19844000,19844000,0.006481586,-0.0045412946,0.0009291336
19864000,19864000,0.008579796,-0.0038264464,4.5432105e-05
19884000,19884000,0.009627137,-0.0038874813,0.00045337793
19900000,19900000,0.008744437,-0.005805495,-0.00040253645
19924000,19924000,0.010682946,-0.005291234,8.7223765e-05
19944000,19944000,0.009672866,-0.004504469,-0.00045330013
19964000,19964000,0.00705542,-0.004499094,0.00032704082
19980000,19980000,0.009096241,-0.006880924,1.0026963e-05
20000000,20000000,0.006037967,-0.0050282455,-0.0002012546
20020000,20020000,0.008341899,-0.0029163598,-0.0014714883
20044000,20044000,0.009401895,-0.0034417973,0.0007210924
20064000,20064000,0.0062521347,-0.004359775,-0.00042285884
20084000,20084000,0.0054048533,-0.0037199873,-0.0010251056
20104000,20104000,0.0073388307,-0.005514795,5.475416e-05
20124000,20124000,0.008524558,-0.0041307937,-0.00039531747
20144000,20144000,0.0056926757,-0.0059918356,4.966359e-05
20164000,20164000,0.0077899965,-0.00573072,-0.00080257683
20184000,20184000,0.009328345,-0.0042234147,-0.0014091423
20204000,20204000,0.0047400296,-0.00708994,0.0007859018
20224000,20224000,0.0077904896,-0.0046734475,-0.00038471277
20244000,20244000,0.0062518143,-0.0047094887,-0.00011462339
20264000,20264000,0.007079768,-0.005880971,-0.00020306847
20284000,20284000,0.006902975,-0.006485218,-0.0006263253
20304000,20304000,0.007181306,-0.0068935403,-0.0006981697
20324000,20324000,0.005334114,-0.003693574,0.0003791167
20340000,20340000,0.0069716233,-0.0036551158,-0.0006575675
20364000,20364000,0.008747183,-0.007346135,0.00019227485
20380000,20380000,0.002420284,-0.006717179,0.00043089088
20404000,20404000,0.0067249825,-0.005312594,-0.00062000286
20424000,20424000,0.008256999,-0.0068616476,-8.4683095e-05
20440000,20440000,0.007211099,-0.005403258,-0.0006785017
20464000,20464000,0.007931354,-0.004749176,0.00043055226
20484000,20484000,0.008382252,-0.005533897,0.00021140037
20504000,20504000,0.008586903,-0.0048873806,0.000106198946
20524000,20524000,0.00630099,-0.0051824064,-0.00014075286
20544000,20544000,0.0047179414,-0.0050002406,0.0003378029
20564000,20564000,0.00852211,-0.0035923528,-0.00018706673
20584000,20584000,0.0065747155,-0.0045406455,0.00048264567
20604000,20604000,0.007950546,-0.0065411963,-0.0002967892
20624000,20624000,0.0046535893,-0.004778739,0.0005162824
20644000,20644000,0.0061226576,-0.004944334,-0.00077087985
20664000,20664000,0.0053183227,-0.0063193757,0.00017431055
20684000,20684000,0.0060710213,-0.006518335,-0.000263372
20704000,20704000,0.0064243586,-0.0044511915,-0.00029371105
20724000,20724000,0.0077363914,-0.006150156,0.00042371947
20744000,20744000,0.0071792216,-0.0017958421,-0.00016518014
20764000,20764000,0.009595484,-0.0075409096,-0.00054051157
20780000,20780000,0.0066117314,-0.005354258,0.00046692762
20804000,20804000,0.0073351827,-0.005206962,-0.00021937939
20824000,20824000,0.0059829047,-0.004506187,0.000518931
20844000,20844000,0.0045550065,-0.0031817546,-0.00018353791
20864000,20864000,0.009988545,-0.0047553494,-0.0003113304
20884000,20884000,0.007201046,-0.0051030624,-0.00044190904
20904000,20904000,0.0080891,-0.00537683,0.0007716257
20924000,20924000,0.003572329,-0.00591186,-0.0007055339
20944000,20944000,0.0068800375,-0.004212075,0.00044709802
20964000,20964000,0.0072101154,-0.0064394576,-0.0008474838
20984000,20984000,0.008846517,-0.007624789,0.00038057347
21004000,21004000,0.00587361,-0.004080199,-0.000114986906
21024000,21024000,0.007873123,-0.0062931725,0.00043189977
21044000,21044000,0.008867606,-0.004976366,0.00062374066
21064000,21064000,0.006052563,-0.0063483687,-0.0006124535
21084000,21084000,0.010898947,-0.005636479,-0.00097381196
21104000,21104000,0.006949735,-0.0046111625,-0.0006232362
21124000,21124000,0.0068634483,-0.005657888,0.00046727346
21144000,21144000,0.007985912,-0.004641963,-0.00044120476
21164000,21164000,0.0062349346,-0.006819835,-0.0014753324
21184000,21184000,0.007159265,-0.004691271,0.00032071007
21204000,21204000,0.0051559396,-0.0036693807,-0.00046537266
21224000,21224000,0.004558239,-0.0034590526,-0.00094121846
21244000,21244000,0.0043035164,-0.0054002116,-0.0004251808
21264000,21264000,0.005497736,-0.0061532604,-6.265361e-05
21280000,21280000,0.0069481437,-0.004448027,0.00029965796
21304000,21304000,0.009119668,-0.003535802,0.00038029143
21324000,21324000,0.0070863757,-0.0035846476,0.00097247
21344000,21344000,0.008473021,-0.0041622305,-0.00067362736
21364000,21364000,0.007224651,-0.007085777,0.00024551232
21384000,21384000,0.0053265444,-0.005968229,-0.00033109167
21404000,21404000,0.006465035,-0.005827349,0.00065308926
21424000,21424000,0.00777685,-0.0058005764,-0.0006358118
21440000,21440000,0.008363558,-0.0034311996,0.0003127121
21464000,21464000,0.006548612,-0.0038636222,0.0008394904
21484000,21484000,0.0079787485,-0.0038600392,-0.00010586756
21504000,21504000,0.0074923052,-0.0044046864,0.0013897084
21524000,21524000,0.0075977133,-0.0066057076,0.00033587747
21544000,21544000,0.0071069966,-0.005398076,7.272556e-05
21564000,21564000,0.007338225,-0.005079886,-0.0006365575
21584000,21584000,0.0085024405,-0.00462062,-0.00037201645
21604000,21604000,0.0059687314,-0.004021947,0.0014548296
21624000,21624000,0.0069115874,-0.0040618167,0.00021604716
21644000,21644000,0.009701973,-0.0032026195,0.00058741425
21664000,21664000,0.006272557,-0.004661314,-0.0011951992
21684000,21684000,0.0077811135,-0.003967375,-8.16275e-05
21700000,21700000,0.0083913095,-0.004534434,5.683612e-05
21724000,21724000,0.007943793,-0.00436911,0.0005230733
21744000,21744000,0.0053333216,-0.0033847895,-0.00078303425
21764000,21764000,0.007956658,-0.0062609115,0.00080161466
21784000,21784000,0.00792152,-0.0027562927,0.00013438168
21804000,21804000,0.00863814,-0.0035603505,-0.00016202789
21820000,21820000,0.005267056,-0.005129121,-0.0008411429
21844000,21844000,0.0051512965,-0.0037335865,-0.00022792122
21864000,21864000,0.00910118,-0.004734003,7.736198e-05
21884000,21884000,0.0070932433,-0.004685937,0.0004414406
21904000,21904000,0.0059557473,-0.0036552558,-0.00021818896
21920000,21920000,0.007755861,-0.004194241,-0.00046722312
21944000,21944000,0.0076802466,-0.006255258,0.0010432159
21964000,21964000,0.010714864,-0.005279313,0.00038623993
21980000,21980000,0.0058176722,-0.0027858685,1.0793195e-05
22004000,22004000,0.0046223756,-0.005785069,0.00028813616
22024000,22024000,0.009841785,-0.004566492,0.00042539914
22044000,22044000,0.0034712781,-0.0033178548,-0.00029040303
22064000,22064000,0.009101492,-0.005751833,-0.00045386664
22084000,22084000,0.007820192,-0.0030024617,0.00070426083
22104000,22104000,0.0065237405,-0.0037678399,-1.3390479e-05
22124000,22124000,0.010586001,-0.0036441346,0.0008235112
22140000,22140000,0.006732734,-0.0053015826,0.0010711722
22164000,22164000,0.007899254,-0.006516221,-0.00011570909
22184000,22184000,0.005975377,-0.00425319,0.00016040662
22204000,22204000,0.0067747366,-0.005568317,2.2433088e-07
22224000,22224000,0.0069345296,-0.0042672283,0.0008847676
22244000,22244000,0.006956846,-0.005203389,0.00096466125
22264000,22264000,0.0076590157,-0.0024193209,-0.00028729168
22280000,22280000,0.0074358135,-0.005731467,-0.001049279
22304000,22304000,0.0031145462,-0.0047058756,-0.00032928842
22320000,22320000,0.0076549384,-0.003483504,0.0007115801
22344000,22344000,0.00827762,-0.0045884335,0.0005970213
22364000,22364000,0.00716821,-0.003272109,0.0001923564
22380000,22380000,0.006111738,-0.006119389,-6.8026355e-05
22404000,22404000,0.0051101935,-0.0043527344,0.0006476377
22424000,22424000,0.005300626,-0.0029565403,-0.0011665485
22444000,22444000,0.0069246297,-0.0042130384,-9.211826e-05
22464000,22464000,0.004652853,-0.0047172075,0.0004946781
22484000,22484000,0.009215779,-0.0057318923,0.00037853452
22500000,22500000,0.004288699,-0.005785573,-0.0005082637
22524000,22524000,0.006953105,-0.004793091,-0.00059584813
22544000,22544000,0.0059401616,-0.0037295197,0.0011291229
22564000,22564000,0.005396559,-0.0052488493,-0.00028310213
22584000,22584000,0.0077974834,-0.0035809502,-0.0008091917
22604000,22604000,0.0057525584,-0.004990591,0.00061896624
22620000,22620000,0.0074463333,-0.0043209502,0.001470338
22644000,22644000,0.0051844986,-0.0040170727,-0.00050436636
22664000,22664000,0.006998172,-0.004592749,-0.0005865698
22684000,22684000,0.0038586017,-0.0037189974,-0.0006176344
22700000,22700000,0.010962931,-0.0038189162,-0.00044687706
22724000,22724000,0.005583055,-0.004184096,0.0003551028
22744000,22744000,0.008016951,-0.0054494073,-0.00021646012
22764000,22764000,0.0074631097,-0.0022883783,-0.00067895505
22784000,22784000,0.006867926,-0.004043116,0.00035303412
22804000,22804000,0.007902234,-0.0049603595,-0.00022167065
22820000,22820000,0.0038553611,-0.005192172,-0.0006793091
22844000,22844000,0.009558866,-0.0077589722,0.00016214249
22864000,22864000,0.007423177,-0.004897796,0.0005517413
22884000,22884000,0.0076140333,-0.005483357,-0.00043680152
22900000,22900000,0.006157608,-0.0044797095,0.0007248202
22920000,22920000,0.0068462198,-0.006731262,-2.2180586e-05
22944000,22944000,0.006335169,-0.0028260632,0.00010709441
22964000,22964000,0.0086316615,-0.0061795274,0.00037038006
22984000,22984000,0.00395536,-0.004636906,0.0011140732
23004000,23004000,0.006074888,-0.0044764886,0.00015010721
23020000,23020000,0.006714943,-0.0057991417,0.00010634428
23044000,23044000,0.0052492125,-0.0040286975,0.0007636859
23064000,23064000,0.0077830693,-0.0052316557,0.00026142
23084000,23084000,0.008085509,-0.0049750353,-0.00041689325
23104000,23104000,0.0102561,-0.0052202293,0.0001225046
23124000,23124000,0.005195695,-0.0019576626,0.00036308673
23144000,23144000,0.0085029,-0.004196427,-0.000509093
23164000,23164000,0.0062902085,-0.0056628333,0.0003551049
23184000,23184000,0.0053121014,-0.0062008905,8.2000646e-05
23204000,23204000,0.007499932,-0.0064658597,0.0003770475
23224000,23224000,0.00534786,-0.0027142407,0.00066277775
23240000,23240000,0.0075130435,-0.0064883986,-0.0009003708
23264000,23264000,0.007895555,-0.0062898416,0.00036779602
23284000,23284000,0.00705361,-0.0062325224,0.00018207284
23304000,23304000,0.006807068,-0.004838519,0.0002656512
23324000,23324000,0.0063632526,-0.0027846228,-6.3493484e-05
23344000,23344000,0.007979807,-0.003682988,-7.505945e-05
23364000,23364000,0.0066150506,-0.004161877,-0.0011030678
23380000,23380000,0.007844711,-0.0065224883,5.988848e-06
23404000,23404000,0.010607877,-0.005476431,0.00089555205
23424000,23424000,0.0054952716,-0.003196151,-0.0002679269
23444000,23444000,0.0059183794,-0.006484499,-0.00059151684
23464000,23464000,0.008069023,-0.0036250416,-0.00056968373
23484000,23484000,0.004935185,-0.005833582,0.00036055438
23504000,23504000,0.008846889,-0.00527981,-0.0005683448
23524000,23524000,0.0039859093,-0.0047432478,-0.0005379382
23544000,23544000,0.007391687,-0.0039289873,0.0003690588
23564000,23564000,0.004532202,-0.003858204,6.35769e-05
23584000,23584000,0.00825176,-0.0045477017,-0.00052897434
23604000,23604000,0.008366187,-0.005044862,0.00032006667
23624000,23624000,0.0054943184,-0.0067510377,0.00052676554
23644000,23644000,0.009619033,-0.006642494,0.00054319756
23664000,23664000,0.0040381253,-0.003929886,-0.0001532111
23684000,23684000,0.0052960077,-0.0064818757,-0.0005014233
23704000,23704000,0.0074481075,-0.0054021017,7.38555e-05
23724000,23724000,0.0052977684,-0.004136981,-0.0011069773
23744000,23744000,0.009975875,-0.0038122204,3.197069e-06
23764000,23764000,0.005317606,-0.0050514583,0.0007020225
23784000,23784000,0.008133239,-0.0052670217,-0.00026490245
23804000,23804000,0.0052592284,-0.0057624485,-3.6391193e-05
23824000,23824000,0.007953878,-0.005802341,0.00045440812
23844000,23844000,0.005054075,-0.0053625274,-0.00096957537
23864000,23864000,0.005947254,-0.003056177,0.0003750518
23880000,23880000,0.0068539935,-0.0068368083,0.001517699
23904000,23904000,0.0061608306,-0.004503759,0.0004713955
23924000,23924000,0.0069783884,-0.0035761623,-0.00036386173
23944000,23944000,0.008040997,-0.006051391,0.0015160501
23964000,23964000,0.007220234,-0.005624361,-0.00023008355
23984000,23984000,0.008805223,-0.0043521137,-4.049043e-05
24004000,24004000,0.0059618037,-0.0053295856,0.0004855692
24024000,24024000,0.007571406,-0.005652252,0.0010785967
24044000,24044000,0.00807457,-0.0029823673,-5.3992357e-05
24064000,24064000,0.0052540987,-0.0048707067,0.00017963734
