timestamp,timestamp_sample,baro_device_id,baro_alt_meter,baro_temp_celcius,baro_pressure_pa,rho,calibration_count
3508000,3508000,6620172,29.273397,14.809473,100973.914,1.2213626,0
3604000,3568000,6620172,29.371994,14.809473,100972.7,1.2213479,0
3628000,3628000,6620172,29.235838,14.809473,100974.34,1.2213678,0
3724000,3688000,6620172,29.287483,14.809473,100973.7,1.2213601,0
3748000,3748000,6620172,29.296873,14.809473,100973.586,1.2213587,0
3844000,3808000,6620172,29.320349,14.809473,100973.31,1.2213553,0
3868000,3868000,6620172,29.343824,14.809473,100973.03,1.221352,0
3964000,3928000,6620172,29.231144,14.809473,100974.414,1.2213687,0
3988000,3988000,6620172,29.249924,14.809473,100974.15,1.2213655,0
4084000,4048000,6620172,29.357908,14.809473,100972.85,1.2213497,0
4108000,4108000,6620172,29.479979,14.809473,100971.43,1.2213326,0
4204000,4168000,6620172,29.343824,14.809473,100973.016,1.2213517,0
4228000,4228000,6620172,29.353214,14.809473,100972.914,1.2213506,0
4324000,4288000,6620172,29.320349,14.809473,100973.32,1.2213554,0
4348000,4348000,6620172,29.127853,14.809473,100975.66,1.2213837,0
4444000,4408000,6620172,29.381384,14.809473,100972.61,1.2213469,0
4468000,4468000,6620172,29.301569,14.809473,100973.52,1.2213578,0
4564000,4528000,6620172,29.339128,14.809473,100973.09,1.2213527,0
4588000,4588000,6620172,29.259314,14.809473,100974.04,1.2213641,0
4684000,4648000,6620172,29.320349,14.809473,100973.31,1.2213553,0
4708000,4708000,6620172,29.207668,14.809473,100974.7,1.2213721,0
4804000,4768000,6620172,29.315653,14.809473,100973.41,1.2213565,0
4828000,4828000,6620172,29.386078,14.809473,100972.5,1.2213454,0
4924000,4888000,6620172,29.339128,14.809473,100973.125,1.221353,0
4948000,4948000,6620172,29.174803,14.809473,100975.03,1.2213761,0
5044000,5007000,6620172,29.376688,14.809473,100972.65,1.2213473,0
5068000,5068000,6620172,29.353214,14.809473,100972.92,1.2213506,0
5164000,5127000,6620172,29.301569,14.809473,100973.516,1.2213578,0
5188000,5188000,6620172,29.306263,14.809473,100973.51,1.2213577,0
5284000,5248000,6620172,29.235838,14.809473,100974.31,1.2213674,0
5308000,5308000,6620172,29.479979,14.809473,100971.4,1.2213322,0
5404000,5368000,6620172,29.334433,14.809473,100973.164,1.2213535,0
5428000,5428000,6620172,29.29218,14.809473,100973.664,1.2213596,0
5524000,5488000,6620172,29.362604,14.809473,100972.79,1.221349,0
5548000,5548000,6620172,29.28279,14.809473,100973.75,1.2213607,0
5644000,5608000,6620172,29.339128,14.809473,100973.12,1.221353,0
5668000,5668000,6620172,29.343824,14.809473,100973.055,1.2213522,0
5764000,5728000,6620172,29.240534,14.809473,100974.266,1.2213669,0
5784000,5784000,6620172,29.320349,14.809473,100973.33,1.2213556,0
5860000,5836000,6620172,29.381384,14.809474,100972.57,1.2213464,0
5908000,5896000,6620172,29.334433,14.809473,100973.16,1.2213534,0
5980000,5956000,6620172,29.334433,14.809474,100973.15,1.2213533,0
6028000,6016000,6620172,29.296873,14.809473,100973.625,1.2213591,0
6100000,6076000,6620172,29.362604,14.809474,100972.836,1.2213496,0
6148000,6136000,6620172,29.320349,14.809473,100973.3,1.2213551,0
6220000,6196000,6620172,29.306263,14.809474,100973.48,1.2213573,0
6268000,6256000,6620172,29.339128,14.809473,100973.125,1.221353,0
6340000,6316000,6620172,29.306263,14.809474,100973.5,1.2213576,0
6388000,6376000,6620172,29.287483,14.809473,100973.72,1.2213602,0
6460000,6434666,6620172,29.264008,14.809474,100973.96,1.2213632,0
6508000,6496000,6620172,29.409554,14.809473,100972.22,1.2213421,0
6580000,6556000,6620172,29.28279,14.809474,100973.78,1.221361,0
6628000,6616000,6620172,29.447113,14.809473,100971.83,1.2213374,0
6700000,6676000,6620172,29.296873,14.809474,100973.59,1.2213588,0
6748000,6736000,6620172,29.245228,14.809473,100974.234,1.2213664,0
6820000,6796000,6620172,29.381384,14.809474,100972.59,1.2213466,0
6868000,6856000,6620172,29.334433,14.809473,100973.164,1.2213535,0
6940000,6916000,6620172,29.301569,14.809474,100973.54,1.2213581,0
6988000,6976000,6620172,29.315653,14.809473,100973.41,1.2213565,0
7060000,7036000,6620172,29.287483,14.809474,100973.73,1.2213603,0
7108000,7096000,6620172,29.310959,14.809473,100973.43,1.2213567,0
7180000,7156000,6620172,29.315653,14.809474,100973.375,1.221356,0
7228000,7216000,6620172,29.306263,14.809473,100973.484,1.2213575,0
7300000,7276000,6620172,29.259314,14.809474,100974.04,1.2213641,0
7348000,7336000,6620172,29.296873,14.809473,100973.625,1.2213591,0
7420000,7396000,6620172,29.315653,14.809474,100973.38,1.2213562,0
7468000,7456000,6620172,29.310959,14.809473,100973.42,1.2213566,0
7540000,7514666,6620172,29.334433,14.809474,100973.16,1.2213534,0
7588000,7576000,6620172,29.301569,14.809473,100973.516,1.2213578,0
7660000,7636000,6620172,29.386078,14.809474,100972.54,1.221346,0
7708000,7696000,6620172,29.306263,14.809473,100973.48,1.2213573,0
7780000,7756000,6620172,29.296873,14.809474,100973.6,1.2213588,0
7828000,7816000,6620172,29.409554,14.809473,100972.266,1.2213427,0
7900000,7876000,6620172,29.306263,14.809474,100973.445,1.2213569,0
7948000,7936000,6620172,29.376688,14.809473,100972.64,1.2213472,0
8020000,7996000,6620172,29.320349,14.809474,100973.32,1.2213554,0
8068000,8056000,6620172,29.278093,14.809473,100973.83,1.2213616,0
8140000,8116000,6620172,29.339128,14.809474,100973.07,1.2213523,0
8188000,8176000,6620172,29.357908,14.809473,100972.89,1.2213502,0
8260000,8236000,6620172,29.381384,14.809474,100972.56,1.2213463,0
8308000,8296000,6620172,29.259314,14.809473,100974.016,1.2213638,0
8380000,8356000,6620172,29.348518,14.809474,100972.99,1.2213514,0
8428000,8416000,6620172,29.489368,14.809473,100971.31,1.2213311,0
8500000,8476000,6620172,29.315653,14.809474,100973.41,1.2213565,0
8548000,8536000,6620172,29.362604,14.809473,100972.84,1.2213497,0
8620000,8596000,6620172,29.334433,14.809474,100973.164,1.2213535,0
8668000,8656000,6620172,29.386078,14.809473,100972.5,1.2213454,0
8740000,8716000,6620172,29.296873,14.809474,100973.59,1.2213588,0
8788000,8776000,6620172,29.301569,14.809473,100973.56,1.2213584,0
8860000,8836000,6620172,29.386078,14.809474,100972.5,1.2213454,0
8908000,8896000,6620172,29.174803,14.809473,100975.06,1.2213765,0
8980000,8956000,6620172,29.353214,14.809474,100972.96,1.2213511,0
9028000,9016000,6620172,29.296873,14.809473,100973.625,1.2213591,0
9100000,9076000,6620172,29.381384,14.809474,100972.57,1.2213464,0
9148000,9136000,6620172,29.353214,14.809473,100972.96,1.2213511,0
9220000,9196000,6620172,29.362604,14.809474,100972.82,1.2213494,0
9268000,9256000,6620172,29.40486,14.809473,100972.3,1.221343,0
9340000,9316000,6620172,29.268703,14.809474,100973.94,1.2213628,0
9388000,9376000,6620172,29.325043,14.809473,100973.234,1.2213544,0
9460000,9436000,6620172,29.315653,14.809474,100973.38,1.2213562,0
9508000,9496000,6620172,29.278093,14.809473,100973.836,1.2213616,0
9580000,9556000,6620172,29.296873,14.809474,100973.625,1.2213591,0
9628000,9616000,6620172,29.386078,14.809473,100972.54,1.221346,0
9700000,9676000,6620172,29.259314,14.809474,100974.04,1.2213641,0
9748000,9736000,6620172,29.325043,14.809473,100973.23,1.2213542,0
9820000,9796000,6620172,29.259314,14.809474,100974.03,1.221364,0
9868000,9856000,6620172,29.29218,14.809473,100973.65,1.2213594,0
9940000,9914666,6620172,29.339128,14.809474,100973.086,1.2213526,0
9984000,9974000,6620172,29.357908,14.809473,100972.91,1.2213504,0
10036000,10024000,6620172,29.170109,14.809473,100975.11,1.221377,0
10108000,10084000,6620172,29.334433,14.809474,100973.15,1.2213533,0
10156000,10144000,6620172,29.395468,14.809473,100972.41,1.2213445,0
10228000,10204000,6620172,29.28279,14.809474,100973.79,1.221361,0
10276000,10264000,6620172,29.301569,14.809473,100973.54,1.2213581,0
10348000,10324000,6620172,29.418943,14.809474,100972.125,1.2213409,0
10396000,10384000,6620172,29.235838,14.809473,100974.336,1.2213677,0
10468000,10444000,6620172,29.334433,14.809474,100973.19,1.2213539,0
10516000,10504000,6620172,29.329739,14.809473,100973.22,1.2213541,0
10588000,10564000,6620172,29.320349,14.809474,100973.28,1.221355,0
10636000,10624000,6620172,29.353214,14.809473,100972.93,1.2213507,0
10708000,10684000,6620172,29.334433,14.809474,100973.19,1.2213539,0
10756000,10744000,6620172,29.264008,14.809473,100974.01,1.2213637,0
10828000,10804000,6620172,29.28279,14.809474,100973.75,1.2213607,0
10876000,10864000,6620172,29.29218,14.809473,100973.66,1.2213595,0
10948000,10924000,6620172,29.301569,14.809474,100973.57,1.2213584,0
10996000,10984000,6620172,29.41425,14.809473,100972.2,1.2213418,0
11068000,11044000,6620172,29.386078,14.809474,100972.52,1.2213458,0
11116000,11104000,6620172,29.259314,14.809473,100974.016,1.2213638,0
11188000,11164000,6620172,29.320349,14.809474,100973.336,1.2213557,0
11236000,11224000,6620172,29.418943,14.809473,100972.125,1.2213409,0
11308000,11284000,6620172,29.29218,14.809474,100973.664,1.2213596,0
11356000,11344000,6620172,29.221754,14.809473,100974.484,1.2213695,0
11428000,11404000,6620172,29.315653,14.809474,100973.38,1.2213562,0
11476000,11464000,6620172,29.357908,14.809473,100972.89,1.2213502,0
11548000,11524000,6620172,29.235838,14.809474,100974.305,1.2213674,0
11596000,11584000,6620172,29.278093,14.809473,100973.836,1.2213616,0
11664000,11642666,6620172,29.310959,14.809474,100973.44,1.2213569,0
11716000,11704000,6620172,29.325043,14.809473,100973.266,1.2213548,0
11788000,11764000,6620172,29.339128,14.809474,100973.086,1.2213526,0
11836000,11824000,6620172,29.325043,14.809473,100973.27,1.221355,0
11908000,11884000,6620172,29.343824,14.809474,100973.03,1.221352,0
11956000,11944000,6620172,29.367298,14.809473,100972.72,1.2213482,0
12028000,12004000,6620172,29.315653,14.809474,100973.4,1.2213564,0
12076000,12064000,6620172,29.273397,14.809473,100973.89,1.2213624,0
12148000,12124000,6620172,29.287483,14.809474,100973.72,1.2213602,0
12196000,12184000,6620172,29.353214,14.809473,100972.914,1.2213506,0
12268000,12242666,6620172,29.400164,14.809474,100972.375,1.221344,0
12316000,12302000,6620172,29.231144,14.809473,100974.41,1.2213686,0
12364000,12352000,6620172,29.409554,14.809473,100972.22,1.2213421,0
12436000,12412000,6620172,29.301569,14.809474,100973.52,1.2213578,0
12484000,12472000,6620172,29.437723,14.809473,100971.914,1.2213384,0
12556000,12532000,6620172,29.28279,14.809474,100973.77,1.2213609,0
12604000,12592000,6620172,29.362604,14.809473,100972.83,1.2213495,0
12676000,12652000,6620172,29.376688,14.809474,100972.65,1.2213473,0
12724000,12712000,6620172,29.315653,14.809473,100973.34,1.2213558,0
12796000,12772000,6620172,29.395468,14.809474,100972.414,1.2213445,0
12844000,12832000,6620172,29.273397,14.809473,100973.86,1.2213619,0
12916000,12890666,6620172,29.320349,14.809474,100973.29,1.221355,0
12964000,12952000,6620172,29.409554,14.809473,100972.234,1.2213423,0
13036000,13012000,6620172,29.287483,14.809474,100973.72,1.2213602,0
13084000,13072000,6620172,29.40486,14.809473,100972.3,1.221343,0
13156000,13132000,6620172,29.343824,14.809474,100973.0,1.2213515,0
13204000,13192000,6620172,29.376688,14.809473,100972.625,1.2213471,0
13276000,13252000,6620172,29.259314,14.809474,100974.06,1.2213645,0
13324000,13312000,6620172,29.254618,14.809473,100974.09,1.2213647,0
13396000,13372000,6620172,29.28279,14.809474,100973.75,1.2213607,0
13444000,13432000,6620172,29.320349,14.809473,100973.33,1.2213556,0
13516000,13492000,6620172,29.339128,14.809474,100973.125,1.221353,0
13564000,13552000,6620172,29.315653,14.809473,100973.36,1.2213559,0
13636000,13612000,6620172,29.386078,14.809474,100972.53,1.2213459,0
13684000,13672000,6620172,29.409554,14.809473,100972.266,1.2213427,0
13756000,13732000,6620172,29.343824,14.809474,100973.0,1.2213515,0
13804000,13792000,6620172,29.343824,14.809473,100973.05,1.2213521,0
13876000,13852000,6620172,29.381384,14.809474,100972.6,1.2213467,0
13924000,13912000,6620172,29.28279,14.809473,100973.78,1.221361,0
13996000,13972000,6620172,29.339128,14.809474,100973.1,1.2213528,0
14044000,14032000,6620172,29.320349,14.809473,100973.305,1.2213552,0
14116000,14092000,6620172,29.357908,14.809474,100972.91,1.2213504,0
14164000,14152000,6620172,29.325043,14.809473,100973.266,1.2213548,0
14236000,14212000,6620172,29.273397,14.809474,100973.875,1.2213621,0
14284000,14272000,6620172,29.320349,14.809473,100973.31,1.2213553,0
14356000,14332000,6620172,29.174803,14.809474,100975.06,1.2213765,0
14404000,14392000,6620172,29.231144,14.809473,100974.39,1.2213683,0
14476000,14452000,6620172,29.264008,14.809474,100973.97,1.2213633,0
14524000,14512000,6620172,29.259314,14.809473,100974.05,1.2213643,0
14596000,14572000,6620172,29.278093,14.809474,100973.85,1.2213619,0
14644000,14632000,6620172,29.362604,14.809473,100972.8,1.2213491,0
14716000,14692000,6620172,29.334433,14.809474,100973.18,1.2213538,0
14764000,14752000,6620172,29.381384,14.809473,100972.586,1.2213465,0
14836000,14812000,6620172,29.325043,14.809474,100973.24,1.2213545,0
14884000,14872000,6620172,29.395468,14.809473,100972.45,1.221345,0
14956000,14932000,6620172,29.329739,14.809474,100973.21,1.221354,0
15004000,14992000,6620172,29.315653,14.809473,100973.37,1.2213559,0
15076000,15052000,6620172,29.334433,14.809474,100973.164,1.2213535,0
15124000,15112000,6620172,29.310959,14.809473,100973.44,1.2213569,0
15196000,15172000,6620172,29.362604,14.809474,100972.836,1.2213496,0
15244000,15232000,6620172,29.306263,14.809473,100973.49,1.2213576,0
15316000,15292000,6620172,29.40486,14.809474,100972.27,1.2213427,0
15364000,15352000,6620172,29.212362,14.809473,100974.62,1.2213712,0
15436000,15412000,6620172,29.376688,14.809474,100972.65,1.2213473,0
15484000,15472000,6620172,29.329739,14.809473,100973.22,1.2213541,0
15556000,15532000,6620172,29.418943,14.809474,100972.12,1.2213409,0
15604000,15592000,6620172,29.400164,14.809473,100972.34,1.2213435,0
15676000,15652000,6620172,29.334433,14.809474,100973.13,1.221353,0
15724000,15712000,6620172,29.254618,14.809473,100974.086,1.2213646,0
15796000,15772000,6620172,29.296873,14.809474,100973.586,1.2213587,0
15844000,15832000,6620172,29.254618,14.809473,100974.09,1.2213647,0
15916000,15892000,6620172,29.339128,14.809474,100973.07,1.2213523,0
15964000,15952000,6620172,29.362604,14.809473,100972.78,1.2213489,0
16036000,16012000,6620172,29.367298,14.809474,100972.73,1.2213483,0
16084000,16072000,6620172,29.320349,14.809473,100973.28,1.221355,0
16156000,16132000,6620172,29.395468,14.809474,100972.41,1.2213445,0
16204000,16192000,6620172,29.320349,14.809473,100973.3,1.2213551,0
16276000,16252000,6620172,29.334433,14.809474,100973.15,1.2213533,0
16324000,16312000,6620172,29.334433,14.809473,100973.19,1.2213539,0
16396000,16372000,6620172,29.231144,14.809474,100974.4,1.2213684,0
16444000,16432000,6620172,29.44242,14.809473,100971.89,1.2213382,0
16516000,16492000,6620172,29.315653,14.809474,100973.35,1.2213558,0
16564000,16552000,6620172,29.353214,14.809473,100972.96,1.2213511,0
16636000,16612000,6620172,29.362604,14.809474,100972.84,1.2213497,0
16684000,16672000,6620172,29.339128,14.809473,100973.07,1.2213523,0
16756000,16732000,6620172,29.367298,14.809474,100972.73,1.2213483,0
16804000,16792000,6620172,29.41425,14.809473,100972.2,1.2213418,0
16876000,16852000,6620172,29.40486,14.809474,100972.305,1.2213432,0
16924000,16912000,6620172,29.339128,14.809473,100973.125,1.221353,0
16996000,16972000,6620172,29.28279,14.809474,100973.75,1.2213607,0
17044000,17032000,6620172,29.28279,14.809473,100973.76,1.2213607,0
17116000,17092000,6620172,29.287483,14.809474,100973.73,1.2213603,0
17164000,17152000,6620172,29.264008,14.809473,100973.97,1.2213633,0
17236000,17212000,6620172,29.381384,14.809474,100972.586,1.2213465,0
17284000,17272000,6620172,29.301569,14.809473,100973.53,1.221358,0
17356000,17332000,6620172,29.371994,14.809474,100972.69,1.2213478,0
17404000,17392000,6620172,29.278093,14.809473,100973.84,1.2213618,0
17476000,17452000,6620172,29.334433,14.809474,100973.164,1.2213535,0
17524000,17512000,6620172,29.465895,14.809473,100971.55,1.2213339,0
17596000,17572000,6620172,29.339128,14.809474,100973.06,1.2213522,0
17644000,17632000,6620172,29.245228,14.809473,100974.22,1.2213663,0
17716000,17692000,6620172,29.28279,14.809474,100973.75,1.2213607,0
17764000,17752000,6620172,29.315653,14.809473,100973.41,1.2213565,0
17836000,17812000,6620172,29.315653,14.809474,100973.4,1.2213564,0
17884000,17872000,6620172,29.264008,14.809473,100974.0,1.2213635,0
17956000,17932000,6620172,29.287483,14.809474,100973.72,1.2213602,0
18004000,17992000,6620172,29.268703,14.809473,100973.94,1.2213628,0
18076000,18052000,6620172,29.353214,14.809474,100972.945,1.2213509,0
18124000,18112000,6620172,29.325043,14.809473,100973.25,1.2213546,0
18196000,18172000,6620172,29.386078,14.809474,100972.5,1.2213454,0
18244000,18232000,6620172,29.371994,14.809473,100972.7,1.2213479,0
18316000,18292000,6620172,29.207668,14.809474,100974.66,1.2213715,0
18364000,18352000,6620172,29.381384,14.809473,100972.56,1.2213463,0
18436000,18412000,6620172,29.278093,14.809474,100973.836,1.2213616,0
18484000,18472000,6620172,29.320349,14.809473,100973.33,1.2213556,0
18556000,18532000,6620172,29.28279,14.809474,100973.75,1.2213607,0
18604000,18592000,6620172,29.235838,14.809473,100974.34,1.2213678,0
18676000,18652000,6620172,29.278093,14.809474,100973.805,1.2213613,0
18724000,18712000,6620172,29.310959,14.809473,100973.44,1.2213569,0
18796000,18772000,6620172,29.367298,14.809474,100972.77,1.2213488,0
18844000,18832000,6620172,29.386078,14.809473,100972.55,1.2213461,0
18916000,18892000,6620172,29.348518,14.809474,100972.98,1.2213513,0
18964000,18952000,6620172,29.43303,14.809473,100971.984,1.2213392,0
19036000,19012000,6620172,29.296873,14.809474,100973.59,1.2213588,0
19084000,19072000,6620172,29.320349,14.809473,100973.336,1.2213557,0
19156000,19132000,6620172,29.249924,14.809474,100974.18,1.2213658,0
19204000,19192000,6620172,29.339128,14.809473,100973.11,1.2213529,0
19276000,19252000,6620172,29.325043,14.809474,100973.26,1.2213547,0
19324000,19312000,6620172,29.278093,14.809473,100973.81,1.2213614,0
19396000,19372000,6620172,29.301569,14.809474,100973.56,1.2213584,0
19444000,19432000,6620172,29.287483,14.809473,100973.73,1.2213603,0
19516000,19492000,6620172,29.254618,14.809474,100974.09,1.2213647,0
19564000,19552000,6620172,29.371994,14.809473,100972.695,1.2213479,0
19636000,19612000,6620172,29.362604,14.809474,100972.78,1.2213489,0
19684000,19672000,6620172,29.320349,14.809473,100973.29,1.221355,0
19756000,19732000,6620172,29.400164,14.809474,100972.35,1.2213436,0
19804000,19792000,6620172,29.353214,14.809473,100972.96,1.2213511,0
19876000,19852000,6620172,29.287483,14.809474,100973.72,1.2213602,0
19924000,19912000,6620172,29.259314,14.809473,100974.03,1.221364,0
19996000,19972000,6620172,29.339128,14.809474,100973.125,1.221353,0
20044000,20032000,6620172,29.357908,14.809473,100972.86,1.2213498,0
20116000,20092000,6620172,29.339128,14.809474,100973.1,1.2213528,0
20164000,20152000,6620172,29.193583,14.809473,100974.83,1.2213737,0
20236000,20210666,6620172,29.315653,14.809474,100973.35,1.2213558,0
20284000,20272000,6620172,29.264008,14.809473,100973.984,1.2213635,0
20356000,20332000,6620172,29.259314,14.809474,100974.04,1.2213641,0
20404000,20392000,6620172,29.137243,14.809473,100975.484,1.2213817,0
20476000,20452000,6620172,29.339128,14.809474,100973.06,1.2213522,0
20524000,20512000,6620172,29.348518,14.809473,100972.984,1.2213514,0
20596000,20572000,6620172,29.367298,14.809474,100972.75,1.2213485,0
20644000,20632000,6620172,29.296873,14.809473,100973.59,1.2213588,0
20716000,20692000,6620172,29.339128,14.809474,100973.086,1.2213526,0
20764000,20752000,6620172,29.325043,14.809473,100973.24,1.2213545,0
20836000,20812000,6620172,29.320349,14.809474,100973.28,1.221355,0
20884000,20872000,6620172,29.202972,14.809473,100974.734,1.2213725,0
20956000,20932000,6620172,29.339128,14.809474,100973.125,1.221353,0
21004000,20992000,6620172,29.264008,14.809473,100973.984,1.2213635,0
21076000,21052000,6620172,29.231144,14.809474,100974.4,1.2213684,0
21124000,21112000,6620172,29.231144,14.809473,100974.414,1.2213687,0
21196000,21172000,6620172,29.371994,14.809474,100972.69,1.2213478,0
21244000,21232000,6620172,29.165413,14.809473,100975.17,1.2213778,0
21316000,21292000,6620172,29.362604,14.809474,100972.82,1.2213494,0
21364000,21352000,6620172,29.381384,14.809473,100972.58,1.2213464,0
21436000,21412000,6620172,29.226448,14.809474,100974.445,1.221369,0
21484000,21472000,6620172,29.28279,14.809473,100973.734,1.2213604,0
21556000,21532000,6620172,29.357908,14.809474,100972.87,1.22135,0
21604000,21592000,6620172,29.325043,14.809473,100973.23,1.2213542,0
21676000,21652000,6620172,29.371994,14.809474,100972.695,1.2213479,0
21724000,21712000,6620172,29.240534,14.809473,100974.266,1.2213669,0
21796000,21772000,6620172,29.273397,14.809474,100973.875,1.2213621,0
21844000,21832000,6620172,29.268703,14.809473,100973.92,1.2213627,0
21916000,21892000,6620172,29.339128,14.809474,100973.125,1.221353,0
21964000,21952000,6620172,29.334433,14.809473,100973.17,1.2213537,0
22036000,22012000,6620172,29.306263,14.809474,100973.5,1.2213576,0
22084000,22072000,6620172,29.306263,14.809473,100973.47,1.2213572,0
22156000,22132000,6620172,29.306263,14.809474,100973.445,1.2213569,0
22204000,22192000,6620172,29.325043,14.809473,100973.25,1.2213546,0
22276000,22252000,6620172,29.367298,14.809474,100972.73,1.2213483,0
22324000,22312000,6620172,29.212362,14.809473,100974.6,1.2213709,0
22396000,22372000,6620172,29.301569,14.809474,100973.54,1.2213581,0
22444000,22432000,6620172,29.320349,14.809473,100973.28,1.221355,0
22516000,22492000,6620172,29.353214,14.809474,100972.96,1.2213511,0
22564000,22552000,6620172,29.287483,14.809473,100973.7,1.2213601,0
22636000,22612000,6620172,29.40486,14.809474,100972.29,1.2213429,0
22684000,22672000,6620172,29.301569,14.809473,100973.555,1.2213583,0
22756000,22732000,6620172,29.306263,14.809474,100973.445,1.2213569,0
22804000,22792000,6620172,29.386078,14.809473,100972.51,1.2213455,0
22876000,22852000,6620172,29.339128,14.809474,100973.06,1.2213522,0
22924000,22912000,6620172,29.315653,14.809473,100973.35,1.2213558,0
22996000,22972000,6620172,29.418943,14.809474,100972.18,1.2213416,0
23044000,23032000,6620172,29.268703,14.809473,100973.92,1.2213627,0
23116000,23092000,6620172,29.367298,14.809474,100972.76,1.2213486,0
23164000,23152000,6620172,29.367298,14.809473,100972.77,1.2213488,0
23236000,23212000,6620172,29.339128,14.809474,100973.125,1.221353,0
23284000,23272000,6620172,29.395468,14.809473,100972.4,1.2213444,0
23356000,23332000,6620172,29.310959,14.809474,100973.414,1.2213566,0
23404000,23392000,6620172,29.381384,14.809473,100972.56,1.2213463,0
23476000,23452000,6620172,29.264008,14.809474,100973.98,1.2213634,0
23524000,23512000,6620172,29.320349,14.809473,100973.28,1.221355,0
23596000,23572000,6620172,29.315653,14.809474,100973.35,1.2213558,0
23644000,23632000,6620172,29.381384,14.809473,100972.56,1.2213463,0
23716000,23692000,6620172,29.273397,14.809474,100973.9,1.2213625,0
23764000,23752000,6620172,29.357908,14.809473,100972.9,1.2213503,0
23836000,23812000,6620172,29.273397,14.809474,100973.914,1.2213626,0
23884000,23872000,6620172,29.339128,14.809473,100973.11,1.2213529,0
23956000,23932000,6620172,29.29218,14.809474,100973.65,1.2213594,0
24004000,23992000,6620172,29.221754,14.809473,100974.49,1.2213696,0
24076000,24052000,6620172,29.296873,14.809474,100973.586,1.2213587,0
24124000,24112000,6620172,29.273397,14.809473,100973.88,1.2213622,0
24196000,24172000,6620172,29.273397,14.809474,100973.914,1.2213626,0
24244000,24232000,6620172,29.198278,14.809473,100974.766,1.221373,0
24316000,24292000,6620172,29.306263,14.809474,100973.49,1.2213576,0
24364000,24352000,6620172,29.484674,14.809473,100971.36,1.2213317,0
24436000,24412000,6620172,29.320349,14.809474,100973.32,1.2213554,0
24484000,24472000,6620172,29.315653,14.809473,100973.4,1.2213564,0
24556000,24532000,6620172,29.353214,14.809474,100972.94,1.2213508,0
24604000,24592000,6620172,29.315653,14.809473,100973.34,1.2213558,0
24676000,24652000,6620172,29.254618,14.809474,100974.09,1.2213647,0
24724000,24712000,6620172,29.339128,14.809473,100973.09,1.2213527,0
24796000,24772000,6620172,29.329739,14.809474,100973.22,1.2213541,0
24844000,24832000,6620172,29.325043,14.809473,100973.266,1.2213548,0
24916000,24892000,6620172,29.362604,14.809474,100972.79,1.221349,0
24960000,24950000,6620172,29.334433,14.809473,100973.13,1.221353,0
25012000,25000000,6620172,29.353214,14.809473,100972.92,1.2213506,0
25084000,25060000,6620172,29.310959,14.809474,100973.44,1.2213569,0
25132000,25120000,6620172,29.160719,14.809473,100975.23,1.2213784,0
25204000,25180000,6620172,29.249924,14.809474,100974.16,1.2213655,0
25252000,25240000,6620172,29.306263,14.809473,100973.484,1.2213575,0
25324000,25300000,6620172,29.343824,14.809474,100973.055,1.2213522,0
25372000,25360000,6620172,29.329739,14.809473,100973.2,1.221354,0
25444000,25420000,6620172,29.381384,14.809474,100972.6,1.2213467,0
25492000,25480000,6620172,29.156023,14.809473,100975.25,1.2213788,0
25564000,25540000,6620172,29.306263,14.809474,100973.46,1.2213571,0
25612000,25600000,6620172,29.362604,14.809473,100972.81,1.2213492,0
25684000,25660000,6620172,29.339128,14.809474,100973.125,1.221353,0
25732000,25720000,6620172,29.264008,14.809473,100973.95,1.2213631,0
25804000,25780000,6620172,29.339128,14.809474,100973.125,1.221353,0
25852000,25840000,6620172,29.395468,14.809473,100972.41,1.2213445,0
25924000,25900000,6620172,29.320349,14.809474,100973.31,1.2213553,0
25972000,25960000,6620172,29.400164,14.809473,100972.39,1.2213442,0
26044000,26020000,6620172,29.353214,14.809474,100972.945,1.2213509,0
26092000,26080000,6620172,29.254618,14.809473,100974.125,1.2213652,0
26164000,26140000,6620172,29.343824,14.809474,100973.0,1.2213515,0
26212000,26200000,6620172,29.264008,14.809473,100973.95,1.2213631,0
26284000,26260000,6620172,29.240534,14.809474,100974.26,1.2213668,0
26332000,26320000,6620172,29.320349,14.809473,100973.31,1.2213553,0
26404000,26380000,6620172,29.28279,14.809474,100973.79,1.221361,0
26448000,26438000,6620172,29.40486,14.809473,100972.32,1.2213434,0
26500000,26488000,6620172,29.301569,14.809473,100973.516,1.2213578,0
26572000,26548000,6620172,29.362604,14.809474,100972.805,1.2213492,0
26620000,26608000,6620172,29.320349,14.809473,100973.31,1.2213553,0
26692000,26668000,6620172,29.418943,14.809474,100972.164,1.2213415,0
26740000,26728000,6620172,29.371994,14.809473,100972.71,1.221348,0
26812000,26788000,6620172,29.409554,14.809474,100972.22,1.2213421,0
26860000,26848000,6620172,29.320349,14.809473,100973.31,1.2213553,0
26932000,26908000,6620172,29.339128,14.809474,100973.12,1.221353,0
26980000,26968000,6620172,29.339128,14.809473,100973.11,1.2213529,0
27052000,27028000,6620172,29.353214,14.809474,100972.93,1.2213507,0
27100000,27088000,6620172,29.315653,14.809473,100973.39,1.2213563,0
27172000,27148000,6620172,29.367298,14.809474,100972.77,1.2213488,0
27220000,27208000,6620172,29.273397,14.809473,100973.875,1.2213621,0
27292000,27268000,6620172,29.371994,14.809474,100972.71,1.221348,0
27340000,27328000,6620172,29.339128,14.809473,100973.08,1.2213525,0
27412000,27388000,6620172,29.296873,14.809474,100973.59,1.2213588,0
27460000,27448000,6620172,29.310959,14.809473,100973.43,1.2213567,0
27532000,27508000,6620172,29.348518,14.809474,100972.98,1.2213513,0
27580000,27568000,6620172,29.217058,14.809473,100974.53,1.2213701,0
27652000,27628000,6620172,29.278093,14.809474,100973.81,1.2213614,0
27700000,27688000,6620172,29.353214,14.809473,100972.92,1.2213506,0
27772000,27748000,6620172,29.357908,14.809474,100972.875,1.2213501,0
27820000,27808000,6620172,29.310959,14.809473,100973.42,1.2213566,0
27892000,27868000,6620172,29.395468,14.809474,100972.44,1.2213447,0
27940000,27928000,6620172,29.41425,14.809473,100972.2,1.2213418,0
28012000,27988000,6620172,29.273397,14.809474,100973.875,1.2213621,0
28060000,28048000,6620172,29.367298,14.809473,100972.77,1.2213488,0
28132000,28108000,6620172,29.310959,14.809474,100973.44,1.2213569,0
28180000,28168000,6620172,29.221754,14.809473,100974.47,1.2213693,0
28252000,28228000,6620172,29.273397,14.809474,100973.914,1.2213626,0
28300000,28288000,6620172,29.362604,14.809473,100972.84,1.2213497,0
28372000,28348000,6620172,29.320349,14.809474,100973.336,1.2213557,0
28420000,28408000,6620172,29.400164,14.809473,100972.38,1.2213441,0
28492000,28468000,6620172,29.315653,14.809474,100973.37,1.2213559,0
28540000,28528000,6620172,29.456503,14.809473,100971.69,1.2213358,0
28612000,28588000,6620172,29.339128,14.809474,100973.06,1.2213522,0
28660000,28648000,6620172,29.367298,14.809473,100972.77,1.2213488,0
28732000,28708000,6620172,29.325043,14.809474,100973.26,1.2213547,0
28780000,28768000,6620172,29.325043,14.809473,100973.26,1.2213547,0
28852000,28828000,6620172,29.264008,14.809474,100973.96,1.2213632,0
28900000,28888000,6620172,29.42364,14.809473,100972.06,1.2213402,0
28972000,28948000,6620172,29.367298,14.809474,100972.75,1.2213485,0
29020000,29008000,6620172,29.259314,14.809473,100974.07,1.2213645,0
29092000,29068000,6620172,29.400164,14.809474,100972.35,1.2213436,0
29140000,29128000,6620172,29.249924,14.809473,100974.15,1.2213655,0
29212000,29188000,6620172,29.409554,14.809474,100972.21,1.221342,0
29260000,29248000,6620172,29.386078,14.809473,100972.55,1.2213461,0
29332000,29308000,6620172,29.306263,14.809474,100973.445,1.2213569,0
29380000,29368000,6620172,29.428333,14.809473,100972.03,1.2213398,0
29452000,29428000,6620172,29.273397,14.809474,100973.914,1.2213626,0
29500000,29488000,6620172,29.306263,14.809473,100973.5,1.2213576,0
29572000,29548000,6620172,29.296873,14.809474,100973.62,1.221359,0
29620000,29608000,6620172,29.339128,14.809473,100973.125,1.221353,0
29692000,29668000,6620172,29.310959,14.809474,100973.43,1.2213567,0
29740000,29728000,6620172,29.165413,14.809473,100975.16,1.2213776,0
29812000,29788000,6620172,29.437723,14.809474,100971.94,1.2213387,0
29860000,29848000,6620172,29.259314,14.809473,100974.016,1.2213638,0
29932000,29908000,6620172,29.325043,14.809474,100973.25,1.2213546,0
29980000,29968000,6620172,29.381384,14.809473,100972.586,1.2213465,0
30052000,30028000,6620172,29.334433,14.809474,100973.15,1.2213533,0
30100000,30086000,6620172,29.29218,14.809473,100973.66,1.2213595,0
30148000,30136000,6620172,29.301569,14.809473,100973.516,1.2213578,0
30220000,30196000,6620172,29.343824,14.809474,100973.055,1.2213522,0
30268000,30256000,6620172,29.395468,14.809473,100972.445,1.2213448,0
30340000,30316000,6620172,29.353214,14.809474,100972.945,1.2213509,0
30388000,30376000,6620172,29.278093,14.809473,100973.8,1.2213612,0
30460000,30436000,6620172,29.343824,14.809474,100973.055,1.2213522,0
30508000,30496000,6620172,29.325043,14.809473,100973.23,1.2213542,0
30580000,30556000,6620172,29.296873,14.809474,100973.625,1.2213591,0
30628000,30616000,6620172,29.362604,14.809473,100972.84,1.2213497,0
30700000,30676000,6620172,29.362604,14.809474,100972.805,1.2213492,0
30748000,30736000,6620172,29.249924,14.809473,100974.164,1.2213656,0
30820000,30796000,6620172,29.339128,14.809474,100973.125,1.221353,0
30868000,30856000,6620172,29.395468,14.809473,100972.42,1.2213445,0
30940000,30916000,6620172,29.41425,14.809474,100972.19,1.2213417,0
30988000,30976000,6620172,29.315653,14.809473,100973.37,1.2213559,0
31060000,31036000,6620172,29.353214,14.809474,100972.94,1.2213508,0
31108000,31096000,6620172,29.353214,14.809473,100972.97,1.2213511,0
31180000,31156000,6620172,29.376688,14.809474,100972.664,1.2213475,0
31228000,31216000,6620172,29.207668,14.809473,100974.7,1.2213721,0
31300000,31276000,6620172,29.325043,14.809474,100973.25,1.2213546,0
31348000,31336000,6620172,29.231144,14.809473,100974.41,1.2213686,0
31420000,31396000,6620172,29.40486,14.809474,100972.29,1.2213429,0
31468000,31456000,6620172,29.217058,14.809473,100974.54,1.2213702,0
31540000,31516000,6620172,29.259314,14.809474,100974.04,1.2213641,0
31588000,31576000,6620172,29.339128,14.809473,100973.09,1.2213527,0
31660000,31636000,6620172,29.334433,14.809474,100973.15,1.2213533,0
31708000,31696000,6620172,29.353214,14.809473,100972.94,1.2213508,0
31780000,31756000,6620172,29.264008,14.809474,100974.0,1.2213635,0
31828000,31816000,6620172,29.296873,14.809473,100973.62,1.221359,0
31900000,31876000,6620172,29.245228,14.809474,100974.21,1.2213663,0
31948000,31936000,6620172,29.29218,14.809473,100973.69,1.2213598,0
32020000,31996000,6620172,29.40486,14.809474,100972.305,1.2213432,0
32068000,32056000,6620172,29.259314,14.809473,100974.05,1.2213643,0
32140000,32116000,6620172,29.301569,14.809474,100973.56,1.2213584,0
32188000,32176000,6620172,29.353214,14.809473,100972.94,1.2213508,0
32260000,32236000,6620172,29.40486,14.809474,100972.31,1.2213433,0
32308000,32296000,6620172,29.357908,14.809473,100972.89,1.2213502,0
32380000,32356000,6620172,29.357908,14.809474,100972.87,1.22135,0
32428000,32416000,6620172,29.278093,14.809473,100973.83,1.2213616,0
32500000,32476000,6620172,29.301569,14.809474,100973.52,1.2213578,0
32548000,32536000,6620172,29.315653,14.809473,100973.38,1.2213562,0
32620000,32596000,6620172,29.334433,14.809474,100973.16,1.2213534,0
32668000,32656000,6620172,29.329739,14.809473,100973.2,1.221354,0
32740000,32716000,6620172,29.325043,14.809474,100973.25,1.2213546,0
32788000,32776000,6620172,29.29218,14.809473,100973.67,1.2213597,0
32860000,32836000,6620172,29.315653,14.809474,100973.38,1.2213562,0
32908000,32896000,6620172,29.386078,14.809473,100972.5,1.2213454,0
32980000,32956000,6620172,29.339128,14.809474,100973.07,1.2213523,0
33028000,33016000,6620172,29.400164,14.809473,100972.37,1.2213439,0
33100000,33076000,6620172,29.376688,14.809474,100972.625,1.2213471,0
33148000,33136000,6620172,29.339128,14.809473,100973.125,1.221353,0
33220000,33196000,6620172,29.390774,14.809474,100972.48,1.2213453,0
33264000,33254000,6620172,29.376688,14.809473,100972.664,1.2213475,0
33316000,33304000,6620172,29.400164,14.809473,100972.39,1.2213442,0
33388000,33364000,6620172,29.343824,14.809474,100973.04,1.2213521,0
33436000,33424000,6620172,29.226448,14.809473,100974.44,1.2213689,0
33508000,33484000,6620172,29.343824,14.809474,100973.0,1.2213515,0
33556000,33544000,6620172,29.376688,14.809473,100972.64,1.2213472,0
33628000,33604000,6620172,29.259314,14.809474,100974.04,1.2213641,0
33676000,33664000,6620172,29.315653,14.809473,100973.39,1.2213563,0
33748000,33724000,6620172,29.315653,14.809474,100973.4,1.2213564,0
33796000,33784000,6620172,29.259314,14.809473,100974.05,1.2213643,0
33868000,33844000,6620172,29.353214,14.809474,100972.96,1.2213511,0
33916000,33904000,6620172,29.296873,14.809473,100973.6,1.2213588,0
33988000,33964000,6620172,29.40486,14.809474,100972.27,1.2213427,0
34036000,34024000,6620172,29.287483,14.809473,100973.71,1.2213601,0
34108000,34084000,6620172,29.367298,14.809474,100972.73,1.2213483,0
34156000,34144000,6620172,29.254618,14.809473,100974.12,1.2213651,0
34228000,34204000,6620172,29.240534,14.809474,100974.24,1.2213665,0
34276000,34264000,6620172,29.376688,14.809473,100972.64,1.2213472,0
34348000,34324000,6620172,29.254618,14.809474,100974.1,1.2213649,0
34396000,34384000,6620172,29.343824,14.809473,100973.016,1.2213517,0
34468000,34444000,6620172,29.371994,14.809474,100972.695,1.2213479,0
34516000,34504000,6620172,29.254618,14.809473,100974.09,1.2213647,0
34588000,34564000,6620172,29.315653,14.809474,100973.38,1.2213562,0
34636000,34624000,6620172,29.339128,14.809473,100973.125,1.221353,0
34708000,34684000,6620172,29.329739,14.809474,100973.195,1.221354,0
34756000,34744000,6620172,29.254618,14.809473,100974.12,1.2213651,0
34828000,34804000,6620172,29.296873,14.809474,100973.6,1.2213588,0
34876000,34864000,6620172,29.353214,14.809473,100972.93,1.2213507,0
34948000,34924000,6620172,29.28279,14.809474,100973.78,1.221361,0
34996000,34984000,6620172,29.41425,14.809473,100972.195,1.2213417,0
35068000,35044000,6620172,29.306263,14.809474,100973.445,1.2213569,0
35116000,35104000,6620172,29.278093,14.809473,100973.84,1.2213618,0
35188000,35164000,6620172,29.315653,14.809474,100973.375,1.221356,0
35236000,35224000,6620172,29.367298,14.809473,100972.77,1.2213488,0
35308000,35284000,6620172,29.301569,14.809474,100973.57,1.2213584,0
35356000,35344000,6620172,29.334433,14.809473,100973.17,1.2213537,0
35428000,35404000,6620172,29.334433,14.809474,100973.164,1.2213535,0
35476000,35464000,6620172,29.362604,14.809473,100972.8,1.2213491,0
35548000,35524000,6620172,29.386078,14.809474,100972.51,1.2213455,0
35596000,35584000,6620172,29.395468,14.809473,100972.44,1.2213447,0
35668000,35644000,6620172,29.310959,14.809474,100973.43,1.2213567,0
35716000,35704000,6620172,29.231144,14.809473,100974.39,1.2213683,0
35784000,35762666,6620172,29.353214,14.809474,100972.945,1.2213509,0
35836000,35824000,6620172,29.339128,14.809473,100973.07,1.2213523,0
35908000,35884000,6620172,29.278093,14.809474,100973.836,1.2213616,0
35956000,35944000,6620172,29.334433,14.809473,100973.14,1.2213532,0
36028000,36004000,6620172,29.40486,14.809474,100972.31,1.2213433,0
36076000,36064000,6620172,29.339128,14.809473,100973.125,1.221353,0
36148000,36124000,6620172,29.273397,14.809474,100973.87,1.221362,0
36196000,36184000,6620172,29.325043,14.809473,100973.234,1.2213544,0
36268000,36244000,6620172,29.334433,14.809474,100973.164,1.2213535,0
36316000,36304000,6620172,29.315653,14.809473,100973.36,1.2213559,0
36388000,36364000,6620172,29.273397,14.809474,100973.91,1.2213626,0
36436000,36424000,6620172,29.278093,14.809473,100973.84,1.2213618,0
36508000,36482666,6620172,29.264008,14.809474,100974.0,1.2213635,0
36556000,36544000,6620172,29.381384,14.809473,100972.57,1.2213464,0
36628000,36604000,6620172,29.353214,14.809474,100972.97,1.2213511,0
36676000,36664000,6620172,29.353214,14.809473,100972.97,1.2213511,0
36748000,36724000,6620172,29.343824,14.809474,100973.03,1.221352,0
36796000,36784000,6620172,29.343824,14.809473,100973.016,1.2213517,0
36868000,36844000,6620172,29.339128,14.809474,100973.06,1.2213522,0
36916000,36904000,6620172,29.28279,14.809473,100973.74,1.2213606,0
36988000,36964000,6620172,29.353214,14.809474,100972.96,1.2213511,0
37036000,37024000,6620172,29.306263,14.809473,100973.45,1.221357,0
37108000,37084000,6620172,29.353214,14.809474,100972.94,1.2213508,0
37156000,37144000,6620172,29.325043,14.809473,100973.27,1.221355,0
37228000,37204000,6620172,29.306263,14.809474,100973.5,1.2213576,0
37276000,37264000,6620172,29.273397,14.809473,100973.875,1.2213621,0
37348000,37324000,6620172,29.245228,14.809474,100974.21,1.2213663,0
37396000,37384000,6620172,29.390774,14.809473,100972.484,1.2213453,0
37468000,37444000,6620172,29.301569,14.809474,100973.53,1.221358,0
37516000,37502000,6620172,29.386078,14.809473,100972.5,1.2213454,0
37564000,37552000,6620172,29.28279,14.809473,100973.78,1.221361,0
37636000,37612000,6620172,29.339128,14.809474,100973.12,1.221353,0
37684000,37672000,6620172,29.29218,14.809473,100973.65,1.2213594,0
37756000,37732000,6620172,29.315653,14.809474,100973.4,1.2213564,0
37804000,37792000,6620172,29.254618,14.809473,100974.12,1.2213651,0
37876000,37852000,6620172,29.371994,14.809474,100972.71,1.221348,0
37924000,37912000,6620172,29.343824,14.809473,100973.016,1.2213517,0
37996000,37972000,6620172,29.296873,14.809474,100973.6,1.2213588,0
38044000,38032000,6620172,29.28279,14.809473,100973.76,1.2213607,0
38116000,38092000,6620172,29.310959,14.809474,100973.44,1.2213569,0
38164000,38152000,6620172,29.400164,14.809473,100972.336,1.2213435,0
38236000,38212000,6620172,29.353214,14.809474,100972.914,1.2213506,0
38284000,38272000,6620172,29.296873,14.809473,100973.61,1.2213589,0
38356000,38332000,6620172,29.348518,14.809474,100972.99,1.2213514,0
38404000,38392000,6620172,29.357908,14.809473,100972.88,1.2213502,0
38476000,38452000,6620172,29.362604,14.809474,100972.81,1.2213492,0
38524000,38512000,6620172,29.395468,14.809473,100972.42,1.2213445,0
38596000,38572000,6620172,29.339128,14.809474,100973.1,1.2213528,0
38644000,38632000,6620172,29.278093,14.809473,100973.83,1.2213616,0
38712000,38690666,6620172,29.221754,14.809474,100974.51,1.2213697,0
38764000,38752000,6620172,29.315653,14.809473,100973.38,1.2213562,0
38836000,38812000,6620172,29.249924,14.809474,100974.195,1.221366,0
38884000,38872000,6620172,29.40486,14.809473,100972.28,1.2213428,0
38956000,38932000,6620172,29.395468,14.809474,100972.44,1.2213447,0
39004000,38992000,6620172,29.329739,14.809473,100973.21,1.221354,0
39076000,39052000,6620172,29.315653,14.809474,100973.375,1.221356,0
39124000,39112000,6620172,29.202972,14.809473,100974.72,1.2213724,0
39196000,39172000,6620172,29.320349,14.809474,100973.31,1.2213553,0
39244000,39232000,6620172,29.353214,14.809473,100972.95,1.221351,0
39316000,39292000,6620172,29.353214,14.809474,100972.97,1.2213511,0
39364000,39352000,6620172,29.273397,14.809473,100973.875,1.2213621,0
39436000,39412000,6620172,29.278093,14.809474,100973.836,1.2213616,0
39484000,39472000,6620172,29.376688,14.809473,100972.64,1.2213472,0
39556000,39532000,6620172,29.306263,14.809474,100973.48,1.2213573,0
39604000,39592000,6620172,29.353214,14.809473,100972.94,1.2213508,0
39676000,39652000,6620172,29.334433,14.809474,100973.15,1.2213533,0
39724000,39712000,6620172,29.40486,14.809473,100972.3,1.221343,0
39796000,39772000,6620172,29.343824,14.809474,100973.01,1.2213516,0
39844000,39832000,6620172,29.315653,14.809473,100973.39,1.2213563,0
39916000,39892000,6620172,29.245228,14.809474,100974.23,1.2213664,0
39964000,39952000,6620172,29.367298,14.809473,100972.766,1.2213488,0
40036000,40012000,6620172,29.320349,14.809474,100973.32,1.2213554,0
40084000,40072000,6620172,29.390774,14.809473,100972.484,1.2213453,0
40156000,40132000,6620172,29.296873,14.809474,100973.625,1.2213591,0
40204000,40192000,6620172,29.273397,14.809473,100973.88,1.2213622,0
40276000,40252000,6620172,29.41425,14.809474,100972.19,1.2213417,0
40324000,40312000,6620172,29.381384,14.809473,100972.59,1.2213466,0
40396000,40372000,6620172,29.259314,14.809474,100974.06,1.2213645,0
40444000,40432000,6620172,29.231144,14.809473,100974.36,1.221368,0
40516000,40492000,6620172,29.259314,14.809474,100974.07,1.2213645,0
40564000,40552000,6620172,29.296873,14.809473,100973.58,1.2213585,0
40636000,40612000,6620172,29.207668,14.809474,100974.65,1.2213714,0
40684000,40672000,6620172,29.28279,14.809473,100973.766,1.2213608,0
40756000,40732000,6620172,29.310959,14.809474,100973.43,1.2213567,0
40804000,40792000,6620172,29.353214,14.809473,100972.96,1.2213511,0
40876000,40852000,6620172,29.226448,14.809474,100974.43,1.2213689,0
40924000,40912000,6620172,29.306263,14.809473,100973.47,1.2213572,0
40996000,40972000,6620172,29.409554,14.809474,100972.25,1.2213426,0
41044000,41032000,6620172,29.334433,14.809473,100973.19,1.2213539,0
41116000,41092000,6620172,29.301569,14.809474,100973.53,1.221358,0
41164000,41152000,6620172,29.301569,14.809473,100973.516,1.2213578,0
41236000,41212000,6620172,29.28279,14.809474,100973.75,1.2213607,0
41284000,41272000,6620172,29.42364,14.809473,100972.11,1.2213408,0
41356000,41332000,6620172,29.235838,14.809474,100974.31,1.2213674,0
41404000,41392000,6620172,29.343824,14.809473,100973.016,1.2213517,0
41476000,41452000,6620172,29.371994,14.809474,100972.69,1.2213478,0
41524000,41512000,6620172,29.353214,14.809473,100972.94,1.2213508,0
41596000,41572000,6620172,29.254618,14.809474,100974.086,1.2213646,0
41644000,41632000,6620172,29.437723,14.809473,100971.93,1.2213386,0
41716000,41692000,6620172,29.306263,14.809474,100973.48,1.2213573,0
41764000,41752000,6620172,29.235838,14.809473,100974.31,1.2213674,0
41836000,41810666,6620172,29.301569,14.809474,100973.56,1.2213584,0
41884000,41872000,6620172,29.329739,14.809473,100973.2,1.221354,0
41956000,41932000,6620172,29.409554,14.809474,100972.23,1.2213422,0
42004000,41992000,6620172,29.376688,14.809473,100972.64,1.2213472,0
42076000,42052000,6620172,29.264008,14.809474,100973.98,1.2213634,0
42124000,42112000,6620172,29.381384,14.809473,100972.6,1.2213467,0
42196000,42172000,6620172,29.353214,14.809474,100972.94,1.2213508,0
42240000,42230000,6620172,29.329739,14.809473,100973.195,1.221354,0
42292000,42280000,6620172,29.301569,14.809473,100973.57,1.2213584,0
42364000,42340000,6620172,29.212362,14.809474,100974.62,1.2213712,0
42412000,42400000,6620172,29.240534,14.809473,100974.3,1.2213672,0
42484000,42460000,6620172,29.362604,14.809474,100972.81,1.2213492,0
42532000,42520000,6620172,29.296873,14.809473,100973.61,1.2213589,0
42604000,42580000,6620172,29.325043,14.809474,100973.25,1.2213546,0
42652000,42640000,6620172,29.362604,14.809473,100972.805,1.2213492,0
42724000,42700000,6620172,29.301569,14.809474,100973.555,1.2213583,0
42772000,42760000,6620172,29.386078,14.809473,100972.55,1.2213461,0
42844000,42820000,6620172,29.310959,14.809474,100973.44,1.2213569,0
42892000,42880000,6620172,29.264008,14.809473,100973.96,1.2213632,0
42964000,42940000,6620172,29.334433,14.809474,100973.19,1.2213539,0
43012000,43000000,6620172,29.339128,14.809473,100973.06,1.2213522,0
43084000,43060000,6620172,29.273397,14.809474,100973.914,1.2213626,0
43132000,43120000,6620172,29.240534,14.809473,100974.266,1.2213669,0
43204000,43180000,6620172,29.278093,14.809474,100973.85,1.2213619,0
43252000,43240000,6620172,29.371994,14.809473,100972.69,1.2213478,0
43324000,43300000,6620172,29.325043,14.809474,100973.27,1.221355,0
43372000,43358000,6620172,29.376688,14.809473,100972.64,1.2213472,0
43420000,43408000,6620172,29.315653,14.809473,100973.375,1.221356,0
43492000,43468000,6620172,29.362604,14.809474,100972.78,1.2213489,0
43540000,43528000,6620172,29.400164,14.809473,100972.39,1.2213442,0
43612000,43588000,6620172,29.278093,14.809474,100973.836,1.2213616,0
43660000,43648000,6620172,29.339128,14.809473,100973.07,1.2213523,0
43732000,43708000,6620172,29.353214,14.809474,100972.94,1.2213508,0
43780000,43768000,6620172,29.278093,14.809473,100973.82,1.2213615,0
43852000,43828000,6620172,29.28279,14.809474,100973.75,1.2213607,0
43900000,43888000,6620172,29.085598,14.809473,100976.11,1.2213892,0
43972000,43948000,6620172,29.362604,14.809474,100972.82,1.2213494,0
44020000,44008000,6620172,29.28279,14.809473,100973.74,1.2213606,0
44092000,44068000,6620172,29.315653,14.809474,100973.4,1.2213564,0
44140000,44128000,6620172,29.329739,14.809473,100973.22,1.2213541,0
44212000,44186666,6620172,29.310959,14.809474,100973.44,1.2213569,0
44260000,44248000,6620172,29.418943,14.809473,100972.16,1.2213414,0
44332000,44308000,6620172,29.362604,14.809474,100972.79,1.221349,0
44380000,44368000,6620172,29.381384,14.809473,100972.56,1.2213463,0
44448000,44426666,6620172,29.264008,14.809474,100973.96,1.2213632,0
44500000,44488000,6620172,29.296873,14.809473,100973.63,1.2213593,0
44572000,44548000,6620172,29.353214,14.809474,100972.94,1.2213508,0
44620000,44608000,6620172,29.231144,14.809473,100974.42,1.2213688,0
44692000,44668000,6620172,29.315653,14.809474,100973.4,1.2213564,0
44740000,44728000,6620172,29.235838,14.809473,100974.33,1.2213676,0
44812000,44788000,6620172,29.29218,14.809474,100973.69,1.2213598,0
44860000,44848000,6620172,29.339128,14.809473,100973.1,1.2213528,0
44932000,44908000,6620172,29.409554,14.809474,100972.25,1.2213426,0
44980000,44968000,6620172,29.249924,14.809473,100974.164,1.2213656,0
45052000,45028000,6620172,29.320349,14.809474,100973.28,1.221355,0
45100000,45088000,6620172,29.376688,14.809473,100972.664,1.2213475,0
45172000,45148000,6620172,29.273397,14.809474,100973.9,1.2213625,0
45220000,45208000,6620172,29.40486,14.809473,100972.31,1.2213433,0
45292000,45268000,6620172,29.329739,14.809474,100973.21,1.221354,0
45340000,45328000,6620172,29.301569,14.809473,100973.57,1.2213584,0
45412000,45388000,6620172,29.325043,14.809474,100973.23,1.2213542,0
45460000,45448000,6620172,29.334433,14.809473,100973.17,1.2213537,0
45532000,45508000,6620172,29.339128,14.809474,100973.09,1.2213527,0
45580000,45568000,6620172,29.357908,14.809473,100972.86,1.2213498,0
45652000,45628000,6620172,29.334433,14.809474,100973.164,1.2213535,0
45700000,45688000,6620172,29.315653,14.809473,100973.35,1.2213558,0
45772000,45748000,6620172,29.357908,14.809474,100972.85,1.2213497,0
45820000,45808000,6620172,29.240534,14.809473,100974.29,1.2213671,0
45892000,45868000,6620172,29.353214,14.809474,100972.96,1.2213511,0
45940000,45928000,6620172,29.315653,14.809473,100973.39,1.2213563,0
46012000,45988000,6620172,29.296873,14.809474,100973.625,1.2213591,0
46060000,46048000,6620172,29.334433,14.809473,100973.19,1.2213539,0
46132000,46108000,6620172,29.217058,14.809474,100974.53,1.2213701,0
46180000,46168000,6620172,29.249924,14.809473,100974.19,1.2213659,0
46252000,46228000,6620172,29.29218,14.809474,100973.664,1.2213596,0
46300000,46288000,6620172,29.395468,14.809473,100972.41,1.2213445,0
46372000,46348000,6620172,29.362604,14.809474,100972.79,1.221349,0
46420000,46408000,6620172,29.339128,14.809473,100973.08,1.2213525,0
46492000,46468000,6620172,29.362604,14.809474,100972.84,1.2213497,0
46540000,46528000,6620172,29.367298,14.809473,100972.74,1.2213484,0
46612000,46588000,6620172,29.296873,14.809474,100973.586,1.2213587,0
46660000,46648000,6620172,29.437723,14.809473,100971.94,1.2213387,0
46732000,46708000,6620172,29.329739,14.809474,100973.21,1.221354,0
46780000,46768000,6620172,29.390774,14.809473,100972.484,1.2213453,0
46852000,46828000,6620172,29.381384,14.809474,100972.57,1.2213464,0
46900000,46888000,6620172,29.325043,14.809473,100973.27,1.221355,0
46972000,46948000,6620172,29.353214,14.809474,100972.94,1.2213508,0
47020000,47008000,6620172,29.301569,14.809473,100973.55,1.2213582,0
47092000,47068000,6620172,29.254618,14.809474,100974.12,1.2213651,0
47140000,47128000,6620172,29.296873,14.809473,100973.59,1.2213588,0
47212000,47188000,6620172,29.353214,14.809474,100972.97,1.2213511,0
47260000,47248000,6620172,29.343824,14.809473,100973.05,1.2213521,0
47332000,47308000,6620172,29.357908,14.809474,100972.88,1.2213502,0
47380000,47368000,6620172,29.231144,14.809473,100974.39,1.2213683,0
47452000,47428000,6620172,29.296873,14.809474,100973.6,1.2213588,0
47500000,47488000,6620172,29.386078,14.809473,100972.5,1.2213454,0
47572000,47548000,6620172,29.268703,14.809474,100973.93,1.2213627,0
47620000,47608000,6620172,29.339128,14.809473,100973.125,1.221353,0
47692000,47668000,6620172,29.325043,14.809474,100973.25,1.2213546,0
47740000,47728000,6620172,29.306263,14.809473,100973.45,1.221357,0
47812000,47788000,6620172,29.386078,14.809474,100972.53,1.2213459,0
47860000,47848000,6620172,29.278093,14.809473,100973.81,1.2213614,0
47932000,47908000,6620172,29.334433,14.809474,100973.15,1.2213533,0
47980000,47968000,6620172,29.343824,14.809473,100973.0,1.2213515,0
48052000,48028000,6620172,29.28279,14.809474,100973.75,1.2213607,0
48100000,48088000,6620172,29.386078,14.809473,100972.5,1.2213454,0
48172000,48148000,6620172,29.320349,14.809474,100973.31,1.2213553,0
48216000,48206000,6620172,29.268703,14.809473,100973.94,1.2213628,0
48268000,48256000,6620172,29.306263,14.809473,100973.45,1.221357,0
48340000,48316000,6620172,29.357908,14.809474,100972.9,1.2213503,0
48388000,48376000,6620172,29.334433,14.809473,100973.14,1.2213532,0
48460000,48436000,6620172,29.273397,14.809474,100973.87,1.221362,0
48508000,48496000,6620172,29.221754,14.809473,100974.484,1.2213695,0
48580000,48556000,6620172,29.264008,14.809474,100973.96,1.2213632,0
48628000,48616000,6620172,29.386078,14.809473,100972.5,1.2213454,0
48700000,48676000,6620172,29.339128,14.809474,100973.086,1.2213526,0
48748000,48736000,6620172,29.395468,14.809473,100972.445,1.2213448,0
48820000,48796000,6620172,29.381384,14.809474,100972.586,1.2213465,0
48868000,48856000,6620172,29.428333,14.809473,100972.05,1.2213401,0
48940000,48916000,6620172,29.320349,14.809474,100973.336,1.2213557,0
48988000,48976000,6620172,29.301569,14.809473,100973.555,1.2213583,0
49060000,49036000,6620172,29.343824,14.809474,100973.0,1.2213515,0
49108000,49096000,6620172,29.343824,14.809473,100973.03,1.221352,0
49180000,49156000,6620172,29.315653,14.809474,100973.35,1.2213558,0
49228000,49216000,6620172,29.245228,14.809473,100974.21,1.2213663,0
49300000,49276000,6620172,29.343824,14.809474,100973.04,1.2213521,0
49348000,49336000,6620172,29.348518,14.809473,100972.99,1.2213514,0
49420000,49396000,6620172,29.278093,14.809474,100973.85,1.2213619,0
49468000,49456000,6620172,29.287483,14.809473,100973.72,1.2213602,0
49540000,49516000,6620172,29.343824,14.809474,100973.0,1.2213515,0
49588000,49576000,6620172,29.390774,14.809473,100972.484,1.2213453,0
49660000,49636000,6620172,29.353214,14.809474,100972.94,1.2213508,0
49708000,49696000,6620172,29.310959,14.809473,100973.44,1.2213569,0
49780000,49756000,6620172,29.29218,14.809474,100973.66,1.2213595,0
49828000,49816000,6620172,29.273397,14.809473,100973.86,1.2213619,0
49900000,49876000,6620172,29.367298,14.809474,100972.72,1.2213482,0
49948000,49936000,6620172,29.310959,14.809473,100973.44,1.2213569,0
50020000,49996000,6620172,29.40486,14.809474,100972.32,1.2213434,0
50068000,50056000,6620172,29.386078,14.809473,100972.51,1.2213455,0
50140000,50116000,6620172,29.362604,14.809474,100972.79,1.221349,0
50188000,50176000,6620172,29.273397,14.809473,100973.89,1.2213624,0
50260000,50236000,6620172,29.40486,14.809474,100972.27,1.2213427,0
50308000,50296000,6620172,29.249924,14.809473,100974.164,1.2213656,0
50380000,50356000,6620172,29.395468,14.809474,100972.46,1.2213451,0
50428000,50416000,6620172,29.353214,14.809473,100972.94,1.2213508,0
50500000,50476000,6620172,29.339128,14.809474,100973.09,1.2213527,0
50548000,50536000,6620172,29.334433,14.809473,100973.14,1.2213532,0
50620000,50596000,6620172,29.353214,14.809474,100972.93,1.2213507,0
50668000,50656000,6620172,29.217058,14.809473,100974.54,1.2213702,0
50740000,50716000,6620172,29.325043,14.809474,100973.26,1.2213547,0
50788000,50776000,6620172,29.306263,14.809473,100973.48,1.2213573,0
50860000,50836000,6620172,29.339128,14.809474,100973.125,1.221353,0
50908000,50896000,6620172,29.353214,14.809473,100972.95,1.221351,0
50980000,50956000,6620172,29.386078,14.809474,100972.53,1.2213459,0
51028000,51016000,6620172,29.240534,14.809473,100974.27,1.221367,0
51100000,51076000,6620172,29.301569,14.809474,100973.54,1.2213581,0
51148000,51136000,6620172,29.339128,14.809473,100973.06,1.2213522,0
51220000,51196000,6620172,29.28279,14.809474,100973.74,1.2213606,0
51268000,51256000,6620172,29.315653,14.809473,100973.41,1.2213565,0
51340000,51316000,6620172,29.353214,14.809474,100972.914,1.2213506,0
51388000,51376000,6620172,29.273397,14.809473,100973.88,1.2213622,0
51460000,51436000,6620172,29.329739,14.809474,100973.22,1.2213541,0
51508000,51496000,6620172,29.268703,14.809473,100973.94,1.2213628,0
51580000,51556000,6620172,29.296873,14.809474,100973.586,1.2213587,0
51628000,51616000,6620172,29.381384,14.809473,100972.57,1.2213464,0
51700000,51676000,6620172,29.367298,14.809474,100972.74,1.2213484,0
51748000,51736000,6620172,29.325043,14.809473,100973.266,1.2213548,0
51820000,51796000,6620172,29.28279,14.809474,100973.77,1.2213609,0
51868000,51856000,6620172,29.357908,14.809473,100972.87,1.22135,0
51940000,51916000,6620172,29.428333,14.809474,100972.01,1.2213396,0
51988000,51976000,6620172,29.296873,14.809473,100973.59,1.2213588,0
52060000,52036000,6620172,29.287483,14.809474,100973.71,1.2213601,0
52108000,52096000,6620172,29.296873,14.809473,100973.58,1.2213585,0
52180000,52156000,6620172,29.376688,14.809474,100972.625,1.2213471,0
52228000,52216000,6620172,29.221754,14.809473,100974.484,1.2213695,0
52300000,52276000,6620172,29.278093,14.809474,100973.836,1.2213616,0
52348000,52336000,6620172,29.184193,14.809473,100974.94,1.221375,0
52420000,52396000,6620172,29.395468,14.809474,100972.46,1.2213451,0
52468000,52456000,6620172,29.386078,14.809473,100972.53,1.2213459,0
52540000,52516000,6620172,29.310959,14.809474,100973.414,1.2213566,0
52588000,52576000,6620172,29.376688,14.809473,100972.664,1.2213475,0
52660000,52634666,6620172,29.273397,14.809474,100973.9,1.2213625,0
52708000,52696000,6620172,29.339128,14.809473,100973.1,1.2213528,0
52780000,52756000,6620172,29.29218,14.809474,100973.69,1.2213598,0
52828000,52816000,6620172,29.296873,14.809473,100973.58,1.2213585,0
52900000,52876000,6620172,29.259314,14.809474,100974.06,1.2213645,0
52948000,52936000,6620172,29.278093,14.809473,100973.805,1.2213613,0
53020000,52996000,6620172,29.343824,14.809474,100973.04,1.2213521,0
53068000,53056000,6620172,29.428333,14.809473,100972.055,1.2213401,0
53140000,53116000,6620172,29.29218,14.809474,100973.695,1.22136,0
53188000,53176000,6620172,29.273397,14.809473,100973.875,1.2213621,0
53260000,53236000,6620172,29.343824,14.809474,100973.03,1.221352,0
53308000,53296000,6620172,29.310959,14.809473,100973.42,1.2213566,0
53380000,53356000,6620172,29.376688,14.809474,100972.66,1.2213473,0
53428000,53416000,6620172,29.306263,14.809473,100973.5,1.2213576,0
53500000,53476000,6620172,29.28279,14.809474,100973.74,1.2213606,0
53548000,53536000,6620172,29.301569,14.809473,100973.55,1.2213582,0
53620000,53596000,6620172,29.367298,14.809474,100972.75,1.2213485,0
53668000,53656000,6620172,29.367298,14.809473,100972.72,1.2213482,0
53740000,53716000,6620172,29.334433,14.809474,100973.13,1.221353,0
53788000,53776000,6620172,29.371994,14.809473,100972.71,1.221348,0
53860000,53836000,6620172,29.278093,14.809474,100973.84,1.2213618,0
53908000,53896000,6620172,29.461199,14.809473,100971.62,1.2213348,0
53980000,53956000,6620172,29.371994,14.809474,100972.71,1.221348,0
54028000,54016000,6620172,29.353214,14.809473,100972.914,1.2213506,0
54100000,54076000,6620172,29.287483,14.809474,100973.72,1.2213602,0
54148000,54136000,6620172,29.329739,14.809473,100973.22,1.2213541,0
54220000,54196000,6620172,29.306263,14.809474,100973.48,1.2213573,0
54268000,54256000,6620172,29.381384,14.809473,100972.61,1.2213469,0
54340000,54316000,6620172,29.395468,14.809474,100972.43,1.2213446,0
54388000,54376000,6620172,29.376688,14.809473,100972.65,1.2213473,0
54460000,54434666,6620172,29.371994,14.809474,100972.695,1.2213479,0
54508000,54496000,6620172,29.320349,14.809473,100973.3,1.2213551,0
54580000,54556000,6620172,29.325043,14.809474,100973.24,1.2213545,0
54628000,54616000,6620172,29.357908,14.809473,100972.86,1.2213498,0
54700000,54676000,6620172,29.301569,14.809474,100973.54,1.2213581,0
54748000,54736000,6620172,29.325043,14.809473,100973.234,1.2213544,0
54820000,54796000,6620172,29.343824,14.809474,100973.03,1.221352,0
54868000,54856000,6620172,29.325043,14.809473,100973.266,1.2213548,0
54940000,54916000,6620172,29.320349,14.809474,100973.336,1.2213557,0
54988000,54976000,6620172,29.264008,14.809473,100973.97,1.2213633,0
55060000,55036000,6620172,29.29218,14.809474,100973.65,1.2213594,0
55108000,55096000,6620172,29.357908,14.809473,100972.89,1.2213502,0
55180000,55156000,6620172,29.329739,14.809474,100973.195,1.221354,0
55228000,55216000,6620172,29.334433,14.809473,100973.164,1.2213535,0
55300000,55276000,6620172,29.29218,14.809474,100973.69,1.2213598,0
55348000,55336000,6620172,29.357908,14.809473,100972.875,1.2213501,0
55420000,55396000,6620172,29.306263,14.809474,100973.46,1.2213571,0
55468000,55456000,6620172,29.376688,14.809473,100972.625,1.2213471,0
55540000,55516000,6620172,29.278093,14.809474,100973.82,1.2213615,0
55588000,55576000,6620172,29.231144,14.809473,100974.41,1.2213686,0
