timestamp,timestamp_sample,xyz[0],xyz[1],xyz[2]
3564000,3564000,0.018807018,0.051903483,-9.934795
3568000,3568000,-0.0036852318,0.019314883,-9.93958
3616000,3616000,-0.01913422,0.031472996,-9.982246
3664000,3664000,0.006214637,0.08384816,-9.951712
3716000,3716000,0.016251218,0.04595001,-9.969547
3764000,3764000,-0.06253347,0.031698734,-9.849401
3816000,3816000,-0.0081608435,0.09544847,-9.824121
3860000,3860000,-0.021908654,0.03275674,-9.847896
3916000,3916000,-0.005671764,0.103967056,-9.818462
3964000,3964000,-0.0035438533,0.046036977,-9.820892
4016000,4016000,-0.03988284,0.036024187,-9.821547
4064000,4064000,-0.00051981024,0.052791383,-9.900694
4116000,4116000,-0.05630419,0.103737585,-9.858858
4164000,4164000,-0.028678205,0.07191463,-9.880632
4216000,4216000,-0.04772444,0.044987496,-9.81161
4264000,4264000,-0.036954463,0.08890216,-9.82832
4316000,4316000,-0.01655524,0.12125873,-9.848107
4364000,4364000,-0.05913987,0.08320364,-9.787389
4416000,4416000,0.02202652,0.060717724,-9.853746
4460000,4460000,-0.03192786,0.09873322,-9.83152
4516000,4516000,-0.04599669,0.058763627,-9.834988
4564000,4564000,-0.0036314316,0.04031223,-9.846165
4616000,4616000,-0.0026349584,0.043182656,-9.802139
4664000,4664000,-0.053673856,0.06549907,-9.829848
4716000,4716000,-0.02102722,0.06669012,-9.857815
4764000,4764000,0.050834052,0.1150583,-9.840212
4816000,4816000,-0.060148902,0.055793013,-9.855176
4864000,4864000,-0.022504702,0.044635765,-9.860858
4916000,4916000,0.0007332093,0.049563557,-9.799588
4964000,4964000,-0.036268447,0.0887682,-9.804262
5012000,5012000,-0.044813134,0.12033099,-9.884821
5060000,5060000,-0.026380785,0.019704778,-9.882248
5116000,5116000,0.019059807,0.102467515,-9.846116
5164000,5164000,-0.012074991,0.017681174,-9.825823
5216000,5216000,-0.01940394,0.048159853,-9.845472
5264000,5264000,-0.0073704915,0.041977584,-9.900897
5316000,5316000,0.012126755,0.03540706,-9.842161
5364000,5364000,-0.028254418,0.069963016,-9.814541
5416000,5416000,-0.0015144213,0.105861455,-9.763062
5460000,5460000,-0.024900254,0.10891074,-9.897531
5516000,5516000,-0.03498856,0.06247077,-9.782888
5564000,5564000,-0.014600653,0.06154202,-9.837053
5616000,5616000,-0.023995556,0.015180446,-9.859823
5664000,5664000,-0.021039333,0.08228225,-9.864356
5716000,5716000,0.01841468,0.03143875,-9.786211
5764000,5764000,-0.06295342,0.07429605,-9.809608
5816000,5816000,-0.023578895,0.01252624,-9.8106
5864000,5864000,0.018432992,0.06930281,-9.765741
5916000,5916000,-0.0030974047,0.06944062,-9.808737
5964000,5964000,-0.03143008,0.066195734,-9.853983
6012000,6012000,-0.058078203,-0.005726034,-9.872288
6064000,6064000,0.016063498,0.034028478,-9.783703
6116000,6116000,-0.004056343,0.05888439,-9.849874
6164000,6164000,-0.036194548,0.039416745,-9.827354
6216000,6216000,-0.003749978,0.08545606,-9.856254
6264000,6264000,-0.009587724,0.049784698,-9.8008175
6316000,6316000,0.030989293,0.054545216,-9.8252945
6364000,6364000,-0.041905597,0.029647049,-9.818993
6412000,6412000,-0.072630405,0.12072207,-9.834364
6464000,6464000,-0.012467377,0.08302013,-9.796516
6516000,6516000,-0.070249364,0.07012436,-9.838566
6564000,6564000,-0.012620524,0.03329,-9.758329
6616000,6616000,-0.0145481005,0.08140302,-9.784395
6664000,6664000,0.013575277,0.09578683,-9.877148
6716000,6716000,0.0075015966,0.02849243,-9.847426
6764000,6764000,0.024985392,0.05113326,-9.823423
6816000,6816000,-0.010905527,0.12054801,-9.877764
6864000,6864000,0.016994603,0.086403556,-9.782245
6916000,6916000,0.014566711,0.07460437,-9.787725
6964000,6964000,0.016903576,0.08882023,-9.81707
7016000,7016000,0.012410559,0.10572724,-9.838384
7064000,7064000,-0.034219116,0.098893344,-9.882269
7116000,7116000,-0.0036318805,0.05248501,-9.818077
7164000,7164000,-0.011823729,0.06603755,-9.796877
7216000,7216000,0.024961574,0.065670215,-9.831602
7264000,7264000,-0.004852201,0.07305534,-9.775783
7316000,7316000,-0.012766323,0.10511768,-9.845388
7364000,7364000,0.017009722,0.112374455,-9.859121
7416000,7416000,-0.0064757084,0.045469366,-9.806661
7464000,7464000,0.020534283,0.06567455,-9.882687
7516000,7516000,-0.015036094,0.06674038,-9.757533
7564000,7564000,0.008766761,0.030362846,-9.779322
7616000,7616000,-0.0017140785,0.04826446,-9.786095
7664000,7664000,0.006669014,0.03740632,-9.857157
7716000,7716000,-0.035176303,0.09184769,-9.788917
7764000,7764000,0.011415756,0.065847225,-9.833837
7816000,7816000,-0.011689515,0.006601762,-9.811207
7864000,7864000,-0.057113975,0.05566962,-9.7854595
7916000,7916000,-0.02842094,0.042316064,-9.827595
7964000,7964000,0.015287098,0.10338703,-9.8163805
8016000,8016000,-0.029354202,0.04824398,-9.850217
8064000,8064000,0.034937277,0.06303871,-9.785708
8116000,8116000,-0.030581944,0.016959637,-9.837132
8164000,8164000,-0.0081430515,0.02161517,-9.817053
8216000,8216000,-0.0032390342,0.06610087,-9.843176
8264000,8264000,-0.014867448,0.047139417,-9.855276
8316000,8316000,-0.027649665,0.08140781,-9.821847
8364000,8364000,-0.0016935691,0.06481792,-9.846824
8416000,8416000,0.023277584,0.039128188,-9.809314
8464000,8464000,0.04396055,0.07688509,-9.809306
8516000,8516000,-0.043140832,-0.032794617,-9.866044
8564000,8564000,0.023438783,0.035055913,-9.834044
8616000,8616000,0.0018002621,0.031949546,-9.757912
8660000,8660000,-0.024992982,0.09349818,-9.772857
8716000,8716000,0.05510374,0.103542164,-9.781138
8764000,8764000,-0.029583171,0.03822491,-9.811952
8816000,8816000,-0.0038867395,0.058935795,-9.802965
8864000,8864000,0.03530331,0.091651216,-9.773629
8916000,8916000,0.022001367,0.063200586,-9.777261
8964000,8964000,0.037468657,0.061318085,-9.806094
9016000,9016000,-0.008611795,0.07663983,-9.820717
9060000,9060000,0.0028028642,0.09433022,-9.819549
9116000,9116000,0.07419241,-0.00012618006,-9.720204
9164000,9164000,0.044820778,0.09757116,-9.787701
9216000,9216000,-0.010515522,0.06616545,-9.778125
9264000,9264000,0.013514408,0.08858046,-9.795865
9316000,9316000,0.040551335,0.1310417,-9.847393
9364000,9364000,0.03485015,0.06929246,-9.815886
9416000,9416000,-0.02816669,0.09380552,-9.790504
9464000,9464000,0.035010695,0.012098811,-9.780479
9516000,9516000,-0.002491394,0.07023276,-9.788071
9564000,9564000,-0.015708327,0.082560346,-9.8180275
9612000,9612000,0.00014122017,0.019681735,-9.7631
9664000,9664000,0.0075527583,0.03883131,-9.793639
9716000,9716000,0.045926202,0.057077557,-9.870591
9764000,9764000,-0.0051001115,0.09174657,-9.780977
9816000,9816000,0.00058184774,0.09038102,-9.833507
9864000,9864000,-0.028170308,0.024045784,-9.784838
9916000,9916000,0.050226532,0.029139508,-9.723124
9964000,9964000,0.033639364,0.057174798,-9.799471
10016000,10016000,-0.057330392,0.034886703,-9.824471
10064000,10064000,0.0056750495,0.08341143,-9.804657
10116000,10116000,-0.005859101,0.052953083,-9.805415
10164000,10164000,-0.010897096,0.104811296,-9.76546
10216000,10216000,0.029615704,0.031867407,-9.847207
10264000,10264000,-0.0072210515,0.041153017,-9.768729
10316000,10316000,-0.055227265,0.08117935,-9.810354
10364000,10364000,0.042779848,0.05892954,-9.761214
10416000,10416000,-0.0069366135,0.043048237,-9.778921
10464000,10464000,0.062206894,0.035997067,-9.814232
10516000,10516000,-0.027623279,0.081976995,-9.824366
10564000,10564000,0.053997517,0.048447274,-9.82714
10616000,10616000,-0.06297703,0.048089508,-9.735463
10664000,10664000,-0.0012554163,0.080153845,-9.773995
10716000,10716000,-0.03023525,0.06255362,-9.824674
10764000,10764000,0.025481915,0.10185618,-9.770997
10816000,10816000,0.076449335,0.055712648,-9.860653
10864000,10864000,0.058408983,-0.0058668805,-9.7838335
10916000,10916000,0.03659288,-0.016164279,-9.820663
10964000,10964000,0.0023047198,0.059473377,-9.759692
11016000,11016000,-0.014484565,0.086511746,-9.747147
11064000,11064000,0.02116323,0.072739296,-9.829247
11116000,11116000,-0.003932144,0.061564706,-9.790899
11164000,11164000,-0.019710451,0.049131095,-9.778596
11216000,11216000,-0.05515649,0.04720604,-9.780431
11264000,11264000,-0.026216254,0.068618424,-9.821068
11316000,11316000,0.042880606,0.037751723,-9.754768
11364000,11364000,-0.028567519,0.03168684,-9.769676
11416000,11416000,0.021205746,0.016507763,-9.835743
11464000,11464000,0.017091569,0.03295607,-9.803219
11516000,11516000,-0.019105565,0.009236594,-9.812945
11564000,11564000,0.052727334,0.07992971,-9.786862
11616000,11616000,0.0027772237,0.024049211,-9.786068
11664000,11664000,0.039423738,0.051380035,-9.775137
11716000,11716000,-0.007199073,0.01790893,-9.774609
11764000,11764000,-0.04196049,0.011612834,-9.817497
11816000,11816000,0.024433129,0.06975356,-9.746647
11864000,11864000,-0.058227442,0.089848265,-9.785048
11916000,11916000,0.001758785,0.018681258,-9.811918
11964000,11964000,0.010907657,0.041156717,-9.805862
12016000,12016000,-0.068832934,0.030979563,-9.770085
12064000,12064000,0.009070495,0.10539881,-9.868532
12116000,12116000,0.037960276,0.02042684,-9.780437
12164000,12164000,0.025517581,0.05968326,-9.782711
12216000,12216000,0.010179204,0.06658663,-9.766521
12264000,12264000,0.0070846453,0.016777517,-9.824459
12316000,12316000,-0.018681955,0.008796239,-9.809414
12364000,12364000,0.025156476,0.041906334,-9.7853
12412000,12412000,0.019012608,0.04187205,-9.79461
12464000,12464000,0.0041776393,0.022894865,-9.831951
12516000,12516000,-0.028807145,0.039760504,-9.768606
12564000,12564000,0.0033172737,0.06620326,-9.846289
12616000,12616000,0.03116224,0.02830128,-9.743916
12664000,12664000,-0.0060394355,0.054009765,-9.782743
12716000,12716000,0.038701735,0.052894183,-9.801831
12764000,12764000,0.034259573,0.082472935,-9.8508
12816000,12816000,0.028761122,0.07152101,-9.748204
12864000,12864000,-0.015333643,0.14485131,-9.833435
12916000,12916000,-0.0010659499,0.069542855,-9.834284
12964000,12964000,0.027304307,0.044158053,-9.810849
13016000,13016000,-0.0005783305,0.05048695,-9.787519
13064000,13064000,0.04260673,0.054207515,-9.777121
13116000,13116000,-0.029472979,0.027741807,-9.785949
13164000,13164000,0.043830726,0.09836893,-9.750653
13216000,13216000,0.04011674,0.043209963,-9.819512
13264000,13264000,0.0163931,0.019351954,-9.817484
13316000,13316000,0.015462373,0.09623929,-9.801138
13364000,13364000,0.021687834,0.06212656,-9.774807
13416000,13416000,-0.03608027,0.11610219,-9.844727
13464000,13464000,-0.021964071,0.04933208,-9.787473
13516000,13516000,-0.0005807779,0.043157667,-9.792667
13564000,13564000,0.026339466,0.038176484,-9.78981
13616000,13616000,-0.008676999,0.044609495,-9.782232
13660000,13660000,0.04152029,0.06956805,-9.808761
13712000,13712000,-0.006314136,0.03835744,-9.846542
13764000,13764000,0.0007484823,0.04955091,-9.763202
13816000,13816000,0.049783725,0.024800431,-9.817919
13864000,13864000,0.05559055,0.010885725,-9.842053
13916000,13916000,-0.014834819,0.07148045,-9.82998
13964000,13964000,-0.032488696,0.07200281,-9.787606
14016000,14016000,0.062445834,0.051010706,-9.75247
14064000,14064000,-0.037124306,-0.032865167,-9.843265
14116000,14116000,-0.023006676,0.10156403,-9.734223
14164000,14164000,0.06860307,0.046110705,-9.792285
14216000,14216000,0.036622033,0.02815837,-9.815144
14264000,14264000,0.03973575,-0.0015304564,-9.770287
14316000,14316000,-0.008959069,-0.0023181182,-9.851291
14364000,14364000,0.020998359,0.03562538,-9.825625
14416000,14416000,0.031116275,0.08141226,-9.755211
14464000,14464000,0.048280157,0.07089834,-9.814846
14516000,14516000,0.039861284,0.032692615,-9.804165
14564000,14564000,0.007893414,-0.0085697025,-9.758221
14616000,14616000,-0.008462055,0.08313152,-9.7868805
14664000,14664000,0.017097991,0.075949855,-9.789284
14716000,14716000,0.03634669,0.06722064,-9.788524
14764000,14764000,0.035603363,0.050259463,-9.811319
14816000,14816000,0.06433464,0.01685968,-9.824209
14864000,14864000,-0.0383386,0.11331126,-9.784033
14916000,14916000,0.020008665,0.025810115,-9.806323
14964000,14964000,0.0183255,0.015378296,-9.820368
15016000,15016000,0.00038780412,0.04161151,-9.837405
15064000,15064000,0.022693323,0.043783884,-9.811083
15116000,15116000,0.03609348,0.10471484,-9.804414
15164000,15164000,-0.048936896,0.020081129,-9.782543
15216000,15216000,0.033432774,0.035606984,-9.752963
15264000,15264000,0.009052598,0.053541403,-9.751736
15316000,15316000,-0.04398154,0.012225928,-9.82292
15364000,15364000,0.030056827,0.06349169,-9.791957
15416000,15416000,0.048231483,0.05850607,-9.811045
15464000,15464000,0.049419116,0.045840546,-9.8279505
15516000,15516000,-0.021212202,0.03173835,-9.820282
15564000,15564000,0.048229404,0.037027374,-9.795332
15616000,15616000,0.06452967,0.041958876,-9.796258
15660000,15660000,0.093335055,0.07316885,-9.868137
15716000,15716000,-0.002319014,0.036252234,-9.752731
15764000,15764000,-0.058278218,0.04463471,-9.811203
15816000,15816000,-0.037505634,0.04961238,-9.861597
15860000,15860000,0.036243506,0.06065754,-9.774951
15916000,15916000,-0.017621173,0.038329683,-9.811495
15964000,15964000,0.038683318,0.037456915,-9.843391
16016000,16016000,0.05521063,0.005206364,-9.791678
16060000,16060000,0.015343971,0.054235213,-9.768102
16116000,16116000,0.014646957,0.05134227,-9.728547
16164000,16164000,0.04861858,0.0371822,-9.767601
16216000,16216000,0.03131026,0.02631792,-9.77305
16264000,16264000,0.06647928,0.038085736,-9.823811
16316000,16316000,0.016391875,0.05387713,-9.721932
16364000,16364000,0.05450415,0.0050187404,-9.764614
16416000,16416000,0.03589976,0.049342375,-9.809561
16460000,16460000,0.043097574,0.04957911,-9.794878
16516000,16516000,-0.010275223,0.04048589,-9.784022
16564000,16564000,0.00907165,0.0388316,-9.792219
16616000,16616000,0.022017248,0.042340677,-9.76618
16660000,16660000,0.07243736,0.07100136,-9.797484
16716000,16716000,0.056668602,0.044985794,-9.707906
16764000,16764000,0.056897704,0.039851777,-9.778973
16816000,16816000,0.07864694,0.007537465,-9.808481
16864000,16864000,0.010695012,0.06779118,-9.818162
16916000,16916000,0.048068777,0.08293554,-9.766112
16964000,16964000,0.009776881,0.03144367,-9.751939
17016000,17016000,0.044516325,0.063938156,-9.806987
17064000,17064000,0.08118242,0.08840581,-9.769028
17116000,17116000,-0.005416248,0.034642737,-9.743864
17164000,17164000,-0.0018210469,0.0063912217,-9.748366
17216000,17216000,0.09467724,0.047213335,-9.761956
17264000,17264000,-0.014747739,0.06037364,-9.782894
17316000,17316000,0.07025164,0.024244225,-9.757328
17364000,17364000,0.07006951,0.028513396,-9.762341
17416000,17416000,-0.016685443,0.043154757,-9.786472
17464000,17464000,0.05896371,0.030135076,-9.777083
17516000,17516000,-0.020902028,0.06754893,-9.781785
17564000,17564000,0.04260437,0.061972875,-9.787467
17616000,17616000,0.035569616,0.029021837,-9.821726
17664000,17664000,0.004599275,0.024149053,-9.857735
17716000,17716000,-0.002054113,0.087415375,-9.855345
17764000,17764000,0.0005235486,0.026477845,-9.835472
17816000,17816000,0.07740729,0.10350875,-9.772078
17860000,17860000,0.012579757,0.029238015,-9.802994
17916000,17916000,0.011452721,0.030304415,-9.787093
17964000,17964000,0.055353604,0.040108297,-9.868091
18016000,18016000,0.10429086,0.049802385,-9.791801
18064000,18064000,0.044556793,0.018023094,-9.812599
18116000,18116000,0.056103084,-0.0039362866,-9.809513
18160000,18160000,0.04254892,0.010350961,-9.860065
18216000,18216000,0.09508124,0.016406633,-9.724976
18264000,18264000,0.10409165,0.060502052,-9.789566
18316000,18316000,0.06878385,0.0019380087,-9.838329
18364000,18364000,0.08773933,-0.017259387,-9.754162
18416000,18416000,0.06237116,0.051338978,-9.809519
18464000,18464000,0.07040487,0.0424838,-9.821462
18516000,18516000,0.010764268,0.06338531,-9.742864
18564000,18564000,-0.0154760005,0.023271441,-9.797741
18616000,18616000,0.021509908,0.03075276,-9.804592
18660000,18660000,0.06610398,0.050472382,-9.807308
18716000,18716000,0.061449084,-0.06770719,-9.783113
18764000,18764000,0.058237217,0.026430339,-9.833042
18816000,18816000,0.06805859,0.04583036,-9.769726
18860000,18860000,0.032807294,-0.014371992,-9.79539
18916000,18916000,0.074072935,0.057405286,-9.853006
18964000,18964000,0.05457932,0.012510161,-9.773773
19016000,19016000,-0.011895241,0.054545976,-9.814596
19064000,19064000,-0.014724474,0.027609268,-9.810091
19116000,19116000,0.015657738,0.07623622,-9.785659
19164000,19164000,0.06698419,0.048901465,-9.811024
19212000,19212000,0.077228166,0.05429423,-9.78587
19264000,19264000,0.05451293,0.037836034,-9.763933
19316000,19316000,0.021663167,-0.0042438693,-9.803691
19364000,19364000,-0.0004478707,0.06956327,-9.826131
19416000,19416000,0.04667984,0.040221833,-9.78624
19464000,19464000,0.083523385,-0.024369692,-9.774394
19516000,19516000,0.081888236,0.03513857,-9.790459
19564000,19564000,0.018041335,-0.010219814,-9.804888
19616000,19616000,0.05720738,0.08987348,-9.822245
19664000,19664000,0.011367357,0.02422329,-9.818543
19716000,19716000,0.0366135,0.016763099,-9.767608
19764000,19764000,0.024812315,0.04654564,-9.84642
19816000,19816000,0.03584605,0.049468994,-9.791117
19864000,19864000,0.034836628,0.055739265,-9.765724
19916000,19916000,0.025757052,0.039030828,-9.741726
19964000,19964000,0.09729636,0.0029987982,-9.83546
20016000,20016000,0.00011376105,0.027177624,-9.799726
20064000,20064000,0.041043203,0.023009297,-9.826786
20116000,20116000,0.07390542,-0.011044937,-9.843875
20164000,20164000,0.04352668,0.042297952,-9.77171
20216000,20216000,0.028147936,0.0042763967,-9.745539
20264000,20264000,0.050506044,-0.0038363398,-9.810713
20316000,20316000,0.09552184,0.043144494,-9.81794
20364000,20364000,0.053662557,0.043892108,-9.840527
20416000,20416000,-0.016676566,-0.015534045,-9.773054
20464000,20464000,0.06509286,0.023790795,-9.757742
20512000,20512000,0.029490266,0.040254306,-9.745761
20564000,20564000,0.053412743,0.04594962,-9.817107
20616000,20616000,0.031659644,0.018337188,-9.812468
20664000,20664000,-0.011095895,0.008327879,-9.763351
20716000,20716000,0.058202993,0.060695335,-9.822055
20764000,20764000,-0.009761881,0.0656996,-9.73898
20816000,20816000,-0.0023494773,-0.025343165,-9.801622
20864000,20864000,0.020916667,0.063511975,-9.799272
20916000,20916000,0.017539212,0.06793024,-9.797491
20964000,20964000,0.0064954422,0.046883777,-9.802439
21016000,21016000,0.08005399,0.062060595,-9.803982
21064000,21064000,0.06577896,0.03910485,-9.83064
21116000,21116000,0.056185696,0.04845021,-9.770029
21164000,21164000,0.01988585,0.032973748,-9.83161
21216000,21216000,0.027787529,0.039021023,-9.7603035
21260000,21260000,0.015364012,0.044806004,-9.794105
21316000,21316000,0.0062229354,0.0893038,-9.749656
21364000,21364000,0.0548233,0.06310589,-9.824533
21416000,21416000,0.028827947,0.02506298,-9.778583
21464000,21464000,-0.020545248,0.023674756,-9.728875
21516000,21516000,0.009184694,0.02547525,-9.781874
21564000,21564000,0.03587887,0.0068242745,-9.829362
21616000,21616000,0.043631062,0.031186562,-9.782075
21664000,21664000,-0.0047855414,0.07646121,-9.8313465
21716000,21716000,0.032953344,0.0020298613,-9.823067
21764000,21764000,0.028832491,0.042030703,-9.837614
21816000,21816000,0.0087585095,0.058797248,-9.789977
21864000,21864000,0.030552305,0.050803877,-9.835585
21916000,21916000,0.03139411,0.044791833,-9.788233
21964000,21964000,-0.033237435,0.033398986,-9.753658
22016000,22016000,0.049470562,0.08765746,-9.773438
22064000,22064000,0.04879093,0.055212755,-9.812924
22116000,22116000,-0.049166188,0.06290371,-9.784287
22164000,22164000,0.020148788,0.019099087,-9.765551
22216000,22216000,0.019522345,0.004820067,-9.786171
22264000,22264000,0.05468893,-0.012569223,-9.825833
22316000,22316000,0.048644703,0.04688645,-9.783991
22364000,22364000,-0.0059749233,0.00209346,-9.787216
22412000,22412000,-0.0041734125,0.050353497,-9.796882
22464000,22464000,0.039038572,0.08072458,-9.800186
22516000,22516000,0.015165552,0.04024135,-9.777466
22564000,22564000,0.025328707,0.027110124,-9.762674
22616000,22616000,0.031565543,-0.022726038,-9.794122
22664000,22664000,0.0585639,0.022791136,-9.767351
22716000,22716000,0.05057965,0.019941015,-9.759988
22764000,22764000,0.02489365,-0.04003087,-9.790766
22816000,22816000,0.03090183,0.011091014,-9.729275
22864000,22864000,0.014491846,0.07171281,-9.771211
22916000,22916000,0.09807377,0.02773854,-9.756759
22964000,22964000,0.038019434,0.015490484,-9.789621
23012000,23012000,0.032806348,-0.0057406314,-9.78179
23064000,23064000,0.047640692,0.06852976,-9.783363
23116000,23116000,0.04598471,0.041880637,-9.77707
23164000,23164000,0.106315956,0.023956813,-9.841422
23216000,23216000,0.058899574,0.07802032,-9.82934
23264000,23264000,0.044039607,-0.037545122,-9.802102
23316000,23316000,0.027001895,0.05329275,-9.744212
23364000,23364000,0.08657773,0.038394276,-9.741353
23416000,23416000,0.035034616,0.050445557,-9.809842
23464000,23464000,0.02273079,0.0842093,-9.798222
23516000,23516000,0.056260485,0.055024125,-9.81276
23564000,23564000,0.07445059,0.029072575,-9.791102
23616000,23616000,0.08715704,0.03516869,-9.803674
23664000,23664000,0.02293827,0.058104344,-9.7894945
23716000,23716000,0.04396757,0.023943389,-9.793549
23764000,23764000,0.07250468,0.11723974,-9.750622
23816000,23816000,0.019590443,0.077494755,-9.78484
23864000,23864000,0.027022153,0.08499761,-9.790165
23916000,23916000,0.056014106,0.0030572272,-9.828754
23964000,23964000,0.045170426,-0.0028910448,-9.771837
24016000,24016000,0.047272902,0.111969784,-9.81829
24064000,24064000,0.038851257,0.05444487,-9.785181
24116000,24116000,0.027451029,0.022336338,-9.80895
24164000,24164000,0.07007324,0.055796128,-9.827629
24212000,24212000,0.091931775,0.021296522,-9.806981
24264000,24264000,0.03322284,0.05749199,-9.767102
24316000,24316000,0.031265005,0.05058019,-9.827269
24364000,24364000,-0.017005047,0.041953523,-9.795344
24416000,24416000,0.023690227,0.0027457862,-9.804649
24464000,24464000,0.03271335,0.014212247,-9.842946
24516000,24516000,0.01605325,0.05777839,-9.803429
24564000,24564000,0.0058010845,-0.004120589,-9.764236
24616000,24616000,0.027908204,0.02235192,-9.790482
24660000,24660000,0.031425748,0.001617386,-9.815589
24716000,24716000,0.048040275,0.019619301,-9.76915
24764000,24764000,0.08803627,0.03572403,-9.775755
24816000,24816000,0.058479015,0.049834684,-9.806357
24864000,24864000,0.06906388,0.043092784,-9.773246
24916000,24916000,0.036200702,0.017502738,-9.762013
24964000,24964000,0.042378254,0.045854025,-9.773837
25016000,25016000,0.009837192,0.05844711,-9.794757
25064000,25064000,0.050097845,0.021577436,-9.823103
25116000,25116000,0.06372395,0.01278723,-9.764217
25164000,25164000,0.08123293,0.063695766,-9.845534
25216000,25216000,0.08095163,0.050924823,-9.779867
25260000,25260000,0.035564743,0.049576398,-9.828276
25316000,25316000,0.017049288,0.042101882,-9.777731
25364000,25364000,-0.011552594,0.03920801,-9.799605
25416000,25416000,0.023433413,0.046311725,-9.770631
25460000,25460000,0.096924216,0.046973754,-9.7923355
25516000,25516000,0.05283009,0.0105457045,-9.784522
25564000,25564000,-0.008906266,0.024446812,-9.81627
25616000,25616000,0.04346578,0.037979897,-9.765845
25664000,25664000,0.0481793,0.041262083,-9.809636
25716000,25716000,-0.015156254,0.047937736,-9.744429
25764000,25764000,-0.011251714,0.06220539,-9.779409
25816000,25816000,0.019198056,0.060958754,-9.768672
25864000,25864000,0.011715218,0.030964699,-9.844592
25916000,25916000,0.058073595,0.062131394,-9.763457
25964000,25964000,0.042519122,0.04703889,-9.728941
26016000,26016000,-0.027074307,0.04774206,-9.776403
26064000,26064000,0.04995334,0.072519034,-9.803923
26116000,26116000,0.02895664,0.060034633,-9.806178
26164000,26164000,0.033718344,0.0797745,-9.738475
26216000,26216000,-0.03416089,0.036076576,-9.752132
26264000,26264000,0.043718077,0.019167865,-9.748884
26316000,26316000,0.06314063,0.08232646,-9.794781
26364000,26364000,0.028045757,0.029458495,-9.800138
26416000,26416000,0.06543233,0.0041746004,-9.815976
26464000,26464000,0.016604908,0.02324696,-9.770916
26516000,26516000,0.046672985,0.0058262036,-9.810951
26564000,26564000,0.05601049,0.024912007,-9.773111
26616000,26616000,-0.0056192838,-0.014956187,-9.736017
26664000,26664000,0.011754777,0.073871054,-9.772417
26716000,26716000,0.0075991824,0.05568395,-9.778778
26764000,26764000,0.09420866,0.06584848,-9.802731
26816000,26816000,0.043489836,0.048847653,-9.759072
26860000,26860000,0.030553084,0.025305599,-9.795325
26916000,26916000,0.00899725,0.063117966,-9.794375
26964000,26964000,0.0754257,0.06040302,-9.767006
27016000,27016000,0.009115646,0.051189594,-9.758619
27064000,27064000,-0.0034741468,0.059042707,-9.788059
27116000,27116000,0.03220639,0.07969175,-9.785894
27164000,27164000,0.020400083,0.071376726,-9.814174
27216000,27216000,0.025145313,0.058529556,-9.812006
27264000,27264000,-0.01610737,0.06730115,-9.794189
27316000,27316000,0.08572791,0.0008680825,-9.811449
27364000,27364000,0.07758343,0.072575904,-9.79897
27416000,27416000,0.025293287,0.07200958,-9.778263
27464000,27464000,0.009315305,0.04688404,-9.791466
27516000,27516000,0.010344727,0.062889606,-9.80521
27564000,27564000,0.017862538,0.078606494,-9.803936
27616000,27616000,0.083012395,0.008323108,-9.756981
27664000,27664000,0.05744791,0.049595024,-9.798566
27716000,27716000,0.037441745,0.018764565,-9.734038
27764000,27764000,0.033255737,0.105487436,-9.744384
27816000,27816000,0.028076148,0.099334046,-9.7436285
27864000,27864000,0.0025213228,0.03354182,-9.777547
27916000,27916000,-0.020047113,0.046219483,-9.74052
27964000,27964000,0.012940339,0.030729592,-9.774094
28016000,28016000,0.019152913,0.08139779,-9.7709055
28064000,28064000,0.023022585,0.059083976,-9.794539
28116000,28116000,0.0055350955,0.062181734,-9.798113
28164000,28164000,0.03946662,0.059416663,-9.769033
28216000,28216000,0.08017642,-0.015620099,-9.820827
28264000,28264000,0.04897342,0.06394817,-9.80319
28316000,28316000,-0.0017020097,0.07827403,-9.737163
28364000,28364000,0.050791092,0.016310854,-9.789705
28416000,28416000,0.007286461,0.04860292,-9.752552
28464000,28464000,0.009031437,0.04947821,-9.722181
28516000,28516000,0.054030787,0.06642552,-9.810205
28564000,28564000,0.05356098,0.04864085,-9.801976
28616000,28616000,-0.008959057,0.04066558,-9.754471
28664000,28664000,0.03992842,0.022893544,-9.7774
28716000,28716000,0.01956678,0.056198455,-9.772967
28764000,28764000,0.087518275,0.00913332,-9.805727
28816000,28816000,0.012702797,0.06258542,-9.760611
28864000,28864000,0.022680297,0.039956365,-9.784171
28916000,28916000,0.01445402,-0.016832758,-9.787525
28964000,28964000,-0.013813391,0.097477145,-9.782049
29016000,29016000,0.079736985,0.035271652,-9.79199
29064000,29064000,0.018404555,0.061842192,-9.779066
29116000,29116000,0.042013574,0.04696477,-9.750428
29164000,29164000,0.07380438,0.08935629,-9.779528
29216000,29216000,0.048670746,0.08688077,-9.771393
29264000,29264000,0.01900952,0.059339024,-9.778965
29316000,29316000,-0.015606489,0.0367173,-9.824429
29364000,29364000,0.04246503,0.029899724,-9.789582
29416000,29416000,0.011904042,0.0028157672,-9.7838125
29464000,29464000,0.06029105,-0.025085391,-9.795151
29516000,29516000,0.024864469,0.070040904,-9.718949
29564000,29564000,0.031017624,0.075390205,-9.818475
29616000,29616000,0.025332922,0.09273629,-9.773663
29664000,29664000,0.029769782,0.0041991975,-9.812524
29716000,29716000,-0.023694232,0.027562091,-9.749777
29764000,29764000,0.044871166,0.054319534,-9.762072
29816000,29816000,-0.022215003,0.0023777736,-9.778763
29864000,29864000,0.02508729,-0.006534132,-9.778675
29916000,29916000,-0.01332177,0.095896095,-9.760794
29964000,29964000,-0.037518356,0.029446548,-9.84223
30016000,30016000,0.015939165,0.09494889,-9.726337
30064000,30064000,-0.03477654,0.057444282,-9.810138
30116000,30116000,-0.024597151,0.07326154,-9.770958
30164000,30164000,0.01960598,0.033186227,-9.787932
30216000,30216000,0.023763442,0.0232037,-9.832215
30264000,30264000,0.06430712,0.032545876,-9.784249
30316000,30316000,0.008988489,-0.03189906,-9.824504
30364000,30364000,-0.027452856,0.022276998,-9.804356
30416000,30416000,0.013599118,0.0011946709,-9.769897
30464000,30464000,0.04552192,0.07687953,-9.7683325
30516000,30516000,0.043217786,0.033499967,-9.746431
30564000,30564000,0.0070280964,0.035259012,-9.8063755
30616000,30616000,0.016788501,0.03923805,-9.727211
30664000,30664000,-0.0080539975,0.038872235,-9.801231
30716000,30716000,-0.038853448,0.07641894,-9.766815
30764000,30764000,0.027529314,0.03335949,-9.73789
30816000,30816000,-0.0014087679,0.044585932,-9.749783
30864000,30864000,0.03279805,0.008871814,-9.821366
30916000,30916000,0.044814657,0.07602625,-9.802564
30964000,30964000,0.027968273,0.0919074,-9.806679
31016000,31016000,0.039546266,0.070022106,-9.759777
31064000,31064000,0.04473003,0.044439428,-9.81442
31116000,31116000,0.00011817459,0.021902632,-9.809372
31164000,31164000,-0.022249578,0.03704316,-9.787334
31216000,31216000,0.07002829,0.06735568,-9.759295
31264000,31264000,-0.010356509,0.0664485,-9.791883
31316000,31316000,-0.014869634,0.078174785,-9.788406
31364000,31364000,-0.035313167,-0.00071803015,-9.770894
31416000,31416000,-6.301887e-05,0.061163865,-9.735888
31464000,31464000,0.011841107,0.005750928,-9.739029
31516000,31516000,0.027154816,-0.013071956,-9.815651
31564000,31564000,0.025287589,0.043491066,-9.805356
31616000,31616000,-0.01342763,0.05700652,-9.793281
31664000,31664000,0.014956487,0.028865047,-9.831653
31716000,31716000,0.054298364,0.030263258,-9.773489
31764000,31764000,0.04874927,0.029481672,-9.824486
31816000,31816000,0.06201161,0.032215256,-9.7634735
31864000,31864000,-0.022316268,0.011942368,-9.785722
31916000,31916000,0.05840293,0.029253364,-9.787474
31964000,31964000,0.04992375,0.052797683,-9.800695
32016000,32016000,0.015571889,0.060441677,-9.77985
32064000,32064000,0.024584724,0.011242408,-9.790495
32116000,32116000,0.0037749603,0.064565174,-9.767833
32164000,32164000,-0.051637545,0.08138632,-9.810906
32216000,32216000,0.014905506,0.05221541,-9.782462
32264000,32264000,-0.012356764,0.046004064,-9.731026
32316000,32316000,-0.019680986,0.03735768,-9.782137
32364000,32364000,0.015446171,0.03825619,-9.788339
32416000,32416000,0.032564756,0.007514774,-9.754267
32464000,32464000,0.044024523,0.030554289,-9.752722
32516000,32516000,0.031113263,-0.009100305,-9.805542
32564000,32564000,-0.02933662,-0.0012440062,-9.790672
32616000,32616000,-0.0023390625,0.020600881,-9.793182
32664000,32664000,0.08224706,0.065447465,-9.799653
32716000,32716000,0.056531247,0.006620072,-9.74508
32764000,32764000,0.0063794674,0.027922787,-9.774298
32816000,32816000,-0.009934573,0.034962863,-9.804243
32864000,32864000,-0.023493748,0.021002697,-9.767996
32916000,32916000,0.00040008733,0.05802316,-9.79137
32964000,32964000,0.020659111,0.024166904,-9.791906
33016000,33016000,0.06980578,-0.0107579855,-9.76839
33064000,33064000,-0.02610426,0.00594428,-9.787125
33116000,33116000,-0.01097664,-0.013611237,-9.761036
33164000,33164000,0.0070219757,0.022944404,-9.782242
33216000,33216000,0.0036556514,0.05767511,-9.78848
33260000,33260000,0.009306681,0.07873492,-9.766471
33316000,33316000,-0.009449608,0.047102705,-9.742031
33364000,33364000,0.0025156748,0.065592736,-9.843489
33416000,33416000,0.024974754,0.0137906,-9.819712
33464000,33464000,0.013741782,0.0186553,-9.8076515
33516000,33516000,-0.0075557884,-0.002107435,-9.804514
33564000,33564000,0.028974026,0.023660336,-9.770482
33616000,33616000,0.047870107,0.01468182,-9.772629
33664000,33664000,0.0033086815,0.052292988,-9.834656
33716000,33716000,-0.019189578,0.03791792,-9.810104
33764000,33764000,0.029267285,0.06262164,-9.825981
33816000,33816000,0.019649522,0.0100586815,-9.780565
33864000,33864000,-0.032655813,0.014690656,-9.802811
33916000,33916000,0.015192349,0.051107936,-9.757374
33964000,33964000,-0.00023057009,0.03499352,-9.804398
34016000,34016000,0.037286628,0.109657705,-9.793872
34064000,34064000,-0.056590855,0.004017075,-9.81158
34116000,34116000,0.0031128624,0.016926583,-9.79175
34164000,34164000,-0.013719715,-0.008146094,-9.845954
34216000,34216000,0.004722828,0.0409839,-9.832916
34264000,34264000,0.034463998,0.0007907655,-9.861379
34316000,34316000,0.0398725,0.038761694,-9.822047
34364000,34364000,-0.019371476,0.05368935,-9.806622
34416000,34416000,-0.020322148,0.008174806,-9.760793
34464000,34464000,-0.015663425,0.02265769,-9.826719
34516000,34516000,0.055339683,0.0035334816,-9.821984
34564000,34564000,-0.009681724,0.012395688,-9.73272
34616000,34616000,0.024864677,0.025744624,-9.9061
34660000,34660000,0.010762449,0.10680759,-9.750603
34716000,34716000,0.007909947,0.030877609,-9.78334
34764000,34764000,0.030301051,0.0668786,-9.767235
34816000,34816000,0.008178736,0.06763104,-9.817292
34864000,34864000,-0.004460969,0.028603924,-9.863979
34916000,34916000,-0.01788415,0.07529347,-9.832328
34964000,34964000,0.045424644,0.066953875,-9.811179
35012000,35012000,0.020986766,0.07727302,-9.852958
35064000,35064000,0.010733961,0.08780131,-9.799035
35116000,35116000,0.036758296,0.05513052,-9.824172
35164000,35164000,0.0044057854,0.033455923,-9.779021
35216000,35216000,-0.00027805823,-0.0002730327,-9.734846
35264000,35264000,-0.0018408382,0.0137821045,-9.753782
35316000,35316000,-0.02206262,-0.0025748857,-9.801428
35364000,35364000,-0.04780882,0.0076062353,-9.838694
35416000,35416000,-0.012043636,0.028968342,-9.746514
35464000,35464000,0.008859058,0.027773915,-9.76252
35516000,35516000,0.011522364,0.033746272,-9.857199
35560000,35560000,0.03684386,0.049636863,-9.756925
35616000,35616000,0.015492702,0.018382816,-9.834927
35660000,35660000,0.03927444,0.08934975,-9.786585
35716000,35716000,-0.0103692645,0.013443321,-9.787897
35764000,35764000,0.027463822,0.04534883,-9.770554
35816000,35816000,-0.018159153,0.054609552,-9.813821
35864000,35864000,0.001227434,0.02405138,-9.784
35916000,35916000,0.0078457,0.03380204,-9.832939
35964000,35964000,-0.012885967,0.020203475,-9.815175
36016000,36016000,0.021668147,0.05076614,-9.760726
36060000,36060000,0.016426038,0.092471555,-9.815856
36116000,36116000,-0.02619465,0.035082776,-9.830806
36164000,36164000,-0.023136497,0.018601406,-9.772054
36212000,36212000,0.04256619,0.017643783,-9.7842655
36260000,36260000,-0.006861451,0.013291082,-9.825803
36316000,36316000,-0.06783973,0.07384005,-9.852827
36364000,36364000,-0.074586466,0.05322598,-9.808293
36416000,36416000,-0.010623053,0.08538619,-9.819379
36464000,36464000,-0.0399865,0.033314534,-9.810087
36516000,36516000,0.023037704,0.026544895,-9.8156
36564000,36564000,0.011362437,0.00062442804,-9.831318
36616000,36616000,0.003849389,0.05693467,-9.784579
36664000,36664000,-0.00968763,0.10376288,-9.843922
36716000,36716000,0.008961166,0.024852755,-9.805645
36764000,36764000,0.038107317,0.008170964,-9.786411
36816000,36816000,-0.008661896,0.05535881,-9.798936
36864000,36864000,-0.010865316,0.057617545,-9.836367
36916000,36916000,0.028569872,0.06553917,-9.746334
36964000,36964000,-0.0002866059,0.074556336,-9.806299
37016000,37016000,0.023068398,0.04421604,-9.761602
37064000,37064000,0.016559198,0.07553372,-9.79776
37116000,37116000,0.030362576,0.03418441,-9.819057
37164000,37164000,-0.07327801,0.01416191,-9.799008
37216000,37216000,0.07892858,0.0447177,-9.842882
37264000,37264000,0.0070241634,0.008262987,-9.758234
37316000,37316000,0.031237403,0.05852005,-9.772766
37364000,37364000,0.042040203,0.058590136,-9.836257
37416000,37416000,-0.03643362,0.0229869,-9.773184
37464000,37464000,0.01382887,0.04715915,-9.835564
37516000,37516000,0.075669296,0.020440038,-9.825643
37564000,37564000,-0.002171113,0.06933702,-9.794104
37616000,37616000,0.015931796,0.044583313,-9.785215
37664000,37664000,0.017991684,-0.0036333657,-9.742545
37716000,37716000,0.01061779,0.050129008,-9.747115
37764000,37764000,-0.016486645,0.039149426,-9.776627
37816000,37816000,0.03944106,0.023718243,-9.764191
37860000,37860000,0.019944588,0.074384816,-9.724026
37916000,37916000,-0.024205636,0.044688575,-9.7205105
37964000,37964000,0.07018733,-0.029378217,-9.819838
38016000,38016000,0.05136356,0.07699235,-9.767252
38064000,38064000,0.013197787,0.096360594,-9.856166
38116000,38116000,0.0051826416,0.08596791,-9.754306
38164000,38164000,0.04661534,0.080086336,-9.7703705
38216000,38216000,-0.010633054,0.031203337,-9.739744
38264000,38264000,0.021319484,0.028793344,-9.781378
38316000,38316000,0.0071202046,0.067844585,-9.777442
38364000,38364000,0.028038412,0.043756023,-9.781259
38416000,38416000,0.056115605,0.062328365,-9.839164
38460000,38460000,-0.016052864,0.040474568,-9.716126
38516000,38516000,-0.0027671366,-0.011752646,-9.822292
38564000,38564000,0.0019501708,0.044926852,-9.789244
38616000,38616000,-0.015461246,0.057101294,-9.802274
38664000,38664000,0.022411704,-0.0092002,-9.772067
38716000,38716000,-0.01762529,-0.023543682,-9.777936
38764000,38764000,0.055389762,-0.009550246,-9.74564
38816000,38816000,-0.0040488727,0.02171437,-9.762075
38864000,38864000,0.008611044,0.088785075,-9.8344345
38916000,38916000,0.052640725,0.017101904,-9.710998
38964000,38964000,-0.045956455,0.026772382,-9.750282
39016000,39016000,-0.00493545,0.009508777,-9.799271
39064000,39064000,0.022129416,0.070091784,-9.733891
39116000,39116000,0.014958952,0.059487626,-9.738743
39164000,39164000,0.047536805,0.024681602,-9.727405
39216000,39216000,-0.022499481,0.033065334,-9.71356
39264000,39264000,0.027300186,0.0037014727,-9.776761
39316000,39316000,0.01595806,-0.008165426,-9.752823
39364000,39364000,0.01738865,0.040847626,-9.755432
39412000,39412000,0.053404808,0.10397447,-9.774718
39464000,39464000,-0.0025454678,0.004047022,-9.79936
39516000,39516000,-0.017759489,-0.03002807,-9.838299
39564000,39564000,-0.012476081,0.073638104,-9.750653
39616000,39616000,-0.009808801,0.049171023,-9.819028
39664000,39664000,-0.06341252,0.061513677,-9.812658
39716000,39716000,0.021364437,0.05732375,-9.765331
39764000,39764000,0.012154542,0.048742548,-9.716073
39816000,39816000,0.021506267,0.031706113,-9.816701
39864000,39864000,0.0012494968,0.072762154,-9.78354
39916000,39916000,0.0067976564,0.0023730923,-9.74684
39960000,39960000,0.004528273,0.020825816,-9.7765045
40016000,40016000,0.01702536,0.006865356,-9.767107
40064000,40064000,0.017135622,-0.0031355503,-9.759282
40116000,40116000,-0.022509309,0.025649076,-9.765351
40164000,40164000,-0.020229492,0.036560148,-9.790585
40216000,40216000,-0.028797664,0.066874385,-9.817311
40264000,40264000,0.044518903,0.015292773,-9.782166
40316000,40316000,0.048726924,0.06668057,-9.818977
40364000,40364000,0.006069823,0.016314583,-9.774045
40416000,40416000,-0.044238627,0.0071455045,-9.748545
40464000,40464000,-0.044671014,0.014294169,-9.793375
40512000,40512000,0.008552467,0.036153942,-9.766554
40560000,40560000,0.041711252,0.017921176,-9.753506
40612000,40612000,0.03251747,0.049313486,-9.712568
40664000,40664000,-0.0040942514,-0.022346973,-9.720957
40716000,40716000,-0.0008634981,0.02621482,-9.747576
40764000,40764000,0.041715052,-0.008911859,-9.74408
40816000,40816000,0.0763619,0.068660915,-9.734876
40864000,40864000,-0.024378123,0.028423224,-9.749022
40916000,40916000,0.0019275057,0.02924936,-9.784129
40964000,40964000,-0.022047976,-0.06152361,-9.763619
41016000,41016000,-0.021480098,0.049614057,-9.743053
41064000,41064000,-0.051111516,0.0150289945,-9.73498
41116000,41116000,-0.056114472,0.013915938,-9.74309
41164000,41164000,0.005505714,-0.020040412,-9.765678
41216000,41216000,-0.03722016,-0.000707363,-9.788295
41264000,41264000,-0.029540665,0.052828,-9.765755
41316000,41316000,0.049807824,0.016923891,-9.718764
41364000,41364000,0.0009860292,0.04107918,-9.723486
41416000,41416000,-0.031350635,-0.0099444585,-9.778149
41464000,41464000,-0.0073596733,0.021743754,-9.773985
41516000,41516000,0.04619374,0.041487243,-9.744333
41564000,41564000,0.01343301,0.034148447,-9.77831
41616000,41616000,0.0063117994,0.0413286,-9.795698
41660000,41660000,0.012528139,0.034890905,-9.784779
41716000,41716000,-0.035259448,0.030317407,-9.83352
41764000,41764000,-0.040897675,0.07858807,-9.78594
41816000,41816000,-0.04770591,0.020741649,-9.783078
41864000,41864000,0.037639126,0.020907901,-9.742514
41916000,41916000,-0.007852708,0.024860203,-9.78252
41964000,41964000,-0.004207,0.00012881868,-9.839014
42016000,42016000,0.015219193,0.031777583,-9.836569
42064000,42064000,0.012048041,-0.050136976,-9.771252
42116000,42116000,0.0012397533,0.05655863,-9.794198
42164000,42164000,0.012871927,-0.036830552,-9.768204
42216000,42216000,0.011668043,0.056463573,-9.797968
42264000,42264000,0.016044842,0.07569154,-9.752754
42316000,42316000,0.006496713,0.048312563,-9.793086
42364000,42364000,0.022128629,0.016901955,-9.728524
42416000,42416000,-0.024390943,0.07898889,-9.773216
42464000,42464000,0.04830362,0.028148007,-9.8070135
42516000,42516000,0.00032933522,0.013466384,-9.781943
42564000,42564000,0.038383815,0.045365646,-9.770597
42616000,42616000,-0.0590652,0.03520813,-9.805249
42664000,42664000,0.027313381,0.026493307,-9.77069
42716000,42716000,-0.0056891525,0.041690946,-9.747427
42764000,42764000,-0.035136618,0.014861014,-9.786393
42816000,42816000,-0.02123697,-0.009579128,-9.755511
42864000,42864000,0.046627946,0.007977935,-9.765105
42916000,42916000,0.036787845,0.037712738,-9.751064
42964000,42964000,-0.040198736,0.07510355,-9.7962475
43016000,43016000,-0.07454856,0.04614,-9.707029
43064000,43064000,0.036783006,0.05410415,-9.798982
43116000,43116000,0.016108096,-0.011971204,-9.805529
43164000,43164000,-0.02261873,0.07194022,-9.726004
43216000,43216000,-0.019540543,-0.04954566,-9.783131
43264000,43264000,0.018746056,-0.0138441585,-9.754964
43316000,43316000,0.01684901,0.025321143,-9.74429
43364000,43364000,0.037460707,0.008495295,-9.750978
43416000,43416000,-0.0021235766,0.06609492,-9.806082
43464000,43464000,-0.0068920827,0.012486417,-9.781457
43516000,43516000,0.03228665,0.054342397,-9.81468
43564000,43564000,0.0072779646,0.03087714,-9.769653
43616000,43616000,0.0026951965,0.08489811,-9.777905
43664000,43664000,0.040225796,0.06924199,-9.767802
43716000,43716000,0.016318543,0.012346843,-9.820774
43764000,43764000,0.0038858985,-0.02290953,-9.780447
43816000,43816000,0.015504893,0.012734522,-9.767847
43864000,43864000,-0.020909108,0.06661306,-9.884447
43916000,43916000,-0.014163428,0.013764348,-9.8015175
43964000,43964000,0.0006122382,0.0693773,-9.778801
44016000,44016000,0.02910742,0.0317026,-9.766996
44064000,44064000,-0.048878964,0.05286245,-9.749825
44116000,44116000,0.01260687,0.070334606,-9.78198
44164000,44164000,0.01997283,0.019879654,-9.688673
44216000,44216000,-0.017801708,0.027092123,-9.743093
44264000,44264000,0.023726106,0.019157548,-9.795994
44316000,44316000,-0.030462548,0.09214147,-9.777329
44364000,44364000,-0.01986716,0.024504116,-9.787174
44416000,44416000,-0.03663118,0.024964731,-9.767225
44464000,44464000,-0.004101104,0.0006329883,-9.770288
44516000,44516000,-0.034064543,0.0022296757,-9.746166
44564000,44564000,0.017739743,0.017878946,-9.7642
44616000,44616000,0.05646459,0.0010445616,-9.828293
44664000,44664000,0.03626702,-0.02278908,-9.785278
44716000,44716000,-0.041468002,0.039846957,-9.753933
44764000,44764000,0.004039754,0.033542432,-9.768328
44816000,44816000,-0.021099597,0.044183142,-9.760139
44864000,44864000,0.031018423,0.07961425,-9.754095
44916000,44916000,0.023071483,-0.016259694,-9.784378
44964000,44964000,-0.054902803,0.037748255,-9.749126
45016000,45016000,0.0082577225,0.0038127475,-9.848206
45064000,45064000,-0.009905116,0.006505128,-9.784264
45116000,45116000,-0.018178333,0.044780914,-9.795395
45164000,45164000,-0.00888762,0.04943286,-9.776416
45216000,45216000,0.038607374,-0.013800078,-9.830286
45264000,45264000,-0.03494755,-0.014277951,-9.7495575
45316000,45316000,0.022514049,-0.006008014,-9.757081
45364000,45364000,0.04171037,0.063723475,-9.780405
45416000,45416000,0.058623426,0.04810905,-9.768572
45460000,45460000,0.0013214715,-0.0043110116,-9.730653
45516000,45516000,0.016311454,0.06916708,-9.754347
45564000,45564000,-0.055162344,0.04460206,-9.785025
45616000,45616000,-0.0034132695,0.062681034,-9.778183
45664000,45664000,-0.055955376,0.005578292,-9.809191
45716000,45716000,-0.013566095,0.025227064,-9.812681
45764000,45764000,0.010353755,0.05972501,-9.7783575
45816000,45816000,-0.0071673193,0.030676236,-9.790836
45860000,45860000,-0.01380978,0.026312213,-9.774218
45916000,45916000,-0.035673358,0.011088477,-9.76011
45964000,45964000,-0.0059553175,0.030577973,-9.793189
46016000,46016000,0.058104035,0.011724405,-9.787713
46064000,46064000,0.040551122,0.07656809,-9.76183
46116000,46116000,0.006098223,-0.06345903,-9.788056
46164000,46164000,0.030234154,0.0005388595,-9.782008
46216000,46216000,-0.046678945,0.05518483,-9.80432
46264000,46264000,-0.018020015,0.049068496,-9.845551
46316000,46316000,0.033441428,0.071265474,-9.731517
46364000,46364000,-0.017674655,0.017936112,-9.740366
46416000,46416000,-0.0028893086,0.044401877,-9.730221
46460000,46460000,-0.007177621,0.04115885,-9.715602
46516000,46516000,-0.025513895,-0.0012136962,-9.750214
46564000,46564000,0.010017735,-0.028523492,-9.744013
46616000,46616000,-0.03399949,-0.051838756,-9.787716
46664000,46664000,0.0033692801,-0.049229927,-9.746912
46716000,46716000,-0.023713194,0.03440261,-9.779613
46760000,46760000,-0.054555148,0.013088278,-9.787074
46816000,46816000,-0.049345072,0.017433537,-9.78343
46864000,46864000,0.0024277903,0.02891602,-9.748785
46916000,46916000,0.028308405,-0.015214391,-9.78841
46964000,46964000,0.026384676,-0.009030409,-9.792518
47012000,47012000,0.028734908,0.047500756,-9.851962
47064000,47064000,-0.0147185195,0.038224395,-9.819674
47116000,47116000,0.008962864,0.048408866,-9.825963
47164000,47164000,0.03675396,0.036737893,-9.773062
47216000,47216000,-0.04554653,0.040354162,-9.878017
47260000,47260000,-0.021986712,0.047056872,-9.818879
47316000,47316000,0.028287102,0.022935102,-9.7838
47364000,47364000,0.04824744,-0.026309218,-9.7668915
47416000,47416000,0.037983723,0.016050253,-9.781122
47464000,47464000,0.02887858,-0.008997148,-9.835358
47516000,47516000,-0.0028700344,0.027571052,-9.763327
47564000,47564000,0.016839521,-0.0072448542,-9.805285
47612000,47612000,0.00043565873,0.038148526,-9.837728
47664000,47664000,-0.023063686,0.031727023,-9.766745
47716000,47716000,0.007960156,0.039079633,-9.758345
47764000,47764000,0.008289484,0.029574782,-9.790491
47816000,47816000,-0.047155976,-0.0054198755,-9.759042
47864000,47864000,-0.015420118,0.05676888,-9.799733
47916000,47916000,0.0032233903,0.0012348243,-9.801828
47964000,47964000,0.044453718,0.04199531,-9.791888
48016000,48016000,-0.019327605,0.013897568,-9.794023
48064000,48064000,-0.053999323,0.013527276,-9.758521
48116000,48116000,-0.02619393,-0.011303517,-9.774766
48164000,48164000,-0.0018519538,-0.03354001,-9.787914
48216000,48216000,0.043815646,-0.025849747,-9.785678
48264000,48264000,0.04206438,-0.006041406,-9.813387
48316000,48316000,0.032753646,0.010803804,-9.768681
48364000,48364000,0.01638644,-0.008977058,-9.771795
48416000,48416000,-0.025292851,0.0049591437,-9.775317
48464000,48464000,-0.006896499,-0.015232319,-9.783074
48516000,48516000,-0.058073297,-0.005279121,-9.815527
48564000,48564000,-0.035707004,0.022662379,-9.737004
48616000,48616000,-0.0406647,-0.043089166,-9.759702
48664000,48664000,-0.036706455,0.02734989,-9.763415
48716000,48716000,-0.04464077,0.019174613,-9.753751
48764000,48764000,0.026251845,0.0050661042,-9.804212
48816000,48816000,-0.022552714,-0.037080184,-9.761633
48864000,48864000,-0.05914054,0.013449509,-9.793518
48916000,48916000,0.005524646,0.02843146,-9.75118
48964000,48964000,0.03303052,-0.016419489,-9.770664
49016000,49016000,-0.035609774,0.056403495,-9.825542
49064000,49064000,0.020651892,0.066586405,-9.791409
49116000,49116000,0.023517035,0.03677161,-9.799088
49164000,49164000,0.022220645,-0.0037860023,-9.821288
49216000,49216000,-0.0050685387,-0.017770495,-9.749489
49264000,49264000,0.046837687,0.02355152,-9.792774
49316000,49316000,0.00018842798,-0.011938224,-9.691142
49364000,49364000,0.004134291,-0.008637492,-9.761667
49416000,49416000,-0.051452477,0.027327226,-9.753197
49464000,49464000,-0.021892544,-0.05021848,-9.757895
49516000,49516000,0.01331403,0.032555953,-9.803266
49564000,49564000,0.018277803,0.042328887,-9.715016
49616000,49616000,0.009357544,0.03305877,-9.789725
49664000,49664000,-0.014088311,0.014285589,-9.775734
49716000,49716000,-0.054030072,0.061420016,-9.828941
49764000,49764000,-0.032249454,-0.025412163,-9.753129
49816000,49816000,0.004304379,-0.06074895,-9.79863
49860000,49860000,-0.015118828,-0.00066814665,-9.8217
49916000,49916000,-0.036521908,0.08014068,-9.820448
49964000,49964000,0.023528423,0.008843938,-9.811621
50016000,50016000,0.018141638,0.02524178,-9.737234
50064000,50064000,-0.0063691614,0.03661045,-9.802908
50116000,50116000,0.043248836,0.054848593,-9.780639
50164000,50164000,0.013751333,0.034933664,-9.748842
50216000,50216000,0.016972054,0.04688139,-9.832336
50264000,50264000,-0.065146565,0.010406182,-9.820055
50316000,50316000,0.060607467,0.047340237,-9.751401
50364000,50364000,0.0044544023,-0.0037346757,-9.793083
50416000,50416000,0.00011423882,0.030014198,-9.788619
50464000,50464000,-0.030220632,0.002894041,-9.8379755
50516000,50516000,0.012620993,0.07156666,-9.791356
50564000,50564000,-0.01625524,0.06185674,-9.76135
50616000,50616000,-0.018786663,0.001809475,-9.828323
50660000,50660000,0.009594914,-0.008716049,-9.79056
50716000,50716000,-0.0048648654,0.048749354,-9.819293
50764000,50764000,-0.026652554,0.023395386,-9.731981
50816000,50816000,-0.07379663,-0.047970846,-9.798227
50864000,50864000,-0.030555483,0.015826289,-9.792407
50916000,50916000,-0.032103114,0.020042589,-9.767765
50964000,50964000,-0.011150975,0.06244424,-9.747085
51016000,51016000,0.03260745,-0.00921092,-9.732771
51064000,51064000,-0.016878067,0.004743486,-9.742454
51116000,51116000,0.023887325,0.052573513,-9.741946
51164000,51164000,-0.0045592748,0.029166542,-9.760745
51216000,51216000,-0.023142641,0.016562536,-9.785313
51264000,51264000,-0.00457294,-0.007640587,-9.739641
51316000,51316000,-0.0042258203,-0.020432916,-9.768352
51364000,51364000,0.0016936813,-0.04139967,-9.8015785
51416000,51416000,-0.047010604,0.009884312,-9.757708
51460000,51460000,-0.017950073,-0.023792936,-9.777399
51516000,51516000,0.012942158,0.04918727,-9.745018
51564000,51564000,-0.010598831,-0.012763965,-9.771196
51616000,51616000,-0.010370341,0.085419975,-9.818117
51660000,51660000,0.0048986003,0.019917708,-9.734979
51716000,51716000,-0.060781837,0.02299266,-9.778595
51764000,51764000,-0.011972913,-0.0047489344,-9.791301
51816000,51816000,-0.025788799,-0.016478278,-9.766219
51864000,51864000,0.00994436,0.011986749,-9.766139
51916000,51916000,-0.03927172,0.049728572,-9.803278
51964000,51964000,0.0032564397,-0.018361479,-9.776174
52016000,52016000,0.013425695,0.058349073,-9.801971
52064000,52064000,-0.054526713,0.05801484,-9.759474
52116000,52116000,0.001669893,-0.031239148,-9.708814
52164000,52164000,-0.019639187,-0.004665629,-9.779012
52216000,52216000,-0.032662585,0.0154347895,-9.753771
52264000,52264000,-0.007623736,0.01967019,-9.794615
52316000,52316000,-0.007833924,0.0032858348,-9.822791
52364000,52364000,0.016625991,-0.0016463264,-9.740691
52416000,52416000,-0.039467715,-0.09696146,-9.822658
52464000,52464000,-0.019446569,-0.03018928,-9.857426
52516000,52516000,0.08652737,-0.005393459,-9.778834
52564000,52564000,-0.05929424,0.046014473,-9.733685
52616000,52616000,0.007377955,0.009714678,-9.757223
52664000,52664000,0.025374962,-0.05643822,-9.7498255
52716000,52716000,0.0093921255,0.026422763,-9.8127985
52764000,52764000,-0.01921824,0.003253103,-9.727855
52816000,52816000,-0.055039972,-0.016392145,-9.703121
52864000,52864000,-0.042165905,0.031346258,-9.747656
52916000,52916000,-0.016074393,-0.012854989,-9.823816
52964000,52964000,0.03858075,0.047200073,-9.775609
53016000,53016000,0.054806598,-0.0011622093,-9.765799
53060000,53060000,0.034926567,0.018973127,-9.787207
53116000,53116000,-0.02803904,0.040353447,-9.762514
53164000,53164000,0.0042822845,-0.038509745,-9.808658
53216000,53216000,-0.0035504429,-0.014520051,-9.781885
53264000,53264000,-0.018574554,-0.032046136,-9.727075
53316000,53316000,-0.007770166,-0.016297217,-9.796515
53364000,53364000,0.040651508,0.027537998,-9.7352915
53416000,53416000,0.03637315,0.016283253,-9.758325
53464000,53464000,0.061736465,0.013401797,-9.767741
53516000,53516000,-0.033727046,-0.063488275,-9.78874
53564000,53564000,-0.013866922,0.0243599,-9.802757
53616000,53616000,0.024361607,-0.05272532,-9.789772
53664000,53664000,-0.0035269025,0.029651655,-9.807686
53716000,53716000,-0.016380813,0.048669342,-9.782873
53764000,53764000,-0.01725404,-0.023266882,-9.817743
53816000,53816000,0.002380877,-0.021603081,-9.716928
53864000,53864000,-0.027527252,0.025635857,-9.680565
53916000,53916000,-0.012361808,-0.007144504,-9.791657
53964000,53964000,0.029248822,0.05730851,-9.783463
54012000,54012000,0.0036887177,0.08643145,-9.737654
54064000,54064000,0.00849736,3.891997e-05,-9.752256
54116000,54116000,0.008735358,0.0041241236,-9.73602
54164000,54164000,0.011968053,0.029242674,-9.710384
54216000,54216000,-0.0184579,-0.010504734,-9.807503
54264000,54264000,-0.0069647664,0.04361204,-9.751651
54316000,54316000,0.0128177535,-0.010195365,-9.752333
54364000,54364000,-0.0164147,-0.012422878,-9.795681
54416000,54416000,-0.019342521,-0.044084117,-9.743863
54464000,54464000,-0.014542087,0.015952302,-9.770689
54516000,54516000,-0.024024831,0.045260254,-9.76063
54564000,54564000,0.026764236,0.023387553,-9.784521
54616000,54616000,0.030551387,0.009428935,-9.756176
54664000,54664000,0.00044959318,0.061480872,-9.763647
54716000,54716000,-0.048863716,0.0441401,-9.77836
54764000,54764000,0.03203447,0.02769336,-9.7904415
54816000,54816000,0.053407393,0.04640296,-9.767326
54864000,54864000,-0.024450589,0.028772322,-9.801959
54916000,54916000,-0.047239605,0.0039286437,-9.757733
54964000,54964000,0.021642417,0.0018280623,-9.802019
55016000,55016000,0.043541875,0.019116895,-9.760433
55064000,55064000,-0.014004331,0.019693628,-9.763943
55116000,55116000,0.011858961,0.060564294,-9.727325
55164000,55164000,0.024867572,-0.04589703,-9.756155
55212000,55212000,-0.028784383,0.00995667,-9.747337
55260000,55260000,0.007783637,-0.015956653,-9.839901
55316000,55316000,-0.04347551,0.035670675,-9.78096
55364000,55364000,-0.006777836,0.069920436,-9.775253
55416000,55416000,-0.015778707,0.015927473,-9.759024
55464000,55464000,0.009132279,-0.0055092936,-9.799087
55516000,55516000,0.008470083,0.038095627,-9.836092
55564000,55564000,0.04266239,-0.06669636,-9.784641
55616000,55616000,-0.035774596,-0.042847678,-9.837093
55664000,55664000,-0.016082486,0.0042688153,-9.8051605
55716000,55716000,-0.011583161,0.08708157,-9.794631
55764000,55764000,-0.01388935,-0.033194244,-9.790302
55816000,55816000,-0.0033602077,-0.036106613,-9.779747
55864000,55864000,0.007390265,0.0022522833,-9.727899
55916000,55916000,-0.017509285,0.0020010353,-9.757511
55964000,55964000,-0.027082242,0.023985596,-9.758372
56016000,56016000,-0.05116732,0.0071152896,-9.716389
56064000,56064000,-0.039790034,-0.051296536,-9.760248
56116000,56116000,-0.028900739,0.019445505,-9.776886
56164000,56164000,0.0052744695,-0.036712088,-9.8153
56216000,56216000,-0.059923604,0.011610732,-9.778962
56264000,56264000,0.03634055,0.068940155,-9.838856
56316000,56316000,-0.03412215,0.010788517,-9.80424
56364000,56364000,-0.012966923,-0.015629087,-9.74613
56416000,56416000,-0.044156335,0.03400012,-9.796433
56464000,56464000,-0.056687873,-0.027493354,-9.782555
56516000,56516000,-0.04724482,-0.014456002,-9.790334
56564000,56564000,0.0005548631,0.05060693,-9.798899
56616000,56616000,0.0005958406,0.0091852015,-9.8205595
56660000,56660000,-0.03787552,-0.025421545,-9.769205
56716000,56716000,-0.029108133,-0.04113388,-9.816006
56764000,56764000,-0.02991973,0.032296255,-9.779545
56816000,56816000,-0.040734306,-0.022291847,-9.763213
56864000,56864000,-0.015142825,0.034374602,-9.800121
56916000,56916000,-0.018794527,-0.016586397,-9.816824
56964000,56964000,0.0010024803,0.005762008,-9.775288
57016000,57016000,0.04086952,0.031242514,-9.767704
57064000,57064000,-0.024079248,0.010272688,-9.827095
57116000,57116000,-0.0013441858,-0.020385187,-9.786286
57164000,57164000,-0.020449994,0.018540656,-9.758628
57212000,57212000,-0.01872984,0.044815145,-9.763925
57264000,57264000,-0.08243273,-0.01800796,-9.781609
57316000,57316000,0.0066981902,0.032242093,-9.782485
57364000,57364000,-0.029849675,-0.013986434,-9.766206
57416000,57416000,-0.031472042,0.007097076,-9.765017
57464000,57464000,0.0058641527,-0.011023816,-9.791675
57516000,57516000,-0.0030693691,0.0034138053,-9.857184
57564000,57564000,-0.03399941,-0.00073294574,-9.810565
57616000,57616000,-0.0341089,-0.02004523,-9.736366
57660000,57660000,0.0052866368,0.087132834,-9.771459
57716000,57716000,0.044608254,-0.0093033,-9.766409
57764000,57764000,-0.006719047,0.045097105,-9.793394
57816000,57816000,0.011088852,-0.025733035,-9.755839
57864000,57864000,-0.0039655915,0.036313105,-9.755666
57916000,57916000,0.053447396,-0.005427749,-9.762774
57964000,57964000,-5.7492405e-05,-0.0138769895,-9.775268
58016000,58016000,-0.023508113,-0.082655974,-9.768158
58064000,58064000,-0.032344334,0.05518636,-9.806311
58116000,58116000,0.03453594,-0.011432912,-9.814293
58164000,58164000,0.003422577,0.07379534,-9.795397
58216000,58216000,0.007130121,0.014176832,-9.785676
58264000,58264000,-0.0038739084,0.044350814,-9.790165
58316000,58316000,0.0061520957,0.014129015,-9.746613
58364000,58364000,-0.045191795,-0.0351576,-9.770737
58416000,58416000,-0.0084158275,-0.022692695,-9.805526
58464000,58464000,-0.036274977,0.007935551,-9.7857065
58516000,58516000,-0.024956854,-0.022092244,-9.819073
58564000,58564000,-0.06564833,0.01633932,-9.782354
58616000,58616000,0.035868995,-0.042253207,-9.758935
58664000,58664000,0.012037289,0.024355685,-9.773741
58716000,58716000,-0.0636199,-0.02287357,-9.808109
58764000,58764000,-0.012168789,0.018622153,-9.829935
58816000,58816000,-0.008040186,0.0077080196,-9.791797
58864000,58864000,-0.038155798,-0.0011393903,-9.776718
58916000,58916000,-0.014887444,-0.020665782,-9.853469
58964000,58964000,-0.041613903,0.046088718,-9.768631
59016000,59016000,0.0034406567,0.012083231,-9.821606
59064000,59064000,-0.03493128,-0.009184185,-9.818093
59116000,59116000,-0.01052958,-0.03522511,-9.796122
59164000,59164000,-0.037685998,0.0013335925,-9.773451
59216000,59216000,-0.017895948,-0.025946796,-9.763804
59264000,59264000,0.0066685583,0.056688398,-9.770382
59316000,59316000,-0.0070169764,-0.003395979,-9.771599
59364000,59364000,-0.0495294,-0.05781374,-9.830225
59412000,59412000,-0.0016754344,-0.0011523848,-9.778646
59464000,59464000,-0.016791342,-0.07385114,-9.78137
59516000,59516000,0.007737395,0.01943326,-9.73749
59564000,59564000,-0.013132267,0.03265395,-9.818186
59616000,59616000,-0.021566957,-0.008757088,-9.796854
59664000,59664000,0.05313437,-0.026740976,-9.810784
59716000,59716000,0.032744158,-0.010272146,-9.763383
59764000,59764000,-0.0064655044,-0.09071927,-9.764001
59816000,59816000,0.0053629708,-0.034012306,-9.800682
59864000,59864000,-0.043087978,0.021864891,-9.784388
59912000,59912000,0.004544137,0.03819424,-9.785078
59964000,59964000,-0.0047420384,-0.013496487,-9.786597
60016000,60016000,-0.012464355,-0.023964975,-9.814306
60060000,60060000,-0.014500413,0.02290858,-9.805262
60116000,60116000,-0.05212027,0.015842391,-9.846264
