timestamp,timestamp_sample,windspeed_north,windspeed_east,variance_north,variance_east,tas_innov,tas_innov_var,beta_innov,beta_innov_var
99724000,99644000,-0.0070559536,0.0021916155,0.9514689,0.99531794,-0.40361023,1.9967226,0.009614597,0.0901096
99732000,99652000,-0.0070559536,0.0021916155,0.9514689,0.99531794,-0.40361023,1.9967226,0.009614597,0.0901096
99740000,99660000,-0.23855257,-0.41184616,13.733744,3.2298906,-0.41463757,2.9862783,0.009614597,0.0901096
99748000,99668000,-0.23855257,-0.41184616,13.733744,3.2298906,-0.41463757,2.9862783,0.009614597,0.0901096
99756000,99676000,-0.23855257,-0.41184616,13.733744,3.2298906,-0.41463757,2.9862783,0.009614597,0.0901096
99764000,99684000,-0.23855257,-0.41184616,13.733744,3.2298906,-0.41463757,2.9862783,0.009614597,0.0901096
99772000,99692000,-0.23855257,-0.41184616,13.733744,3.2298906,-0.41463757,2.9862783,0.009614597,0.0901096
99780000,99700000,-0.23855257,-0.41184616,13.733744,3.2298906,-0.41463757,2.9862783,0.009614597,0.0901096
99788000,99708000,-0.23855257,-0.41184616,13.733744,3.2298906,-0.41463757,2.9862783,0.009614597,0.0901096
99796000,99716000,-0.23855257,-0.41184616,13.733744,3.2298906,-0.41463757,2.9862783,0.009614597,0.0901096
99804000,99724000,-0.23855257,-0.41184616,13.733744,3.2298906,-0.41463757,2.9862783,0.009614597,0.0901096
99812000,99732000,-0.23855257,-0.41184616,13.733744,3.2298906,-0.41463757,2.9862783,0.009614597,0.0901096
99820000,99740000,-0.23855257,-0.41184616,13.733744,3.2298906,-0.41463757,2.9862783,0.009614597,0.0901096
99828000,99748000,-0.23855257,-0.41184616,13.733744,3.2298906,-0.41463757,2.9862783,0.009614597,0.0901096
99836000,99756000,-0.23855257,-0.41184616,13.733744,3.2298906,-0.41463757,2.9862783,0.009614597,0.0901096
99844000,99764000,-0.21968184,-0.34541768,13.659395,2.30858,0.13803768,3.978256,0.009614597,0.0901096
99852000,99772000,-0.21968184,-0.34541768,13.659395,2.30858,0.13803768,3.978256,0.009614597,0.0901096
99860000,99780000,-0.21968184,-0.34541768,13.659395,2.30858,0.13803768,3.978256,0.009614597,0.0901096
99868000,99788000,-0.21968184,-0.34541768,13.659395,2.30858,0.13803768,3.978256,0.009614597,0.0901096
99876000,99796000,-0.23385113,-0.34087187,8.235853,1.7503529,0.13803768,3.978256,0.0023570643,0.1500822
99884000,99804000,-0.23385113,-0.34087187,8.235853,1.7503529,0.13803768,3.978256,0.0023570643,0.1500822
99892000,99812000,-0.23385113,-0.34087187,8.235853,1.7503529,0.13803768,3.978256,0.0023570643,0.1500822
99900000,99820000,-0.23385113,-0.34087187,8.235853,1.7503529,0.13803768,3.978256,0.0023570643,0.1500822
99908000,99828000,-0.23385113,-0.34087187,8.235853,1.7503529,0.13803768,3.978256,0.0023570643,0.1500822
99916000,99836000,-0.23385113,-0.34087187,8.235853,1.7503529,0.13803768,3.978256,0.0023570643,0.1500822
99924000,99844000,-0.23385113,-0.34087187,8.235853,1.7503529,0.13803768,3.978256,0.0023570643,0.1500822
99932000,99852000,-0.23385113,-0.34087187,8.235853,1.7503529,0.13803768,3.978256,0.0023570643,0.1500822
99940000,99860000,-0.232011,-0.3339019,8.214114,1.4384642,0.021585464,2.9913151,0.0023570643,0.1500822
99948000,99868000,-0.232011,-0.3339019,8.214114,1.4384642,0.021585464,2.9913151,0.0023570643,0.1500822
99956000,99876000,-0.232011,-0.3339019,8.214114,1.4384642,0.021585464,2.9913151,0.0023570643,0.1500822
99964000,99884000,-0.232011,-0.3339019,8.214114,1.4384642,0.021585464,2.9913151,0.0023570643,0.1500822
99972000,99892000,-0.232011,-0.3339019,8.214114,1.4384642,0.021585464,2.9913151,0.0023570643,0.1500822
99980000,99900000,-0.232011,-0.3339019,8.214114,1.4384642,0.021585464,2.9913151,0.0023570643,0.1500822
99988000,99908000,-0.232011,-0.3339019,8.214114,1.4384642,0.021585464,2.9913151,0.0023570643,0.1500822
99996000,99916000,-0.232011,-0.3339019,8.214114,1.4384642,0.021585464,2.9913151,0.0023570643,0.1500822
100004000,99924000,-0.232011,-0.3339019,8.214114,1.4384642,0.021585464,2.9913151,0.0023570643,0.1500822
100012000,99932000,-0.232011,-0.3339019,8.214114,1.4384642,0.021585464,2.9913151,0.0023570643,0.1500822
100020000,99940000,-0.232011,-0.3339019,8.214114,1.4384642,0.021585464,2.9913151,0.0023570643,0.1500822
100028000,99948000,-0.23528469,-0.3328588,6.028583,1.2165653,0.021585464,2.9913151,0.0007768718,0.123079255
100036000,99956000,-0.23777878,-0.34344968,6.019777,1.0577728,-0.04336357,2.6620443,0.0007768718,0.123079255
100044000,99964000,-0.23777878,-0.34344968,6.019777,1.0577728,-0.04336357,2.6620443,0.0007768718,0.123079255
100052000,99972000,-0.23777878,-0.34344968,6.019777,1.0577728,-0.04336357,2.6620443,0.0007768718,0.123079255
100060000,99980000,-0.23777878,-0.34344968,6.019777,1.0577728,-0.04336357,2.6620443,0.0007768718,0.123079255
100068000,99988000,-0.23777878,-0.34344968,6.019777,1.0577728,-0.04336357,2.6620443,0.0007768718,0.123079255
100076000,99996000,-0.23777878,-0.34344968,6.019777,1.0577728,-0.04336357,2.6620443,0.0007768718,0.123079255
100084000,100004000,-0.23777878,-0.34344968,6.019777,1.0577728,-0.04336357,2.6620443,0.0007768718,0.123079255
100092000,100012000,-0.23777878,-0.34344968,6.019777,1.0577728,-0.04336357,2.6620443,0.0007768718,0.123079255
100100000,100020000,-0.23777878,-0.34344968,6.019777,1.0577728,-0.04336357,2.6620443,0.0007768718,0.123079255
100108000,100028000,-0.23777878,-0.34344968,6.019777,1.0577728,-0.04336357,2.6620443,0.0007768718,0.123079255
100116000,100036000,-0.23777878,-0.34344968,6.019777,1.0577728,-0.04336357,2.6620443,0.0007768718,0.123079255
100124000,100044000,-0.23777878,-0.34344968,6.019777,1.0577728,-0.04336357,2.6620443,0.0007768718,0.123079255
100132000,100052000,-0.23777878,-0.34344968,6.019777,1.0577728,-0.04336357,2.6620443,0.0007768718,0.123079255
100140000,100060000,-0.23902456,-0.35056573,6.016742,0.9587518,-0.03570366,2.4927251,0.0007768718,0.123079255
100148000,100068000,-0.23902456,-0.35056573,6.016742,0.9587518,-0.03570366,2.4927251,0.0007768718,0.123079255
100156000,100076000,-0.23902456,-0.35056573,6.016742,0.9587518,-0.03570366,2.4927251,0.0007768718,0.123079255
100164000,100084000,-0.23902456,-0.35056573,6.016742,0.9587518,-0.03570366,2.4927251,0.0007768718,0.123079255
100172000,100092000,-0.23902456,-0.35056573,6.016742,0.9587518,-0.03570366,2.4927251,0.0007768718,0.123079255
100180000,100100000,-0.24080288,-0.3500067,4.817889,0.840281,-0.03570366,2.4927251,0.000545179,0.1126745
100188000,100108000,-0.24080288,-0.3500067,4.817889,0.840281,-0.03570366,2.4927251,0.000545179,0.1126745
100196000,100116000,-0.24080288,-0.3500067,4.817889,0.840281,-0.03570366,2.4927251,0.000545179,0.1126745
100204000,100124000,-0.24080288,-0.3500067,4.817889,0.840281,-0.03570366,2.4927251,0.000545179,0.1126745
100212000,100132000,-0.24080288,-0.3500067,4.817889,0.840281,-0.03570366,2.4927251,0.000545179,0.1126745
100220000,100140000,-0.24080288,-0.3500067,4.817889,0.840281,-0.03570366,2.4927251,0.000545179,0.1126745
100228000,100148000,-0.24080288,-0.3500067,4.817889,0.840281,-0.03570366,2.4927251,0.000545179,0.1126745
100236000,100156000,-0.23983568,-0.34354067,4.8163905,0.7732997,0.038658142,2.3941994,0.000545179,0.1126745
100244000,100164000,-0.23983568,-0.34354067,4.8163905,0.7732997,0.038658142,2.3941994,0.000545179,0.1126745
100252000,100172000,-0.23983568,-0.34354067,4.8163905,0.7732997,0.038658142,2.3941994,0.000545179,0.1126745
100260000,100180000,-0.23983568,-0.34354067,4.8163905,0.7732997,0.038658142,2.3941994,0.000545179,0.1126745
100268000,100188000,-0.23983568,-0.34354067,4.8163905,0.7732997,0.038658142,2.3941994,0.000545179,0.1126745
100276000,100196000,-0.23983568,-0.34354067,4.8163905,0.7732997,0.038658142,2.3941994,0.000545179,0.1126745
100284000,100204000,-0.23983568,-0.34354067,4.8163905,0.7732997,0.038658142,2.3941994,0.000545179,0.1126745
100292000,100212000,-0.23983568,-0.34354067,4.8163905,0.7732997,0.038658142,2.3941994,0.000545179,0.1126745
100300000,100220000,-0.23983568,-0.34354067,4.8163905,0.7732997,0.038658142,2.3941994,0.000545179,0.1126745
100308000,100228000,-0.23983568,-0.34354067,4.8163905,0.7732997,0.038658142,2.3941994,0.000545179,0.1126745
100316000,100236000,-0.23983568,-0.34354067,4.8163905,0.7732997,0.038658142,2.3941994,0.000545179,0.1126745
100324000,100244000,-0.23983568,-0.34354067,4.8163905,0.7732997,0.038658142,2.3941994,0.000545179,0.1126745
100332000,100252000,-0.23864757,-0.34391138,4.045018,0.6982038,0.038658142,2.3941994,-0.00044332907,0.107399374
100340000,100260000,-0.23677807,-0.32808015,4.0443387,0.64948034,0.10945511,2.3290598,-0.00044332907,0.107399374
100348000,100268000,-0.23677807,-0.32808015,4.0443387,0.64948034,0.10945511,2.3290598,-0.00044332907,0.107399374
100356000,100276000,-0.23677807,-0.32808015,4.0443387,0.64948034,0.10945511,2.3290598,-0.00044332907,0.107399374
100364000,100284000,-0.23677807,-0.32808015,4.0443387,0.64948034,0.10945511,2.3290598,-0.00044332907,0.107399374
100372000,100292000,-0.23677807,-0.32808015,4.0443387,0.64948034,0.10945511,2.3290598,-0.00044332907,0.107399374
100380000,100300000,-0.23677807,-0.32808015,4.0443387,0.64948034,0.10945511,2.3290598,-0.00044332907,0.107399374
100388000,100308000,-0.23677807,-0.32808015,4.0443387,0.64948034,0.10945511,2.3290598,-0.00044332907,0.107399374
100396000,100316000,-0.23677807,-0.32808015,4.0443387,0.64948034,0.10945511,2.3290598,-0.00044332907,0.107399374
100404000,100324000,-0.23677807,-0.32808015,4.0443387,0.64948034,0.10945511,2.3290598,-0.00044332907,0.107399374
100412000,100332000,-0.23677807,-0.32808015,4.0443387,0.64948034,0.10945511,2.3290598,-0.00044332907,0.107399374
100420000,100340000,-0.23677807,-0.32808015,4.0443387,0.64948034,0.10945511,2.3290598,-0.00044332907,0.107399374
100428000,100348000,-0.23677807,-0.32808015,4.0443387,0.64948034,0.10945511,2.3290598,-0.00044332907,0.107399374
100436000,100356000,-0.23677807,-0.32808015,4.0443387,0.64948034,0.10945511,2.3290598,-0.00044332907,0.107399374
100444000,100364000,-0.23576784,-0.312135,4.044187,0.61174214,0.124017715,2.2829285,-0.00044332907,0.107399374
100452000,100372000,-0.23576784,-0.312135,4.044187,0.61174214,0.124017715,2.2829285,-0.00044332907,0.107399374
100460000,100380000,-0.23576784,-0.312135,4.044187,0.61174214,0.124017715,2.2829285,-0.00044332907,0.107399374
100468000,100388000,-0.23576784,-0.312135,4.044187,0.61174214,0.124017715,2.2829285,-0.00044332907,0.107399374
100476000,100396000,-0.23576784,-0.312135,4.044187,0.61174214,0.124017715,2.2829285,-0.00044332907,0.107399374
100484000,100404000,-0.23223805,-0.31322116,3.4974494,0.55997455,0.124017715,2.2829285,-0.0015415006,0.104272425
100492000,100412000,-0.23223805,-0.31322116,3.4974494,0.55997455,0.124017715,2.2829285,-0.0015415006,0.104272425
100500000,100420000,-0.23223805,-0.31322116,3.4974494,0.55997455,0.124017715,2.2829285,-0.0015415006,0.104272425
100508000,100428000,-0.23223805,-0.31322116,3.4974494,0.55997455,0.124017715,2.2829285,-0.0015415006,0.104272425
100516000,100436000,-0.23223805,-0.31322116,3.4974494,0.55997455,0.124017715,2.2829285,-0.0015415006,0.104272425
100524000,100444000,-0.23223805,-0.31322116,3.4974494,0.55997455,0.124017715,2.2829285,-0.0015415006,0.104272425
100532000,100452000,-0.23223805,-0.31322116,3.4974494,0.55997455,0.124017715,2.2829285,-0.0015415006,0.104272425
100540000,100460000,-0.23138882,-0.2933703,3.497395,0.5302247,0.17237663,2.2432795,-0.0015415006,0.104272425
100548000,100468000,-0.23138882,-0.2933703,3.497395,0.5302247,0.17237663,2.2432795,-0.0015415006,0.104272425
100556000,100476000,-0.23138882,-0.2933703,3.497395,0.5302247,0.17237663,2.2432795,-0.0015415006,0.104272425
100564000,100484000,-0.23138882,-0.2933703,3.497395,0.5302247,0.17237663,2.2432795,-0.0015415006,0.104272425
100572000,100492000,-0.23138882,-0.2933703,3.497395,0.5302247,0.17237663,2.2432795,-0.0015415006,0.104272425
100580000,100500000,-0.23138882,-0.2933703,3.497395,0.5302247,0.17237663,2.2432795,-0.0015415006,0.104272425
100588000,100508000,-0.23138882,-0.2933703,3.497395,0.5302247,0.17237663,2.2432795,-0.0015415006,0.104272425
100596000,100516000,-0.23138882,-0.2933703,3.497395,0.5302247,0.17237663,2.2432795,-0.0015415006,0.104272425
100604000,100524000,-0.23138882,-0.2933703,3.497395,0.5302247,0.17237663,2.2432795,-0.0015415006,0.104272425
100612000,100532000,-0.23138882,-0.2933703,3.497395,0.5302247,0.17237663,2.2432795,-0.0015415006,0.104272425
100620000,100540000,-0.23138882,-0.2933703,3.497395,0.5302247,0.17237663,2.2432795,-0.0015415006,0.104272425
100628000,100548000,-0.23138882,-0.2933703,3.497395,0.5302247,0.17237663,2.2432795,-0.0015415006,0.104272425
100636000,100556000,-0.2293132,-0.27860054,3.0857272,0.46785057,0.14683533,2.2163131,-0.0010584978,0.10219132
100644000,100564000,-0.2293132,-0.27860054,3.0857272,0.46785057,0.14683533,2.2163131,-0.0010584978,0.10219132
100652000,100572000,-0.2293132,-0.27860054,3.0857272,0.46785057,0.14683533,2.2163131,-0.0010584978,0.10219132
100660000,100580000,-0.2293132,-0.27860054,3.0857272,0.46785057,0.14683533,2.2163131,-0.0010584978,0.10219132
100668000,100588000,-0.2293132,-0.27860054,3.0857272,0.46785057,0.14683533,2.2163131,-0.0010584978,0.10219132
100676000,100596000,-0.2293132,-0.27860054,3.0857272,0.46785057,0.14683533,2.2163131,-0.0010584978,0.10219132
100684000,100604000,-0.2293132,-0.27860054,3.0857272,0.46785057,0.14683533,2.2163131,-0.0010584978,0.10219132
100692000,100612000,-0.2293132,-0.27860054,3.0857272,0.46785057,0.14683533,2.2163131,-0.0010584978,0.10219132
100700000,100620000,-0.2293132,-0.27860054,3.0857272,0.46785057,0.14683533,2.2163131,-0.0010584978,0.10219132
100708000,100628000,-0.2293132,-0.27860054,3.0857272,0.46785057,0.14683533,2.2163131,-0.0010584978,0.10219132
100716000,100636000,-0.2293132,-0.27860054,3.0857272,0.46785057,0.14683533,2.2163131,-0.0010584978,0.10219132
100724000,100644000,-0.2293132,-0.27860054,3.0857272,0.46785057,0.14683533,2.2163131,-0.0010584978,0.10219132
100732000,100652000,-0.2293132,-0.27860054,3.0857272,0.46785057,0.14683533,2.2163131,-0.0010584978,0.10219132
100740000,100660000,-0.22947036,-0.2635185,3.085725,0.4478198,0.15787125,2.1947477,-0.0010584978,0.10219132
100748000,100668000,-0.22947036,-0.2635185,3.085725,0.4478198,0.15787125,2.1947477,-0.0010584978,0.10219132
100756000,100676000,-0.22947036,-0.2635185,3.085725,0.4478198,0.15787125,2.1947477,-0.0010584978,0.10219132
100764000,100684000,-0.22947036,-0.2635185,3.085725,0.4478198,0.15787125,2.1947477,-0.0010584978,0.10219132
100772000,100692000,-0.22947036,-0.2635185,3.085725,0.4478198,0.15787125,2.1947477,-0.0010584978,0.10219132
100780000,100700000,-0.22947036,-0.2635185,3.085725,0.4478198,0.15787125,2.1947477,-0.0010584978,0.10219132
100788000,100708000,-0.22767869,-0.26405898,2.7602081,0.41819915,0.15787125,2.1947477,-0.000997006,0.100798205
100796000,100716000,-0.22767869,-0.26405898,2.7602081,0.41819915,0.15787125,2.1947477,-0.000997006,0.100798205
100804000,100724000,-0.22767869,-0.26405898,2.7602081,0.41819915,0.15787125,2.1947477,-0.000997006,0.100798205
100812000,100732000,-0.22767869,-0.26405898,2.7602081,0.41819915,0.15787125,2.1947477,-0.000997006,0.100798205
100820000,100740000,-0.22767869,-0.26405898,2.7602081,0.41819915,0.15787125,2.1947477,-0.000997006,0.100798205
100828000,100748000,-0.22767869,-0.26405898,2.7602081,0.41819915,0.15787125,2.1947477,-0.000997006,0.100798205
100836000,100756000,-0.22777739,-0.2556244,2.7602057,0.40152618,0.09638214,2.1771114,-0.000997006,0.100798205
100844000,100764000,-0.22777739,-0.2556244,2.7602057,0.40152618,0.09638214,2.1771114,-0.000997006,0.100798205
100852000,100772000,-0.22777739,-0.2556244,2.7602057,0.40152618,0.09638214,2.1771114,-0.000997006,0.100798205
100860000,100780000,-0.22777739,-0.2556244,2.7602057,0.40152618,0.09638214,2.1771114,-0.000997006,0.100798205
100868000,100788000,-0.22777739,-0.2556244,2.7602057,0.40152618,0.09638214,2.1771114,-0.000997006,0.100798205
100876000,100796000,-0.22777739,-0.2556244,2.7602057,0.40152618,0.09638214,2.1771114,-0.000997006,0.100798205
100884000,100804000,-0.22777739,-0.2556244,2.7602057,0.40152618,0.09638214,2.1771114,-0.000997006,0.100798205
100892000,100812000,-0.22777739,-0.2556244,2.7602057,0.40152618,0.09638214,2.1771114,-0.000997006,0.100798205
100900000,100820000,-0.22777739,-0.2556244,2.7602057,0.40152618,0.09638214,2.1771114,-0.000997006,0.100798205
100908000,100828000,-0.22777739,-0.2556244,2.7602057,0.40152618,0.09638214,2.1771114,-0.000997006,0.100798205
100916000,100836000,-0.22777739,-0.2556244,2.7602057,0.40152618,0.09638214,2.1771114,-0.000997006,0.100798205
100924000,100844000,-0.22777739,-0.2556244,2.7602057,0.40152618,0.09638214,2.1771114,-0.000997006,0.100798205
100932000,100852000,-0.22777739,-0.2556244,2.7602057,0.40152618,0.09638214,2.1771114,-0.000997006,0.100798205
100940000,100860000,-0.22840828,-0.2448611,2.4955888,0.36363918,0.13124084,2.1583748,0.00013950621,0.09972189
100948000,100868000,-0.22840828,-0.2448611,2.4955888,0.36363918,0.13124084,2.1583748,0.00013950621,0.09972189
100956000,100876000,-0.22840828,-0.2448611,2.4955888,0.36363918,0.13124084,2.1583748,0.00013950621,0.09972189
100964000,100884000,-0.22840828,-0.2448611,2.4955888,0.36363918,0.13124084,2.1583748,0.00013950621,0.09972189
100972000,100892000,-0.22840828,-0.2448611,2.4955888,0.36363918,0.13124084,2.1583748,0.00013950621,0.09972189
100980000,100900000,-0.22840828,-0.2448611,2.4955888,0.36363918,0.13124084,2.1583748,0.00013950621,0.09972189
100988000,100908000,-0.22840828,-0.2448611,2.4955888,0.36363918,0.13124084,2.1583748,0.00013950621,0.09972189
100996000,100916000,-0.22840828,-0.2448611,2.4955888,0.36363918,0.13124084,2.1583748,0.00013950621,0.09972189
101004000,100924000,-0.22840828,-0.2448611,2.4955888,0.36363918,0.13124084,2.1583748,0.00013950621,0.09972189
101012000,100932000,-0.22840828,-0.2448611,2.4955888,0.36363918,0.13124084,2.1583748,0.00013950621,0.09972189
101020000,100940000,-0.22840828,-0.2448611,2.4955888,0.36363918,0.13124084,2.1583748,0.00013950621,0.09972189
101028000,100948000,-0.22840828,-0.2448611,2.4955888,0.36363918,0.13124084,2.1583748,0.00013950621,0.09972189
101036000,100956000,-0.22871967,-0.23303322,2.4955804,0.35145858,0.15699577,2.1460083,0.00013950621,0.09972189
101044000,100964000,-0.22871967,-0.23303322,2.4955804,0.35145858,0.15699577,2.1460083,0.00013950621,0.09972189
101052000,100972000,-0.22871967,-0.23303322,2.4955804,0.35145858,0.15699577,2.1460083,0.00013950621,0.09972189
101060000,100980000,-0.22871967,-0.23303322,2.4955804,0.35145858,0.15699577,2.1460083,0.00013950621,0.09972189
101068000,100988000,-0.22871967,-0.23303322,2.4955804,0.35145858,0.15699577,2.1460083,0.00013950621,0.09972189
101076000,100996000,-0.22871967,-0.23303322,2.4955804,0.35145858,0.15699577,2.1460083,0.00013950621,0.09972189
101084000,101004000,-0.22871967,-0.23303322,2.4955804,0.35145858,0.15699577,2.1460083,0.00013950621,0.09972189
101092000,101012000,-0.2297839,-0.23271729,2.2747717,0.33199883,0.15699577,2.1460083,0.0007123115,0.09892198
101100000,101020000,-0.2297839,-0.23271729,2.2747717,0.33199883,0.15699577,2.1460083,0.0007123115,0.09892198
101108000,101028000,-0.2297839,-0.23271729,2.2747717,0.33199883,0.15699577,2.1460083,0.0007123115,0.09892198
101116000,101036000,-0.2297839,-0.23271729,2.2747717,0.33199883,0.15699577,2.1460083,0.0007123115,0.09892198
101124000,101044000,-0.2297839,-0.23271729,2.2747717,0.33199883,0.15699577,2.1460083,0.0007123115,0.09892198
101132000,101052000,-0.2297839,-0.23271729,2.2747717,0.33199883,0.15699577,2.1460083,0.0007123115,0.09892198
101140000,101060000,-0.22987999,-0.22739448,2.2747684,0.32151145,0.075956345,2.1355662,0.0007123115,0.09892198
101148000,101068000,-0.22987999,-0.22739448,2.2747684,0.32151145,0.075956345,2.1355662,0.0007123115,0.09892198
101156000,101076000,-0.22987999,-0.22739448,2.2747684,0.32151145,0.075956345,2.1355662,0.0007123115,0.09892198
101164000,101084000,-0.22987999,-0.22739448,2.2747684,0.32151145,0.075956345,2.1355662,0.0007123115,0.09892198
101172000,101092000,-0.22987999,-0.22739448,2.2747684,0.32151145,0.075956345,2.1355662,0.0007123115,0.09892198
101180000,101100000,-0.22987999,-0.22739448,2.2747684,0.32151145,0.075956345,2.1355662,0.0007123115,0.09892198
101188000,101108000,-0.22987999,-0.22739448,2.2747684,0.32151145,0.075956345,2.1355662,0.0007123115,0.09892198
101196000,101116000,-0.22987999,-0.22739448,2.2747684,0.32151145,0.075956345,2.1355662,0.0007123115,0.09892198
101204000,101124000,-0.22987999,-0.22739448,2.2747684,0.32151145,0.075956345,2.1355662,0.0007123115,0.09892198
101212000,101132000,-0.22987999,-0.22739448,2.2747684,0.32151145,0.075956345,2.1355662,0.0007123115,0.09892198
101220000,101140000,-0.22987999,-0.22739448,2.2747684,0.32151145,0.075956345,2.1355662,0.0007123115,0.09892198
101228000,101148000,-0.22987999,-0.22739448,2.2747684,0.32151145,0.075956345,2.1355662,0.0007123115,0.09892198
101236000,101156000,-0.22987999,-0.22739448,2.2747684,0.32151145,0.075956345,2.1355662,0.0007123115,0.09892198
101244000,101164000,-0.23178838,-0.22297877,2.087488,0.29604405,0.059030533,2.1267524,0.0012912223,0.09826519
101252000,101172000,-0.23178838,-0.22297877,2.087488,0.29604405,0.059030533,2.1267524,0.0012912223,0.09826519
101260000,101180000,-0.23178838,-0.22297877,2.087488,0.29604405,0.059030533,2.1267524,0.0012912223,0.09826519
101268000,101188000,-0.23178838,-0.22297877,2.087488,0.29604405,0.059030533,2.1267524,0.0012912223,0.09826519
101276000,101196000,-0.23178838,-0.22297877,2.087488,0.29604405,0.059030533,2.1267524,0.0012912223,0.09826519
101284000,101204000,-0.23178838,-0.22297877,2.087488,0.29604405,0.059030533,2.1267524,0.0012912223,0.09826519
101292000,101212000,-0.23178838,-0.22297877,2.087488,0.29604405,0.059030533,2.1267524,0.0012912223,0.09826519
101300000,101220000,-0.23178838,-0.22297877,2.087488,0.29604405,0.059030533,2.1267524,0.0012912223,0.09826519
101308000,101228000,-0.23178838,-0.22297877,2.087488,0.29604405,0.059030533,2.1267524,0.0012912223,0.09826519
101316000,101236000,-0.23178838,-0.22297877,2.087488,0.29604405,0.059030533,2.1267524,0.0012912223,0.09826519
101324000,101244000,-0.23178838,-0.22297877,2.087488,0.29604405,0.059030533,2.1267524,0.0012912223,0.09826519
101332000,101252000,-0.23178838,-0.22297877,2.087488,0.29604405,0.059030533,2.1267524,0.0012912223,0.09826519
101340000,101260000,-0.23189275,-0.21628715,2.087486,0.28796783,0.10829353,2.1151922,0.0012912223,0.09826519
101348000,101268000,-0.23189275,-0.21628715,2.087486,0.28796783,0.10829353,2.1151922,0.0012912223,0.09826519
101356000,101276000,-0.23189275,-0.21628715,2.087486,0.28796783,0.10829353,2.1151922,0.0012912223,0.09826519
101364000,101284000,-0.23189275,-0.21628715,2.087486,0.28796783,0.10829353,2.1151922,0.0012912223,0.09826519
101372000,101292000,-0.23189275,-0.21628715,2.087486,0.28796783,0.10829353,2.1151922,0.0012912223,0.09826519
101380000,101300000,-0.23189275,-0.21628715,2.087486,0.28796783,0.10829353,2.1151922,0.0012912223,0.09826519
101388000,101308000,-0.23189275,-0.21628715,2.087486,0.28796783,0.10829353,2.1151922,0.0012912223,0.09826519
101396000,101316000,-0.2348918,-0.2154076,1.9268984,0.27415526,0.10829353,2.1151922,0.0023391822,0.097695254
101404000,101324000,-0.2348918,-0.2154076,1.9268984,0.27415526,0.10829353,2.1151922,0.0023391822,0.097695254
101412000,101332000,-0.2348918,-0.2154076,1.9268984,0.27415526,0.10829353,2.1151922,0.0023391822,0.097695254
101420000,101340000,-0.2348918,-0.2154076,1.9268984,0.27415526,0.10829353,2.1151922,0.0023391822,0.097695254
101428000,101348000,-0.2348918,-0.2154076,1.9268984,0.27415526,0.10829353,2.1151922,0.0023391822,0.097695254
101436000,101356000,-0.23485984,-0.20601371,1.9268982,0.26706612,0.16200256,2.1083684,0.0023391822,0.097695254
101444000,101364000,-0.23485984,-0.20601371,1.9268982,0.26706612,0.16200256,2.1083684,0.0023391822,0.097695254
101452000,101372000,-0.23485984,-0.20601371,1.9268982,0.26706612,0.16200256,2.1083684,0.0023391822,0.097695254
101460000,101380000,-0.23485984,-0.20601371,1.9268982,0.26706612,0.16200256,2.1083684,0.0023391822,0.097695254
101468000,101388000,-0.23485984,-0.20601371,1.9268982,0.26706612,0.16200256,2.1083684,0.0023391822,0.097695254
101476000,101396000,-0.23485984,-0.20601371,1.9268982,0.26706612,0.16200256,2.1083684,0.0023391822,0.097695254
101484000,101404000,-0.23485984,-0.20601371,1.9268982,0.26706612,0.16200256,2.1083684,0.0023391822,0.097695254
101492000,101412000,-0.23485984,-0.20601371,1.9268982,0.26706612,0.16200256,2.1083684,0.0023391822,0.097695254
101500000,101420000,-0.23485984,-0.20601371,1.9268982,0.26706612,0.16200256,2.1083684,0.0023391822,0.097695254
101508000,101428000,-0.23485984,-0.20601371,1.9268982,0.26706612,0.16200256,2.1083684,0.0023391822,0.097695254
101516000,101436000,-0.23485984,-0.20601371,1.9268982,0.26706612,0.16200256,2.1083684,0.0023391822,0.097695254
101524000,101444000,-0.23485984,-0.20601371,1.9268982,0.26706612,0.16200256,2.1083684,0.0023391822,0.097695254
101532000,101452000,-0.23485984,-0.20601371,1.9268982,0.26706612,0.16200256,2.1083684,0.0023391822,0.097695254
101540000,101460000,-0.23487307,-0.20163734,1.9268982,0.26070806,0.07958412,2.10257,0.0023391822,0.097695254
101548000,101468000,-0.23820214,-0.20066704,1.7868167,0.24880797,0.07958412,2.10257,0.002773952,0.097259484
101556000,101476000,-0.23820214,-0.20066704,1.7868167,0.24880797,0.07958412,2.10257,0.002773952,0.097259484
101564000,101484000,-0.23820214,-0.20066704,1.7868167,0.24880797,0.07958412,2.10257,0.002773952,0.097259484
101572000,101492000,-0.23820214,-0.20066704,1.7868167,0.24880797,0.07958412,2.10257,0.002773952,0.097259484
101580000,101500000,-0.23820214,-0.20066704,1.7868167,0.24880797,0.07958412,2.10257,0.002773952,0.097259484
101588000,101508000,-0.23820214,-0.20066704,1.7868167,0.24880797,0.07958412,2.10257,0.002773952,0.097259484
101596000,101516000,-0.23820214,-0.20066704,1.7868167,0.24880797,0.07958412,2.10257,0.002773952,0.097259484
101604000,101524000,-0.23820214,-0.20066704,1.7868167,0.24880797,0.07958412,2.10257,0.002773952,0.097259484
101612000,101532000,-0.23820214,-0.20066704,1.7868167,0.24880797,0.07958412,2.10257,0.002773952,0.097259484
101620000,101540000,-0.23820214,-0.20066704,1.7868167,0.24880797,0.07958412,2.10257,0.002773952,0.097259484
101628000,101548000,-0.23820214,-0.20066704,1.7868167,0.24880797,0.07958412,2.10257,0.002773952,0.097259484
101636000,101556000,-0.23804632,-0.1920762,1.7868148,0.24316236,0.16558266,2.0973494,0.002773952,0.097259484
101644000,101564000,-0.23804632,-0.1920762,1.7868148,0.24316236,0.16558266,2.0973494,0.002773952,0.097259484
101652000,101572000,-0.23804632,-0.1920762,1.7868148,0.24316236,0.16558266,2.0973494,0.002773952,0.097259484
101660000,101580000,-0.23804632,-0.1920762,1.7868148,0.24316236,0.16558266,2.0973494,0.002773952,0.097259484
101668000,101588000,-0.23804632,-0.1920762,1.7868148,0.24316236,0.16558266,2.0973494,0.002773952,0.097259484
101676000,101596000,-0.23804632,-0.1920762,1.7868148,0.24316236,0.16558266,2.0973494,0.002773952,0.097259484
101684000,101604000,-0.23804632,-0.1920762,1.7868148,0.24316236,0.16558266,2.0973494,0.002773952,0.097259484
101692000,101612000,-0.23804632,-0.1920762,1.7868148,0.24316236,0.16558266,2.0973494,0.002773952,0.097259484
101700000,101620000,-0.24107325,-0.19119623,1.663826,0.23276803,0.16558266,2.0973494,0.0026862193,0.09686016
101708000,101628000,-0.24107325,-0.19119623,1.663826,0.23276803,0.16558266,2.0973494,0.0026862193,0.09686016
101716000,101636000,-0.24107325,-0.19119623,1.663826,0.23276803,0.16558266,2.0973494,0.0026862193,0.09686016
101724000,101644000,-0.24107325,-0.19119623,1.663826,0.23276803,0.16558266,2.0973494,0.0026862193,0.09686016
101732000,101652000,-0.24107325,-0.19119623,1.663826,0.23276803,0.16558266,2.0973494,0.0026862193,0.09686016
101740000,101660000,-0.24060458,-0.18001634,1.6638172,0.22772627,0.22758865,2.0893304,0.0026862193,0.09686016
101748000,101668000,-0.24060458,-0.18001634,1.6638172,0.22772627,0.22758865,2.0893304,0.0026862193,0.09686016
101756000,101676000,-0.24060458,-0.18001634,1.6638172,0.22772627,0.22758865,2.0893304,0.0026862193,0.09686016
101764000,101684000,-0.24060458,-0.18001634,1.6638172,0.22772627,0.22758865,2.0893304,0.0026862193,0.09686016
101772000,101692000,-0.24060458,-0.18001634,1.6638172,0.22772627,0.22758865,2.0893304,0.0026862193,0.09686016
101780000,101700000,-0.24060458,-0.18001634,1.6638172,0.22772627,0.22758865,2.0893304,0.0026862193,0.09686016
101788000,101708000,-0.24060458,-0.18001634,1.6638172,0.22772627,0.22758865,2.0893304,0.0026862193,0.09686016
101796000,101716000,-0.24060458,-0.18001634,1.6638172,0.22772627,0.22758865,2.0893304,0.0026862193,0.09686016
101804000,101724000,-0.24060458,-0.18001634,1.6638172,0.22772627,0.22758865,2.0893304,0.0026862193,0.09686016
101812000,101732000,-0.24060458,-0.18001634,1.6638172,0.22772627,0.22758865,2.0893304,0.0026862193,0.09686016
101820000,101740000,-0.24060458,-0.18001634,1.6638172,0.22772627,0.22758865,2.0893304,0.0026862193,0.09686016
101828000,101748000,-0.24060458,-0.18001634,1.6638172,0.22772627,0.22758865,2.0893304,0.0026862193,0.09686016
101836000,101756000,-0.24028683,-0.1724897,1.6638091,0.2231482,0.160635,2.085267,0.0026862193,0.09686016
101844000,101764000,-0.24028683,-0.1724897,1.6638091,0.2231482,0.160635,2.085267,0.0026862193,0.09686016
101852000,101772000,-0.24293281,-0.17172383,1.5543513,0.21397783,0.160635,2.085267,0.0024851656,0.09655658
101860000,101780000,-0.24293281,-0.17172383,1.5543513,0.21397783,0.160635,2.085267,0.0024851656,0.09655658
101868000,101788000,-0.24293281,-0.17172383,1.5543513,0.21397783,0.160635,2.085267,0.0024851656,0.09655658
101876000,101796000,-0.24293281,-0.17172383,1.5543513,0.21397783,0.160635,2.085267,0.0024851656,0.09655658
101884000,101804000,-0.24293281,-0.17172383,1.5543513,0.21397783,0.160635,2.085267,0.0024851656,0.09655658
101892000,101812000,-0.24293281,-0.17172383,1.5543513,0.21397783,0.160635,2.085267,0.0024851656,0.09655658
101900000,101820000,-0.24293281,-0.17172383,1.5543513,0.21397783,0.160635,2.085267,0.0024851656,0.09655658
101908000,101828000,-0.24293281,-0.17172383,1.5543513,0.21397783,0.160635,2.085267,0.0024851656,0.09655658
101916000,101836000,-0.24293281,-0.17172383,1.5543513,0.21397783,0.160635,2.085267,0.0024851656,0.09655658
101924000,101844000,-0.24293281,-0.17172383,1.5543513,0.21397783,0.160635,2.085267,0.0024851656,0.09655658
101932000,101852000,-0.24293281,-0.17172383,1.5543513,0.21397783,0.160635,2.085267,0.0024851656,0.09655658
101940000,101860000,-0.24263912,-0.16696231,1.5543356,0.20984776,0.10689926,2.081695,0.0024851656,0.09655658
101948000,101868000,-0.24263912,-0.16696231,1.5543356,0.20984776,0.10689926,2.081695,0.0024851656,0.09655658
101956000,101876000,-0.24263912,-0.16696231,1.5543356,0.20984776,0.10689926,2.081695,0.0024851656,0.09655658
101964000,101884000,-0.24263912,-0.16696231,1.5543356,0.20984776,0.10689926,2.081695,0.0024851656,0.09655658
101972000,101892000,-0.24263912,-0.16696231,1.5543356,0.20984776,0.10689926,2.081695,0.0024851656,0.09655658
101980000,101900000,-0.24263912,-0.16696231,1.5543356,0.20984776,0.10689926,2.081695,0.0024851656,0.09655658
101988000,101908000,-0.24263912,-0.16696231,1.5543356,0.20984776,0.10689926,2.081695,0.0024851656,0.09655658
101996000,101916000,-0.24263912,-0.16696231,1.5543356,0.20984776,0.10689926,2.081695,0.0024851656,0.09655658
102004000,101924000,-0.24509968,-0.16625142,1.4564193,0.20167461,0.10689926,2.081695,0.0024399594,0.09628353
102012000,101932000,-0.24509968,-0.16625142,1.4564193,0.20167461,0.10689926,2.081695,0.0024399594,0.09628353
102020000,101940000,-0.24509968,-0.16625142,1.4564193,0.20167461,0.10689926,2.081695,0.0024399594,0.09628353
102028000,101948000,-0.24509968,-0.16625142,1.4564193,0.20167461,0.10689926,2.081695,0.0024399594,0.09628353
102036000,101956000,-0.24509968,-0.16625142,1.4564193,0.20167461,0.10689926,2.081695,0.0024399594,0.09628353
102044000,101964000,-0.2447052,-0.16124675,1.4563961,0.19792822,0.11788368,2.0785866,0.0024399594,0.09628353
102052000,101972000,-0.2447052,-0.16124675,1.4563961,0.19792822,0.11788368,2.0785866,0.0024399594,0.09628353
102060000,101980000,-0.2447052,-0.16124675,1.4563961,0.19792822,0.11788368,2.0785866,0.0024399594,0.09628353
102068000,101988000,-0.2447052,-0.16124675,1.4563961,0.19792822,0.11788368,2.0785866,0.0024399594,0.09628353
102076000,101996000,-0.2447052,-0.16124675,1.4563961,0.19792822,0.11788368,2.0785866,0.0024399594,0.09628353
102084000,102004000,-0.2447052,-0.16124675,1.4563961,0.19792822,0.11788368,2.0785866,0.0024399594,0.09628353
102092000,102012000,-0.2447052,-0.16124675,1.4563961,0.19792822,0.11788368,2.0785866,0.0024399594,0.09628353
102100000,102020000,-0.2447052,-0.16124675,1.4563961,0.19792822,0.11788368,2.0785866,0.0024399594,0.09628353
102108000,102028000,-0.2447052,-0.16124675,1.4563961,0.19792822,0.11788368,2.0785866,0.0024399594,0.09628353
102116000,102036000,-0.2447052,-0.16124675,1.4563961,0.19792822,0.11788368,2.0785866,0.0024399594,0.09628353
102124000,102044000,-0.2447052,-0.16124675,1.4563961,0.19792822,0.11788368,2.0785866,0.0024399594,0.09628353
102132000,102052000,-0.2447052,-0.16124675,1.4563961,0.19792822,0.11788368,2.0785866,0.0024399594,0.09628353
102140000,102060000,-0.24365042,-0.14987859,1.4563667,0.19450499,0.27971077,2.0724058,0.0024399594,0.09628353
102148000,102068000,-0.24365042,-0.14987859,1.4563667,0.19450499,0.27971077,2.0724058,0.0024399594,0.09628353
102156000,102076000,-0.24527141,-0.14941163,1.3683915,0.18720427,0.27971077,2.0724058,0.0016934843,0.096020386
102164000,102084000,-0.24527141,-0.14941163,1.3683915,0.18720427,0.27971077,2.0724058,0.0016934843,0.096020386
102172000,102092000,-0.24527141,-0.14941163,1.3683915,0.18720427,0.27971077,2.0724058,0.0016934843,0.096020386
102180000,102100000,-0.24527141,-0.14941163,1.3683915,0.18720427,0.27971077,2.0724058,0.0016934843,0.096020386
102188000,102108000,-0.24527141,-0.14941163,1.3683915,0.18720427,0.27971077,2.0724058,0.0016934843,0.096020386
102196000,102116000,-0.24527141,-0.14941163,1.3683915,0.18720427,0.27971077,2.0724058,0.0016934843,0.096020386
102204000,102124000,-0.24527141,-0.14941163,1.3683915,0.18720427,0.27971077,2.0724058,0.0016934843,0.096020386
102212000,102132000,-0.24527141,-0.14941163,1.3683915,0.18720427,0.27971077,2.0724058,0.0016934843,0.096020386
102220000,102140000,-0.24527141,-0.14941163,1.3683915,0.18720427,0.27971077,2.0724058,0.0016934843,0.096020386
102228000,102148000,-0.24527141,-0.14941163,1.3683915,0.18720427,0.27971077,2.0724058,0.0016934843,0.096020386
102236000,102156000,-0.24467032,-0.1440536,1.3683522,0.18408042,0.13792038,2.0698369,0.0016934843,0.096020386
102244000,102164000,-0.24467032,-0.1440536,1.3683522,0.18408042,0.13792038,2.0698369,0.0016934843,0.096020386
102252000,102172000,-0.24467032,-0.1440536,1.3683522,0.18408042,0.13792038,2.0698369,0.0016934843,0.096020386
102260000,102180000,-0.24467032,-0.1440536,1.3683522,0.18408042,0.13792038,2.0698369,0.0016934843,0.096020386
102268000,102188000,-0.24467032,-0.1440536,1.3683522,0.18408042,0.13792038,2.0698369,0.0016934843,0.096020386
102276000,102196000,-0.24467032,-0.1440536,1.3683522,0.18408042,0.13792038,2.0698369,0.0016934843,0.096020386
102284000,102204000,-0.24467032,-0.1440536,1.3683522,0.18408042,0.13792038,2.0698369,0.0016934843,0.096020386
102292000,102212000,-0.24467032,-0.1440536,1.3683522,0.18408042,0.13792038,2.0698369,0.0016934843,0.096020386
102300000,102220000,-0.24467032,-0.1440536,1.3683522,0.18408042,0.13792038,2.0698369,0.0016934843,0.096020386
102308000,102228000,-0.24609584,-0.14364341,1.2887675,0.17749123,0.13792038,2.0698369,0.0015640785,0.09580719
102316000,102236000,-0.24609584,-0.14364341,1.2887675,0.17749123,0.13792038,2.0698369,0.0015640785,0.09580719
102324000,102244000,-0.24609584,-0.14364341,1.2887675,0.17749123,0.13792038,2.0698369,0.0015640785,0.09580719
102332000,102252000,-0.24609584,-0.14364341,1.2887675,0.17749123,0.13792038,2.0698369,0.0015640785,0.09580719
102340000,102260000,-0.24535425,-0.13797317,1.2887185,0.1746301,0.15242958,2.067633,0.0015640785,0.09580719
102348000,102268000,-0.24535425,-0.13797317,1.2887185,0.1746301,0.15242958,2.067633,0.0015640785,0.09580719
102356000,102276000,-0.24535425,-0.13797317,1.2887185,0.1746301,0.15242958,2.067633,0.0015640785,0.09580719
102364000,102284000,-0.24535425,-0.13797317,1.2887185,0.1746301,0.15242958,2.067633,0.0015640785,0.09580719
102372000,102292000,-0.24535425,-0.13797317,1.2887185,0.1746301,0.15242958,2.067633,0.0015640785,0.09580719
102380000,102300000,-0.24535425,-0.13797317,1.2887185,0.1746301,0.15242958,2.067633,0.0015640785,0.09580719
102388000,102308000,-0.24535425,-0.13797317,1.2887185,0.1746301,0.15242958,2.067633,0.0015640785,0.09580719
102396000,102316000,-0.24535425,-0.13797317,1.2887185,0.1746301,0.15242958,2.067633,0.0015640785,0.09580719
102404000,102324000,-0.24535425,-0.13797317,1.2887185,0.1746301,0.15242958,2.067633,0.0015640785,0.09580719
102412000,102332000,-0.24535425,-0.13797317,1.2887185,0.1746301,0.15242958,2.067633,0.0015640785,0.09580719
102420000,102340000,-0.24535425,-0.13797317,1.2887185,0.1746301,0.15242958,2.067633,0.0015640785,0.09580719
102428000,102348000,-0.24535425,-0.13797317,1.2887185,0.1746301,0.15242958,2.067633,0.0015640785,0.09580719
102436000,102356000,-0.2451516,-0.13647431,1.2886701,0.17198107,0.04185486,2.0656352,0.0015640785,0.09580719
102444000,102364000,-0.2451516,-0.13647431,1.2886701,0.17198107,0.04185486,2.0656352,0.0015640785,0.09580719
102452000,102372000,-0.2451516,-0.13647431,1.2886701,0.17198107,0.04185486,2.0656352,0.0015640785,0.09580719
102460000,102380000,-0.24639633,-0.13611686,1.2163528,0.1660174,0.04185486,2.0656352,0.0014312745,0.095615685
102468000,102388000,-0.24639633,-0.13611686,1.2163528,0.1660174,0.04185486,2.0656352,0.0014312745,0.095615685
102476000,102396000,-0.24639633,-0.13611686,1.2163528,0.1660174,0.04185486,2.0656352,0.0014312745,0.095615685
102484000,102404000,-0.24639633,-0.13611686,1.2163528,0.1660174,0.04185486,2.0656352,0.0014312745,0.095615685
102492000,102412000,-0.24639633,-0.13611686,1.2163528,0.1660174,0.04185486,2.0656352,0.0014312745,0.095615685
102500000,102420000,-0.24639633,-0.13611686,1.2163528,0.1660174,0.04185486,2.0656352,0.0014312745,0.095615685
102508000,102428000,-0.24639633,-0.13611686,1.2163528,0.1660174,0.04185486,2.0656352,0.0014312745,0.095615685
102516000,102436000,-0.24639633,-0.13611686,1.2163528,0.1660174,0.04185486,2.0656352,0.0014312745,0.095615685
102524000,102444000,-0.24639633,-0.13611686,1.2163528,0.1660174,0.04185486,2.0656352,0.0014312745,0.095615685
102532000,102452000,-0.24639633,-0.13611686,1.2163528,0.1660174,0.04185486,2.0656352,0.0014312745,0.095615685
102540000,102460000,-0.24540254,-0.12999047,1.2162888,0.16358437,0.17828846,2.0605624,0.0014312745,0.095615685
102548000,102468000,-0.24540254,-0.12999047,1.2162888,0.16358437,0.17828846,2.0605624,0.0014312745,0.095615685
102556000,102476000,-0.24540254,-0.12999047,1.2162888,0.16358437,0.17828846,2.0605624,0.0014312745,0.095615685
102564000,102484000,-0.24540254,-0.12999047,1.2162888,0.16358437,0.17828846,2.0605624,0.0014312745,0.095615685
102572000,102492000,-0.24540254,-0.12999047,1.2162888,0.16358437,0.17828846,2.0605624,0.0014312745,0.095615685
102580000,102500000,-0.24540254,-0.12999047,1.2162888,0.16358437,0.17828846,2.0605624,0.0014312745,0.095615685
102588000,102508000,-0.24540254,-0.12999047,1.2162888,0.16358437,0.17828846,2.0605624,0.0014312745,0.095615685
102596000,102516000,-0.24540254,-0.12999047,1.2162888,0.16358437,0.17828846,2.0605624,0.0014312745,0.095615685
102604000,102524000,-0.24540254,-0.12999047,1.2162888,0.16358437,0.17828846,2.0605624,0.0014312745,0.095615685
102612000,102532000,-0.24625322,-0.12974632,1.1505405,0.15816858,0.17828846,2.0605624,0.0010247374,0.09540651
102620000,102540000,-0.24625322,-0.12974632,1.1505405,0.15816858,0.17828846,2.0605624,0.0010247374,0.09540651
102628000,102548000,-0.24625322,-0.12974632,1.1505405,0.15816858,0.17828846,2.0605624,0.0010247374,0.09540651
102636000,102556000,-0.24517556,-0.123594046,1.1504713,0.1559147,0.18594837,2.0589492,0.0010247374,0.09540651
102644000,102564000,-0.24517556,-0.123594046,1.1504713,0.1559147,0.18594837,2.0589492,0.0010247374,0.09540651
102652000,102572000,-0.24517556,-0.123594046,1.1504713,0.1559147,0.18594837,2.0589492,0.0010247374,0.09540651
102660000,102580000,-0.24517556,-0.123594046,1.1504713,0.1559147,0.18594837,2.0589492,0.0010247374,0.09540651
102668000,102588000,-0.24517556,-0.123594046,1.1504713,0.1559147,0.18594837,2.0589492,0.0010247374,0.09540651
102676000,102596000,-0.24517556,-0.123594046,1.1504713,0.1559147,0.18594837,2.0589492,0.0010247374,0.09540651
102684000,102604000,-0.24517556,-0.123594046,1.1504713,0.1559147,0.18594837,2.0589492,0.0010247374,0.09540651
102692000,102612000,-0.24517556,-0.123594046,1.1504713,0.1559147,0.18594837,2.0589492,0.0010247374,0.09540651
102700000,102620000,-0.24517556,-0.123594046,1.1504713,0.1559147,0.18594837,2.0589492,0.0010247374,0.09540651
102708000,102628000,-0.24517556,-0.123594046,1.1504713,0.1559147,0.18594837,2.0589492,0.0010247374,0.09540651
102716000,102636000,-0.24517556,-0.123594046,1.1504713,0.1559147,0.18594837,2.0589492,0.0010247374,0.09540651
102724000,102644000,-0.24517556,-0.123594046,1.1504713,0.1559147,0.18594837,2.0589492,0.0010247374,0.09540651
102732000,102652000,-0.24517556,-0.123594046,1.1504713,0.1559147,0.18594837,2.0589492,0.0010247374,0.09540651
102740000,102660000,-0.24385482,-0.11639709,1.1504006,0.1538166,0.22537804,2.0575514,0.0010247374,0.09540651
102748000,102668000,-0.24385482,-0.11639709,1.1504006,0.1538166,0.22537804,2.0575514,0.0010247374,0.09540651
102756000,102676000,-0.24385482,-0.11639709,1.1504006,0.1538166,0.22537804,2.0575514,0.0010247374,0.09540651
102764000,102684000,-0.24500266,-0.11606804,1.0902071,0.14887,0.22537804,2.0575514,0.0014438841,0.09524853
102772000,102692000,-0.24500266,-0.11606804,1.0902071,0.14887,0.22537804,2.0575514,0.0014438841,0.09524853
102780000,102700000,-0.24500266,-0.11606804,1.0902071,0.14887,0.22537804,2.0575514,0.0014438841,0.09524853
102788000,102708000,-0.24500266,-0.11606804,1.0902071,0.14887,0.22537804,2.0575514,0.0014438841,0.09524853
102796000,102716000,-0.24500266,-0.11606804,1.0902071,0.14887,0.22537804,2.0575514,0.0014438841,0.09524853
102804000,102724000,-0.24500266,-0.11606804,1.0902071,0.14887,0.22537804,2.0575514,0.0014438841,0.09524853
102812000,102732000,-0.24500266,-0.11606804,1.0902071,0.14887,0.22537804,2.0575514,0.0014438841,0.09524853
102820000,102740000,-0.24500266,-0.11606804,1.0902071,0.14887,0.22537804,2.0575514,0.0014438841,0.09524853
102828000,102748000,-0.24500266,-0.11606804,1.0902071,0.14887,0.22537804,2.0575514,0.0014438841,0.09524853
102836000,102756000,-0.24388768,-0.11031106,1.0901338,0.14691459,0.18669033,2.0563319,0.0014438841,0.09524853
102844000,102764000,-0.24388768,-0.11031106,1.0901338,0.14691459,0.18669033,2.0563319,0.0014438841,0.09524853
102852000,102772000,-0.24388768,-0.11031106,1.0901338,0.14691459,0.18669033,2.0563319,0.0014438841,0.09524853
102860000,102780000,-0.24388768,-0.11031106,1.0901338,0.14691459,0.18669033,2.0563319,0.0014438841,0.09524853
102868000,102788000,-0.24388768,-0.11031106,1.0901338,0.14691459,0.18669033,2.0563319,0.0014438841,0.09524853
102876000,102796000,-0.24388768,-0.11031106,1.0901338,0.14691459,0.18669033,2.0563319,0.0014438841,0.09524853
102884000,102804000,-0.24388768,-0.11031106,1.0901338,0.14691459,0.18669033,2.0563319,0.0014438841,0.09524853
102892000,102812000,-0.24388768,-0.11031106,1.0901338,0.14691459,0.18669033,2.0563319,0.0014438841,0.09524853
102900000,102820000,-0.24388768,-0.11031106,1.0901338,0.14691459,0.18669033,2.0563319,0.0014438841,0.09524853
102908000,102828000,-0.24388768,-0.11031106,1.0901338,0.14691459,0.18669033,2.0563319,0.0014438841,0.09524853
102916000,102836000,-0.2440454,-0.11026586,1.0350696,0.14239138,0.18669033,2.0563319,0.00020723832,0.095061846
102924000,102844000,-0.2440454,-0.11026586,1.0350696,0.14239138,0.18669033,2.0563319,0.00020723832,0.095061846
102932000,102852000,-0.2440454,-0.11026586,1.0350696,0.14239138,0.18669033,2.0563319,0.00020723832,0.095061846
102940000,102860000,-0.24285097,-0.10501643,1.0349761,0.14058536,0.17693901,2.0518527,0.00020723832,0.095061846
102948000,102868000,-0.24285097,-0.10501643,1.0349761,0.14058536,0.17693901,2.0518527,0.00020723832,0.095061846
102956000,102876000,-0.24285097,-0.10501643,1.0349761,0.14058536,0.17693901,2.0518527,0.00020723832,0.095061846
102964000,102884000,-0.24285097,-0.10501643,1.0349761,0.14058536,0.17693901,2.0518527,0.00020723832,0.095061846
102972000,102892000,-0.24285097,-0.10501643,1.0349761,0.14058536,0.17693901,2.0518527,0.00020723832,0.095061846
102980000,102900000,-0.24285097,-0.10501643,1.0349761,0.14058536,0.17693901,2.0518527,0.00020723832,0.095061846
102988000,102908000,-0.24285097,-0.10501643,1.0349761,0.14058536,0.17693901,2.0518527,0.00020723832,0.095061846
102996000,102916000,-0.24285097,-0.10501643,1.0349761,0.14058536,0.17693901,2.0518527,0.00020723832,0.095061846
103004000,102924000,-0.24285097,-0.10501643,1.0349761,0.14058536,0.17693901,2.0518527,0.00020723832,0.095061846
103012000,102932000,-0.24285097,-0.10501643,1.0349761,0.14058536,0.17693901,2.0518527,0.00020723832,0.095061846
103020000,102940000,-0.24285097,-0.10501643,1.0349761,0.14058536,0.17693901,2.0518527,0.00020723832,0.095061846
103028000,102948000,-0.24285097,-0.10501643,1.0349761,0.14058536,0.17693901,2.0518527,0.00020723832,0.095061846
103036000,102956000,-0.24169508,-0.10002635,1.0348852,0.13888991,0.17355156,2.0508082,0.00020723832,0.095061846
103044000,102964000,-0.24169508,-0.10002635,1.0348852,0.13888991,0.17355156,2.0508082,0.00020723832,0.095061846
103052000,102972000,-0.24169508,-0.10002635,1.0348852,0.13888991,0.17355156,2.0508082,0.00020723832,0.095061846
103060000,102980000,-0.24169508,-0.10002635,1.0348852,0.13888991,0.17355156,2.0508082,0.00020723832,0.095061846
103068000,102988000,-0.24250162,-0.09979531,0.9842694,0.13473654,0.17355156,2.0508082,0.0011044721,0.09491777
103076000,102996000,-0.24250162,-0.09979531,0.9842694,0.13473654,0.17355156,2.0508082,0.0011044721,0.09491777
103084000,103004000,-0.24250162,-0.09979531,0.9842694,0.13473654,0.17355156,2.0508082,0.0011044721,0.09491777
103092000,103012000,-0.24250162,-0.09979531,0.9842694,0.13473654,0.17355156,2.0508082,0.0011044721,0.09491777
103100000,103020000,-0.24250162,-0.09979531,0.9842694,0.13473654,0.17355156,2.0508082,0.0011044721,0.09491777
103108000,103028000,-0.24250162,-0.09979531,0.9842694,0.13473654,0.17355156,2.0508082,0.0011044721,0.09491777
103116000,103036000,-0.24250162,-0.09979531,0.9842694,0.13473654,0.17355156,2.0508082,0.0011044721,0.09491777
103124000,103044000,-0.24250162,-0.09979531,0.9842694,0.13473654,0.17355156,2.0508082,0.0011044721,0.09491777
103132000,103052000,-0.24250162,-0.09979531,0.9842694,0.13473654,0.17355156,2.0508082,0.0011044721,0.09491777
103140000,103060000,-0.24191573,-0.097375214,0.9841763,0.13314751,0.08692455,2.0499825,0.0011044721,0.09491777
103148000,103068000,-0.24191573,-0.097375214,0.9841763,0.13314751,0.08692455,2.0499825,0.0011044721,0.09491777
103156000,103076000,-0.24191573,-0.097375214,0.9841763,0.13314751,0.08692455,2.0499825,0.0011044721,0.09491777
103164000,103084000,-0.24191573,-0.097375214,0.9841763,0.13314751,0.08692455,2.0499825,0.0011044721,0.09491777
103172000,103092000,-0.24191573,-0.097375214,0.9841763,0.13314751,0.08692455,2.0499825,0.0011044721,0.09491777
103180000,103100000,-0.24191573,-0.097375214,0.9841763,0.13314751,0.08692455,2.0499825,0.0011044721,0.09491777
103188000,103108000,-0.24191573,-0.097375214,0.9841763,0.13314751,0.08692455,2.0499825,0.0011044721,0.09491777
103196000,103116000,-0.24191573,-0.097375214,0.9841763,0.13314751,0.08692455,2.0499825,0.0011044721,0.09491777
103204000,103124000,-0.24191573,-0.097375214,0.9841763,0.13314751,0.08692455,2.0499825,0.0011044721,0.09491777
103212000,103132000,-0.24191573,-0.097375214,0.9841763,0.13314751,0.08692455,2.0499825,0.0011044721,0.09491777
103220000,103140000,-0.24310647,-0.09703417,0.9376033,0.12932691,0.08692455,2.0499825,0.0016986183,0.094776206
103228000,103148000,-0.24310647,-0.09703417,0.9376033,0.12932691,0.08692455,2.0499825,0.0016986183,0.094776206
103236000,103156000,-0.24199556,-0.09257571,0.9375105,0.12783235,0.16509151,2.049231,0.0016986183,0.094776206
103244000,103164000,-0.24199556,-0.09257571,0.9375105,0.12783235,0.16509151,2.049231,0.0016986183,0.094776206
103252000,103172000,-0.24199556,-0.09257571,0.9375105,0.12783235,0.16509151,2.049231,0.0016986183,0.094776206
103260000,103180000,-0.24199556,-0.09257571,0.9375105,0.12783235,0.16509151,2.049231,0.0016986183,0.094776206
103268000,103188000,-0.24199556,-0.09257571,0.9375105,0.12783235,0.16509151,2.049231,0.0016986183,0.094776206
103276000,103196000,-0.24199556,-0.09257571,0.9375105,0.12783235,0.16509151,2.049231,0.0016986183,0.094776206
103284000,103204000,-0.24199556,-0.09257571,0.9375105,0.12783235,0.16509151,2.049231,0.0016986183,0.094776206
103292000,103212000,-0.24199556,-0.09257571,0.9375105,0.12783235,0.16509151,2.049231,0.0016986183,0.094776206
103300000,103220000,-0.24199556,-0.09257571,0.9375105,0.12783235,0.16509151,2.049231,0.0016986183,0.094776206
103308000,103228000,-0.24199556,-0.09257571,0.9375105,0.12783235,0.16509151,2.049231,0.0016986183,0.094776206
103316000,103236000,-0.24199556,-0.09257571,0.9375105,0.12783235,0.16509151,2.049231,0.0016986183,0.094776206
103324000,103244000,-0.24199556,-0.09257571,0.9375105,0.12783235,0.16509151,2.049231,0.0016986183,0.094776206
103332000,103252000,-0.24199556,-0.09257571,0.9375105,0.12783235,0.16509151,2.049231,0.0016986183,0.094776206
103340000,103260000,-0.2416536,-0.09131178,0.93740803,0.12643272,0.048314095,2.0451365,0.0016986183,0.094776206
103348000,103268000,-0.2416536,-0.09131178,0.93740803,0.12643272,0.048314095,2.0451365,0.0016986183,0.094776206
103356000,103276000,-0.2416536,-0.09131178,0.93740803,0.12643272,0.048314095,2.0451365,0.0016986183,0.094776206
103364000,103284000,-0.2416536,-0.09131178,0.93740803,0.12643272,0.048314095,2.0451365,0.0016986183,0.094776206
103372000,103292000,-0.24239838,-0.091098465,0.89454836,0.12291668,0.048314095,2.0451365,0.0011065128,0.094606355
103380000,103300000,-0.24239838,-0.091098465,0.89454836,0.12291668,0.048314095,2.0451365,0.0011065128,0.094606355
103388000,103308000,-0.24239838,-0.091098465,0.89454836,0.12291668,0.048314095,2.0451365,0.0011065128,0.094606355
103396000,103316000,-0.24239838,-0.091098465,0.89454836,0.12291668,0.048314095,2.0451365,0.0011065128,0.094606355
103404000,103324000,-0.24239838,-0.091098465,0.89454836,0.12291668,0.048314095,2.0451365,0.0011065128,0.094606355
103412000,103332000,-0.24239838,-0.091098465,0.89454836,0.12291668,0.048314095,2.0451365,0.0011065128,0.094606355
103420000,103340000,-0.24239838,-0.091098465,0.89454836,0.12291668,0.048314095,2.0451365,0.0011065128,0.094606355
103428000,103348000,-0.24239838,-0.091098465,0.89454836,0.12291668,0.048314095,2.0451365,0.0011065128,0.094606355
103436000,103356000,-0.24239838,-0.091098465,0.89454836,0.12291668,0.048314095,2.0451365,0.0011065128,0.094606355
103444000,103364000,-0.24177824,-0.0888673,0.8944464,0.12159644,0.08780098,2.044512,0.0011065128,0.094606355
103452000,103372000,-0.24177824,-0.0888673,0.8944464,0.12159644,0.08780098,2.044512,0.0011065128,0.094606355
103460000,103380000,-0.24177824,-0.0888673,0.8944464,0.12159644,0.08780098,2.044512,0.0011065128,0.094606355
103468000,103388000,-0.24177824,-0.0888673,0.8944464,0.12159644,0.08780098,2.044512,0.0011065128,0.094606355
103476000,103396000,-0.24177824,-0.0888673,0.8944464,0.12159644,0.08780098,2.044512,0.0011065128,0.094606355
103484000,103404000,-0.24177824,-0.0888673,0.8944464,0.12159644,0.08780098,2.044512,0.0011065128,0.094606355
103492000,103412000,-0.24177824,-0.0888673,0.8944464,0.12159644,0.08780098,2.044512,0.0011065128,0.094606355
103500000,103420000,-0.24177824,-0.0888673,0.8944464,0.12159644,0.08780098,2.044512,0.0011065128,0.094606355
103508000,103428000,-0.24177824,-0.0888673,0.8944464,0.12159644,0.08780098,2.044512,0.0011065128,0.094606355
103516000,103436000,-0.24177824,-0.0888673,0.8944464,0.12159644,0.08780098,2.044512,0.0011065128,0.094606355
103524000,103444000,-0.24293157,-0.08853695,0.85487527,0.11834997,0.08780098,2.044512,0.0017820796,0.09447591
103532000,103452000,-0.24293157,-0.08853695,0.85487634,0.11835106,0.08780098,2.044512,0.0017820796,0.09447591
103540000,103460000,-0.24242626,-0.08674516,0.85477805,0.11710272,0.07247162,2.0439696,0.0017820796,0.09447591
103548000,103468000,-0.24242626,-0.08674516,0.8547791,0.11710381,0.07247162,2.0439696,0.0017820796,0.09447591
103556000,103476000,-0.24242626,-0.08674516,0.8547802,0.117104895,0.07247162,2.0439696,0.0017820796,0.09447591
103564000,103484000,-0.24242626,-0.08674516,0.85478127,0.11710598,0.07247162,2.0439696,0.0017820796,0.09447591
103572000,103492000,-0.24242626,-0.08674516,0.85478234,0.11710707,0.07247162,2.0439696,0.0017820796,0.09447591
103580000,103500000,-0.24242626,-0.08674516,0.8547834,0.11710816,0.07247162,2.0439696,0.0017820796,0.09447591
103588000,103508000,-0.24242626,-0.08674516,0.8547845,0.11710925,0.07247162,2.0439696,0.0017820796,0.09447591
103596000,103516000,-0.24242626,-0.08674516,0.85478556,0.117110334,0.07247162,2.0439696,0.0017820796,0.09447591
103604000,103524000,-0.24242626,-0.08674516,0.85478663,0.11711142,0.07247162,2.0439696,0.0017820796,0.09447591
103612000,103532000,-0.24242626,-0.08674516,0.8547877,0.11711251,0.07247162,2.0439696,0.0017820796,0.09447591
103620000,103540000,-0.24242626,-0.08674516,0.8547888,0.1171136,0.07247162,2.0439696,0.0017820796,0.09447591
103628000,103548000,-0.24242626,-0.08674516,0.85478985,0.117114685,0.07247162,2.0439696,0.0017820796,0.09447591
103636000,103556000,-0.24242626,-0.08674516,0.8547909,0.11711577,0.07247162,2.0439696,0.0017820796,0.09447591
103644000,103564000,-0.2423475,-0.086469725,0.85469514,0.11593228,0.011440277,2.0436292,0.0017820796,0.09447591
103652000,103572000,-0.2423475,-0.086469725,0.8546962,0.115933366,0.011440277,2.0436292,0.0017820796,0.09447591
103660000,103580000,-0.2423475,-0.086469725,0.8546973,0.115934454,0.011440277,2.0436292,0.0017820796,0.09447591
103668000,103588000,-0.2423475,-0.086469725,0.85469836,0.11593554,0.011440277,2.0436292,0.0017820796,0.09447591
103676000,103596000,-0.24373142,-0.08607331,0.8181241,0.11293569,0.011440277,2.0436292,0.002222738,0.09434885
103684000,103604000,-0.24373142,-0.08607331,0.8181252,0.11293678,0.011440277,2.0436292,0.002222738,0.09434885
103692000,103612000,-0.24373142,-0.08607331,0.81812626,0.11293787,0.011440277,2.0436292,0.002222738,0.09434885
103700000,103620000,-0.24373142,-0.08607331,0.81812733,0.112938955,0.011440277,2.0436292,0.002222738,0.09434885
103708000,103628000,-0.24373142,-0.08607331,0.8181284,0.11294004,0.011440277,2.0436292,0.002222738,0.09434885
103716000,103636000,-0.24373142,-0.08607331,0.8181295,0.11294113,0.011440277,2.0436292,0.002222738,0.09434885
103724000,103644000,-0.24373142,-0.08607331,0.81813055,0.11294222,0.011440277,2.0436292,0.002222738,0.09434885
103732000,103652000,-0.24373142,-0.08607331,0.8181316,0.11294331,0.011440277,2.0436292,0.002222738,0.09434885
103740000,103660000,-0.24326447,-0.08455398,0.81802726,0.111828215,0.064949036,2.0397365,0.002222738,0.09434885
103748000,103668000,-0.24326447,-0.08455398,0.81802833,0.1118293,0.064949036,2.0397365,0.002222738,0.09434885
103756000,103676000,-0.24326447,-0.08455398,0.8180294,0.11183039,0.064949036,2.0397365,0.002222738,0.09434885
103764000,103684000,-0.24326447,-0.08455398,0.8180305,0.11183148,0.064949036,2.0397365,0.002222738,0.09434885
103772000,103692000,-0.24326447,-0.08455398,0.81803155,0.11183257,0.064949036,2.0397365,0.002222738,0.09434885
103780000,103700000,-0.24326447,-0.08455398,0.8180326,0.111833654,0.064949036,2.0397365,0.002222738,0.09434885
103788000,103708000,-0.24326447,-0.08455398,0.8180337,0.11183474,0.064949036,2.0397365,0.002222738,0.09434885
103796000,103716000,-0.24326447,-0.08455398,0.81803477,0.11183583,0.064949036,2.0397365,0.002222738,0.09434885
103804000,103724000,-0.24326447,-0.08455398,0.81803584,0.11183692,0.064949036,2.0397365,0.002222738,0.09434885
103812000,103732000,-0.24326447,-0.08455398,0.8180369,0.111838005,0.064949036,2.0397365,0.002222738,0.09434885
103820000,103740000,-0.24326447,-0.08455398,0.818038,0.11183909,0.064949036,2.0397365,0.002222738,0.09434885
103828000,103748000,-0.24396,-0.08435469,0.78424793,0.10906586,0.064949036,2.0397365,0.0011611967,0.09418709
103836000,103756000,-0.24252969,-0.079697,0.78414875,0.10800372,0.20398617,2.0393298,0.0011611967,0.09418709
103844000,103764000,-0.24252969,-0.079697,0.7841498,0.10800481,0.20398617,2.0393298,0.0011611967,0.09418709
103852000,103772000,-0.24252969,-0.079697,0.7841509,0.108005896,0.20398617,2.0393298,0.0011611967,0.09418709
103860000,103780000,-0.24252969,-0.079697,0.784152,0.108006984,0.20398617,2.0393298,0.0011611967,0.09418709
103868000,103788000,-0.24252969,-0.079697,0.78415304,0.10800807,0.20398617,2.0393298,0.0011611967,0.09418709
103876000,103796000,-0.24252969,-0.079697,0.7841541,0.10800916,0.20398617,2.0393298,0.0011611967,0.09418709
103884000,103804000,-0.24252969,-0.079697,0.7841552,0.10801025,0.20398617,2.0393298,0.0011611967,0.09418709
103892000,103812000,-0.24252969,-0.079697,0.78415626,0.108011335,0.20398617,2.0393298,0.0011611967,0.09418709
103900000,103820000,-0.24252969,-0.079697,0.78415734,0.10801242,0.20398617,2.0393298,0.0011611967,0.09418709
103908000,103828000,-0.24252969,-0.079697,0.7841584,0.10801351,0.20398617,2.0393298,0.0011611967,0.09418709
103916000,103836000,-0.24252969,-0.079697,0.7841595,0.1080146,0.20398617,2.0393298,0.0011611967,0.09418709
103924000,103844000,-0.24252969,-0.079697,0.78416055,0.108015686,0.20398617,2.0393298,0.0011611967,0.09418709
103932000,103852000,-0.24252969,-0.079697,0.7841616,0.108016774,0.20398617,2.0393298,0.0011611967,0.09418709
103940000,103860000,-0.24220037,-0.078637294,0.784065,0.107006,0.047571182,2.0391035,0.0011611967,0.09418709
103948000,103868000,-0.24220037,-0.078637294,0.7840661,0.10700709,0.047571182,2.0391035,0.0011611967,0.09418709
103956000,103876000,-0.24220037,-0.078637294,0.78406715,0.107008174,0.047571182,2.0391035,0.0011611967,0.09418709
103964000,103884000,-0.24220037,-0.078637294,0.7840682,0.10700926,0.047571182,2.0391035,0.0011611967,0.09418709
103972000,103892000,-0.24220037,-0.078637294,0.7840693,0.10701035,0.047571182,2.0391035,0.0011611967,0.09418709
103980000,103900000,-0.24290124,-0.07843642,0.75276273,0.104439706,0.047571182,2.0391035,0.0012148508,0.09406626
103988000,103908000,-0.24290124,-0.07843642,0.7527638,0.10444079,0.047571182,2.0391035,0.0012148508,0.09406626
103996000,103916000,-0.24290124,-0.07843642,0.7527649,0.10444188,0.047571182,2.0391035,0.0012148508,0.09406626
104004000,103924000,-0.24290124,-0.07843642,0.75276595,0.10444297,0.047571182,2.0391035,0.0012148508,0.09406626
104012000,103932000,-0.24290124,-0.07843642,0.752767,0.10444406,0.047571182,2.0391035,0.0012148508,0.09406626
104020000,103940000,-0.24290124,-0.07843642,0.7527681,0.104445145,0.047571182,2.0391035,0.0012148508,0.09406626
104028000,103948000,-0.24290124,-0.07843642,0.7527692,0.104446225,0.047571182,2.0391035,0.0012148508,0.09406626
104036000,103956000,-0.24290124,-0.07843642,0.75277025,0.104447305,0.047571182,2.0391035,0.0012148508,0.09406626
104044000,103964000,-0.24180545,-0.07491667,0.75267774,0.10348277,0.16173935,2.038975,0.0012148508,0.09406626
