timestamp,timestamp_sample,indicated_airspeed_m_s,true_airspeed_m_s,air_temperature_celsius,confidence
3484000,3484000,1.1622407,1.1639723,14.809473,1.0
3588000,3588000,-0.98205805,-0.9835193,14.809473,1.0
3688000,3688000,0.5828914,0.58375746,14.809473,1.0
3788000,3788000,1.1845645,1.186329,14.809473,1.0
3888000,3888000,0.69213766,0.6931706,14.809473,1.0
3988000,3988000,-0.873999,-0.87529844,14.809473,1.0
4088000,4088000,-1.6511139,-1.6535794,14.809473,1.0
4188000,4188000,-0.46553418,-0.46623266,14.809473,1.0
4288000,4288000,1.6038848,1.6062794,14.809473,1.0
4388000,4388000,-1.1376393,-1.1393222,14.809473,1.0
4488000,4488000,-1.2277845,-1.2296139,14.809473,1.0
4588000,4588000,-1.3082455,-1.3101914,14.809473,1.0
4684000,4684000,-0.85041445,-0.85168236,14.809473,1.0
4788000,4788000,1.2482613,1.2501138,14.809473,1.0
4884000,4884000,-0.23349021,-0.23383929,14.809473,1.0
4984000,4984000,0.12309213,0.12327461,14.809473,1.0
5084000,5084000,1.2247508,1.2265793,14.809473,1.0
5184000,5184000,-1.8093247,-1.8120207,14.809473,1.0
5284000,5284000,0.5412381,0.54204243,14.809473,1.0
5388000,5388000,-0.090958394,-0.091094874,14.809473,1.0
5484000,5484000,0.7313657,0.7324548,14.809473,1.0
5584000,5584000,-0.8307205,-0.8319573,14.809473,1.0
5688000,5688000,-0.62850726,-0.62944514,14.809473,1.0
5784000,5784000,-1.987473,-1.990436,14.809473,1.0
5884000,5884000,0.14988281,0.15010683,14.809473,1.0
5988000,5988000,0.84437066,0.8456303,14.809473,1.0
6084000,6084000,-0.6217521,-0.6226781,14.809473,1.0
6184000,6184000,-1.9656355,-1.9685664,14.809473,1.0
6284000,6284000,1.7971342,1.7998153,14.809473,1.0
6388000,6388000,1.1184031,1.1200683,14.809473,1.0
6484000,6484000,1.1002473,1.1018841,14.809473,1.0
6588000,6588000,-0.40549228,-0.4060959,14.809473,1.0
6684000,6684000,0.37525326,0.3758155,14.809473,1.0
6788000,6788000,0.7331201,0.73420984,14.809473,1.0
6888000,6888000,1.2372693,1.2391149,14.809473,1.0
6984000,6984000,1.2123909,1.2141972,14.809473,1.0
7088000,7088000,1.2411598,1.2430078,14.809473,1.0
7184000,7184000,-1.1133356,-1.1149952,14.809473,1.0
7284000,7284000,-1.306485,-1.3084319,14.809473,1.0
7384000,7384000,0.5627585,0.56359667,14.809473,1.0
7484000,7484000,-1.8906559,-1.8934739,14.809473,1.0
7584000,7584000,1.3509842,1.3529996,14.809473,1.0
7688000,7688000,0.69242275,0.6934578,14.809473,1.0
7788000,7788000,1.3663296,1.3683647,14.809473,1.0
7884000,7884000,-0.69473773,-0.6957772,14.809473,1.0
7988000,7988000,-0.974339,-0.975795,14.809473,1.0
8088000,8088000,-1.607985,-1.6103783,14.809473,1.0
8184000,8184000,-1.8010354,-1.8037229,14.809473,1.0
8284000,8284000,1.9411612,1.9440625,14.809473,1.0
8388000,8388000,-1.1786402,-1.1803995,14.809473,1.0
8488000,8488000,-0.95891076,-0.96035004,14.809473,1.0
8588000,8588000,0.6227299,0.6236598,14.809473,1.0
8684000,8684000,-1.3724338,-1.3744856,14.809473,1.0
8784000,8784000,-0.48681068,-0.4875358,14.809473,1.0
8888000,8888000,2.3092983,2.3127506,14.809473,1.0
8988000,8988000,1.2539597,1.2558315,14.809473,1.0
9084000,9084000,0.46717554,0.46787137,14.809473,1.0
9188000,9188000,1.3136826,1.3156435,14.809473,1.0
9288000,9288000,0.79302645,0.79421276,14.809473,1.0
9388000,9388000,-0.84782505,-0.84908944,14.809473,1.0
9488000,9488000,-0.9225469,-0.92392206,14.809473,1.0
9588000,9588000,-1.0582172,-1.0597932,14.809473,1.0
9688000,9688000,0.80498475,0.806188,14.809473,1.0
9784000,9784000,-0.64295346,-0.6439124,14.809473,1.0
9884000,9884000,-0.86531186,-0.8666006,14.809473,1.0
9984000,9984000,-0.94902104,-0.9504379,14.809473,1.0
10088000,10088000,-1.254553,-1.2564123,14.809473,1.0
10188000,10188000,0.7149725,0.71604174,14.809473,1.0
10284000,10284000,1.1417068,1.1434078,14.809473,1.0
10388000,10388000,0.8559101,0.8571913,14.809473,1.0
10484000,10484000,-1.1905116,-1.1922873,14.809473,1.0
10584000,10584000,-1.5634812,-1.5658131,14.809473,1.0
10688000,10688000,-1.5767194,-1.5790732,14.809473,1.0
10788000,10788000,-1.3901258,-1.3921936,14.809473,1.0
10884000,10884000,-0.05523911,-0.055321377,14.809473,1.0
10984000,10984000,1.3566654,1.3586863,14.809473,1.0
11084000,11084000,0.6805414,0.6815587,14.809473,1.0
11184000,11184000,0.93326074,0.93464893,14.809473,1.0
11288000,11288000,0.4135509,0.41416997,14.809473,1.0
11388000,11388000,-1.370622,-1.3726575,14.809473,1.0
11488000,11488000,0.5457882,0.54660314,14.809473,1.0
11584000,11584000,-0.2816463,-0.28206486,14.809473,1.0
11688000,11688000,0.6402639,0.6412181,14.809473,1.0
11784000,11784000,0.5712774,0.57212925,14.809473,1.0
11884000,11884000,-1.3460442,-1.3480512,14.809473,1.0
11988000,11988000,-0.35796675,-0.35850152,14.809473,1.0
12088000,12088000,-1.6528331,-1.6552926,14.809473,1.0
12188000,12188000,0.9525659,0.9539842,14.809473,1.0
12288000,12288000,-0.26933947,-0.2697423,14.809473,1.0
12384000,12384000,-0.6473395,-0.6483082,14.809473,1.0
12488000,12488000,-0.7221824,-0.7232641,14.809473,1.0
12588000,12588000,1.3072529,1.309199,14.809473,1.0
12684000,12684000,-1.5470601,-1.5493718,14.809473,1.0
12788000,12788000,0.75405645,0.7551806,14.809473,1.0
12888000,12888000,-1.18699,-1.1887567,14.809473,1.0
12988000,12988000,1.4057593,1.4078628,14.809473,1.0
13088000,13088000,0.8900146,0.89134604,14.809473,1.0
13188000,13188000,-0.50224274,-0.50299233,14.809473,1.0
13288000,13288000,-1.6379827,-1.6404188,14.809473,1.0
13388000,13388000,-1.4383745,-1.4405136,14.809473,1.0
13484000,13484000,-0.87904423,-0.88035476,14.809473,1.0
13588000,13588000,-1.3388474,-1.3408432,14.809473,1.0
13688000,13688000,-0.60774,-0.60864925,14.809473,1.0
13788000,13788000,-0.44214293,-0.44280285,14.809473,1.0
13884000,13884000,0.98265296,0.98412156,14.809473,1.0
13988000,13988000,-0.56613797,-0.5669807,14.809473,1.0
14088000,14088000,-1.0086435,-1.0101475,14.809473,1.0
14188000,14188000,-0.98150796,-0.98297155,14.809473,1.0
14284000,14284000,-0.80776715,-0.80897146,14.809473,1.0
14388000,14388000,-0.6175326,-0.61844796,14.809473,1.0
14484000,14484000,1.5505048,1.5528115,14.809473,1.0
14584000,14584000,-1.0300921,-1.0316241,14.809473,1.0
14688000,14688000,-1.8286169,-1.8313481,14.809473,1.0
14784000,14784000,-1.3817987,-1.383864,14.809473,1.0
14888000,14888000,1.0071456,1.0086516,14.809473,1.0
14988000,14988000,1.0014517,1.0029454,14.809473,1.0
15088000,15088000,0.6629822,0.6639712,14.809473,1.0
15184000,15184000,0.9835214,0.9849872,14.809473,1.0
15288000,15288000,-0.82010484,-0.8213268,14.809473,1.0
15384000,15384000,1.0555466,1.0571136,14.809473,1.0
15488000,15488000,-2.320674,-2.324135,14.809473,1.0
15588000,15588000,1.4081668,1.4102746,14.809473,1.0
15684000,15684000,0.79105437,0.79223454,14.809473,1.0
15788000,15788000,-0.6234519,-0.62437904,14.809473,1.0
15884000,15884000,1.6190252,1.6214329,14.809473,1.0
15984000,15984000,0.47500128,0.47571072,14.809473,1.0
16088000,16088000,0.87814754,0.87945694,14.809473,1.0
16188000,16188000,1.4370111,1.4391601,14.809473,1.0
16284000,16284000,-0.6227223,-0.62365127,14.809473,1.0
16388000,16388000,1.3538853,1.3559047,14.809473,1.0
16488000,16488000,1.3088189,1.3107796,14.809473,1.0
16584000,16584000,-0.8669666,-0.86826074,14.809473,1.0
16688000,16688000,1.1175095,1.119177,14.809473,1.0
16788000,16788000,1.365554,1.3675939,14.809473,1.0
16884000,16884000,2.1994147,2.202705,14.809473,1.0
16984000,16984000,-0.563699,-0.56453997,14.809473,1.0
17088000,17088000,-1.208237,-1.2100359,14.809473,1.0
17188000,17188000,1.2805444,1.2824495,14.809473,1.0
17288000,17288000,0.5768627,0.57772213,14.809473,1.0
17388000,17388000,1.6507058,1.653172,14.809473,1.0
17484000,17484000,-0.8445153,-0.84577507,14.809473,1.0
17588000,17588000,0.8059336,0.8071423,14.809473,1.0
17688000,17688000,1.0551823,1.0567508,14.809473,1.0
17784000,17784000,1.0179689,1.0194862,14.809473,1.0
17888000,17888000,1.228643,1.2304707,14.809473,1.0
17984000,17984000,0.3243602,0.32484314,14.809473,1.0
18088000,18088000,1.2841244,1.2860413,14.809473,1.0
18188000,18188000,-1.0964826,-1.0981178,14.809473,1.0
18288000,18288000,-0.32079676,-0.32127604,14.809473,1.0
18384000,18384000,-0.39672083,-0.39731377,14.809473,1.0
18484000,18484000,1.7334331,1.7360173,14.809473,1.0
18588000,18588000,1.4185873,1.4206994,14.809473,1.0
18684000,18684000,1.3614013,1.3634279,14.809473,1.0
18788000,18788000,-1.3535439,-1.3555611,14.809473,1.0
18888000,18888000,0.4704544,0.4711576,14.809473,1.0
18984000,18984000,0.643572,0.6445358,14.809473,1.0
19088000,19088000,-0.20933962,-0.20965171,14.809473,1.0
19188000,19188000,-0.6719737,-0.6729727,14.809473,1.0
19284000,19284000,-1.5403851,-1.5426822,14.809473,1.0
19388000,19388000,0.50663775,0.50739187,14.809473,1.0
19488000,19488000,-1.8023906,-1.8050742,14.809473,1.0
19588000,19588000,-0.5104332,-0.51119584,14.809473,1.0
19688000,19688000,1.2795004,1.2814082,14.809473,1.0
19788000,19788000,1.5019474,1.5041939,14.809473,1.0
19884000,19884000,-0.4905665,-0.49129692,14.809473,1.0
19988000,19988000,-1.4101716,-1.4122691,14.809473,1.0
20088000,20088000,-0.9645591,-0.96599936,14.809473,1.0
20184000,20184000,1.4919796,1.4941928,14.809473,1.0
20288000,20288000,1.5800908,1.5824413,14.809473,1.0
20388000,20388000,1.1034485,1.1050898,14.809473,1.0
20488000,20488000,1.2101219,1.2119277,14.809473,1.0
20588000,20588000,-1.1405579,-1.1422603,14.809473,1.0
20688000,20688000,-1.6902758,-1.6927935,14.809473,1.0
20788000,20788000,1.3687412,1.3707824,14.809473,1.0
20888000,20888000,1.3760518,1.3780937,14.809473,1.0
20988000,20988000,0.90459776,0.9059473,14.809473,1.0
21088000,21088000,-0.8485132,-0.8497737,14.809473,1.0
21188000,21188000,1.1728938,1.174636,14.809473,1.0
21288000,21288000,0.93475205,0.93613714,14.809473,1.0
21384000,21384000,1.0229611,1.0244901,14.809473,1.0
21484000,21484000,1.4607711,1.462946,14.809473,1.0
21588000,21588000,-1.0309099,-1.0324492,14.809473,1.0
21684000,21684000,-1.030361,-1.0319005,14.809473,1.0
21788000,21788000,-0.5640855,-0.5649238,14.809473,1.0
21888000,21888000,-1.0929326,-1.0945588,14.809473,1.0
21984000,21984000,-1.5539261,-1.556244,14.809473,1.0
22088000,22088000,-1.0739207,-1.0755211,14.809473,1.0
22184000,22184000,-1.3443451,-1.3463486,14.809473,1.0
22284000,22284000,1.266904,1.2687966,14.809473,1.0
22384000,22384000,1.0601655,1.0617393,14.809473,1.0
22488000,22488000,1.0469942,1.0485554,14.809473,1.0
22584000,22584000,-1.6441102,-1.6465584,14.809473,1.0
22688000,22688000,-0.9814284,-0.9828905,14.809473,1.0
22784000,22784000,1.0663366,1.0679258,14.809473,1.0
22884000,22884000,-0.955607,-0.95703304,14.809473,1.0
22984000,22984000,-0.6845034,-0.68552387,14.809473,1.0
23088000,23088000,-1.2915624,-1.2934842,14.809473,1.0
23184000,23184000,-1.3956527,-1.3977374,14.809473,1.0
23284000,23284000,0.7789551,0.78012,14.809473,1.0
23388000,23388000,-0.7367909,-0.73788905,14.809473,1.0
23484000,23484000,0.71943957,0.7205098,14.809473,1.0
23584000,23584000,-0.7488062,-0.7499227,14.809473,1.0
23688000,23688000,-0.61278886,-0.61370474,14.809473,1.0
23784000,23784000,0.9855889,0.98706037,14.809473,1.0
23884000,23884000,-1.4241606,-1.4262853,14.809473,1.0
23988000,23988000,1.2634243,1.2653059,14.809473,1.0
24088000,24088000,1.0299873,1.0315217,14.809473,1.0
24188000,24188000,1.3118713,1.3138235,14.809473,1.0
24288000,24288000,1.1553656,1.1570798,14.809473,1.0
24388000,24388000,1.3601333,1.3621743,14.809473,1.0
24484000,24484000,1.5332289,1.5355141,14.809473,1.0
24588000,24588000,0.46574023,0.46643552,14.809473,1.0
24688000,24688000,-0.9942927,-0.99577135,14.809473,1.0
24784000,24784000,-1.084268,-1.0858858,14.809473,1.0
24884000,24884000,-1.3304694,-1.3324534,14.809473,1.0
24988000,24988000,-1.0543301,-1.0559031,14.809473,1.0
25084000,25084000,0.7603767,0.7615099,14.809473,1.0
25184000,25184000,0.50676894,0.5075197,14.809473,1.0
25284000,25284000,1.6112348,1.6136357,14.809473,1.0
25388000,25388000,1.8697386,1.8725274,14.809473,1.0
25484000,25484000,1.4633317,1.4655187,14.809473,1.0
25588000,25588000,1.4112016,1.4133046,14.809473,1.0
25688000,25688000,-1.2938752,-1.2958056,14.809473,1.0
25788000,25788000,-0.5388809,-0.53968257,14.809473,1.0
25888000,25888000,-0.5534479,-0.5542756,14.809473,1.0
25988000,25988000,1.3653524,1.3673942,14.809473,1.0
26088000,26088000,-0.27864334,-0.2790593,14.809473,1.0
26192000,26188000,0.6244883,0.62542033,14.809473,1.0
26288000,26288000,1.4686313,1.4708141,14.809473,1.0
26384000,26384000,-1.1907054,-1.1924807,14.809473,1.0
26484000,26484000,1.3556793,1.3577071,14.809473,1.0
26588000,26588000,0.37529472,0.3758552,14.809473,1.0
26684000,26684000,-1.3496739,-1.3516861,14.809473,1.0
26784000,26784000,1.1341968,1.1358912,14.809473,1.0
26888000,26888000,-1.6637478,-1.6662283,14.809473,1.0
26988000,26988000,-2.0994375,-2.1025696,14.809473,1.0
27084000,27084000,1.0726391,1.0742404,14.809473,1.0
27188000,27188000,-1.0964454,-1.0980831,14.809473,1.0
27288000,27288000,-1.4941958,-1.4964195,14.809473,1.0
27384000,27384000,-1.3189288,-1.3208969,14.809473,1.0
27488000,27488000,-1.8710632,-1.8738518,14.809473,1.0
27588000,27588000,-1.968482,-1.9714049,14.809473,1.0
27688000,27688000,-0.9132131,-0.91457236,14.809473,1.0
27788000,27788000,-0.80207366,-0.80327123,14.809473,1.0
27888000,27888000,-0.58090204,-0.58176786,14.809473,1.0
27988000,27988000,-1.486539,-1.4887637,14.809473,1.0
28088000,28088000,-1.0818945,-1.0835105,14.809473,1.0
28188000,28188000,1.4025028,1.4045858,14.809473,1.0
28284000,28284000,1.3846569,1.3867172,14.809473,1.0
28388000,28388000,1.696536,1.6990652,14.809473,1.0
28488000,28488000,0.41704857,0.4176723,14.809473,1.0
28584000,28584000,0.49233684,0.4930749,14.809473,1.0
28688000,28688000,0.34568608,0.34620243,14.809473,1.0
28788000,28788000,1.0683143,1.0699074,14.809473,1.0
28888000,28888000,-0.32200316,-0.3224822,14.809473,1.0
28988000,28988000,-0.8430488,-0.84430814,14.809473,1.0
29088000,29088000,-1.7887515,-1.7914118,14.809473,1.0
29184000,29184000,1.8555181,1.8582768,14.809473,1.0
29288000,29288000,0.6036406,0.6045429,14.809473,1.0
29388000,29388000,1.6326464,1.6350912,14.809473,1.0
29488000,29488000,-1.5748438,-1.5771871,14.809473,1.0
29588000,29588000,-1.3938038,-1.3958797,14.809473,1.0
29688000,29688000,1.4534006,1.4555689,14.809473,1.0
29784000,29784000,1.549673,1.5519692,14.809473,1.0
29888000,29888000,2.0959787,2.0990965,14.809473,1.0
29988000,29988000,1.1751547,1.1769111,14.809473,1.0
30088000,30088000,-1.4781909,-1.480396,14.809473,1.0
30188000,30188000,1.1618934,1.1636246,14.809473,1.0
30288000,30288000,0.384197,0.38477147,14.809473,1.0
30384000,30384000,1.0206616,1.0221852,14.809473,1.0
30488000,30488000,-0.8774216,-0.87873095,14.809473,1.0
30588000,30588000,-0.8357648,-0.8370096,14.809473,1.0
30688000,30688000,1.7475857,1.7501951,14.809473,1.0
30788000,30788000,0.90185034,0.9031912,14.809473,1.0
30884000,30884000,-1.1565465,-1.1582761,14.809473,1.0
30984000,30984000,-0.93326235,-0.934659,14.809473,1.0
31088000,31088000,1.6881433,1.6906635,14.809473,1.0
31188000,31188000,1.5722535,1.5746027,14.809473,1.0
31284000,31284000,0.89907664,0.9004109,14.809473,1.0
31388000,31388000,1.2454829,1.2473332,14.809473,1.0
31488000,31488000,-1.162043,-1.1637684,14.809473,1.0
31584000,31584000,-1.1679173,-1.1696544,14.809473,1.0
31684000,31684000,-0.124928966,-0.12511533,14.809473,1.0
31784000,31784000,1.0709676,1.0725608,14.809473,1.0
31888000,31888000,1.1471939,1.1489025,14.809473,1.0
31984000,31984000,-0.4688801,-0.46957833,14.809473,1.0
32088000,32088000,-0.1724382,-0.17269467,14.809473,1.0
32188000,32188000,0.95839125,0.959822,14.809473,1.0
32288000,32288000,2.0543644,2.0574377,14.809473,1.0
32388000,32388000,0.34812245,0.34864226,14.809473,1.0
32484000,32484000,-1.1000484,-1.1016856,14.809473,1.0
32588000,32588000,-1.4639529,-1.466135,14.809473,1.0
32688000,32688000,-0.91247606,-0.9138371,14.809473,1.0
32788000,32788000,1.585511,1.587872,14.809473,1.0
32884000,32884000,-1.5055429,-1.507787,14.809473,1.0
32988000,32988000,1.4432337,1.4453872,14.809473,1.0
33088000,33088000,1.2579087,1.2597902,14.809473,1.0
33188000,33188000,-1.7001947,-1.7027313,14.809473,1.0
33288000,33288000,0.711852,0.71291566,14.809473,1.0
33388000,33388000,-0.87229234,-0.87359405,14.809473,1.0
33488000,33488000,1.3678705,1.3699023,14.809473,1.0
33588000,33588000,-1.3619467,-1.3639818,14.809473,1.0
33684000,33684000,1.3473026,1.3493109,14.809473,1.0
33784000,33784000,1.5820944,1.5844525,14.809473,1.0
33888000,33888000,0.4343493,0.43499768,14.809473,1.0
33988000,33988000,-1.248533,-1.250401,14.809473,1.0
34084000,34084000,1.3095928,1.3115429,14.809473,1.0
34188000,34188000,-0.23226547,-0.23261085,14.809473,1.0
34288000,34288000,-1.0299752,-1.0315143,14.809473,1.0
34388000,34388000,1.4556276,1.457792,14.809473,1.0
34488000,34488000,-2.1321647,-2.1353502,14.809473,1.0
34584000,34584000,-1.3784853,-1.3805354,14.809473,1.0
34688000,34688000,-0.54051894,-0.54132533,14.809473,1.0
34788000,34788000,1.1499616,1.1516716,14.809473,1.0
34888000,34888000,-0.9225015,-0.92387867,14.809473,1.0
34988000,34988000,1.0584301,1.0600057,14.809473,1.0
35088000,35088000,1.6794066,1.6819096,14.809473,1.0
35184000,35184000,-1.3666312,-1.3686651,14.809473,1.0
35288000,35288000,1.414498,1.4166108,14.809473,1.0
35388000,35388000,-0.57216597,-0.57301944,14.809473,1.0
35488000,35488000,-1.963689,-1.9666219,14.809473,1.0
35588000,35588000,1.6070093,1.6094118,14.809473,1.0
35684000,35684000,0.90670025,0.90805155,14.809473,1.0
35784000,35784000,0.8045719,0.80577296,14.809473,1.0
35884000,35884000,1.7909199,1.7935922,14.809473,1.0
35988000,35988000,1.402781,1.4048738,14.809473,1.0
36088000,36088000,-1.6023039,-1.6046944,14.809473,1.0
36188000,36188000,-1.2537767,-1.2556425,14.809473,1.0
36288000,36288000,0.6709078,0.67190856,14.809473,1.0
36384000,36384000,0.984809,0.98627704,14.809473,1.0
36484000,36484000,0.3338804,0.33437732,14.809473,1.0
36588000,36588000,1.2921644,1.2940958,14.809473,1.0
36684000,36684000,-0.84195524,-0.84321207,14.809473,1.0
36788000,36788000,-0.87831324,-0.879624,14.809473,1.0
36888000,36888000,-1.5904633,-1.5928366,14.809473,1.0
36984000,36984000,1.1433159,1.1450181,14.809473,1.0
37088000,37088000,-1.1332717,-1.1349605,14.809473,1.0
37188000,37188000,-0.86600256,-0.86729383,14.809473,1.0
37288000,37288000,1.7397768,1.742366,14.809473,1.0
37388000,37388000,1.1776726,1.1794231,14.809473,1.0
37488000,37488000,-1.4088359,-1.4109349,14.809473,1.0
37584000,37584000,-0.624165,-0.6250941,14.809473,1.0
37684000,37684000,-0.7167943,-0.71786183,14.809473,1.0
37784000,37784000,0.4423465,0.44300583,14.809473,1.0
37884000,37884000,-1.2744675,-1.2763715,14.809473,1.0
37984000,37984000,-1.4845359,-1.4867514,14.809473,1.0
38088000,38088000,1.7921592,1.7948273,14.809473,1.0
38188000,38188000,0.6295176,0.63045925,14.809473,1.0
38288000,38288000,-0.9423745,-0.9437782,14.809473,1.0
38388000,38388000,1.3280022,1.3299844,14.809473,1.0
38484000,38484000,-0.81012714,-0.81133705,14.809473,1.0
38588000,38588000,1.6015079,1.6039029,14.809473,1.0
38688000,38688000,-0.23760046,-0.2379541,14.809473,1.0
38788000,38788000,1.4296757,1.4318068,14.809473,1.0
38888000,38888000,-1.033639,-1.0351853,14.809473,1.0
38988000,38988000,1.6500865,1.652554,14.809473,1.0
39084000,39084000,-0.046053816,-0.04612247,14.809473,1.0
39188000,39188000,1.4044166,1.4065006,14.809473,1.0
39288000,39288000,1.3661284,1.3681678,14.809473,1.0
39388000,39388000,-1.0894344,-1.0910556,14.809473,1.0
39484000,39484000,-1.0718902,-1.0734919,14.809473,1.0
39588000,39588000,1.783156,1.7858131,14.809473,1.0
39688000,39688000,1.141602,1.1433051,14.809473,1.0
39788000,39788000,-1.5777586,-1.5801188,14.809473,1.0
39888000,39888000,1.5017587,1.5039972,14.809473,1.0
39988000,39988000,-1.0836385,-1.0852572,14.809473,1.0
40088000,40088000,-1.1015532,-1.1032002,14.809473,1.0
40188000,40188000,-1.284247,-1.2861598,14.809473,1.0
40284000,40284000,0.8677709,0.8690696,14.809473,1.0
40388000,40388000,-1.0577755,-1.0593563,14.809473,1.0
40488000,40488000,0.89439046,0.89571935,14.809473,1.0
40584000,40584000,0.4668853,0.4675808,14.809473,1.0
40688000,40688000,-0.78415483,-0.7853222,14.809473,1.0
40788000,40788000,1.9603497,1.9632713,14.809473,1.0
40888000,40888000,-0.7099908,-0.7110454,14.809473,1.0
40988000,40988000,1.6032243,1.6056135,14.809473,1.0
41088000,41088000,1.0405573,1.0421093,14.809473,1.0
41188000,41188000,-1.0497794,-1.0513436,14.809473,1.0
41288000,41288000,-0.100299634,-0.10044977,14.809473,1.0
41388000,41388000,1.2140993,1.2159035,14.809473,1.0
41488000,41488000,-2.1197877,-2.1229548,14.809473,1.0
41588000,41588000,0.8020951,0.8032925,14.809473,1.0
41688000,41688000,-0.28100026,-0.28142115,14.809473,1.0
41784000,41784000,-1.8161985,-1.8188975,14.809473,1.0
41888000,41888000,-0.7898072,-0.7909852,14.809473,1.0
41988000,41988000,1.6304,1.6328396,14.809473,1.0
42088000,42088000,-0.76994073,-0.7710861,14.809473,1.0
42188000,42188000,-0.9274419,-0.928828,14.809473,1.0
42288000,42288000,-0.8783071,-0.87961715,14.809473,1.0
42384000,42384000,0.96398747,0.9654185,14.809473,1.0
42488000,42488000,-0.52106625,-0.52184445,14.809473,1.0
42588000,42588000,-1.4199183,-1.4220333,14.809473,1.0
42688000,42688000,0.3930141,0.39360106,14.809473,1.0
42788000,42788000,-1.2584051,-1.2602861,14.809473,1.0
42888000,42888000,0.26328108,0.26367345,14.809473,1.0
42988000,42988000,-0.81033486,-0.8115435,14.809473,1.0
43084000,43084000,1.3040644,1.3060048,14.809473,1.0
43188000,43188000,-1.7177522,-1.7203051,14.809473,1.0
43288000,43288000,-1.1405002,-1.1422042,14.809473,1.0
43388000,43388000,0.99008185,0.9915613,14.809473,1.0
43488000,43488000,1.6521008,1.6545637,14.809473,1.0
43584000,43584000,0.764939,0.76608294,14.809473,1.0
43684000,43684000,0.91833085,0.9197011,14.809473,1.0
43784000,43784000,0.90719825,0.9085486,14.809473,1.0
43884000,43884000,1.1779989,1.1797527,14.809473,1.0
43984000,43984000,1.0171098,1.0186287,14.809473,1.0
44088000,44088000,-0.51549786,-0.51626533,14.809473,1.0
44184000,44184000,-1.6332182,-1.635654,14.809473,1.0
44288000,44288000,1.4281267,1.4302641,14.809473,1.0
44388000,44388000,-1.8906907,-1.8935165,14.809473,1.0
44488000,44488000,1.7720497,1.774686,14.809473,1.0
44584000,44584000,-1.5311346,-1.5334203,14.809473,1.0
44688000,44688000,-0.9428375,-0.944238,14.809473,1.0
44784000,44784000,-0.49632043,-0.49705794,14.809473,1.0
44888000,44888000,-1.1412919,-1.1429946,14.809473,1.0
44988000,44988000,-1.7320993,-1.7346746,14.809473,1.0
45088000,45088000,-0.6289467,-0.62988454,14.809473,1.0
45184000,45184000,-0.56486267,-0.5657032,14.809473,1.0
45284000,45284000,-0.6661638,-0.66716033,14.809473,1.0
45384000,45384000,0.45527986,0.45595807,14.809473,1.0
45488000,45488000,1.5158621,1.5181233,14.809473,1.0
45588000,45588000,1.179069,1.1808296,14.809473,1.0
45688000,45688000,0.8028227,0.8040202,14.809473,1.0
45784000,45784000,1.1520398,1.15376,14.809473,1.0
45884000,45884000,-1.269302,-1.2711884,14.809473,1.0
45984000,45984000,-1.0777358,-1.0793422,14.809473,1.0
46084000,46084000,-1.5300312,-1.5323133,14.809473,1.0
46184000,46184000,-0.36214173,-0.3626801,14.809473,1.0
46284000,46284000,-1.1620136,-1.1637441,14.809473,1.0
46384000,46384000,1.0740579,1.0756621,14.809473,1.0
46488000,46488000,-1.0229802,-1.0245067,14.809473,1.0
46584000,46584000,-0.51119196,-0.51195556,14.809473,1.0
46684000,46684000,-0.078473,-0.078590535,14.809473,1.0
46788000,46788000,1.1845949,1.186366,14.809473,1.0
46888000,46888000,-1.413075,-1.415187,14.809473,1.0
46984000,46984000,-1.452088,-1.4542557,14.809473,1.0
47088000,47088000,-0.7105766,-0.7116352,14.809473,1.0
47188000,47188000,0.77935916,0.78052,14.809473,1.0
47288000,47288000,-1.3751433,-1.3771954,14.809473,1.0
47384000,47384000,-0.5515896,-0.55240905,14.809473,1.0
47488000,47488000,-0.9312176,-0.9326047,14.809473,1.0
47584000,47584000,0.37499878,0.37555677,14.809473,1.0
47688000,47688000,-1.7488252,-1.7514343,14.809473,1.0
47788000,47788000,0.78155005,0.7827147,14.809473,1.0
47888000,47888000,0.77152216,0.7726705,14.809473,1.0
47988000,47988000,-1.217167,-1.2189837,14.809473,1.0
48088000,48088000,1.4010831,1.403169,14.809473,1.0
48188000,48188000,0.91717243,0.9185399,14.809473,1.0
48284000,48284000,1.3894898,1.3915604,14.809473,1.0
48388000,48388000,0.8519201,0.85319114,14.809473,1.0
48484000,48484000,-0.97257006,-0.97401744,14.809473,1.0
48588000,48588000,0.22434783,0.2246816,14.809473,1.0
48684000,48684000,-1.0869501,-1.088575,14.809473,1.0
48788000,48788000,1.3212965,1.3232721,14.809473,1.0
48888000,48888000,1.2994313,1.3013769,14.809473,1.0
48984000,48984000,-1.6769108,-1.6794107,14.809473,1.0
49084000,49084000,-0.2549002,-0.2552806,14.809473,1.0
49188000,49188000,-1.1747137,-1.176465,14.809473,1.0
49284000,49284000,1.5478477,1.5501485,14.809473,1.0
49384000,49384000,-1.0105295,-1.0120379,14.809473,1.0
49484000,49484000,-1.0691311,-1.0707229,14.809473,1.0
49588000,49588000,-1.402882,-1.4049795,14.809473,1.0
49688000,49688000,-2.030156,-2.0331867,14.809473,1.0
49788000,49788000,-0.90623015,-0.9075798,14.809473,1.0
49888000,49888000,-0.3150644,-0.3155333,14.809473,1.0
49988000,49988000,-0.9094849,-0.9108404,14.809473,1.0
50088000,50088000,0.20066711,0.20096712,14.809473,1.0
50184000,50184000,0.9339905,0.93538547,14.809473,1.0
50288000,50288000,1.5537863,1.5561111,14.809473,1.0
50388000,50388000,-0.9253523,-0.9267358,14.809473,1.0
50484000,50484000,1.2718618,1.2737606,14.809473,1.0
50588000,50588000,0.58669406,0.58756936,14.809473,1.0
50688000,50688000,-1.5931932,-1.5955589,14.809473,1.0
50788000,50788000,-1.7830133,-1.7856703,14.809473,1.0
50888000,50888000,-1.5126522,-1.5149089,14.809473,1.0
50988000,50988000,-1.1702955,-1.172045,14.809473,1.0
51088000,51088000,-0.8570848,-0.8583586,14.809473,1.0
51188000,51188000,1.1102315,1.1118883,14.809473,1.0
51284000,51284000,-0.30473396,-0.30518815,14.809473,1.0
51392000,51388000,1.2413877,1.243235,14.809473,1.0
51484000,51484000,0.96511614,0.96655554,14.809473,1.0
51588000,51588000,1.9464521,1.9493517,14.809473,1.0
51688000,51688000,1.469919,1.472116,14.809473,1.0
51788000,51788000,-0.76398635,-0.7651256,14.809473,1.0
51888000,51888000,0.7356182,0.7367166,14.809473,1.0
51984000,51984000,-0.43179455,-0.43244112,14.809473,1.0
52084000,52084000,-0.73754954,-0.73864776,14.809473,1.0
52188000,52188000,-0.83326817,-0.8345134,14.809473,1.0
52288000,52288000,0.15998769,0.16022529,14.809473,1.0
52388000,52388000,1.3513144,1.3533182,14.809473,1.0
52484000,52484000,0.55968416,0.5605208,14.809473,1.0
52588000,52588000,1.8235513,1.826276,14.809473,1.0
52688000,52688000,0.5662926,0.5671353,14.809473,1.0
52784000,52784000,1.2045004,1.2062942,14.809473,1.0
52888000,52888000,1.3168741,1.3188359,14.809473,1.0
52988000,52988000,-1.3881856,-1.390252,14.809473,1.0
53084000,53084000,1.4609755,1.463163,14.809473,1.0
53184000,53184000,1.4495736,1.4517322,14.809473,1.0
53288000,53288000,-1.7124743,-1.71503,14.809473,1.0
53388000,53388000,1.3164939,1.3184611,14.809473,1.0
53484000,53484000,1.1234858,1.1251597,14.809473,1.0
53588000,53588000,-0.82462335,-0.82585186,14.809473,1.0
53684000,53684000,0.58424014,0.5851129,14.809473,1.0
53784000,53784000,1.0917165,1.0933453,14.809473,1.0
53888000,53888000,0.5002702,0.50101477,14.809473,1.0
53984000,53984000,-0.4425753,-0.44323647,14.809473,1.0
54088000,54088000,1.0946983,1.0963327,14.809473,1.0
54188000,54188000,1.446652,1.4488096,14.809473,1.0
54288000,54288000,0.19002971,0.1903137,14.809473,1.0
54384000,54384000,0.54217666,0.5429874,14.809473,1.0
54484000,54484000,1.1034548,1.1051035,14.809473,1.0
54584000,54584000,0.49972814,0.5004734,14.809473,1.0
54684000,54684000,1.7053043,1.7078507,14.809473,1.0
54788000,54788000,-1.4278314,-1.4299607,14.809473,1.0
54888000,54888000,-0.23849969,-0.23885533,14.809473,1.0
54988000,54988000,0.30847132,0.30893025,14.809473,1.0
55088000,55088000,0.7861799,0.7873507,14.809473,1.0
55184000,55184000,0.6281715,0.6291084,14.809473,1.0
55288000,55288000,-1.6912885,-1.6938113,14.809473,1.0
55388000,55388000,1.3041737,1.306121,14.809473,1.0
55484000,55484000,1.4219687,1.4240937,14.809473,1.0
55588000,55588000,0.42187798,0.42250472,14.809473,1.0
55688000,55688000,-1.2187136,-1.220532,14.809473,1.0
55788000,55788000,1.6122953,1.6147014,14.809473,1.0
55884000,55884000,1.3089163,1.3108611,14.809473,1.0
55984000,55984000,2.130162,2.1333425,14.809473,1.0
56088000,56088000,-0.5574455,-0.55828005,14.809473,1.0
56184000,56184000,-1.4962803,-1.4985174,14.809473,1.0
56288000,56288000,1.8403541,1.8431021,14.809473,1.0
56388000,56388000,0.105580434,0.10573785,14.809473,1.0
56484000,56484000,-1.4004093,-1.4025024,14.809473,1.0
56588000,56588000,0.22593291,0.2262691,14.809473,1.0
56684000,56684000,-1.0354642,-1.0370055,14.809473,1.0
56788000,56788000,-0.4213348,-0.4219629,14.809473,1.0
56888000,56888000,-0.26360002,-0.26399255,14.809473,1.0
56988000,56988000,-0.8385971,-0.8398466,14.809473,1.0
57088000,57088000,-0.6758937,-0.6769025,14.809473,1.0
57184000,57184000,1.241703,1.24355,14.809473,1.0
57288000,57288000,-1.8672932,-1.8700788,14.809473,1.0
57384000,57384000,1.6472298,1.6496955,14.809473,1.0
57488000,57488000,1.540354,1.5426453,14.809473,1.0
57584000,57584000,-2.052671,-2.0557337,14.809473,1.0
57688000,57688000,2.0387063,2.0417407,14.809473,1.0
57788000,57788000,1.4748169,1.4770156,14.809473,1.0
57888000,57888000,1.2873284,1.2892495,14.809473,1.0
57984000,57984000,-0.77277905,-0.77393526,14.809473,1.0
58088000,58088000,-2.0467129,-2.049757,14.809473,1.0
58188000,58188000,1.7360741,1.7386585,14.809473,1.0
58284000,58284000,-0.53974885,-0.5405538,14.809473,1.0
58388000,58388000,-1.6965272,-1.699065,14.809473,1.0
58488000,58488000,0.6624296,0.6634202,14.809473,1.0
58584000,58584000,-1.5797869,-1.5821432,14.809473,1.0
58688000,58688000,1.0933418,1.094971,14.809473,1.0
58788000,58788000,0.67431647,0.6753211,14.809473,1.0
58884000,58884000,1.7441858,1.7467847,14.809473,1.0
58988000,58988000,1.6823499,1.6848612,14.809473,1.0
59084000,59084000,-1.5858268,-1.588187,14.809473,1.0
59184000,59184000,1.2513752,1.253241,14.809473,1.0
59288000,59288000,0.94030446,0.9417081,14.809473,1.0
59388000,59388000,-1.5947111,-1.597082,14.809473,1.0
59484000,59484000,0.5066163,0.5073689,14.809473,1.0
59584000,59584000,1.1172515,1.1189213,14.809473,1.0
59688000,59688000,-1.4325564,-1.4346943,14.809473,1.0
59788000,59788000,1.0619627,1.0635504,14.809473,1.0
59888000,59888000,-0.84191614,-0.84316736,14.809473,1.0
59988000,59988000,-1.3174026,-1.3193687,14.809473,1.0
60084000,60084000,0.17242353,0.17267989,14.809473,1.0
60184000,60184000,1.6555414,1.6580095,14.809473,1.0
60288000,60288000,-1.0644073,-1.0659988,14.809473,1.0
60392000,60388000,-1.2436329,-1.2454865,14.809473,1.0
60484000,60484000,-0.5017701,-0.5025161,14.809473,1.0
60588000,60588000,-0.73672116,-0.73782116,14.809473,1.0
60688000,60688000,0.5986078,0.59949833,14.809473,1.0
60788000,60788000,-1.791001,-1.793668,14.809473,1.0
60888000,60888000,-1.1014555,-1.1030965,14.809473,1.0
60984000,60984000,1.2900246,1.291949,14.809473,1.0
61084000,61084000,-1.1462241,-1.1479355,14.809473,1.0
61188000,61188000,-1.4354678,-1.4376189,14.809473,1.0
61284000,61284000,-1.4022372,-1.4043325,14.809473,1.0
61388000,61388000,0.41219088,0.41280568,14.809473,1.0
61484000,61484000,-1.0213963,-1.0229198,14.809473,1.0
61584000,61584000,-1.5325395,-1.5348326,14.809473,1.0
61684000,61684000,-0.34308526,-0.34359673,14.809473,1.0
61788000,61788000,-0.2065624,-0.20687065,14.809473,1.0
61884000,61884000,1.353551,1.3555729,14.809473,1.0
61988000,61988000,1.3823755,1.3844476,14.809473,1.0
62088000,62088000,-0.91291416,-0.9142735,14.809473,1.0
62188000,62188000,-0.68919706,-0.6902234,14.809473,1.0
62288000,62288000,-0.68654895,-0.68757296,14.809473,1.0
62388000,62388000,-1.9316556,-1.9345304,14.8094425,1.0
62488000,62488000,-0.9991868,-1.0006721,14.809412,1.0
62588000,62588000,-0.5624052,-0.5632447,14.809351,1.0
62688000,62688000,1.2586738,1.2605546,14.809198,1.0
62788000,62788000,1.7003899,1.7029301,14.808924,1.0
62888000,62888000,-1.297129,-1.2990607,14.808619,1.0
62984000,62984000,-0.7815925,-0.7827671,14.808283,1.0
63088000,63088000,-0.5171065,-0.51788634,14.807886,1.0
63188000,63188000,-1.0069662,-1.0084822,14.807459,1.0
63288000,63288000,0.91008514,0.9114608,14.807001,1.0
63384000,63384000,-0.863123,-0.86442673,14.806482,1.0
63488000,63488000,0.33656782,0.3370797,14.80578,1.0
63584000,63584000,0.40817583,0.40879583,14.80517,1.0
63684000,63684000,1.5149144,1.517226,14.804529,1.0
63788000,63788000,-0.83267593,-0.8339494,14.803858,1.0
63888000,63888000,1.0588529,1.0604794,14.803125,1.0
63984000,63984000,0.62503326,0.6259996,14.802179,1.0
64084000,64084000,1.2911366,1.2931412,14.801386,1.0
64184000,64184000,1.4051597,1.4073452,14.800592,1.0
64288000,64288000,-0.83893514,-0.84024256,14.799799,1.0
64384000,64384000,1.0758348,1.0775179,14.799036,1.0
64488000,64488000,0.25692043,0.25732517,14.798243,1.0
64584000,64584000,1.6769834,1.6796232,14.797419,1.0
64688000,64688000,-1.6789999,-1.6816638,14.7964115,1.0
64784000,64784000,0.91488117,0.91633147,14.795588,1.0
64884000,64884000,0.7396533,0.74083817,14.794733,1.0
64988000,64988000,-1.3152006,-1.3173122,14.793909,1.0
65088000,65088000,-0.950225,-0.9517615,14.793055,1.0
65184000,65184000,1.1922077,1.1941373,14.791986,1.0
65284000,65284000,1.2564641,1.2584982,14.791132,1.0
65388000,65388000,1.0383422,1.0400406,14.7902775,1.0
65484000,65484000,0.7725966,0.7738594,14.789423,1.0
65588000,65588000,-1.080592,-1.0823709,14.788538,1.0
65688000,65688000,-0.63351303,-0.63455844,14.787653,1.0
65788000,65788000,-0.6842209,-0.6853508,14.786554,1.0
65888000,65888000,-1.3793651,-1.3816636,14.785669,1.0
65984000,65984000,0.6807556,0.68189186,14.784784,1.0
66084000,66084000,-1.036822,-1.0385566,14.783899,1.0
66184000,66184000,1.4640305,1.4665004,14.782984,1.0
66284000,66284000,0.6540449,0.65515304,14.782099,1.0
66384000,66384000,0.7173007,0.7185187,14.781183,1.0
66484000,66484000,0.8503386,0.85178936,14.780054,1.0
66588000,66588000,1.1398994,1.1418568,14.779139,1.0
66684000,66684000,0.66556716,0.66670847,14.778223,1.0
66784000,66784000,-0.24836886,-0.24879844,14.7773075,1.0
66884000,66884000,1.3115846,1.3138558,14.776392,1.0
66984000,66984000,-0.67117625,-0.6723455,14.775476,1.0
67084000,67084000,-1.1925176,-1.1946025,14.774317,1.0
67184000,67184000,1.5807627,1.583548,14.773401,1.0
67288000,67288000,-1.2507151,-1.252913,14.772486,1.0
67384000,67384000,-0.34463036,-0.3452413,14.77157,1.0
67488000,67488000,-1.3743261,-1.3767654,14.770624,1.0
67584000,67584000,-1.2719293,-1.2741898,14.769709,1.0
67688000,67688000,1.1345179,1.1365533,14.768549,1.0
67788000,67788000,0.7006907,0.70195097,14.767603,1.0
67888000,67888000,-0.33684206,-0.33745012,14.766687,1.0
67984000,67984000,1.5477062,1.5505103,14.765772,1.0
68084000,68084000,1.3045243,1.3068994,14.764826,1.0
68184000,68184000,-0.6341359,-0.6352937,14.76391,1.0
68288000,68288000,1.090358,1.0923522,14.762751,1.0
68384000,68384000,0.7490809,0.7504631,14.761805,1.0
68484000,68484000,0.8278017,0.8293384,14.760859,1.0
68584000,68584000,-1.1087629,-1.1108274,14.759943,1.0
68688000,68688000,-0.45429748,-0.455144,14.758997,1.0
68788000,68788000,-2.4551725,-2.4597664,14.757837,1.0
68888000,68888000,-0.71660596,-0.71795213,14.756861,1.0
68988000,68988000,-0.19121651,-0.19157737,14.755915,1.0
69088000,69088000,-2.2299871,-2.234195,14.754969,1.0
69188000,69188000,0.52435863,0.5253556,14.754023,1.0
69288000,69288000,0.38933542,0.39008117,14.753077,1.0
69388000,69388000,-1.1390986,-1.141276,14.751886,1.0
69488000,69488000,-0.85695934,-0.85860646,14.75094,1.0
69588000,69588000,-0.352846,-0.35352504,14.749994,1.0
69688000,69688000,0.78915274,0.7906788,14.749079,1.0
69788000,69788000,-0.8456327,-0.8472801,14.748133,1.0
69888000,69888000,0.88575447,0.8874822,14.747187,1.0
69988000,69988000,-0.6559726,-0.6572563,14.745996,1.0
70088000,70088000,-0.724124,-0.7255464,14.745081,1.0
70188000,70188000,1.1879737,1.1903212,14.744135,1.0
70288000,70288000,-1.733913,-1.7373569,14.743189,1.0
70388000,70388000,1.8303356,1.833962,14.742212,1.0
70488000,70488000,-1.5292739,-1.5323222,14.741144,1.0
70584000,70584000,-1.7924671,-1.7960387,14.7399845,1.0
70688000,70688000,-1.2794999,-1.2820681,14.738367,1.0
70788000,70788000,1.5137261,1.5167934,14.736933,1.0
70888000,70888000,-1.642134,-1.64548,14.735315,1.0
70988000,70988000,-1.3602778,-1.3630596,14.733606,1.0
71088000,71088000,-0.6106643,-0.6119203,14.731836,1.0
71184000,71184000,-1.1416527,-1.144016,14.730036,1.0
71288000,71288000,1.6276451,1.6310312,14.727808,1.0
71388000,71388000,0.7167957,0.7183074,14.726007,1.0
71488000,71488000,0.7495137,0.7510958,14.724237,1.0
71588000,71588000,-0.9292494,-0.9312266,14.722498,1.0
71688000,71688000,1.4173462,1.4203823,14.720728,1.0
71788000,71788000,-0.14157826,-0.14188324,14.718531,1.0
71888000,71888000,-0.6679003,-0.6693479,14.716761,1.0
71988000,71988000,1.5010087,1.5042802,14.71496,1.0
72088000,72088000,1.4623911,1.4656106,14.71319,1.0
72188000,72188000,1.3699276,1.3729465,14.71139,1.0
72284000,72284000,0.9531632,0.95528406,14.709589,1.0
72388000,72388000,-1.5649315,-1.5684395,14.707331,1.0
72488000,72488000,-1.4527202,-1.4559901,14.70553,1.0
72588000,72588000,-1.6149403,-1.6186044,14.70373,1.0
72684000,72684000,-1.3189889,-1.3220065,14.70196,1.0
72784000,72784000,-1.1496959,-1.1523324,14.70019,1.0
72884000,72884000,0.84752804,0.8494856,14.69845,1.0
72984000,72984000,1.2706003,1.2735593,14.696222,1.0
73088000,73088000,-1.4214973,-1.4248194,14.694483,1.0
73184000,73184000,-0.84662426,-0.8486142,14.692713,1.0
73284000,73284000,1.1688236,1.1715893,14.690943,1.0
73384000,73384000,0.70189667,0.7035606,14.689142,1.0
73484000,73484000,-1.3121294,-1.315263,14.687372,1.0
73584000,73584000,0.7353535,0.7371198,14.685144,1.0
73684000,73684000,-1.9681505,-1.9728969,14.683374,1.0
73788000,73788000,-1.4355491,-1.439041,14.681574,1.0
73884000,73884000,-1.1659373,-1.1687957,14.679773,1.0
73988000,73988000,1.1626225,1.1654756,14.677973,1.0
74088000,74088000,-0.9211426,-0.923422,14.676203,1.0
74184000,74184000,0.72263515,0.724427,14.674372,1.0
74288000,74288000,-1.208834,-1.2118518,14.672144,1.0
74384000,74384000,-0.30965677,-0.31043506,14.670313,1.0
74484000,74484000,-1.0099113,-1.0124617,14.668512,1.0
74588000,74588000,-1.312293,-1.3156253,14.666712,1.0
74684000,74684000,-0.78569376,-0.7877023,14.664911,1.0
74784000,74784000,1.1171682,1.120031,14.66308,1.0
74888000,74888000,1.3873103,1.3908861,14.660822,1.0
74988000,74988000,-1.6866735,-1.691054,14.658991,1.0
75084000,75084000,0.9043886,0.90675646,14.65719,1.0
75184000,75184000,-1.6861141,-1.6905324,14.655359,1.0
75284000,75284000,-1.1571611,-1.1602163,14.653528,1.0
75384000,75384000,1.7185705,1.7231262,14.651728,1.0
75488000,75488000,0.44179782,0.44297555,14.649439,1.0
75588000,75588000,-0.86935186,-0.8716853,14.647608,1.0
75684000,75684000,0.9801348,0.98278403,14.645777,1.0
75788000,75788000,-1.9079101,-1.9130859,14.643946,1.0
75888000,75888000,-1.0034908,-1.0062263,14.642084,1.0
75984000,75984000,0.70506555,0.70699114,14.640253,1.0
76084000,76084000,-1.4979651,-1.502089,14.637964,1.0
76188000,76188000,-0.67981017,-0.68169135,14.636103,1.0
76288000,76288000,1.4033939,1.407305,14.634241,1.0
76384000,76384000,-0.90280885,-0.90532994,14.632349,1.0
76488000,76488000,1.154445,1.1576923,14.630426,1.0
76588000,76588000,-0.8943313,-0.8968582,14.628046,1.0
76688000,76688000,-1.3369588,-1.3407596,14.626184,1.0
76788000,76788000,0.47681323,0.47817433,14.624353,1.0
76884000,76884000,1.0529641,1.0559921,14.622492,1.0
76988000,76988000,-1.0064979,-1.0094011,14.620661,1.0
77088000,77088000,-1.8940477,-1.8995401,14.618769,1.0
77188000,77188000,0.93501055,0.93773514,14.616388,1.0
77288000,77288000,0.5000562,0.5015203,14.614466,1.0
77384000,77384000,-0.9660297,-0.96887875,14.612543,1.0
77488000,77488000,-0.4437364,-0.4450519,14.610651,1.0
77588000,77588000,1.8640977,1.8696351,14.608728,1.0
77688000,77688000,-1.414351,-1.4185644,14.606836,1.0
77784000,77784000,0.9778764,0.98081475,14.604456,1.0
77888000,77888000,0.8071311,0.80956024,14.602564,1.0
77988000,77988000,1.2602804,1.26411,14.600641,1.0
78088000,78088000,0.8869662,0.889671,14.598749,1.0
78188000,78188000,1.7174847,1.7227365,14.596857,1.0
78288000,78288000,1.2292368,1.2330167,14.594965,1.0
78384000,78384000,0.19856285,0.19917582,14.593073,1.0
78484000,78484000,0.91269225,0.91551965,14.5906925,1.0
78588000,78588000,1.2568423,1.2607553,14.5888,1.0
78688000,78688000,-1.2622807,-1.2662424,14.586908,1.0
78788000,78788000,1.3744668,1.3787924,14.585016,1.0
78888000,78888000,0.7111144,0.7133658,14.583124,1.0
78984000,78984000,0.87600327,0.87878263,14.581232,1.0
79088000,79088000,1.2681667,1.2722166,14.578852,1.0
79188000,79188000,1.1596591,1.1633734,14.57696,1.0
79288000,79288000,1.4723873,1.477141,14.5750675,1.0
79388000,79388000,0.89285976,0.8957494,14.573175,1.0
79488000,79488000,-1.8572842,-1.8633288,14.571283,1.0
79584000,79584000,-1.4298227,-1.4344889,14.569391,1.0
79688000,79688000,1.3773324,1.3818439,14.567041,1.0
79788000,79788000,-0.5230351,-0.524763,14.565149,1.0
79888000,79888000,1.3188252,1.3231906,14.563257,1.0
79988000,79988000,-0.598721,-0.6007079,14.561365,1.0
80088000,80088000,0.8152171,0.81794125,14.559504,1.0
80184000,80184000,1.3836344,1.3882617,14.557611,1.0
80288000,80288000,-0.69372475,-0.6960599,14.555262,1.0
80388000,80388000,-0.38123035,-0.38252163,14.5533695,1.0
80488000,80488000,0.62682515,0.62895626,14.551477,1.0
80588000,80588000,2.0257878,2.0326848,14.549585,1.0
80688000,80688000,1.7285119,1.7344412,14.547724,1.0
80784000,80784000,-1.3951429,-1.3999352,14.545832,1.0
80888000,80888000,1.1097851,1.1136191,14.543482,1.0
80988000,80988000,0.46950477,0.47113168,14.54159,1.0
81088000,81088000,1.0062655,1.0097743,14.539698,1.0
81188000,81188000,-0.7656496,-0.7683271,14.537806,1.0
81288000,81288000,-0.93032515,-0.9335934,14.535913,1.0
81388000,81388000,-0.51111484,-0.51291937,14.533564,1.0
81488000,81488000,0.57312596,0.57515496,14.531672,1.0
81588000,81588000,0.71451676,0.7170595,14.529779,1.0
81684000,81684000,-0.7180244,-0.7205925,14.527948,1.0
81788000,81788000,1.6362865,1.642155,14.526148,1.0
81884000,81884000,1.4914709,1.4968468,14.524378,1.0
81984000,81984000,0.87909925,0.88226956,14.522638,1.0
82088000,82088000,1.2355025,1.2399768,14.520533,1.0
82188000,82188000,1.2595675,1.2641497,14.518915,1.0
82284000,82284000,-0.6822396,-0.68473345,14.517389,1.0
82388000,82388000,-1.1217048,-1.1258132,14.515924,1.0
82484000,82484000,0.73842704,0.7411418,14.51449,1.0
82584000,82584000,-1.1136649,-1.1177571,14.513086,1.0
82688000,82688000,1.8724697,1.8793949,14.511408,1.0
82788000,82788000,-0.86762965,-0.8708482,14.510126,1.0
82884000,82884000,0.3431002,0.3443752,14.508905,1.0
82988000,82988000,1.2405089,1.2451314,14.507746,1.0
83084000,83084000,-0.8039449,-0.80694586,14.506647,1.0
83184000,83184000,1.5473983,1.5531868,14.505335,1.0
83288000,83288000,-1.3851804,-1.3903775,14.504358,1.0
83384000,83384000,-1.0404258,-1.0443333,14.503412,1.0
83484000,83484000,0.43141812,0.43304297,14.502527,1.0
83584000,83584000,-1.1896987,-1.1941808,14.501673,1.0
83684000,83684000,1.2513071,1.2560315,14.500849,1.0
83784000,83784000,-1.4437779,-1.449243,14.499872,1.0
83888000,83888000,-0.60906285,-0.6113723,14.49914,1.0
83984000,83984000,2.1195936,2.127638,14.498438,1.0
84084000,84084000,-0.91132206,-0.9147853,14.497736,1.0
84184000,84184000,-0.5019427,-0.50385356,14.497095,1.0
84288000,84288000,1.2290872,1.2337604,14.496485,1.0
84384000,84384000,-1.27927,-1.2841485,14.495874,1.0
84488000,84488000,1.0183512,1.0222368,14.4951725,1.0
84588000,84588000,-1.6981124,-1.7045969,14.494654,1.0
84688000,84688000,-0.4828822,-0.48473132,14.494165,1.0
84788000,84788000,-0.23082748,-0.23171113,14.493677,1.0
84888000,84888000,1.0065652,1.0104258,14.493219,1.0
84984000,84984000,-0.78788745,-0.7909132,14.492792,1.0
85088000,85088000,0.88359797,0.8869933,14.492304,1.0
85188000,85188000,1.2678806,1.2727466,14.491907,1.0
85284000,85284000,1.7600507,1.7668304,14.491541,1.0
85388000,85388000,0.10299372,0.10339055,14.491205,1.0
85484000,85484000,1.4643428,1.4699748,14.4908695,1.0
85584000,85584000,0.33568522,0.3369791,14.490564,1.0
85688000,85688000,1.8763951,1.8836203,14.490198,1.0
85788000,85788000,-1.2990104,-1.3040267,14.489893,1.0
85888000,85888000,0.33957207,0.34088266,14.489649,1.0
85988000,85988000,0.67929924,0.68192333,14.489374,1.0
86088000,86088000,1.0497241,1.0537826,14.48913,1.0
86188000,86188000,-1.119498,-1.1238252,14.488825,1.0
86288000,86288000,-1.5806578,-1.586767,14.48855,1.0
86384000,86384000,1.287687,1.2926753,14.488276,1.0
86488000,86488000,-1.0320519,-1.0360514,14.488031,1.0
86588000,86588000,-1.2916112,-1.2966225,14.487787,1.0
86688000,86688000,-1.4138447,-1.4193285,14.487574,1.0
86788000,86788000,-0.92900044,-0.93260366,14.4873295,1.0
86888000,86888000,-1.0458943,-1.0499512,14.487146,1.0
86988000,86988000,-1.8994875,-1.906856,14.486994,1.0
87088000,87088000,-2.4766862,-2.4863095,14.486841,1.0
87184000,87184000,-2.752459,-2.763144,14.486719,1.0
87288000,87288000,-3.1508672,-3.1631126,14.486597,1.0
87384000,87384000,-2.9086063,-2.9199066,14.4865055,1.0
87484000,87484000,-3.1371987,-3.1493752,14.486383,1.0
87588000,87588000,-3.3985379,-3.4117465,14.486322,1.0
87684000,87684000,-3.3765314,-3.3896484,14.486261,1.0
87788000,87788000,-4.1100655,-4.1260443,14.486231,1.0
87888000,87888000,-4.057864,-4.073656,14.48617,1.0
87988000,87988000,-4.1462235,-4.1623383,14.486109,1.0
88084000,88084000,-4.0421677,-4.05787,14.486078,1.0
88184000,88184000,-3.7115395,-3.725982,14.486017,1.0
88288000,88288000,-4.0272884,-4.042963,14.485926,1.0
88384000,88384000,-3.534859,-3.548617,14.485865,1.0
88488000,88488000,-3.7342818,-3.7488012,14.485804,1.0
88588000,88588000,-4.0108204,-4.026433,14.485682,1.0
88688000,88688000,-3.3607786,-3.3738508,14.48559,1.0
88788000,88788000,-3.0944421,-3.1064925,14.485529,1.0
88888000,88888000,-3.605396,-3.6194448,14.485437,1.0
88988000,88988000,-3.2890618,-3.301861,14.485346,1.0
89084000,89084000,-3.1716294,-3.1839807,14.485254,1.0
89184000,89184000,-3.3048162,-3.317696,14.485163,1.0
89284000,89284000,-2.8497565,-2.860857,14.485071,1.0
89388000,89388000,-3.1169286,-3.1290858,14.48498,1.0
89488000,89488000,-2.9164238,-2.927789,14.484888,1.0
89584000,89584000,-2.8432996,-2.8543718,14.484797,1.0
89688000,89688000,-2.431613,-2.4410868,14.4847355,1.0
89788000,89788000,-1.7068979,-1.7135577,14.484674,1.0
89884000,89884000,-2.2880092,-2.2969265,14.484613,1.0
89988000,89988000,-2.0868096,-2.09495,14.484552,1.0
90088000,90088000,-2.3076055,-2.3166027,14.484491,1.0
90188000,90188000,-1.6411606,-1.6475596,14.4844,1.0
90288000,90288000,-1.5086125,-1.5144987,14.484308,1.0
90388000,90388000,1.2462599,1.2511275,14.484217,1.0
90488000,90488000,-0.7377385,-0.7406191,14.484125,1.0
90588000,90588000,-1.2101408,-1.2148675,14.484064,1.0
90688000,90688000,-1.0678687,-1.0720417,14.484034,1.0
90788000,90788000,-1.1302276,-1.134634,14.484003,1.0
90888000,90888000,-1.4746988,-1.480452,14.483973,1.0
90988000,90988000,1.233621,1.2384331,14.483973,1.0
91088000,91088000,1.7938049,1.8008096,14.483942,1.0
91184000,91184000,-1.2088946,-1.2136182,14.483973,1.0
91284000,91284000,1.9861336,1.9938838,14.483973,1.0
91384000,91384000,1.8831177,1.890472,14.483973,1.0
91488000,91488000,1.9318221,1.9393606,14.484003,1.0
91584000,91584000,2.140324,2.1486738,14.484003,1.0
91684000,91684000,2.6919913,2.7025168,14.484034,1.0
91788000,91788000,2.9505556,2.9620857,14.484034,1.0
91884000,91884000,3.3329983,3.3460186,14.484064,1.0
91984000,91984000,3.0959435,3.108039,14.484064,1.0
92088000,92088000,3.2372649,3.2499046,14.484095,1.0
92184000,92184000,3.6450949,3.6593366,14.484125,1.0
92288000,92288000,3.7042696,3.7187178,14.484186,1.0
92388000,92388000,3.9629676,3.9784465,14.484247,1.0
92484000,92484000,4.409804,4.426991,14.484308,1.0
92588000,92588000,4.3707724,4.3878074,14.4844,1.0
92684000,92684000,4.3648944,4.3819246,14.484461,1.0
92784000,92784000,4.367924,4.3849583,14.484552,1.0
92884000,92884000,4.236577,4.253104,14.484644,1.0
92988000,92988000,3.9714315,3.9868956,14.484705,1.0
93084000,93084000,3.9867408,4.002274,14.484766,1.0
93188000,93188000,4.2513375,4.2679057,14.484827,1.0
93288000,93288000,3.9471917,3.9625916,14.484858,1.0
93384000,93384000,3.9785652,3.9940808,14.484858,1.0
93488000,93488000,3.6299334,3.6440635,14.484766,1.0
93584000,93584000,3.478334,3.4918818,14.484705,1.0
93684000,93684000,2.7373943,2.7480578,14.484674,1.0
93784000,93784000,1.9934219,2.0011833,14.484674,1.0
93884000,93884000,2.6179268,2.6281204,14.4847355,1.0
93984000,93984000,-0.28770554,-0.2888252,14.484827,1.0
94088000,94088000,-1.0623254,-1.0664659,14.484949,1.0
94184000,94184000,1.000875,1.0047746,14.485071,1.0
94288000,94288000,-0.58071345,-0.5829744,14.485163,1.0
94384000,94384000,1.4800373,1.4858099,14.485254,1.0
94488000,94488000,0.9246692,0.9282663,14.485346,1.0
94588000,94588000,0.27386448,0.27492997,14.485468,1.0
94688000,94688000,-1.3845354,-1.3899237,14.485559,1.0
94788000,94788000,-0.45912457,-0.46091172,14.485651,1.0
94884000,94884000,-1.9134657,-1.9209099,14.485712,1.0
94984000,94984000,-1.4065313,-1.4120082,14.485773,1.0
95088000,95088000,0.458214,0.45999867,14.485804,1.0
95188000,95188000,-1.6114885,-1.6177628,14.485804,1.0
95288000,95288000,-0.67156816,-0.6741825,14.485804,1.0
95388000,95388000,-1.5296266,-1.535574,14.485773,1.0
95488000,95488000,-1.092191,-1.0964385,14.485743,1.0
95588000,95588000,-1.2160671,-1.220797,14.485743,1.0
95688000,95688000,-1.00281,-1.0067059,14.485712,1.0
95784000,95784000,0.892327,0.8958064,14.485651,1.0
95888000,95888000,-1.1733854,-1.1779518,14.48559,1.0
95988000,95988000,-0.40953758,-0.41112918,14.485529,1.0
96084000,96084000,-1.126899,-1.1312898,14.485468,1.0
96188000,96188000,0.9950369,0.9989068,14.485437,1.0
96288000,96288000,-1.2814204,-1.286406,14.485437,1.0
96388000,96388000,-0.621863,-0.6242868,14.485498,1.0
96484000,96484000,0.60023695,0.60257125,14.485559,1.0
96588000,96588000,-0.9861872,-0.9900172,14.4856205,1.0
96684000,96684000,1.0824616,1.0866731,14.485712,1.0
96788000,96788000,1.6480148,1.6544262,14.485773,1.0
96884000,96884000,-1.5334514,-1.5394113,14.485865,1.0
96984000,96984000,-0.52707607,-0.5291257,14.485926,1.0
97084000,97084000,1.0000808,1.0039629,14.486017,1.0
97188000,97188000,0.6736931,0.67631453,14.486109,1.0
97288000,97288000,1.2728887,1.2778354,14.48617,1.0
97384000,97384000,1.7843696,1.7912942,14.486231,1.0
97488000,97488000,2.2299464,2.2386076,14.486292,1.0
97588000,97588000,2.0467265,2.0546846,14.486353,1.0
97684000,97684000,2.7987578,2.809634,14.486414,1.0
97784000,97784000,3.1843271,3.196685,14.486444,1.0
97884000,97884000,3.8061895,3.8209748,14.486475,1.0
97984000,97984000,3.7597792,3.774374,14.4865055,1.0
98088000,98088000,4.2685943,4.2851624,14.486536,1.0
98188000,98188000,5.0371933,5.0567555,14.486567,1.0
98284000,98284000,5.4499354,5.4710755,14.486628,1.0
98388000,98388000,6.046444,6.069947,14.486872,1.0
98484000,98484000,6.595668,6.621268,14.487238,1.0
98584000,98584000,7.3889914,7.417646,14.487726,1.0
98688000,98688000,7.8934164,7.924012,14.488245,1.0
98784000,98784000,8.642698,8.676179,14.488977,1.0
98888000,98888000,9.395343,9.431606,14.489618,1.0
98988000,98988000,10.073608,10.112487,14.49029,1.0
99088000,99088000,10.574356,10.61513,14.490992,1.0
99184000,99184000,11.488564,11.532806,14.491724,1.0
99288000,99288000,12.195293,12.242193,14.492487,1.0
99384000,99384000,12.8612585,12.910643,14.49328,1.0
99484000,99484000,13.627678,13.67987,14.4942875,1.0
99584000,99584000,14.149805,14.203904,14.495111,1.0
99684000,99684000,14.866144,14.92293,14.495935,1.0
99788000,99788000,15.437174,15.496062,14.496729,1.0
99884000,99884000,15.989766,16.05068,14.497522,1.0
99984000,99984000,16.465466,16.528074,14.498438,1.0
100088000,100088000,16.856304,16.920319,14.49914,1.0
100188000,100188000,17.066633,17.131237,14.499781,1.0
100284000,100284000,17.22827,17.293478,14.50033,1.0
100388000,100388000,17.374292,17.439945,14.500757,1.0
100488000,100488000,17.450846,17.51685,14.501032,1.0
100584000,100584000,17.512411,17.578585,14.501184,1.0
100688000,100688000,17.49364,17.55972,14.501184,1.0
100784000,100784000,17.505564,17.57168,14.501093,1.0
100884000,100884000,17.45068,17.516575,14.50094,1.0
100988000,100988000,17.35077,17.416348,14.500757,1.0
101088000,101088000,17.345974,17.41158,14.500513,1.0
101184000,101184000,17.274134,17.339523,14.500299,1.0
101284000,101284000,17.169186,17.234112,14.499964,1.0
101384000,101384000,17.017912,17.082335,14.499628,1.0
101484000,101484000,16.983622,17.048006,14.499262,1.0
101584000,101584000,16.788254,16.851948,14.498835,1.0
101684000,101684000,16.63162,16.6947,14.498407,1.0
101784000,101784000,16.573801,16.636778,14.49795,1.0
101888000,101888000,16.496273,16.559063,14.49737,1.0
101984000,101984000,16.356813,16.41898,14.4968815,1.0
102088000,102088000,16.103113,16.164549,14.496393,1.0
102188000,102188000,16.120024,16.181553,14.495905,1.0
102284000,102284000,15.978648,16.039658,14.495447,1.0
102384000,102384000,15.974349,16.035416,14.494959,1.0
102484000,102484000,15.746051,15.806354,14.49441,1.0
102584000,102584000,15.628172,15.688022,14.493982,1.0
102684000,102684000,15.47729,15.536651,14.493555,1.0
102788000,102788000,15.414307,15.4734125,14.493158,1.0
102888000,102888000,15.341082,15.399993,14.492792,1.0
102984000,102984000,15.25623,15.314779,14.492456,1.0
103084000,103084000,15.252951,15.311594,14.49209,1.0
103188000,103188000,15.099253,15.157363,14.491816,1.0
103288000,103288000,15.154896,15.213274,14.491541,1.0
103388000,103388000,15.04593,15.103898,14.491327,1.0
103484000,103484000,15.002518,15.060313,14.491144,1.0
103584000,103584000,15.007788,15.0655155,14.490992,1.0
103688000,103688000,14.922527,14.980093,14.4908085,1.0
103788000,103788000,14.7449255,14.801714,14.490717,1.0
103884000,103884000,14.862548,14.919809,14.490625,1.0
103984000,103984000,14.719556,14.776222,14.490595,1.0
104088000,104088000,14.567557,14.623748,14.490564,1.0
104184000,104184000,14.621651,14.677932,14.490534,1.0
104284000,104284000,14.736041,14.792849,14.490534,1.0
104384000,104384000,14.618061,14.674458,14.490564,1.0
104488000,104488000,14.6223135,14.678688,14.490625,1.0
104588000,104588000,14.786782,14.843831,14.490686,1.0
104688000,104688000,14.68697,14.743551,14.490747,1.0
104784000,104784000,14.659954,14.716495,14.490839,1.0
104884000,104884000,14.779676,14.836682,14.490961,1.0
104988000,104988000,14.683261,14.7398405,14.491053,1.0
105088000,105088000,14.756115,14.812929,14.491175,1.0
105188000,105188000,14.787296,14.844254,14.491297,1.0
105288000,105288000,14.8700695,14.927382,14.491419,1.0
105388000,105388000,14.714069,14.770613,14.491571,1.0
105488000,105488000,14.733856,14.79059,14.4916935,1.0
105588000,105588000,14.808894,14.865868,14.491846,1.0
105684000,105684000,14.941958,14.999415,14.491968,1.0
105788000,105788000,14.841514,14.898531,14.49209,1.0
105888000,105888000,14.897945,14.955137,14.492212,1.0
105988000,105988000,14.766616,14.823301,14.492365,1.0
106084000,106084000,14.849323,14.90621,14.492487,1.0
106188000,106188000,14.852526,14.909601,14.492609,1.0
106288000,106288000,14.806286,14.863145,14.492731,1.0
106388000,106388000,14.898693,14.9559,14.492884,1.0
106488000,106488000,14.810709,14.867585,14.493067,1.0
106584000,106584000,14.989252,15.046792,14.493341,1.0
106684000,106684000,14.891669,14.948796,14.493769,1.0
106788000,106788000,14.977939,15.035362,14.494165,1.0
106884000,106884000,15.093463,15.151121,14.494654,1.0
106984000,106984000,15.134941,15.192897,14.4951725,1.0
107084000,107084000,15.144306,15.202173,14.495752,1.0
107184000,107184000,15.194256,15.252308,14.496363,1.0
107284000,107284000,15.407847,15.466543,14.497187,1.0
107384000,107384000,15.45676,15.515559,14.497828,1.0
107484000,107484000,15.556709,15.615744,14.498529,1.0
107584000,107584000,15.6272955,15.6866255,14.499201,1.0
107688000,107688000,15.542944,15.601763,14.499872,1.0
107784000,107784000,15.603737,15.6627865,14.500544,1.0
107888000,107888000,15.67048,15.729613,14.501337,1.0
107988000,107988000,15.593413,15.652254,14.501917,1.0
108084000,108084000,15.770147,15.829612,14.502497,1.0
108184000,108184000,15.675845,15.734911,14.503046,1.0
108284000,108284000,15.872973,15.932697,14.503534,1.0
108384000,108384000,15.888199,15.947889,14.504023,1.0
108488000,108488000,15.85543,15.914838,14.504541,1.0
108588000,108588000,15.7782545,15.8374605,14.504938,1.0
108684000,108684000,15.803027,15.86225,14.505335,1.0
108788000,108788000,15.853445,15.912817,14.505671,1.0
108888000,108888000,15.896286,15.955718,14.505976,1.0
108984000,108984000,15.835607,15.89494,14.50625,1.0
109084000,109084000,16.023708,16.08345,14.506556,1.0
109188000,109188000,15.929197,15.988721,14.506769,1.0
109284000,109284000,15.915158,15.974599,14.506922,1.0
109388000,109388000,15.985621,16.04534,14.507074,1.0
109488000,109488000,16.041178,16.101084,14.507135,1.0
109588000,109588000,15.940555,16.000168,14.507166,1.0
109684000,109684000,15.972108,16.03177,14.507135,1.0
109788000,109788000,15.839913,15.899082,14.507044,1.0
109884000,109884000,15.855815,15.914968,14.506891,1.0
109988000,109988000,15.82211,15.88122,14.506647,1.0
110088000,110088000,15.788903,15.847893,14.506372,1.0
110184000,110184000,15.693225,15.751827,14.506037,1.0
110284000,110284000,15.699408,15.758266,14.505487,1.0
110384000,110384000,15.586689,15.645081,14.50503,1.0
110484000,110484000,15.562626,15.620941,14.504511,1.0
110584000,110584000,15.546179,15.604521,14.503931,1.0
110684000,110684000,15.433552,15.491659,14.503321,1.0
110784000,110784000,15.432922,15.490987,14.50268,1.0
110884000,110884000,15.29738,15.355099,14.501856,1.0
110988000,110988000,15.240413,15.297965,14.501184,1.0
111084000,111084000,15.175594,15.232974,14.500483,1.0
111188000,111188000,15.135908,15.193194,14.499781,1.0
111284000,111284000,14.985077,15.041831,14.499109,1.0
111384000,111384000,14.980828,15.037683,14.498407,1.0
111488000,111488000,14.913333,14.970074,14.497522,1.0
111588000,111588000,14.783185,14.839462,14.496851,1.0
111684000,111684000,14.783786,14.840102,14.49621,1.0
111788000,111788000,14.712834,14.769015,14.495539,1.0
111884000,111884000,14.645013,14.700996,14.494928,1.0
111984000,111984000,14.641752,14.697845,14.494318,1.0
112084000,112084000,14.615069,14.671065,14.493616,1.0
112188000,112188000,14.454997,14.510401,14.493067,1.0
112288000,112288000,14.505505,14.561196,14.4925785,1.0
112384000,112384000,14.357692,14.412859,14.49209,1.0
112488000,112488000,14.387583,14.442928,14.491632,1.0
112588000,112588000,14.424724,14.480266,14.491083,1.0
112684000,112684000,14.442901,14.4985485,14.490686,1.0
112788000,112788000,14.485423,14.541342,14.49032,1.0
112884000,112884000,14.361685,14.417131,14.4899845,1.0
112984000,112984000,14.419423,14.475109,14.489679,1.0
113084000,113084000,14.439706,14.495497,14.489374,1.0
113188000,113188000,14.433227,14.489013,14.489038,1.0
113288000,113288000,14.444207,14.499967,14.488794,1.0
113384000,113384000,14.3290205,14.384443,14.488581,1.0
113488000,113488000,14.356036,14.4115715,14.488367,1.0
113588000,113588000,14.420111,14.475987,14.488184,1.0
113688000,113688000,14.4110565,14.466953,14.488001,1.0
113784000,113784000,14.382633,14.438347,14.487818,1.0
113884000,113884000,14.39229,14.447999,14.487635,1.0
113988000,113988000,14.460495,14.516595,14.487482,1.0
