timestamp,timestamp_sample,time_last_fuse,device_id,observation,observation_variance,innovation,innovation_variance,test_ratio,estimator_instance,fusion_enabled,innovation_rejected,fused
3492000,3378914,0,0,1.1648158,1.9658442,-1.1463994,11.973188,0.012196059,0,0,0,0
3692000,3583124,0,0,0.5841805,1.9658288,-0.5585349,1.9692917,0.017601436,0,0,0,0
3796000,3683231,0,0,1.1871887,1.9658436,-1.1836396,1.9659305,0.079182334,0,0,0,0
3892000,3779319,0,0,1.187192,1.9658545,-1.1792306,1.9662712,0.07857991,0,0,0,0
3940000,3831359,0,0,0.6936729,1.9658545,-0.6844017,1.966519,0.026465584,0,0,0,0
4340000,4231612,0,0,1.6074401,1.9658489,-1.5870665,1.9687277,0.14215499,0,0,0,0
4836000,4731792,0,0,1.2510334,1.9658645,-1.2265713,1.9720135,0.08476826,0,0,0,0
5044000,4931840,0,0,0.12336394,1.9658154,-0.09986669,1.972821,0.0005617087,0,0,0,0
5140000,5031858,0,0,1.2274681,1.9658569,-1.2012426,1.9739097,0.08122536,0,0,0,0
5340000,5231890,0,0,0.54244304,1.9658864,-0.51574767,1.9745275,0.0149681745,0,0,0,0
5540000,5431914,0,0,0.73298883,1.9658593,-0.70984477,1.9748459,0.028349869,0,0,0,0
5940000,5831948,0,0,0.15021518,1.9658523,-0.12984101,1.9746379,0.00094862346,0,0,0,0
6036000,5931954,0,0,0.84624106,1.9658428,-0.8238543,1.975419,0.038176768,0,0,0,0
6340000,6231969,0,0,1.8011196,1.9658526,-1.7825892,1.9740108,0.17885888,0,0,0,0
6436000,6331973,0,0,1.12088,1.9658408,-1.104008,1.9746429,0.068582505,0,0,0,0
6540000,6431976,0,0,1.1026921,1.9658703,-1.0862947,1.9733193,0.06644394,0,0,0,0
6740000,6631981,0,0,0.37608457,1.9658432,-0.36250868,1.9723692,0.007402972,0,0,0,0
6844000,6731984,0,0,0.7347478,1.9658629,-0.7210683,1.9735401,0.02927281,0,0,0,0
6940000,6831986,0,0,1.2400128,1.9658515,-1.2268629,1.9720521,0.084806904,0,0,0,0
7044000,6931988,0,0,1.2150779,1.9658469,-1.2048903,1.9730281,0.08175592,0,0,0,0
7140000,7031989,0,0,1.2439103,1.9658465,-1.2347786,1.9704181,0.08597602,0,0,0,0
7444000,7331993,0,0,0.5640058,1.9658475,-0.55169606,1.9690038,0.017175552,0,0,0,0
7644000,7531994,0,0,1.3539777,1.9658452,-1.3434827,1.9678681,0.10191208,0,0,0,0
7740000,7631995,0,0,0.69395703,1.9658456,-0.6877939,1.9695686,0.0266872,0,0,0,0
7836000,7731996,0,0,1.3693655,1.9658693,-1.3641382,1.967508,0.10508912,0,0,0,0
8340000,8231998,0,0,1.9454573,1.9658352,-1.940409,1.9683343,0.21254218,0,0,0,0
8636000,8531999,0,0,0.62411076,1.9658515,-0.617789,1.9680185,0.021548081,0,0,0,0
8940000,8831999,0,0,2.314397,1.9658148,-2.2926075,2.143429,0.27246317,0,0,0,0
9036000,8931999,0,0,1.2567374,1.9658428,-1.2364265,2.1390965,0.07940789,0,0,0,0
9140000,9032000,0,0,0.46821287,1.9658632,-0.4510095,2.0475762,0.01103796,0,0,0,0
9236000,9132000,0,0,1.3165979,1.9658586,-1.2999642,2.0424492,0.091932476,0,0,0,0
9340000,9232000,0,0,0.79478836,1.9658686,-0.7779622,2.0423868,0.032925814,0,0,0,0
9740000,9632000,0,0,0.8067663,1.9658349,-0.7908419,2.0267732,0.03428717,0,0,0,0
10236000,10132000,0,0,0.7165557,1.9658395,-0.70710474,1.9973124,0.027814995,0,0,0,0
10340000,10232000,0,0,1.1442363,1.9658445,-1.1367135,1.9900559,0.07214301,0,0,0,0
10436000,10332000,0,0,0.85780305,1.9658288,-0.8510868,1.9908655,0.040426232,0,0,0,0
11036000,10932000,0,0,1.3596803,1.965871,-1.3495857,1.9869795,0.10185093,0,0,0,0
11140000,11032000,0,0,0.6820476,1.9658352,-0.66855365,1.9879978,0.02498125,0,0,0,0
11236000,11132000,0,0,0.93532944,1.9658482,-0.9215847,1.988942,0.047446687,0,0,0,0
11340000,11232000,0,0,0.4144669,1.9658419,-0.39983052,1.9900852,0.008925606,0,0,0,0
11540000,11432000,0,0,0.5469993,1.9658573,-0.5328139,1.9877279,0.015869077,0,0,0,0
11740000,11632000,0,0,0.64168334,1.9658499,-0.6222673,1.9884214,0.021637296,0,0,0,0
11844000,11732000,0,0,0.57254446,1.9658536,-0.5494863,1.988724,0.016869286,0,0,0,0
12236000,12132000,0,0,0.95467937,1.9658569,-0.93382925,1.9873106,0.048755843,0,0,0,0
12636000,12532000,0,0,1.3101538,1.9658582,-1.2899772,1.9870443,0.09304949,0,0,0,0
12836000,12732000,0,0,0.7557314,1.9658666,-0.73605853,1.9841505,0.030339438,0,0,0,0
13036000,12932000,0,0,1.4088831,1.9658699,-1.3882655,1.9848315,0.10788943,0,0,0,0
13140000,13032000,0,0,0.891992,1.9658686,-0.87597996,1.9823523,0.043009557,0,0,0,0
13940000,13832000,0,0,0.9848289,1.9658395,-0.9651859,1.9811506,0.052247062,0,0,0,0
14540000,14432000,0,0,1.5539361,1.9658341,-1.5282285,1.9814926,0.1309609,0,0,0,0
14940000,14832000,0,0,1.0093825,1.9658656,-0.9855357,1.9812254,0.054471374,0,0,0,0
15036000,14932000,0,0,1.0036714,1.9658478,-0.9785172,1.9817183,0.053684942,0,0,0,0
15140000,15032000,0,0,0.6644515,1.9658465,-0.6410161,1.9800999,0.023057291,0,0,0,0
15236000,15132000,0,0,0.98570395,1.9658582,-0.96039015,1.980573,0.05174424,0,0,0,0
15436000,15332000,0,0,1.0578797,1.9658235,-1.0275934,1.9818861,0.059199955,0,0,0,0
15644000,15532000,0,0,1.411295,1.965868,-1.384051,1.9805639,0.10746642,0,0,0,0
15740000,15632000,0,0,0.7928049,1.9658338,-0.7657058,1.980625,0.032891154,0,0,0,0
15940000,15832000,0,0,1.622616,1.9658536,-1.5934136,1.9799598,0.14248139,0,0,0,0
16044000,15932000,0,0,0.47605556,1.9658599,-0.44726804,1.9805785,0.011222798,0,0,0,0
16140000,16032000,0,0,0.8800943,1.9658492,-0.8518362,1.981029,0.04069854,0,0,0,0
16236000,16132000,0,0,1.4401968,1.9658492,-1.4082215,1.9815918,0.111195,0,0,0,0
16436000,16332000,0,0,1.3568791,1.9658278,-1.3272364,1.9801958,0.098843,0,0,0,0
16540000,16432000,0,0,1.31172,1.9658482,-1.2815181,1.9807233,0.092126206,0,0,0,0
16740000,16632000,0,0,1.119988,1.9658536,-1.0837102,1.9799255,0.065907516,0,0,0,0
16836000,16732000,0,0,1.3685887,1.965871,-1.3292977,1.9803141,0.09914433,0,0,0,0
16940000,16832000,0,0,2.2042923,1.9658526,-2.1630385,1.9808823,0.2624384,0,0,0,0
17236000,17132000,0,0,1.2833788,1.9658362,-1.240949,1.9802808,0.08640495,0,0,0,0
17340000,17232000,0,0,0.5781408,1.9658445,-0.5343485,1.9808179,0.016016295,0,0,0,0
17436000,17332000,0,0,1.6543607,1.9658386,-1.6097853,1.9814198,0.14531715,0,0,0,0
17644000,17532000,0,0,0.8077212,1.9658539,-0.7690346,1.9803761,0.033181928,0,0,0,0
17740000,17632000,0,0,1.0575191,1.9658406,-1.0181903,1.9807729,0.05815415,0,0,0,0
17836000,17732000,0,0,1.0202249,1.9658469,-0.98287624,1.9813696,0.054173842,0,0,0,0
17940000,17832000,0,0,1.2313623,1.9658358,-1.1972044,1.9798214,0.08043925,0,0,0,0
18036000,17932000,0,0,0.3250782,1.9658365,-0.29062873,1.9803245,0.0047391257,0,0,0,0
18140000,18032000,0,0,1.2869713,1.9658502,-1.2504537,1.980821,0.08770968,0,0,0,0
18540000,18432000,0,0,1.7372755,1.9658482,-1.6945615,1.9811561,0.16104731,0,0,0,0
18636000,18532000,0,0,1.4217247,1.9658288,-1.3776481,1.9815344,0.10642226,0,0,0,0
18740000,18632000,0,0,1.3644184,1.9658465,-1.3212013,1.9798499,0.09796326,0,0,0,0
18940000,18832000,0,0,0.47149804,1.9658552,-0.4237188,1.9810933,0.010069503,0,0,0,0
19036000,18932000,0,0,0.6450029,1.9658749,-0.5964224,1.981689,0.019944808,0,0,0,0
19444000,19332000,0,0,0.50776017,1.9658436,-0.45871934,1.9818001,0.011797548,0,0,0,0
19740000,19632000,0,0,1.2823368,1.9658492,-1.2367791,1.9813044,0.085780896,0,0,0,0
19836000,19732000,0,0,1.5052794,1.965856,-1.4594913,1.9819647,0.119416565,0,0,0,0
20236000,20132000,0,0,1.4952757,1.9658195,-1.4481927,1.9818497,0.117581636,0,0,0,0
20340000,20232000,0,0,1.583588,1.9658358,-1.542297,1.9799843,0.13348478,0,0,0,0
20436000,20332000,0,0,1.1058825,1.9658061,-1.063437,1.9804763,0.06344704,0,0,0,0
20540000,20432000,0,0,1.2128063,1.9658552,-1.1674122,1.981212,0.07643195,0,0,0,0
20836000,20732000,0,0,1.3717757,1.9658502,-1.327847,1.9805044,0.09891856,0,0,0,0
20940000,20832000,0,0,1.3790925,1.9658211,-1.3308995,1.9811538,0.09934129,0,0,0,0
21044000,20932000,0,0,0.90659994,1.9658358,-0.8576978,1.9818267,0.041243967,0,0,0,0
21236000,21132000,0,0,1.1754974,1.965861,-1.1286216,1.9802332,0.07147232,0,0,0,0
21340000,21232000,0,0,0.93682647,1.9658586,-0.88779575,1.9808948,0.044210173,0,0,0,0
21436000,21332000,0,0,1.0252326,1.9658632,-0.9745756,1.9814129,0.053261522,0,0,0,0
21540000,21432000,0,0,1.4640062,1.9658408,-1.4202642,1.9796469,0.11321607,0,0,0,0
22340000,22232000,0,0,1.2697042,1.9658235,-1.2255425,1.9796125,0.08430126,0,0,0,0
22444000,22332000,0,0,1.0625145,1.9658445,-1.016711,1.9802504,0.05800059,0,0,0,0
22540000,22432000,0,0,1.049317,1.965856,-0.9998419,1.9808601,0.05607462,0,0,0,0
22844000,22732000,0,0,1.0687047,1.9658645,-1.0177445,1.9801395,0.05812183,0,0,0,0
23340000,23232000,0,0,0.78068537,1.9658666,-0.7275354,1.9805284,0.029695095,0,0,0,0
23540000,23432000,0,0,0.72103447,1.9658492,-0.6680829,1.9793336,0.025055276,0,0,0,0
23836000,23732000,0,0,0.9877757,1.9658569,-0.93252,1.9808882,0.048776858,0,0,0,0
24044000,23932000,0,0,1.2662175,1.9658258,-1.212371,1.9797714,0.08249232,0,0,0,0
24140000,24032000,0,0,1.0322676,1.9658375,-0.9778589,1.9802408,0.05365274,0,0,0,0
24244000,24132000,0,0,1.3147755,1.9658372,-1.259125,1.9808432,0.08892934,0,0,0,0
24340000,24232000,0,0,1.1579255,1.9658452,-1.1073129,1.9792819,0.068832025,0,0,0,0
24444000,24332000,0,0,1.3631483,1.9658489,-1.310782,1.9798468,0.09642437,0,0,0,0
24540000,24432000,0,0,1.5366268,1.9658469,-1.4820968,1.9804219,0.123240344,0,0,0,0
24636000,24532000,0,0,0.4667726,1.9658482,-0.41019136,1.9809538,0.009437483,0,0,0,0
25140000,25032000,0,0,0.7620551,1.9658117,-0.7071801,1.9792819,0.02807436,0,0,0,0
25244000,25132000,0,0,0.50789016,1.9658325,-0.45093125,1.9798415,0.0114116315,0,0,0,0
25340000,25232000,0,0,1.6148086,1.9658539,-1.5549314,1.980339,0.13565643,0,0,0,0
25436000,25332000,0,0,1.8738843,1.9658512,-1.8113295,1.9809114,0.18402946,0,0,0,0
25540000,25432000,0,0,1.4665614,1.9658108,-1.4132738,1.9792503,0.11212678,0,0,0,0
25636000,25532000,0,0,1.4143333,1.9658586,-1.3602961,1.9798026,0.103849046,0,0,0,0
26036000,25932000,0,0,1.3683852,1.9658666,-1.3146006,1.9798404,0.09698732,0,0,0,0
26236000,26132000,0,0,0.62587065,1.9658362,-0.56703705,1.9808977,0.01803509,0,0,0,0
26340000,26232000,0,0,1.4718868,1.9658489,-1.4175439,1.9792788,0.11280375,0,0,0,0
26540000,26432000,0,0,1.3586831,1.9658452,-1.3016024,1.9802942,0.09505708,0,0,0,0
26636000,26532000,0,0,0.37612665,1.9658489,-0.3160524,1.9808112,0.0056031547,0,0,0,0
26836000,26732000,0,0,1.1367172,1.9658703,-1.0764651,1.9797773,0.065034084,0,0,0,0
27140000,27032000,0,0,1.0750165,1.9658475,-1.0136942,1.979232,0.057686567,0,0,0,0
28236000,28132000,0,0,1.4056036,1.9658265,-1.3249903,1.9807817,0.09847959,0,0,0,0
28340000,28232000,0,0,1.3877294,1.9658576,-1.3149294,1.9792013,0.09706716,0,0,0,0
28444000,28332000,0,0,1.7003045,1.9658669,-1.6250643,1.9797246,0.14821555,0,0,0,0
28540000,28432000,0,0,0.41797295,1.9658478,-0.3392496,1.9802341,0.0064577265,0,0,0,0
28644000,28532000,0,0,0.49342886,1.9658539,-0.41189474,1.9808028,0.009516752,0,0,0,0
28740000,28632000,0,0,0.34645244,1.9658499,-0.27422267,1.9791873,0.0042216023,0,0,0,0
28836000,28732000,0,0,1.0706826,1.9658499,-0.99394864,1.9797089,0.05544776,0,0,0,0
29236000,29132000,0,0,1.8596414,1.9658703,-1.7761272,1.9796824,0.17705576,0,0,0,0
29340000,29232000,0,0,0.6049783,1.9658465,-0.5186098,1.9801956,0.015091447,0,0,0,0
29436000,29332000,0,0,1.6362761,1.965874,-1.5485777,1.9807838,0.13451985,0,0,0,0
29740000,29632000,0,0,1.4566215,1.9658465,-1.3701007,1.9801778,0.10533151,0,0,0,0
29836000,29732000,0,0,1.5531186,1.9658756,-1.4638171,1.9806916,0.12020272,0,0,0,0
29940000,29832000,0,0,2.1006258,1.9658502,-2.0207987,1.9791234,0.22926128,0,0,0,0
30036000,29932000,0,0,1.177764,1.9658632,-1.0943619,1.9796506,0.06721882,0,0,0,0
30236000,30132000,0,0,1.1644704,1.9658539,-1.0740309,1.9806707,0.064711094,0,0,0,0
30340000,30232000,0,0,0.3850503,1.9658656,-0.30509412,1.9791284,0.005225781,0,0,0,0
30436000,30332000,0,0,1.0229217,1.9658395,-0.9413097,1.9796156,0.049732663,0,0,0,0
30740000,30632000,0,0,1.751464,1.9658586,-1.673914,1.9791448,0.15730631,0,0,0,0
30836000,30732000,0,0,0.9038504,1.9658526,-0.8214321,1.9796009,0.037872434,0,0,0,0
31140000,31032000,0,0,1.6918883,1.965856,-1.6146027,1.9791163,0.14635837,0,0,0,0
31244000,31132000,0,0,1.5757278,1.9658219,-1.4962914,1.9795829,0.12566553,0,0,0,0
31340000,31232000,0,0,0.90106994,1.9658502,-0.8179417,1.9801108,0.037541594,0,0,0,0
31444000,31332000,0,0,1.2482501,1.965869,-1.1607001,1.9806625,0.07557655,0,0,0,0
31844000,31732000,0,0,1.0733398,1.9658428,-0.98649234,1.9806473,0.054593097,0,0,0,0
31940000,31832000,0,0,1.1497318,1.9658312,-1.0704249,1.979117,0.06432776,0,0,0,0
32236000,32132000,0,0,0.9605175,1.9658562,-0.8727026,1.9806732,0.04272452,0,0,0,0
32340000,32232000,0,0,2.0589228,1.9658573,-1.981335,1.9791205,0.22039467,0,0,0,0
32436000,32332000,0,0,0.34889323,1.9658386,-0.26813847,1.979613,0.004035482,0,0,0,0
32844000,32732000,0,0,1.5890228,1.9658419,-1.5068688,1.9796612,0.12744345,0,0,0,0
33036000,32932000,0,0,1.4464397,1.9658676,-1.3595178,1.9806858,0.10368399,0,0,0,0
33140000,33032000,0,0,1.2607015,1.9658623,-1.1788903,1.979143,0.078023806,0,0,0,0
33340000,33232000,0,0,0.7134332,1.9658666,-0.627949,1.9801449,0.022126324,0,0,0,0
33540000,33432000,0,0,1.3709047,1.9658549,-1.2887912,1.9791462,0.09324911,0,0,0,0
33740000,33632000,0,0,1.3502886,1.9658475,-1.265444,1.9802225,0.08985234,0,0,0,0
33844000,33732000,0,0,1.5855957,1.9658341,-1.5005322,1.9807847,0.12630217,0,0,0,0
33940000,33832000,0,0,0.43531153,1.9658432,-0.35638857,1.9791256,0.0071306922,0,0,0,0
34140000,34032000,0,0,1.3124995,1.9658599,-1.2277315,1.98024,0.08457586,0,0,0,0
34444000,34332000,0,0,1.4588563,1.9658545,-1.3770862,1.9797666,0.10643041,0,0,0,0
34836000,34732000,0,0,1.1525091,1.9658432,-1.0768205,1.9797374,0.06507835,0,0,0,0
35036000,34932000,0,0,1.0607822,1.965871,-0.9813375,1.9810612,0.054012757,0,0,0,0
35140000,35032000,0,0,1.683125,1.9658386,-1.6136699,1.9791857,0.14618416,0,0,0,0
35340000,35232000,0,0,1.4176316,1.9658436,-1.3436021,1.9804202,0.10128415,0,0,0,0
35636000,35532000,0,0,1.6105787,1.9658662,-1.5418786,1.979832,0.13342263,0,0,0,0
35740000,35632000,0,0,0.9087053,1.9658278,-0.8396756,1.9804708,0.039555974,0,0,0,0
35836000,35732000,0,0,0.80635685,1.965856,-0.73300433,1.9811708,0.030133434,0,0,0,0
35940000,35832000,0,0,1.7948852,1.9658386,-1.731434,1.9792,0.16829829,0,0,0,0
36036000,35932000,0,0,1.4058976,1.9658686,-1.3407068,1.9798326,0.100878045,0,0,0,0
36340000,36232000,0,0,0.6723949,1.9658478,-0.6119534,1.979202,0.02102345,0,0,0,0
36444000,36332000,0,0,0.98698944,1.9658386,-0.92185223,1.9798921,0.047691237,0,0,0,0
36540000,36432000,0,0,0.3346194,1.9658358,-0.26629853,1.9805298,0.003978448,0,0,0,0
36644000,36532000,0,0,1.2950311,1.965856,-1.2248163,1.9812956,0.08412985,0,0,0,0
37036000,36932000,0,0,1.1458523,1.965856,-1.0749714,1.9812831,0.06480445,0,0,0,0
37340000,37232000,0,0,1.7436286,1.9658382,-1.6771934,1.9805747,0.15780929,0,0,0,0
37436000,37332000,0,0,1.1802881,1.9658653,-1.1111628,1.9812852,0.0692414,0,0,0,0
37836000,37732000,0,0,0.4433253,1.9658335,-0.37537807,1.9812167,0.007902479,0,0,0,0
38140000,38032000,0,0,1.7961309,1.9658465,-1.7308469,1.9805254,0.16807163,0,0,0,0
38244000,38132000,0,0,0.6309162,1.965868,-0.5619989,1.9812617,0.017712774,0,0,0,0
38436000,38332000,0,0,1.3309488,1.9658573,-1.2681593,1.9798083,0.09025722,0,0,0,0
38636000,38532000,0,0,1.6050597,1.9658529,-1.5381005,1.9811285,0.1326827,0,0,0,0
38844000,38732000,0,0,1.4328386,1.9658315,-1.3691565,1.9798082,0.105206005,0,0,0,0
39036000,38932000,0,0,1.6537453,1.9658512,-1.5836693,1.9810885,0.14066389,0,0,0,0
39236000,39132000,0,0,1.4075297,1.9658489,-1.3377277,1.979742,0.10043482,0,0,0,0
39340000,39232000,0,0,1.3691592,1.965856,-1.2941517,1.9803766,0.09396802,0,0,0,0
39636000,39532000,0,0,1.7871122,1.9658562,-1.7132076,1.9797137,0.1647309,0,0,0,0
39740000,39632000,0,0,1.1441383,1.9658686,-1.0651946,1.980358,0.06366074,0,0,0,0
39940000,39832000,0,0,1.5050808,1.9658312,-1.4313514,1.979105,0.11502207,0,0,0,0
40340000,40232000,0,0,0.8696976,1.9658629,-0.7911461,1.9791191,0.035139773,0,0,0,0
40540000,40432000,0,0,0.89636976,1.9658341,-0.8090184,1.9801958,0.036725365,0,0,0,0
40644000,40532000,0,0,0.46791717,1.9658232,-0.377651,1.9807495,0.008000354,0,0,0,0
40836000,40732000,0,0,1.9646987,1.965856,-1.8731935,1.9796011,0.19694506,0,0,0,0
41036000,40932000,0,0,1.6067866,1.9658693,-1.5072147,1.980686,0.12743598,0,0,0,0
41140000,41032000,0,0,1.0428628,1.9658445,-0.95119154,1.9790945,0.050795693,0,0,0,0
41444000,41332000,0,0,1.2167923,1.9658545,-1.1080645,1.9807109,0.06887578,0,0,0,0
41636000,41532000,0,0,0.8038701,1.9658338,-0.69799376,1.9795699,0.027345741,0,0,0,0
42036000,41932000,0,0,1.6340195,1.9658619,-1.5257447,1.979585,0.13066132,0,0,0,0
42444000,42332000,0,0,0.96611965,1.9658295,-0.8589458,1.9795717,0.041411195,0,0,0,0
42740000,42632000,0,0,0.39388484,1.9658442,-0.2908352,1.9790734,0.004748862,0,0,0,0
42940000,42832000,0,0,0.26386386,1.9658362,-0.15507035,1.9800541,0.0013493914,0,0,0,0
43140000,43032000,0,0,1.3069489,1.9658302,-1.2039235,1.9790905,0.08137474,0,0,0,0
43444000,43332000,0,0,0.9922763,1.9658478,-0.8774918,1.9805019,0.04319847,0,0,0,0
43540000,43432000,0,0,1.6557673,1.9658593,-1.5498488,1.9790999,0.13485542,0,0,0,0
43636000,43532000,0,0,0.7666326,1.9658386,-0.6586227,1.9795055,0.024348607,0,0,0,0
43740000,43632000,0,0,0.92036825,1.9658562,-0.80901927,1.9799882,0.036729295,0,0,0,0
43836000,43732000,0,0,0.909207,1.9658389,-0.79392827,1.9804655,0.035363294,0,0,0,0
43940000,43832000,0,0,1.1805938,1.9657944,-1.0770162,1.9790158,0.06512575,0,0,0,0
44044000,43932000,0,0,1.0193622,1.9658406,-0.9117486,1.9795275,0.046660155,0,0,0,0
44340000,44232000,0,0,1.4312962,1.9658593,-1.3275783,1.979066,0.098950386,0,0,0,0
44540000,44432000,0,0,1.775975,1.9658428,-1.6667683,1.980006,0.15589835,0,0,0,0
45436000,45332000,0,0,0.45628932,1.9658506,-0.34667203,1.9804599,0.0067426255,0,0,0,0
45540000,45432000,0,0,1.5192239,1.9658529,-1.4171566,1.9790738,0.11275379,0,0,0,0
45636000,45532000,0,0,1.1816854,1.9658576,-1.0767535,1.9795581,0.06507614,0,0,0,0
45740000,45632000,0,0,0.80460227,1.9658482,-0.6971406,1.9800179,0.027272759,0,0,0,0
45844000,45732000,0,0,1.154588,1.9658302,-1.0443213,1.9804808,0.06118643,0,0,0,0
46444000,46332000,0,0,1.0764401,1.9658536,-0.9807522,1.9795582,0.053989314,0,0,0,0
46836000,46732000,0,0,1.1872257,1.9658653,-1.0963564,1.9795535,0.06746736,0,0,0,0
47236000,47132000,0,0,0.7810881,1.965856,-0.7002351,1.9795289,0.02752222,0,0,0,0
47644000,47532000,0,0,0.37583038,1.9658526,-0.29868802,1.9795496,0.0050075664,0,0,0,0
47844000,47732000,0,0,0.78328556,1.9658643,-0.7021095,1.9805157,0.02765597,0,0,0,0
47940000,47832000,0,0,0.77323306,1.9658523,-0.69906265,1.9790734,0.02743644,0,0,0,0
48140000,48032000,0,0,1.4041946,1.9658645,-1.324004,1.9800208,0.09837084,0,0,0,0
48236000,48132000,0,0,0.9192027,1.9658365,-0.83469707,1.9804198,0.039089307,0,0,0,0
48340000,48232000,0,0,1.392569,1.9658458,-1.3194487,1.9790534,0.097742856,0,0,0,0
48436000,48332000,0,0,0.8538094,1.9658526,-0.77711296,1.9795334,0.03389713,0,0,0,0
48636000,48532000,0,0,0.22484605,1.9658645,-0.14401516,1.9805007,0.0011635872,0,0,0,0
48844000,48732000,0,0,1.3242302,1.9658632,-1.2464211,1.9795822,0.087199405,0,0,0,0
48940000,48832000,0,0,1.30232,1.9658736,-1.2207241,1.9800171,0.08362259,0,0,0,0
49340000,49232000,0,0,1.5512809,1.9658539,-1.4676673,1.9800447,0.12087536,0,0,0,0
50140000,50032000,0,0,0.20111275,1.9658645,-0.11050449,1.9800361,0.0006852424,0,0,0,0
50236000,50132000,0,0,0.93605816,1.9658375,-0.840783,1.9805313,0.03965917,0,0,0,0
50340000,50232000,0,0,1.557224,1.9658325,-1.4716222,1.9790701,0.12158753,0,0,0,0
50540000,50432000,0,0,1.2746825,1.9658529,-1.1842636,1.9800888,0.07869907,0,0,0,0
50636000,50532000,0,0,0.5879957,1.9658562,-0.4935204,1.9805707,0.013663986,0,0,0,0
51244000,51132000,0,0,1.1126902,1.9658406,-1.0157685,1.9795982,0.057912186,0,0,0,0
51436000,51332000,0,0,1.2441359,1.9658375,-1.143794,1.9805875,0.07339375,0,0,0,0
51540000,51432000,0,0,0.96725255,1.9658365,-0.8772984,1.9790679,0.043210715,0,0,0,0
51644000,51532000,0,0,1.950774,1.9658632,-1.8568141,1.9795923,0.19351678,0,0,0,0
51740000,51632000,0,0,1.4731816,1.9658599,-1.3768386,1.980103,0.10637407,0,0,0,0
51940000,51832000,0,0,0.7372505,1.9658576,-0.6479792,1.9790801,0.023573078,0,0,0,0
52340000,52232000,0,0,0.16034192,1.9658386,-0.06925529,1.9791007,0.00026927466,0,0,0,0
52444000,52332000,0,0,1.3543155,1.9658653,-1.2611172,1.9796295,0.089265674,0,0,0,0
52540000,52432000,0,0,0.56092703,1.9658643,-0.4668375,1.9800882,0.012229379,0,0,0,0
52636000,52532000,0,0,1.8275994,1.9658616,-1.7316788,1.9806117,0.1682259,0,0,0,0
52740000,52632000,0,0,0.5675485,1.9658529,-0.48121363,1.9791012,0.013000659,0,0,0,0
52836000,52732000,0,0,1.2071688,1.9658436,-1.1184146,1.979591,0.07020818,0,0,0,0
52940000,52832000,0,0,1.3197883,1.9658341,-1.2247343,1.9800842,0.08417006,0,0,0,0
53140000,53032000,0,0,1.4642233,1.9658736,-1.3784448,1.9790953,0.10667669,0,0,0,0
53244000,53132000,0,0,1.452783,1.9658382,-1.3647997,1.9795986,0.104548596,0,0,0,0
53444000,53332000,0,0,1.3194109,1.9658452,-1.2240715,1.9805458,0.08405939,0,0,0,0
53540000,53432000,0,0,1.1259738,1.9658406,-1.0398896,1.979092,0.0607108,0,0,0,0
53740000,53632000,0,0,0.58553696,1.9658606,-0.49624363,1.9800298,0.013818969,0,0,0,0
53844000,53732000,0,0,1.0941398,1.9658606,-1.0030023,1.9805872,0.05643745,0,0,0,0
53940000,53832000,0,0,0.50138336,1.965882,-0.4218662,1.9791106,0.009991643,0,0,0,0
54140000,54032000,0,0,1.0971228,1.9658408,-1.0101632,1.980042,0.05726195,0,0,0,0
54236000,54132000,0,0,1.4498576,1.9658456,-1.3592837,1.9804716,0.10365949,0,0,0,0
54340000,54232000,0,0,0.19045162,1.9658623,-0.11167475,1.9790772,0.000700172,0,0,0,0
54436000,54332000,0,0,0.5433803,1.9658619,-0.4620396,1.9795562,0.011982516,0,0,0,0
54540000,54432000,0,0,1.105901,1.9658492,-1.0220349,1.9800161,0.058616545,0,0,0,0
54644000,54532000,0,0,0.500837,1.9658576,-0.41218847,1.9805037,0.009531769,0,0,0,0
54740000,54632000,0,0,1.7090826,1.9658445,-1.628773,1.9790938,0.1489403,0,0,0,0
55036000,54932000,0,0,0.30915412,1.9658362,-0.222222,1.9804865,0.0027705098,0,0,0,0
55140000,55032000,0,0,0.7879243,1.9658573,-0.70751464,1.9790858,0.028103717,0,0,0,0
55244000,55132000,0,0,0.6295644,1.9658515,-0.54499793,1.9795605,0.016671643,0,0,0,0
55436000,55332000,0,0,1.3070637,1.9658458,-1.2166073,1.9805186,0.08303849,0,0,0,0
55540000,55432000,0,0,1.4251257,1.9658623,-1.3426359,1.9790746,0.10120729,0,0,0,0
55644000,55532000,0,0,0.42281088,1.9658278,-0.3373133,1.9795836,0.0063863187,0,0,0,0
55836000,55732000,0,0,1.6158609,1.9658288,-1.527072,1.9805495,0.13082501,0,0,0,0
55940000,55832000,0,0,1.31182,1.9658552,-1.2314214,1.9791074,0.0851337,0,0,0,0
56036000,55932000,0,0,2.1348767,1.9658352,-2.0510948,1.979524,0.23613925,0,0,0,0
56340000,56232000,0,0,1.8444355,1.9658526,-1.7654078,1.979094,0.17497708,0,0,0,0
56436000,56332000,0,0,0.10581487,1.9658632,-0.024612106,1.9795994,3.3999906e-05,0,0,0,0
56636000,56532000,0,0,0.22643323,1.9658399,-0.1393483,1.980515,0.0010893884,0,0,0,0
57244000,57132000,0,0,1.2444565,1.9658523,-1.1663802,1.9796023,0.076358914,0,0,0,0
57436000,57332000,0,0,1.6508758,1.9658358,-1.56862,1.9805434,0.13804117,0,0,0,0
57540000,57432000,0,0,1.5437708,1.9658545,-1.4725243,1.9790916,0.1217353,0,0,0,0
57740000,57632000,0,0,2.0432374,1.9658716,-1.966342,1.9800918,0.2169653,0,0,0,0
57844000,57732000,0,0,1.4780809,1.9658349,-1.4000703,1.9805537,0.10996907,0,0,0,0
57940000,57832000,0,0,1.2901839,1.9658545,-1.2172697,1.9790695,0.0831898,0,0,0,0
58236000,58132000,0,0,1.7399231,1.9658502,-1.6616048,1.9805534,0.15489107,0,0,0,0
58540000,58432000,0,0,0.663901,1.9658666,-0.59140044,1.9800373,0.019626707,0,0,0,0
58740000,58632000,0,0,1.0957578,1.9658219,-1.029359,1.9790535,0.059488595,0,0,0,0
58836000,58732000,0,0,0.6758106,1.9658452,-0.6087289,1.9795719,0.020798597,0,0,0,0
58940000,58832000,0,0,1.7480434,1.9658291,-1.67943,1.9800498,0.1582724,0,0,0,0
59036000,58932000,0,0,1.686079,1.9658482,-1.6160821,1.980521,0.14652269,0,0,0,0
59236000,59132000,0,0,1.2541531,1.9658616,-1.1934571,1.9795867,0.079945974,0,0,0,0
59340000,59232000,0,0,0.9423915,1.9658599,-0.8785193,1.9801037,0.0433084,0,0,0,0
59540000,59432000,0,0,0.5077427,1.9658756,-0.45391837,1.9791211,0.01156753,0,0,0,0
59644000,59532000,0,0,1.1197275,1.9658465,-1.0630802,1.9795982,0.0634326,0,0,0,0
59836000,59732000,0,0,1.0643212,1.9658645,-1.0056815,1.980612,0.056738652,0,0,0,0
60140000,60032000,0,0,0.17280556,1.9658452,-0.11431329,1.9801148,0.0007332644,0,0,0,0
60236000,60132000,0,0,1.6592134,1.9658539,-1.6022097,1.9805816,0.14401358,0,0,0,0
60740000,60632000,0,0,0.5999328,1.9658362,-0.5539056,1.9790807,0.01722525,0,0,0,0
61036000,60932000,0,0,1.2928835,1.9658465,-1.2427316,1.980485,0.086644426,0,0,0,0
61436000,61332000,0,0,0.41310602,1.9658623,-0.35993928,1.9804797,0.0072685126,0,0,0,0
61940000,61832000,0,0,1.3565553,1.9658599,-1.3052039,1.9791065,0.09564121,0,0,0,0
62036000,61932000,0,0,1.3854476,1.9658713,-1.3318815,1.9795413,0.099568985,0,0,0,0
62740000,62632000,0,0,1.2614623,1.9658442,-1.0484313,1.9790525,0.061713483,0,0,0,0
62844000,62732000,0,0,1.7041571,1.9658442,-1.3455296,1.9795624,0.101618975,0,0,0,0
63340000,63232000,0,0,0.91212124,1.9659294,-0.19162452,1.9800261,0.0020605766,0,0,0,0
63540000,63432000,0,0,0.33732396,1.9659662,0.52226204,1.979194,0.015312498,0,0,0,0
63644000,63532000,0,0,0.40909252,1.9659629,0.5149245,1.9796375,0.01488192,0,0,0,0
63740000,63632000,0,0,1.5183325,1.9660044,-0.53996426,1.9800805,0.016360804,0,0,0,0
63940000,63832000,0,0,1.0612516,1.9660398,0.04506123,1.9792602,0.00011398841,0,0,0,0
64036000,63932000,0,0,0.6264533,1.9660655,0.5401646,1.9796864,0.016376209,0,0,0,0
64140000,64032000,0,0,1.2940784,1.9660909,-0.07599175,1.9802263,0.0003240228,0,0,0,0
64236000,64132000,0,0,1.4083735,1.966125,-0.19833028,1.9806634,0.0022066063,0,0,0,0
64436000,64332000,0,0,1.0783011,1.9661461,0.12832963,1.9798105,0.00092424644,0,0,0,0
64540000,64432000,0,0,0.25751168,1.9661806,0.95997685,1.9802939,0.051707003,0,0,0,0
64636000,64532000,0,0,1.6808579,1.9662166,-0.45290196,1.9807322,0.011506418,0,0,0,0
64836000,64732000,0,0,0.91700774,1.9662714,0.35848397,1.9799216,0.007211888,0,0,0,0
64940000,64832000,0,0,0.7413759,1.9662892,0.53376997,1.9803891,0.015985096,0,0,0,0
65236000,65132000,0,0,1.1950047,1.9663566,0.10794139,1.9799858,0.0006538399,0,0,0,0
65340000,65232000,0,0,1.2594264,1.9664015,0.0510751,1.9804777,0.00014635448,0,0,0,0
65444000,65332000,0,0,1.0407943,1.9664168,0.2777841,1.9810169,0.0043279687,0,0,0,0
65540000,65432000,0,0,0.77441704,1.9663965,0.56182885,1.9796079,0.017716845,0,0,0,0
66044000,65932000,0,0,0.682386,1.966548,0.6949815,1.9802617,0.027100755,0,0,0,0
66236000,66132000,0,0,1.4675757,1.9666526,-0.08292627,1.9811959,0.00038566868,0,0,0,0
66340000,66232000,0,0,0.6556271,1.9666425,0.7432272,1.9799238,0.03099932,0,0,0,0
66444000,66332000,0,0,0.7190466,1.966701,0.686237,1.9804441,0.026420627,0,0,0,0
66540000,66432000,0,0,0.8524085,1.9667025,0.55701363,1.9808601,0.017403448,0,0,0,0
66636000,66532000,0,0,1.1426842,1.9667372,0.2704841,1.9813819,0.004102728,0,0,0,0
66740000,66632000,0,0,0.6671944,1.9667442,0.7540365,1.9800024,0.031906303,0,0,0,0
66940000,66832000,0,0,1.3148173,1.9668218,0.11154127,1.9809843,0.0006978268,0,0,0,0
67236000,67132000,0,0,1.5846955,1.9669127,-0.14197195,1.9805864,0.0011307556,0,0,0,0
67740000,67632000,0,0,1.1373777,1.9670415,0.3229673,1.9811363,0.0058500585,0,0,0,0
67836000,67732000,0,0,0.70245963,1.9670569,0.75999767,1.9816272,0.032386202,0,0,0,0
68036000,67932000,0,0,1.5516504,1.9671501,-0.08662069,1.9807758,0.0004208869,0,0,0,0
68140000,68032000,0,0,1.3078448,1.9671384,0.15796793,1.9812803,0.0013994242,0,0,0,0
68340000,68232000,0,0,1.0931562,1.9672207,0.37767744,1.9804276,0.008002775,0,0,0,0
68436000,68332000,0,0,0.75100696,1.9672401,0.72372437,1.9809107,0.029379135,0,0,0,0
68540000,68432000,0,0,0.8299373,1.9672735,0.6456019,1.9813923,0.023373118,0,0,0,0
69244000,69132000,0,0,0.5257348,1.9674487,0.9873018,1.9811258,0.05466953,0,0,0,0
69340000,69232000,0,0,0.39036384,1.9675156,1.1217825,1.9815938,0.07056026,0,0,0,0
69740000,69632000,0,0,0.79125345,1.9675959,0.7204764,1.9817233,0.029104088,0,0,0,0
69940000,69832000,0,0,0.88812906,1.9676702,0.6292767,1.9808627,0.022211935,0,0,0,0
70236000,70132000,0,0,1.1911812,1.9677447,0.32304454,1.9822512,0.005849566,0,0,0,0
70444000,70332000,0,0,1.8353101,1.9678149,-0.20682979,1.9814986,0.002398777,0,0,0,0
70836000,70732000,0,0,1.5179055,1.9679846,0.8769562,1.9816055,0.04312172,0,0,0,0
71340000,71232000,0,0,1.6322339,1.9682133,1.271625,1.982328,0.09063587,0,0,0,0
71436000,71332000,0,0,0.718831,1.9682926,2.1657548,1.9828088,0.2628423,0,0,0,0
71540000,71432000,0,0,0.75164014,1.9682832,2.0872996,1.9815347,0.24430108,0,0,0,0
71740000,71632000,0,0,1.4214267,1.9684474,1.4248484,1.9825488,0.11378131,0,0,0,0
72044000,71932000,0,0,1.5053933,1.9686127,1.3786438,1.9822892,0.10653556,0,0,0,0
72140000,72032000,0,0,1.4666728,1.9686395,1.4250413,1.9827869,0.113798454,0,0,0,0
72236000,72132000,0,0,1.3739642,1.968713,1.5240794,1.9832643,0.13013439,0,0,0,0
72340000,72232000,0,0,0.9559893,1.9687853,1.9428027,1.9819955,0.21159832,0,0,0,0
72940000,72832000,0,0,0.8501088,1.9690998,1.9879215,1.9831975,0.2214063,0,0,0,0
73036000,72932000,0,0,1.2744823,1.9691396,1.5702896,1.9837137,0.1381141,0,0,0,0
73340000,73232000,0,0,1.1724383,1.9692864,1.69428,1.98343,0.16080923,0,0,0,0
73444000,73332000,0,0,0.7040767,1.9693387,2.1685886,1.9839323,0.26338136,0,0,0,0
73636000,73532000,0,0,0.737654,1.969427,2.1451118,1.9831064,0.25781688,0,0,0,0
74036000,73932000,0,0,1.1663345,1.96968,1.7361377,1.9835608,0.16884194,0,0,0,0
74236000,74132000,0,0,0.7249641,1.9697977,2.1838882,1.9829828,0.2672387,0,0,0,0
74836000,74732000,0,0,1.1208576,1.970111,1.8110186,1.9843378,0.18364865,0,0,0,0
74940000,74832000,0,0,1.3919137,1.9701725,1.5412893,1.9831551,0.13309726,0,0,0,0
75140000,75032000,0,0,0.9074136,1.9702766,2.0307355,1.9841787,0.23093162,0,0,0,0
75444000,75332000,0,0,1.724396,1.9704534,1.2219653,1.9840062,0.083624244,0,0,0,0
75540000,75432000,0,0,0.44330084,1.9705015,2.5053883,1.9844627,0.35145086,0,0,0,0
75740000,75632000,0,0,0.9834962,1.9706099,1.9688098,1.9837509,0.21710904,0,0,0,0
76036000,75932000,0,0,0.70751524,1.970786,2.2509842,1.9852611,0.28358597,0,0,0,0
76340000,76232000,0,0,1.4083247,1.9709396,1.6298559,1.9850328,0.1486922,0,0,0,0
76540000,76432000,0,0,1.1585466,1.9710939,1.913458,1.9842734,0.20501886,0,0,0,0
76836000,76732000,0,0,0.4785266,1.9712533,2.4798656,1.9857526,0.34410313,0,0,0,0
76940000,76832000,0,0,1.0567573,1.9712888,1.8991278,1.9845233,0.20193411,0,0,0,0
77236000,77132000,0,0,0.9384147,1.9714394,2.1276865,1.9860039,0.25327522,0,0,0,0
77340000,77232000,0,0,0.5018867,1.9715171,2.5667772,1.9847406,0.36883327,0,0,0,0
77644000,77532000,0,0,1.8710111,1.9717065,1.1871787,1.9862986,0.07883974,0,0,0,0
77836000,77732000,0,0,0.9815255,1.9717963,2.0739007,1.9854761,0.24069591,0,0,0,0
77940000,77832000,0,0,0.8101566,1.9718626,2.2413085,1.9859918,0.28104982,0,0,0,0
78036000,77932000,0,0,1.2650362,1.9719614,1.7847775,1.9864923,0.17817171,0,0,0,0
78140000,78032000,0,0,0.8903158,1.971972,2.1559427,1.9852248,0.26014903,0,0,0,0
78244000,78132000,0,0,1.7240006,1.9720407,1.3194488,1.9857409,0.0974137,0,0,0,0
78340000,78232000,0,0,1.2339293,1.972133,1.8062791,1.9862355,0.18251412,0,0,0,0
78444000,78332000,0,0,0.19932315,1.9721789,2.8379653,1.9868045,0.45041877,0,0,0,0
78540000,78432000,0,0,0.91619766,1.9722248,2.1193624,1.9854542,0.25136688,0,0,0,0
78644000,78532000,0,0,1.2616972,1.9723119,1.7713636,1.9859862,0.17554833,0,0,0,0
78836000,78732000,0,0,1.3798035,1.9723902,1.6494838,1.9869385,0.15214902,0,0,0,0
78940000,78832000,0,0,0.71388996,1.9724699,2.3140106,1.9856746,0.29962644,0,0,0,0
79036000,78932000,0,0,0.87942445,1.9724793,2.1505947,1.9861476,0.25873974,0,0,0,0
79140000,79032000,0,0,1.2731453,1.9725597,1.7540199,1.9866762,0.17206773,0,0,0,0
79236000,79132000,0,0,1.1642355,1.9726397,1.8595182,1.987157,0.19334199,0,0,0,0
79340000,79232000,0,0,1.4782115,1.9726762,1.5433794,1.9859158,0.13327298,0,0,0,0
79436000,79332000,0,0,0.8964045,1.9727335,2.1254504,1.9863756,0.25269583,0,0,0,0
79740000,79632000,0,0,1.3828621,1.972909,1.6394172,1.9861251,0.15035914,0,0,0,0
79940000,79832000,0,0,1.3241494,1.9729964,1.6957145,1.9871271,0.16078195,0,0,0,0
80140000,80032000,0,0,0.8185387,1.973144,2.1978245,1.986337,0.27020323,0,0,0,0
80244000,80132000,0,0,1.3893037,1.9732338,1.6257975,1.9869342,0.14781106,0,0,0,0
80540000,80432000,0,0,0.62941206,1.97335,2.3851976,1.9865886,0.31819862,0,0,0,0
80636000,80532000,0,0,2.0341854,1.9734223,0.97769904,1.9870634,0.053451035,0,0,0,0
80740000,80632000,0,0,1.7357122,1.9735013,1.2745465,1.9875884,0.09081183,0,0,0,0
80940000,80832000,0,0,1.1144403,1.9736162,1.893375,1.9868323,0.20047933,0,0,0,0
81044000,80932000,0,0,0.4714798,1.9736632,2.532708,1.9873239,0.35864025,0,0,0,0
81140000,81032000,0,0,1.0105062,1.9736927,1.9952643,1.9878238,0.22252584,0,0,0,0
81540000,81432000,0,0,0.5755747,1.9739224,2.4317477,1.9880283,0.3305004,0,0,0,0
81636000,81532000,0,0,0.7175848,1.9740062,2.2737048,1.9885129,0.28886655,0,0,0,0
81844000,81732000,0,0,1.6433545,1.974107,1.187231,1.9877954,0.078787304,0,0,0,0
81940000,81832000,0,0,1.497939,1.9741744,1.2823931,1.9882646,0.09190215,0,0,0,0
82044000,81932000,0,0,0.8829255,1.9742362,1.8751755,1.9888493,0.19644432,0,0,0,0
82140000,82032000,0,0,1.2408919,1.9742742,1.4127355,1.987494,0.11157666,0,0,0,0
82236000,82132000,0,0,1.2650745,1.9743137,1.2574744,1.9879344,0.08837996,0,0,0,0
82540000,82432000,0,0,0.74167925,1.97444,1.5253224,1.9876475,0.1300593,0,0,0,0
82740000,82632000,0,0,1.880754,1.9745187,0.21407104,1.9886386,0.0025604567,0,0,0,0
82940000,82832000,0,0,0.34462476,1.9745941,1.5620992,1.9878474,0.13639288,0,0,0,0
83036000,82932000,0,0,1.2460332,1.9746326,0.5736196,1.988289,0.018387638,0,0,0,0
83244000,83132000,0,0,1.5543125,1.9746913,0.05188012,1.9893173,0.00015033336,0,0,0,0
83540000,83432000,0,0,0.43335676,1.9747918,0.967219,1.9889476,0.052261733,0,0,0,0
83740000,83632000,0,0,1.2569534,1.9748645,0.020465732,1.9880883,2.3408651e-05,0,0,0,0
84036000,83932000,0,0,2.1291842,1.9749137,-1.0276718,1.9894528,0.058983795,0,0,0,0
84340000,84232000,0,0,1.2346696,1.9749807,-0.2777546,1.9890982,0.0043094694,0,0,0,0
84540000,84432000,0,0,1.0229827,1.9750051,-0.16004962,1.9882473,0.0014315165,0,0,0,0
84940000,84832000,0,0,1.0111637,1.9750856,-0.32338667,1.9883032,0.0058441195,0,0,0,0
85140000,85032000,0,0,0.8876404,1.9751111,-0.2744701,1.9892416,0.0042078476,0,0,0,0
85236000,85132000,0,0,1.2736795,1.9751064,-0.6916011,1.9896384,0.026711278,0,0,0,0
85340000,85232000,0,0,1.7681108,1.9751288,-1.2155442,1.9883819,0.08256561,0,0,0,0
85436000,85332000,0,0,0.103465095,1.9751182,0.4197058,1.9887744,0.009841514,0,0,0,0
85540000,85432000,0,0,1.4710531,1.9751406,-0.9784129,1.9892437,0.053470448,0,0,0,0
85636000,85532000,0,0,0.33722445,1.9751519,0.12630808,1.9897324,0.0008908922,0,0,0,0
85740000,85632000,0,0,1.8850044,1.975163,-1.4474132,1.9884025,0.117068015,0,0,0,0
85940000,85832000,0,0,0.3411297,1.9751583,0.050682038,1.9893163,0.00014347023,0,0,0,0
86036000,85932000,0,0,0.68241686,1.9751683,-0.3054923,1.9897352,0.0052115005,0,0,0,0
86140000,86032000,0,0,1.0545434,1.9751744,-0.6693406,1.9883933,0.025035111,0,0,0,0
86436000,86332000,0,0,1.2936116,1.9752139,-0.5136477,1.991147,0.014722611,0,0,0,0
90444000,90332000,0,0,1.2520373,1.9753503,0.24978983,2.0001736,0.003466086,0,0,0,0
91036000,90932000,0,0,1.2393305,1.9753208,-0.6343942,2.0024683,0.02233111,0,0,0,0
91140000,91032000,0,0,1.8021146,1.9753373,-0.921847,2.0072606,0.04704044,0,0,0,0
91340000,91232000,0,0,1.9953352,1.9753389,-0.5630915,2.0029407,0.017589252,0,0,0,0
91444000,91332000,0,0,1.8918426,1.9753406,-0.1722753,2.0059423,0.0016439366,0,0,0,0
91540000,91432000,0,0,1.9407772,1.9753493,0.052692175,2.0089111,0.00015356386,0,0,0,0
91644000,91532000,0,0,2.1502333,1.9753265,0.1410873,2.012289,0.0010991145,0,0,0,0
91740000,91632000,0,0,2.7044752,1.975357,-0.14483142,2.0029216,0.0011636412,0,0,0,0
91836000,91732000,0,0,2.9642143,1.9753245,-0.13206363,2.0053675,0.00096634,0,0,0,0
91940000,91832000,0,0,3.3484304,1.9753278,-0.21958828,2.0082295,0.0026678564,0,0,0,0
92044000,91932000,0,0,3.110291,1.9753447,0.30175972,2.0112045,0.005030647,0,0,0,0
92140000,92032000,0,0,3.2522602,1.975336,0.39486742,2.0019264,0.008653902,0,0,0,0
92244000,92132000,0,0,3.6619601,1.9753151,0.20050025,2.0039458,0.002228955,0,0,0,0
92340000,92232000,0,0,3.7214324,1.9753406,0.31318545,2.0058205,0.005433361,0,0,0,0
92436000,92332000,0,0,3.9813275,1.9753389,0.19618177,2.0075917,0.0021300972,0,0,0,0
92540000,92432000,0,0,4.430228,1.9753339,-0.10710907,1.9995372,0.0006375005,0,0,0,0
92636000,92532000,0,0,4.3909864,1.9753077,0.016018867,2.000627,1.4251315e-05,0,0,0,0
92740000,92632000,0,0,4.385121,1.975343,0.074640274,2.001712,0.00030924476,0,0,0,0
92836000,92732000,0,0,4.38814,1.9753208,0.08276558,2.0024905,0.00038009006,0,0,0,0
92940000,92832000,0,0,4.2561555,1.975293,0.21225166,1.9959241,0.0025079316,0,0,0,0
93036000,92932000,0,0,3.9897952,1.9753038,0.43131018,1.996363,0.010353742,0,0,0,0
93140000,93032000,0,0,4.0051928,1.9753208,0.36286736,1.9968462,0.0073267044,0,0,0,0
93244000,93132000,0,0,4.2709985,1.9753067,0.056809902,1.9973781,0.00017953342,0,0,0,0
93340000,93232000,0,0,3.965433,1.9752936,0.29665732,1.9927363,0.0049070194,0,0,0,0
93436000,93332000,0,0,3.996953,1.9752951,0.10029602,1.9931643,0.00056076614,0,0,0,0
93540000,93432000,0,0,3.6467128,1.9752984,0.18255496,1.9936352,0.0018573727,0,0,0,0
93636000,93532000,0,0,3.4944112,1.9752967,0.039202213,1.9941014,8.563108e-05,0,0,0,0
93740000,93632000,0,0,2.750055,1.9753084,0.4652245,1.9906585,0.012080528,0,0,0,0
93836000,93732000,0,0,2.0026336,1.975292,0.8558042,1.991159,0.040869597,0,0,0,0
93940000,93832000,0,0,2.6300366,1.9753108,-0.20347595,1.9918565,0.0023095408,0,0,0,0
94236000,94132000,0,0,1.0055044,1.9753095,0.060052633,1.9907944,0.00020127746,0,0,0,0
94436000,94332000,0,0,1.4868866,1.9753188,-1.1172059,1.9936498,0.06956247,0,0,0,0
94540000,94432000,0,0,0.92894465,1.975303,-0.47813892,1.9928038,0.0127468,0,0,0,0
94644000,94532000,0,0,0.27513084,1.9753044,0.40206304,1.9939556,0.009008041,0,0,0,0
95140000,95032000,0,0,0.46033224,1.975299,0.65884125,1.9934729,0.02419406,0,0,0,0
95844000,95732000,0,0,0.8964509,1.975294,-0.37800843,1.9908227,0.007974948,0,0,0,0
96236000,96132000,0,0,0.99963224,1.9752812,-0.9080081,1.9893042,0.046050645,0,0,0,0
96540000,96432000,0,0,0.60300994,1.9752873,-0.41064143,1.989227,0.009418867,0,0,0,0
96740000,96632000,0,0,1.0874566,1.9752669,-0.77898526,1.9904166,0.033874426,0,0,0,0
96836000,96732000,0,0,1.6556184,1.9752638,-1.259275,1.9910973,0.08849244,0,0,0,0
97140000,97032000,0,0,1.0046972,1.9752729,-0.18244511,1.9902403,0.0018583025,0,0,0,0
97236000,97132000,0,0,0.67680466,1.9752827,0.33637357,1.9910198,0.006314306,0,0,0,0
97340000,97232000,0,0,1.2787601,1.9752592,-0.042140603,1.9887817,9.921375e-05,0,0,0,0
97436000,97332000,0,0,1.7925982,1.9752551,-0.30665326,1.9895321,0.005251722,0,0,0,0
97540000,97432000,0,0,2.2402377,1.9752686,-0.45526707,1.9904283,0.011570268,0,0,0,0
97644000,97532000,0,0,2.0561786,1.975281,0.06478715,1.9913884,0.00023419588,0,0,0,0
97740000,97632000,0,0,2.811678,1.975274,-0.3648405,1.9891248,0.007435353,0,0,0,0
97836000,97732000,0,0,3.1990016,1.9752424,-0.37544513,1.9899555,0.007870586,0,0,0,0
97940000,97832000,0,0,3.8237379,1.9752508,-0.5640857,1.9909652,0.017757589,0,0,0,0
98044000,97932000,0,0,3.777108,1.9752448,-0.046717644,1.9920452,0.000121736324,0,0,0,0
98140000,98032000,0,0,4.288276,1.9752522,-0.11365366,1.9896644,0.00072134746,0,0,0,0
98244000,98132000,0,0,5.0604224,1.9752551,-0.35308075,1.9907281,0.006958147,0,0,0,0
98340000,98232000,0,0,5.4750905,1.9752709,-0.25336695,1.9917831,0.003581091,0,0,0,0
98444000,98332000,0,0,6.0743456,1.9752669,-0.2531724,1.9929596,0.003573483,0,0,0,0
98540000,98432000,0,0,6.626063,1.9752424,-0.23819971,1.9904104,0.0031673592,0,0,0,0
98636000,98532000,0,0,7.423001,1.9752203,-0.43857527,1.9914646,0.010731815,0,0,0,0
98740000,98632000,0,0,7.929727,1.97521,-0.280684,1.9927386,0.0043928106,0,0,0,0
98836000,98732000,0,0,8.682427,1.9751976,-0.40029144,1.9939969,0.008928646,0,0,0,0
98940000,98832000,0,0,9.438484,1.975177,-0.47376347,1.9913135,0.012523941,0,0,0,0
99044000,98932000,0,0,10.119815,1.975158,-0.43468285,1.9926403,0.010535948,0,0,0,0
99140000,99032000,0,0,10.622723,1.9751074,-0.26451778,1.9939384,0.0038990204,0,0,0,0
99244000,99132000,0,0,11.541087,1.975099,-0.451334,1.9955028,0.011342302,0,0,0,0
99340000,99232000,0,0,12.251044,1.9750973,-0.498497,1.992348,0.013858538,0,0,0,0
99444000,99332000,0,0,12.919934,1.9750608,-0.4417181,1.9937829,0.010873516,0,0,0,0
99540000,99432000,0,0,13.689724,1.9750246,-0.5430479,1.9951978,0.016422823,0,0,0,0
99636000,99532000,0,0,14.214197,1.9750159,-0.40361023,1.9967226,0.009064923,0,0,0,0
99740000,99632000,99660000,0,14.933638,1.974974,-0.41463757,2.9862783,0.0063968254,0,0,0,0
99844000,99732000,99764000,0,15.507192,1.9749566,0.13803768,3.978256,0.0005321819,0,1,0,1
99940000,99832000,99860000,0,16.062195,1.9749328,0.021585464,2.9913151,1.7306853e-05,0,1,0,1
100036000,99932000,99956000,0,16.539917,1.9749013,-0.04336357,2.6620443,7.848602e-05,0,1,0,1
100140000,100032000,100060000,0,16.932459,1.9748869,-0.03570366,2.4927251,5.6820958e-05,0,1,0,1
100236000,100132000,100156000,0,17.14365,1.9748669,0.038658142,2.3941994,6.9355214e-05,0,1,0,1
100340000,100232000,100260000,0,17.306025,1.9748682,0.10945511,2.3290598,0.000571543,0,1,0,1
100444000,100332000,100364000,0,17.452639,1.974853,0.124017715,2.2829285,0.00074857037,0,1,0,1
100540000,100432000,100460000,0,17.529402,1.9748226,0.17237663,2.2432795,0.0014717394,0,1,0,1
100636000,100532000,100556000,0,17.591288,1.9748319,0.14683533,2.2163131,0.001080905,0,1,0,1
100740000,100632000,100660000,0,17.572468,1.9748403,0.15787125,2.1947477,0.0012617664,0,1,0,1
100836000,100732000,100756000,0,17.584414,1.9748333,0.09638214,2.1771114,0.00047410003,0,1,0,1
100940000,100832000,100860000,0,17.52935,1.9748484,0.13124084,2.1583748,0.0008866836,0,1,0,1
101036000,100932000,100956000,0,17.429098,1.9748728,0.15699577,2.1460083,0.0012761509,0,1,0,1
101140000,101032000,101060000,0,17.424196,1.9748541,0.075956345,2.1355662,0.00030017365,0,1,0,1
101244000,101132000,101164000,0,17.352133,1.9748769,0.059030533,2.1267524,0.00018205137,0,1,0,1
101340000,101232000,101260000,0,17.246607,1.974853,0.10829353,2.1151922,0.0006160454,0,1,0,1
101436000,101332000,101356000,0,17.094715,1.9748675,0.16200256,2.1083684,0.0013831038,0,1,0,1
101540000,101432000,101460000,0,17.060444,1.974908,0.07958412,2.10257,0.00033470322,0,1,0,1
101636000,101532000,101556000,0,16.864151,1.9748987,0.16558266,2.0973494,0.0014525009,0,1,0,1
101740000,101632000,101660000,0,16.706865,1.9749117,0.22758865,2.0893304,0.0027545558,0,1,0,1
101836000,101732000,101756000,0,16.648886,1.9749355,0.160635,2.085267,0.0013749159,0,1,0,1
101940000,101832000,101860000,0,16.570969,1.9749261,0.10689926,2.081695,0.0006099437,0,1,0,1
102044000,101932000,101964000,0,16.43088,1.9749268,0.11788368,2.0785866,0.0007428425,0,1,0,1
102140000,102032000,102060000,0,16.176233,1.974977,0.27971077,2.0724058,0.004194701,0,1,0,1
102236000,102132000,102156000,0,16.193296,1.9749948,0.13792038,2.0698369,0.0010211234,0,1,0,1
102340000,102232000,102260000,0,16.051281,1.9749959,0.15242958,2.067633,0.0012485979,0,1,0,1
102436000,102332000,102356000,0,16.046913,1.9749835,0.04185486,2.0656352,9.423139e-05,0,1,0,1
102540000,102432000,102460000,0,15.817763,1.97503,0.17828846,2.0605624,0.001714029,0,1,0,1
102636000,102532000,102556000,0,15.699491,1.9750662,0.18594837,2.0589492,0.0018659355,0,1,0,1
102740000,102632000,102660000,0,15.547815,1.9750394,0.22537804,2.0575514,0.0027430262,0,1,0,1
102836000,102732000,102756000,0,15.484644,1.9750645,0.18669033,2.0563319,0.0018832498,0,1,0,1
102940000,102832000,102860000,0,15.411153,1.9750819,0.17693901,2.0518527,0.0016953466,0,1,0,1
103036000,102932000,102956000,0,15.325956,1.9750926,0.17355156,2.0508082,0.0016318848,0,1,0,1
103140000,103032000,103060000,0,15.32269,1.9751004,0.08692455,2.0499825,0.00040953618,0,1,0,1
103236000,103132000,103156000,0,15.168359,1.9751182,0.16509151,2.049231,0.0014778014,0,1,0,1
103340000,103232000,103260000,0,15.224299,1.9751295,0.048314095,2.0451365,0.00012681859,0,1,0,1
103444000,103332000,103364000,0,15.114732,1.9751027,0.08780098,2.044512,0.00041895418,0,1,0,1
103540000,103432000,103460000,0,15.071144,1.9751087,0.07247162,2.0439696,0.00028550843,0,1,0,1
103644000,103532000,103564000,0,15.076494,1.9751232,0.011440277,2.0436292,7.115878e-06,0,1,0,1
103740000,103632000,103660000,0,14.990932,1.9751465,0.064949036,2.0397365,0.0002297888,0,1,0,1
103836000,103732000,103756000,0,14.812458,1.9751312,0.20398617,2.0393298,0.002267104,0,1,0,1
103940000,103832000,103860000,0,14.930621,1.9751319,0.047571182,2.0391035,0.00012331222,0,1,0,1
104044000,103932000,103964000,0,14.786999,1.9751382,0.16173935,2.038975,0.001425532,0,1,0,1
104140000,104032000,104060000,0,14.634228,1.9751178,0.29879475,2.0352354,0.004874036,0,1,0,1
104244000,104132000,104164000,0,14.688582,1.9751215,0.2189045,2.0351064,0.0026162528,0,1,0,1
104340000,104232000,104260000,0,14.803577,1.975143,0.08569908,2.0350044,0.0004010001,0,1,0,1
104436000,104332000,104356000,0,14.685038,1.9751378,0.1902771,2.0349488,0.001976865,0,1,0,1
104540000,104432000,104460000,0,14.689324,1.9751419,0.18011665,2.0314856,0.0017743997,0,1,0,1
104636000,104532000,104556000,0,14.8545265,1.9751365,0.007899284,2.0314164,3.4129823e-06,0,1,0,1
104740000,104632000,104660000,0,14.754296,1.9751472,0.10573959,2.0315015,0.00061152695,0,1,0,1
104836000,104732000,104756000,0,14.727164,1.9751489,0.13201904,2.0315711,0.00095323205,0,1,0,1
104940000,104832000,104860000,0,14.847326,1.9751201,0.018134117,2.0281913,1.8015298e-05,0,1,0,1
105036000,104932000,104956000,0,14.750535,1.9751378,0.12118149,2.028254,0.000804466,0,1,0,1
105140000,105032000,105060000,0,14.823664,1.9751217,0.053290367,2.02841,0.00015556045,0,1,0,1
105236000,105132000,105156000,0,14.855039,1.9751356,0.027471542,2.0285897,4.133609e-05,0,1,0,1
105340000,105232000,105260000,0,14.938006,1.9750866,-0.04067135,2.0253255,9.074857e-05,0,1,0,1
105444000,105332000,105364000,0,14.781317,1.9750926,0.12475777,2.025531,0.00085379527,0,1,0,1
105540000,105432000,105460000,0,14.801263,1.9751111,0.113331795,2.0257373,0.00070449495,0,1,0,1
105644000,105532000,105564000,0,14.876605,1.9751006,0.045624733,2.0260396,0.000114159026,0,1,0,1
105740000,105632000,105660000,0,15.010285,1.9751027,-0.07683849,2.022874,0.0003242995,0,1,0,1
105844000,105732000,105764000,0,14.909325,1.9750876,0.037958145,2.023131,7.913042e-05,0,1,0,1
105940000,105832000,105860000,0,14.966044,1.9750956,-0.01039505,2.023398,5.9337517e-06,0,1,0,1
106036000,105932000,105956000,0,14.8340435,1.9750769,0.12870789,2.0237014,0.0009095391,0,1,0,1
106140000,106032000,106060000,0,14.917186,1.9750919,0.05799675,2.020793,0.00018494517,0,1,0,1
106236000,106132000,106156000,0,14.92038,1.9750856,0.063547134,2.02124,0.00022198906,0,1,0,1
106340000,106232000,106260000,0,14.873916,1.9750826,0.11958313,2.0221372,0.00078575424,0,1,0,1
106444000,106332000,106364000,0,14.966614,1.9750477,0.041423798,2.0237021,9.421297e-05,0,1,0,1
106540000,106432000,106460000,0,14.878331,1.9750749,0.1632452,2.0225544,0.0014639901,0,1,0,1
106636000,106532000,106556000,0,15.057659,1.9750668,0.010976791,2.0261064,6.6076354e-06,0,1,0,1
106740000,106632000,106660000,0,14.959565,1.9750497,0.1466484,2.0318956,0.0011760094,0,1,0,1
106836000,106732000,106756000,0,15.0460825,1.9750116,0.098254204,2.039447,0.0005259535,0,1,0,1
106940000,106832000,106860000,0,15.162101,1.9750031,0.04696846,2.0448058,0.00011987209,0,1,0,1
107044000,106932000,106964000,0,15.203774,1.9750051,0.052586555,2.0572238,0.00014935693,0,1,0,1
107140000,107032000,107060000,0,15.213168,1.9750012,0.088157654,2.0711837,0.00041692593,0,1,0,1
107244000,107132000,107164000,0,15.263169,1.9749559,0.0810833,2.0879166,0.00034987036,0,1,0,1
107340000,107232000,107260000,0,15.477778,1.9749683,-0.0667305,2.0964088,0.00023600993,0,1,0,1
107444000,107332000,107364000,0,15.526727,1.9749211,-0.065773964,2.1158104,0.00022718978,0,1,0,1
107540000,107432000,107460000,0,15.627069,1.974906,-0.12351608,2.1326902,0.0007948345,0,1,0,1
107644000,107532000,107564000,0,15.6978855,1.9748836,-0.1459732,2.1510327,0.001100669,0,1,0,1
107740000,107632000,107660000,0,15.613053,1.974858,0.024863243,2.1543753,3.188245e-05,0,1,0,1
107844000,107732000,107764000,0,15.674064,1.974844,-0.0049905777,2.1680164,1.2764286e-06,0,1,0,1
107940000,107832000,107860000,0,15.741013,1.9748203,-0.047480583,2.177442,0.000115038434,0,1,0,1
108044000,107932000,107964000,0,15.663543,1.9748062,0.052654266,2.1864698,0.00014089032,0,1,0,1
108140000,108032000,108060000,0,15.841024,1.9747944,-0.048594475,2.178059,0.0001204652,0,1,0,1
108244000,108132000,108164000,0,15.7462635,1.9747854,0.065291405,2.180913,0.00021718569,0,1,0,1
108340000,108232000,108260000,0,15.9442425,1.974777,-0.1248312,2.180494,0.00079405186,0,1,0,1
108436000,108332000,108356000,0,15.959446,1.9747546,-0.12248802,2.1786697,0.00076516194,0,1,0,1
108540000,108432000,108460000,0,15.926371,1.974715,-0.012682915,2.1638048,8.259953e-06,0,1,0,1
108636000,108532000,108556000,0,15.84896,1.9747425,0.07060814,2.1593468,0.00025653382,0,1,0,1
108740000,108632000,108660000,0,15.873696,1.9747057,0.045585632,2.1550298,0.00010714211,0,1,0,1
108844000,108732000,108764000,0,15.924336,1.974705,-0.0038414001,2.150449,7.6244305e-07,0,1,0,1
108940000,108832000,108860000,0,15.967201,1.9746635,0.0034284592,2.1339169,6.120374e-07,0,1,0,1
109044000,108932000,108964000,0,15.906291,1.9746735,0.06327915,2.1287086,0.00020900785,0,1,0,1
109140000,109032000,109060000,0,16.095106,1.9746423,-0.13296986,2.1234756,0.0009251595,0,1,0,1
109244000,109132000,109164000,0,16.000273,1.9746668,-0.03772545,2.1188402,7.4632524e-05,0,1,0,1
109340000,109232000,109260000,0,15.986187,1.9746705,0.013699532,2.1040006,9.9111285e-06,0,1,0,1
109444000,109332000,109364000,0,16.056875,1.9746487,-0.073293686,2.099459,0.00028430417,0,1,0,1
109540000,109432000,109460000,0,16.112719,1.9746584,-0.14409351,2.0953553,0.0011010034,0,1,0,1
109636000,109532000,109556000,0,16.011763,1.9746869,-0.060904503,2.0917096,0.00019704022,0,1,0,1
109740000,109632000,109660000,0,16.043388,1.9746702,-0.07317543,2.0790143,0.0002861743,0,1,0,1
109836000,109732000,109756000,0,15.910662,1.9746846,0.028896332,2.0757987,4.469487e-05,0,1,0,1
109940000,109832000,109860000,0,15.926589,1.9746735,-0.029482841,2.0730112,4.6590194e-05,0,1,0,1
110036000,109932000,109956000,0,15.892712,1.9746678,-0.036485672,2.0707595,7.1428665e-05,0,1,0,1
110140000,110032000,110060000,0,15.859432,1.9746865,-0.025111198,2.0600524,3.4010583e-05,0,1,0,1
110244000,110132000,110164000,0,15.763242,1.9746654,0.019115448,2.0582223,1.972578e-05,0,1,0,1
110340000,110232000,110260000,0,15.769687,1.974724,-0.03964138,2.056961,8.488461e-05,0,1,0,1
110444000,110332000,110364000,0,15.656391,1.9747057,0.012776375,2.0560725,8.821336e-06,0,1,0,1
110540000,110432000,110460000,0,15.632365,1.9747425,0.00015735626,2.0471957,1.3438977e-09,0,1,0,1
110644000,110532000,110564000,0,15.615879,1.9747512,-0.050061226,2.0466905,0.00013605306,0,1,0,1
110740000,110632000,110660000,0,15.502821,1.97477,0.0033864975,2.0465074,6.2265246e-07,0,1,0,1
110836000,110732000,110756000,0,15.502213,1.974776,-0.058324814,2.0466642,0.00018467904,0,1,0,1
110940000,110832000,110860000,0,15.366226,1.9748182,0.023192406,2.0392356,2.9307696e-05,0,1,0,1
111036000,110932000,110956000,0,15.309044,1.9748293,0.017435074,2.0395272,1.656058e-05,0,1,0,1
111140000,111032000,111060000,0,15.24409,1.9748695,0.01504612,2.040244,1.2328901e-05,0,1,0,1
111244000,111132000,111164000,0,15.204191,1.9748611,-0.012371063,2.041249,8.330587e-06,0,1,0,1
111340000,111232000,111260000,0,15.052835,1.974902,0.08559799,2.0344028,0.00040017292,0,1,0,1
111444000,111332000,111364000,0,15.04858,1.974905,0.022315979,2.0353527,2.7186275e-05,0,1,0,1
111540000,111432000,111460000,0,14.980922,1.9749426,0.03219223,2.0364554,5.6543766e-05,0,1,0,1
111636000,111532000,111556000,0,14.850268,1.9749653,0.10859394,2.0377374,0.0006430141,0,1,0,1
111740000,111632000,111660000,0,14.85101,1.9750018,0.0461483,2.0314667,0.00011648209,0,1,0,1
111844000,111732000,111764000,0,14.779718,1.9749972,0.062190056,2.032768,0.00021140321,0,1,0,1
111940000,111832000,111860000,0,14.711714,1.975031,0.08450413,2.0341103,0.00039006665,0,1,0,1
112036000,111932000,111956000,0,14.708391,1.9750183,0.042671204,2.0356085,9.9387784e-05,0,1,0,1
112140000,112032000,112060000,0,14.681732,1.9750571,0.014802933,2.0295377,1.1996537e-05,0,1,0,1
112244000,112132000,112164000,0,14.520985,1.9750721,0.1384182,2.0310097,0.0010481704,0,1,0,1
112340000,112232000,112260000,0,14.571849,1.9751064,0.052547455,2.0325124,0.0001509481,0,1,0,1
112436000,112332000,112356000,0,14.423304,1.975091,0.17207241,2.0340922,0.0016173699,0,1,0,1
112540000,112432000,112460000,0,14.453376,1.975103,0.11066246,2.0281174,0.00067091116,0,1,0,1
112636000,112532000,112556000,0,14.490728,1.9751145,0.050923347,2.0295072,0.00014197138,0,1,0,1
112740000,112632000,112660000,0,14.509171,1.975164,0.011306763,2.0312145,6.9932375e-06,0,1,0,1
112836000,112732000,112756000,0,14.551835,1.9751496,-0.045071602,2.0328152,0.00011103645,0,1,0,1
112940000,112832000,112860000,0,14.42764,1.9751801,0.05695629,2.0269406,0.00017782788,0,1,0,1
113036000,112932000,112956000,0,14.485634,1.975177,-0.008465767,2.0282936,3.9260813e-06,0,1,0,1
113140000,113032000,113060000,0,14.5059595,1.9751637,-0.034870148,2.029897,6.655659e-05,0,1,0,1
113244000,113132000,113164000,0,14.499581,1.9751992,-0.03200245,2.0316725,5.6010595e-05,0,1,0,1
113340000,113232000,113260000,0,14.510593,1.9751942,-0.04638672,2.025822,0.00011801672,0,1,0,1
113444000,113332000,113364000,0,14.394867,1.9751911,0.07237911,2.0272667,0.00028712637,0,1,0,1
113540000,113432000,113460000,0,14.422068,1.9752076,0.048823357,2.028681,0.00013055665,0,1,0,1
113644000,113532000,113564000,0,14.486484,1.9752209,-0.010059357,2.030318,5.5377564e-06,0,1,0,1
113740000,113632000,113660000,0,14.477437,1.975234,-0.0018720627,2.0246553,1.9233006e-07,0,1,0,1
113844000,113732000,113764000,0,14.448821,1.975217,0.03784752,2.0259926,7.8558725e-05,0,1,0,1
113940000,113832000,113860000,0,14.4585905,1.9752357,0.03980255,2.0272918,8.6828644e-05,0,1,0,1
114036000,113932000,113956000,0,14.527004,1.9752072,-0.017036438,2.0286038,1.5897098e-05,0,1,0,1
114140000,114032000,114060000,0,14.444958,1.9752368,0.07454395,2.0234065,0.00030514,0,1,0,1
114236000,114132000,114156000,0,14.529881,1.9752401,0.00064468384,2.024513,2.2810273e-08,0,1,0,1
114340000,114232000,114260000,0,14.646501,1.9752216,-0.10333061,2.025783,0.00058562896,0,1,0,1
114436000,114332000,114356000,0,14.5242195,1.9752351,0.0317688,2.0270221,5.5322347e-05,0,1,0,1
114540000,114432000,114460000,0,14.446709,1.9752351,0.1215868,2.0220542,0.0008123394,0,1,0,1
114644000,114532000,114564000,0,14.538362,1.9752471,0.0455904,2.023179,0.00011414845,0,1,0,1
114740000,114632000,114660000,0,14.572314,1.9752622,0.025954247,2.0242438,3.6975285e-05,0,1,0,1
114836000,114732000,114756000,0,14.593278,1.9752729,0.017570496,2.025341,1.6936643e-05,0,1,0,1
114940000,114832000,114860000,0,14.675797,1.9752632,-0.04691887,2.0206606,0.00012104843,0,1,0,1
115036000,114932000,114956000,0,14.65166,1.9752696,-0.007782936,2.0215704,3.32932e-06,0,1,0,1
115140000,115032000,115060000,0,14.587679,1.9752779,0.0683918,2.0226135,0.00025695236,0,1,0,1
115236000,115132000,115156000,0,14.590504,1.9752592,0.07496357,2.0235684,0.00030856032,0,1,0,1
115340000,115232000,115260000,0,14.697387,1.9752669,-0.019928932,2.0192137,2.185462e-05,0,1,0,1
115436000,115332000,115356000,0,14.722922,1.9752836,-0.031882286,2.0200312,5.5911136e-05,0,1,0,1
115540000,115432000,115460000,0,14.570518,1.9752686,0.13289356,2.0209506,0.00097097876,0,1,0,1
115636000,115532000,115556000,0,14.697794,1.9752612,0.012311935,2.0218146,8.330457e-06,0,1,0,1
115740000,115632000,115660000,0,14.747684,1.9752799,-0.026402473,2.0177774,3.8386053e-05,0,1,0,1
115836000,115732000,115756000,0,14.704605,1.9752812,0.02572155,2.0184972,3.6418627e-05,0,1,0,1
115940000,115832000,115860000,0,14.641845,1.975303,0.09642887,2.019356,0.0005116333,0,1,0,1
116044000,115932000,115964000,0,14.79355,1.9752936,-0.0488472,2.0202193,0.00013123156,0,1,0,1
116140000,116032000,116060000,0,14.849805,1.9753023,-0.098861694,2.0163167,0.0005385857,0,1,0,1
116236000,116132000,116156000,0,14.822832,1.9752907,-0.064805984,2.0169563,0.00023136156,0,1,0,1
116340000,116232000,116260000,0,14.726767,1.9753249,0.03680706,2.0177488,7.460237e-05,0,1,0,1
116444000,116332000,116364000,0,14.685659,1.9752914,0.08280754,2.0185156,0.00037745497,0,1,0,1
116540000,116432000,116460000,0,14.715755,1.9753095,0.05802536,2.0148633,0.0001856725,0,1,0,1
116644000,116532000,116564000,0,14.613314,1.9753195,0.16343498,2.01555,0.0014724954,0,1,0,1
116740000,116632000,116660000,0,14.762317,1.9753178,0.013773918,2.0161927,1.0455396e-05,0,1,0,1
116836000,116732000,116756000,0,14.803298,1.9753162,-0.02485466,2.0168586,3.40328e-05,0,1,0,1
116940000,116832000,116860000,0,14.744054,1.9753219,0.03810692,2.0135336,8.013205e-05,0,1,0,1
117036000,116932000,116956000,0,14.724853,1.9753273,0.05885029,2.0141218,0.00019105965,0,1,0,1
117140000,117032000,117060000,0,14.788424,1.9753289,-0.004094124,2.0148044,9.243715e-07,0,1,0,1
117244000,117132000,117164000,0,14.792554,1.9753419,-0.0069885254,2.0155401,2.6923847e-06,0,1,0,1
117340000,117232000,117260000,0,14.779584,1.975356,0.007898331,2.0123155,3.444546e-06,0,1,0,1
117436000,117332000,117356000,0,14.845258,1.9753104,-0.056809425,2.0128396,0.00017815134,0,1,0,1
117540000,117432000,117460000,0,14.71569,1.975349,0.074359894,2.0135448,0.00030512214,0,1,0,1
117636000,117532000,117556000,0,14.7878275,1.9753447,9.8228455e-05,2.0141776,5.322729e-10,0,1,0,1
117740000,117632000,117660000,0,14.610188,1.9753453,0.17759609,2.0111456,0.001742532,0,1,0,1
117844000,117732000,117764000,0,14.696767,1.9753634,0.08753204,2.0117862,0.00042316507,0,1,0,1
117940000,117832000,117860000,0,14.747763,1.9753537,0.036697388,2.0123763,7.435644e-05,0,1,0,1
118044000,117932000,117964000,0,14.818571,1.9753406,-0.035931587,2.0130668,7.1261034e-05,0,1,0,1
118140000,118032000,118060000,0,14.715373,1.9753597,0.0720253,2.0101311,0.00028674986,0,1,0,1
118244000,118132000,118164000,0,14.690127,1.9753554,0.09354496,2.0107596,0.00048354638,0,1,0,1
118340000,118232000,118260000,0,14.677143,1.9753704,0.10624218,2.0113754,0.00062353135,0,1,0,1
118436000,118332000,118356000,0,14.768853,1.9753717,0.013274193,2.012015,9.730665e-06,0,1,0,1
118540000,118432000,118460000,0,14.69592,1.9753647,0.08366966,2.0092008,0.00038714192,0,1,0,1
118636000,118532000,118556000,0,14.819545,1.9753852,-0.04246044,2.0097916,9.967252e-05,0,1,0,1
118740000,118632000,118660000,0,14.804711,1.9753737,-0.025455475,2.0104532,3.5811783e-05,0,1,0,1
118836000,118732000,118756000,0,14.682891,1.9753717,0.09564686,2.011099,0.0005054351,0,1,0,1
118940000,118832000,118860000,0,14.707762,1.9754039,0.07130146,2.0084095,0.00028125616,0,1,0,1
119044000,118932000,118964000,0,14.721632,1.9753741,0.05659008,2.009029,0.0001771136,0,1,0,1
119140000,119032000,119060000,0,14.657013,1.9753624,0.12009621,2.0096445,0.00079743785,0,1,0,1
119236000,119132000,119156000,0,14.661562,1.9753788,0.113529205,2.0103202,0.000712373,0,1,0,1
119340000,119232000,119260000,0,14.737594,1.9753911,0.032844543,2.0076501,5.9702965e-05,0,1,0,1
119436000,119332000,119356000,0,14.722172,1.9753996,0.049295425,2.00826,0.00013444689,0,1,0,1
119540000,119432000,119460000,0,14.772,1.9753982,-0.0007944107,2.008961,3.490408e-08,0,1,0,1
119644000,119532000,119564000,0,14.747323,1.9754227,0.02434063,2.00973,3.2755437e-05,0,1,0,1
