timestamp,roll_body,pitch_body,yaw_body,yaw_sp_move_rate,q_d[0],q_d[1],q_d[2],q_d[3],thrust_body[0],thrust_body[1],thrust_body[2],reset_integral,fw_control_yaw_wheel
3564000,0.0,-0.0,1.5760192,0.0,0.70525783,0.0,0.0,0.70895094,0.0,0.0,-0.001,0,0
3572000,0.0,-0.0,1.5760292,0.0,0.70525426,0.0,0.0,0.7089545,0.0,0.0,-0.001,0,0
3580000,0.0,-0.0,1.5760188,0.0,0.70525795,0.0,0.0,0.7089508,0.0,0.0,-0.001,0,0
3588000,0.0,-0.0,1.5760132,0.0,0.7052599,0.0,0.0,0.70894885,0.0,0.0,-0.001,0,0
3596000,0.0,-0.0,1.5759997,0.0,0.7052647,0.0,0.0,0.7089441,0.0,0.0,-0.001,0,0
3604000,0.0,-0.0,1.5759887,0.0,0.7052686,0.0,0.0,0.7089402,0.0,0.0,-0.001,0,0
3612000,0.0,-0.0,1.575995,0.0,0.7052664,0.0,0.0,0.7089424,0.0,0.0,-0.001,0,0
3620000,0.0,-0.0,1.5760231,0.0,0.7052564,0.0,0.0,0.70895237,0.0,0.0,-0.001,0,0
3628000,0.0,-0.0,1.5760183,0.0,0.70525813,0.0,0.0,0.7089507,0.0,0.0,-0.001,0,0
3636000,0.0,-0.0,1.5760231,0.0,0.7052564,0.0,0.0,0.70895237,0.0,0.0,-0.001,0,0
3644000,0.0,-0.0,1.5760483,0.0,0.7052475,0.0,0.0,0.7089612,0.0,0.0,-0.001,0,0
3652000,0.0,-0.0,1.576047,0.0,0.705248,0.0,0.0,0.7089607,0.0,0.0,-0.001,0,0
3660000,0.0,-0.0,1.576039,0.0,0.7052508,0.0,0.0,0.70895797,0.0,0.0,-0.001,0,0
3668000,0.0,-0.0,1.5760396,0.0,0.7052506,0.0,0.0,0.70895815,0.0,0.0,-0.001,0,0
3676000,0.0,-0.0,1.5760568,0.0,0.7052445,0.0,0.0,0.7089642,0.0,0.0,-0.001,0,0
3684000,0.0,-0.0,1.576036,0.0,0.7052519,0.0,0.0,0.70895684,0.0,0.0,-0.001,0,0
3692000,0.0,-0.0,1.5760617,0.0,0.70524275,0.0,0.0,0.70896596,0.0,0.0,-0.001,0,0
3700000,0.0,-0.0,1.5761024,0.0,0.7052283,0.0,0.0,0.70898026,0.0,0.0,-0.001,0,0
3708000,0.0,-0.0,1.576092,0.0,0.705232,0.0,0.0,0.70897657,0.0,0.0,-0.001,0,0
3716000,0.0,-0.0,1.5760641,0.0,0.7052419,0.0,0.0,0.70896673,0.0,0.0,-0.001,0,0
3724000,0.0,-0.0,1.5760597,0.0,0.70524347,0.0,0.0,0.70896524,0.0,0.0,-0.001,0,0
3732000,0.0,-0.0,1.5760932,0.0,0.7052316,0.0,0.0,0.708977,0.0,0.0,-0.001,0,0
3740000,0.0,-0.0,1.5761105,0.0,0.70522547,0.0,0.0,0.7089831,0.0,0.0,-0.001,0,0
3748000,0.0,-0.0,1.5761228,0.0,0.7052211,0.0,0.0,0.7089874,0.0,0.0,-0.001,0,0
3756000,0.0,-0.0,1.5761199,0.0,0.70522213,0.0,0.0,0.7089865,0.0,0.0,-0.001,0,0
3764000,0.0,-0.0,1.5775775,0.0,0.70470524,0.0,0.0,0.7095003,0.0,0.0,-0.001,0,0
3772000,0.0,-0.0,1.5774544,0.0,0.70474887,0.0,0.0,0.70945686,0.0,0.0,-0.001,0,0
3780000,0.0,-0.0,1.5773436,0.0,0.7047882,0.0,0.0,0.7094178,0.0,0.0,-0.001,0,0
3788000,0.0,-0.0,1.5772475,0.0,0.70482224,0.0,0.0,0.70938396,0.0,0.0,-0.001,0,0
3796000,0.0,-0.0,1.5771518,0.0,0.7048562,0.0,0.0,0.7093502,0.0,0.0,-0.001,0,0
3804000,0.0,-0.0,1.5770397,0.0,0.704896,0.0,0.0,0.7093107,0.0,0.0,-0.001,0,0
3812000,0.0,-0.0,1.5769278,0.0,0.70493567,0.0,0.0,0.7092713,0.0,0.0,-0.001,0,0
3820000,0.0,-0.0,1.5768342,0.0,0.70496887,0.0,0.0,0.70923823,0.0,0.0,-0.001,0,0
3828000,0.0,-0.0,1.5767388,0.0,0.70500267,0.0,0.0,0.7092047,0.0,0.0,-0.001,0,0
3836000,0.0,-0.0,1.5766624,0.0,0.7050298,0.0,0.0,0.70917773,0.0,0.0,-0.001,0,0
3844000,0.0,-0.0,1.5764247,0.0,0.70511407,0.0,0.0,0.709094,0.0,0.0,-0.001,0,0
3852000,0.0,-0.0,1.5761657,0.0,0.7052059,0.0,0.0,0.7090025,0.0,0.0,-0.001,0,0
3860000,0.0,-0.0,1.5758795,0.0,0.70530736,0.0,0.0,0.7089017,0.0,0.0,-0.001,0,0
3868000,0.0,-0.0,1.5756363,0.0,0.70539355,0.0,0.0,0.70881593,0.0,0.0,-0.001,0,0
3876000,0.0,-0.0,1.5754071,0.0,0.70547473,0.0,0.0,0.7087351,0.0,0.0,-0.001,0,0
3884000,0.0,-0.0,1.5751537,0.0,0.70556456,0.0,0.0,0.70864564,0.0,0.0,-0.001,0,0
3892000,0.0,-0.0,1.574934,0.0,0.7056424,0.0,0.0,0.70856816,0.0,0.0,-0.001,0,0
3900000,0.0,-0.0,1.5747384,0.0,0.7057117,0.0,0.0,0.70849913,0.0,0.0,-0.001,0,0
3908000,0.0,-0.0,1.5745323,0.0,0.7057847,0.0,0.0,0.7084264,0.0,0.0,-0.001,0,0
3916000,0.0,-0.0,1.5742683,0.0,0.7058782,0.0,0.0,0.7083332,0.0,0.0,-0.001,0,0
3924000,0.0,-0.0,1.573991,0.0,0.7059764,0.0,0.0,0.70823544,0.0,0.0,-0.001,0,0
3932000,0.0,-0.0,1.5737256,0.0,0.70607036,0.0,0.0,0.7081417,0.0,0.0,-0.001,0,0
3940000,0.0,-0.0,1.5734531,0.0,0.70616686,0.0,0.0,0.7080454,0.0,0.0,-0.001,0,0
3948000,0.0,-0.0,1.5731974,0.0,0.7062574,0.0,0.0,0.7079552,0.0,0.0,-0.001,0,0
3956000,0.0,-0.0,1.5729736,0.0,0.7063366,0.0,0.0,0.7078761,0.0,0.0,-0.001,0,0
3964000,0.0,-0.0,1.5727574,0.0,0.70641315,0.0,0.0,0.70779973,0.0,0.0,-0.001,0,0
3972000,0.0,-0.0,1.5725473,0.0,0.7064875,0.0,0.0,0.70772564,0.0,0.0,-0.001,0,0
3980000,0.0,-0.0,1.5723916,0.0,0.70654255,0.0,0.0,0.70767057,0.0,0.0,-0.001,0,0
3988000,0.0,-0.0,1.5721388,0.0,0.706632,0.0,0.0,0.7075812,0.0,0.0,-0.001,0,0
3996000,0.0,-0.0,1.5718716,0.0,0.7067265,0.0,0.0,0.7074869,0.0,0.0,-0.001,0,0
4004000,0.0,-0.0,1.5716292,0.0,0.70681226,0.0,0.0,0.70740116,0.0,0.0,-0.001,0,0
4012000,0.0,-0.0,1.5714301,0.0,0.7068827,0.0,0.0,0.7073308,0.0,0.0,-0.001,0,0
4020000,0.0,-0.0,1.5712537,0.0,0.70694506,0.0,0.0,0.7072685,0.0,0.0,-0.001,0,0
4028000,0.0,-0.0,1.5710702,0.0,0.70701,0.0,0.0,0.7072036,0.0,0.0,-0.001,0,0
4036000,0.0,-0.0,1.5709387,0.0,0.70705646,0.0,0.0,0.7071571,0.0,0.0,-0.001,0,0
4044000,0.0,-0.0,1.5708104,0.0,0.7071018,0.0,0.0,0.7071117,0.0,0.0,-0.001,0,0
4052000,0.0,0.0,1.570662,0.0,0.7071542,0.0,0.0,0.7070593,0.0,0.0,-0.001,0,0
4060000,0.0,0.0,1.5704309,0.0,0.707236,0.0,0.0,0.70697755,0.0,0.0,-0.001,0,0
4068000,0.0,0.0,1.5702482,0.0,0.70730054,0.0,0.0,0.706913,0.0,0.0,-0.001,0,0
4076000,0.0,0.0,1.570044,0.0,0.70737267,0.0,0.0,0.7068409,0.0,0.0,-0.001,0,0
4084000,0.0,0.0,1.5698447,0.0,0.7074431,0.0,0.0,0.70677036,0.0,0.0,-0.001,0,0
4092000,0.0,0.0,1.5696281,0.0,0.7075197,0.0,0.0,0.7066936,0.0,0.0,-0.001,0,0
4100000,0.0,0.0,1.5694618,0.0,0.7075784,0.0,0.0,0.7066348,0.0,0.0,-0.001,0,0
4108000,0.0,0.0,1.5693196,0.0,0.7076287,0.0,0.0,0.70658445,0.0,0.0,-0.001,0,0
4116000,0.0,0.0,1.5691692,0.0,0.70768183,0.0,0.0,0.7065312,0.0,0.0,-0.001,0,0
4124000,0.0,0.0,1.56902,0.0,0.70773447,0.0,0.0,0.7064786,0.0,0.0,-0.001,0,0
4132000,0.0,0.0,1.5688208,0.0,0.7078049,0.0,0.0,0.706408,0.0,0.0,-0.001,0,0
4140000,0.0,0.0,1.568579,0.0,0.7078903,0.0,0.0,0.70632243,0.0,0.0,-0.001,0,0
4148000,0.0,0.0,1.568405,0.0,0.7079517,0.0,0.0,0.7062608,0.0,0.0,-0.001,0,0
4156000,0.0,0.0,1.5682598,0.0,0.708003,0.0,0.0,0.7062094,0.0,0.0,-0.001,0,0
4164000,0.0,0.0,1.5680857,0.0,0.7080645,0.0,0.0,0.70614785,0.0,0.0,-0.001,0,0
4172000,0.0,0.0,1.567925,0.0,0.7081212,0.0,0.0,0.7060909,0.0,0.0,-0.001,0,0
4180000,0.0,0.0,1.5677642,0.0,0.70817804,0.0,0.0,0.70603395,0.0,0.0,-0.001,0,0
4188000,0.0,0.0,1.5676214,0.0,0.7082284,0.0,0.0,0.7059834,0.0,0.0,-0.001,0,0
4196000,0.0,0.0,1.5674968,0.0,0.70827234,0.0,0.0,0.70593935,0.0,0.0,-0.001,0,0
4204000,0.0,0.0,1.5673447,0.0,0.70832604,0.0,0.0,0.7058854,0.0,0.0,-0.001,0,0
4212000,0.0,0.0,1.5672219,0.0,0.7083694,0.0,0.0,0.7058419,0.0,0.0,-0.001,0,0
4220000,0.0,0.0,1.5670619,0.0,0.7084258,0.0,0.0,0.7057853,0.0,0.0,-0.001,0,0
4228000,0.0,0.0,1.5669119,0.0,0.70847875,0.0,0.0,0.7057322,0.0,0.0,-0.001,0,0
4236000,0.0,0.0,1.5667557,0.0,0.70853394,0.0,0.0,0.70567673,0.0,0.0,-0.001,0,0
4244000,0.0,0.0,1.5666338,0.0,0.7085769,0.0,0.0,0.70563364,0.0,0.0,-0.001,0,0
4252000,0.0,0.0,1.5664992,0.0,0.70862436,0.0,0.0,0.70558596,0.0,0.0,-0.001,0,0
4260000,0.0,0.0,1.5663512,0.0,0.70867664,0.0,0.0,0.70553344,0.0,0.0,-0.001,0,0
4268000,0.0,0.0,1.5662255,0.0,0.7087209,0.0,0.0,0.705489,0.0,0.0,-0.001,0,0
4276000,0.0,0.0,1.5660719,0.0,0.70877516,0.0,0.0,0.70543444,0.0,0.0,-0.001,0,0
4284000,0.0,0.0,1.5659407,0.0,0.7088214,0.0,0.0,0.70538795,0.0,0.0,-0.001,0,0
4292000,0.0,0.0,1.5658488,0.0,0.7088538,0.0,0.0,0.70535547,0.0,0.0,-0.001,0,0
4300000,0.0,0.0,1.5657189,0.0,0.7088996,0.0,0.0,0.7053094,0.0,0.0,-0.001,0,0
4308000,0.0,0.0,1.5655845,0.0,0.70894706,0.0,0.0,0.7052617,0.0,0.0,-0.001,0,0
4316000,0.0,0.0,1.5655264,0.0,0.70896757,0.0,0.0,0.7052411,0.0,0.0,-0.001,0,0
4324000,0.0,0.0,1.5654671,0.0,0.7089884,0.0,0.0,0.7052201,0.0,0.0,-0.001,0,0
4332000,0.0,0.0,1.5653979,0.0,0.70901287,0.0,0.0,0.70519555,0.0,0.0,-0.001,0,0
4340000,0.0,0.0,1.5653385,0.0,0.7090338,0.0,0.0,0.7051745,0.0,0.0,-0.001,0,0
4348000,0.0,0.0,1.5652415,0.0,0.709068,0.0,0.0,0.70514005,0.0,0.0,-0.001,0,0
4356000,0.0,0.0,1.5651705,0.0,0.709093,0.0,0.0,0.705115,0.0,0.0,-0.001,0,0
4364000,0.0,0.0,1.5651283,0.0,0.7091079,0.0,0.0,0.7051,0.0,0.0,-0.001,0,0
4372000,0.0,0.0,1.5650929,0.0,0.7091204,0.0,0.0,0.7050874,0.0,0.0,-0.001,0,0
4380000,0.0,0.0,1.5650437,0.0,0.7091377,0.0,0.0,0.7050701,0.0,0.0,-0.001,0,0
4388000,0.0,0.0,1.5649903,0.0,0.7091565,0.0,0.0,0.70505106,0.0,0.0,-0.001,0,0
4396000,0.0,0.0,1.5649768,0.0,0.70916134,0.0,0.0,0.70504624,0.0,0.0,-0.001,0,0
4404000,0.0,0.0,1.5649469,0.0,0.70917183,0.0,0.0,0.7050357,0.0,0.0,-0.001,0,0
4412000,0.0,0.0,1.5649067,0.0,0.709186,0.0,0.0,0.70502144,0.0,0.0,-0.001,0,0
4420000,0.0,0.0,1.5648669,0.0,0.7092001,0.0,0.0,0.70500726,0.0,0.0,-0.001,0,0
4428000,0.0,0.0,1.5647906,0.0,0.70922697,0.0,0.0,0.7049803,0.0,0.0,-0.001,0,0
4436000,0.0,0.0,1.5647365,0.0,0.70924604,0.0,0.0,0.70496106,0.0,0.0,-0.001,0,0
4444000,0.0,0.0,1.5646882,0.0,0.709263,0.0,0.0,0.7049439,0.0,0.0,-0.001,0,0
4452000,0.0,0.0,1.5646607,0.0,0.70927274,0.0,0.0,0.7049341,0.0,0.0,-0.001,0,0
4460000,0.0,0.0,1.564631,0.0,0.7092832,0.0,0.0,0.7049236,0.0,0.0,-0.001,0,0
4468000,0.0,0.0,1.5646178,0.0,0.7092879,0.0,0.0,0.7049189,0.0,0.0,-0.001,0,0
4476000,0.0,0.0,1.564603,0.0,0.7092931,0.0,0.0,0.7049136,0.0,0.0,-0.001,0,0
4484000,0.0,0.0,1.564548,0.0,0.70931244,0.0,0.0,0.70489424,0.0,0.0,-0.001,0,0
4492000,0.0,0.0,1.5644852,0.0,0.7093346,0.0,0.0,0.70487195,0.0,0.0,-0.001,0,0
4500000,0.0,0.0,1.5644487,0.0,0.7093475,0.0,0.0,0.70485896,0.0,0.0,-0.001,0,0
4508000,0.0,0.0,1.5644168,0.0,0.70935875,0.0,0.0,0.70484763,0.0,0.0,-0.001,0,0
4516000,0.0,0.0,1.5643696,0.0,0.7093754,0.0,0.0,0.7048309,0.0,0.0,-0.001,0,0
4524000,0.0,0.0,1.5643203,0.0,0.70939267,0.0,0.0,0.7048135,0.0,0.0,-0.001,0,0
4532000,0.0,0.0,1.5643001,0.0,0.7093998,0.0,0.0,0.70480627,0.0,0.0,-0.001,0,0
4540000,0.0,0.0,1.5642272,0.0,0.7094255,0.0,0.0,0.70478046,0.0,0.0,-0.001,0,0
4548000,0.0,0.0,1.5641706,0.0,0.7094454,0.0,0.0,0.70476043,0.0,0.0,-0.001,0,0
4556000,0.0,0.0,1.5641397,0.0,0.7094563,0.0,0.0,0.70474946,0.0,0.0,-0.001,0,0
4564000,0.0,0.0,1.5640789,0.0,0.7094777,0.0,0.0,0.7047279,0.0,0.0,-0.001,0,0
4572000,0.0,0.0,1.5640126,0.0,0.7095011,0.0,0.0,0.70470434,0.0,0.0,-0.001,0,0
4580000,0.0,0.0,1.5639416,0.0,0.7095261,0.0,0.0,0.70467913,0.0,0.0,-0.001,0,0
4588000,0.0,0.0,1.563883,0.0,0.7095468,0.0,0.0,0.70465827,0.0,0.0,-0.001,0,0
4596000,0.0,0.0,1.563851,0.0,0.70955807,0.0,0.0,0.704647,0.0,0.0,-0.001,0,0
4604000,0.0,0.0,1.5638438,0.0,0.7095606,0.0,0.0,0.7046445,0.0,0.0,-0.001,0,0
4612000,0.0,0.0,1.5638324,0.0,0.7095646,0.0,0.0,0.7046403,0.0,0.0,-0.001,0,0
4620000,0.0,0.0,1.5638072,0.0,0.70957345,0.0,0.0,0.70463145,0.0,0.0,-0.001,0,0
4628000,0.0,0.0,1.563802,0.0,0.7095753,0.0,0.0,0.7046296,0.0,0.0,-0.001,0,0
4636000,0.0,0.0,1.5637403,0.0,0.70959705,0.0,0.0,0.7046078,0.0,0.0,-0.001,0,0
4644000,0.0,0.0,1.5637071,0.0,0.70960873,0.0,0.0,0.704596,0.0,0.0,-0.001,0,0
4652000,0.0,0.0,1.5636346,0.0,0.7096343,0.0,0.0,0.7045702,0.0,0.0,-0.001,0,0
4660000,0.0,0.0,1.5635715,0.0,0.70965654,0.0,0.0,0.70454776,0.0,0.0,-0.001,0,0
4668000,0.0,0.0,1.5635242,0.0,0.70967317,0.0,0.0,0.70453113,0.0,0.0,-0.001,0,0
4676000,0.0,0.0,1.5635111,0.0,0.70967776,0.0,0.0,0.7045264,0.0,0.0,-0.001,0,0
4684000,0.0,0.0,1.5634832,0.0,0.7096876,0.0,0.0,0.7045166,0.0,0.0,-0.001,0,0
4692000,0.0,0.0,1.5634605,0.0,0.70969564,0.0,0.0,0.7045084,0.0,0.0,-0.001,0,0
4700000,0.0,0.0,1.563417,0.0,0.70971096,0.0,0.0,0.704493,0.0,0.0,-0.001,0,0
4708000,0.0,0.0,1.5633938,0.0,0.7097191,0.0,0.0,0.7044848,0.0,0.0,-0.001,0,0
4716000,0.0,0.0,1.5633851,0.0,0.70972216,0.0,0.0,0.7044818,0.0,0.0,-0.001,0,0
4724000,0.0,0.0,1.5633799,0.0,0.709724,0.0,0.0,0.7044798,0.0,0.0,-0.001,0,0
4732000,0.0,0.0,1.5634109,0.0,0.7097131,0.0,0.0,0.7044909,0.0,0.0,-0.001,0,0
4740000,0.0,0.0,1.5634089,0.0,0.7097138,0.0,0.0,0.70449007,0.0,0.0,-0.001,0,0
4748000,0.0,0.0,1.5634258,0.0,0.70970786,0.0,0.0,0.70449615,0.0,0.0,-0.001,0,0
4756000,0.0,0.0,1.5634266,0.0,0.70970756,0.0,0.0,0.70449644,0.0,0.0,-0.001,0,0
4764000,0.0,0.0,1.5634208,0.0,0.70970964,0.0,0.0,0.70449436,0.0,0.0,-0.001,0,0
4772000,0.0,0.0,1.5634732,0.0,0.70969117,0.0,0.0,0.7045129,0.0,0.0,-0.001,0,0
4780000,0.0,0.0,1.5634578,0.0,0.70969653,0.0,0.0,0.7045076,0.0,0.0,-0.001,0,0
4788000,0.0,0.0,1.5634568,0.0,0.70969695,0.0,0.0,0.7045071,0.0,0.0,-0.001,0,0
4796000,0.0,0.0,1.5634363,0.0,0.70970416,0.0,0.0,0.70449984,0.0,0.0,-0.001,0,0
4804000,0.0,0.0,1.5634388,0.0,0.70970327,0.0,0.0,0.70450073,0.0,0.0,-0.001,0,0
4812000,0.0,0.0,1.5634876,0.0,0.70968604,0.0,0.0,0.7045181,0.0,0.0,-0.001,0,0
4820000,0.0,0.0,1.5635357,0.0,0.7096691,0.0,0.0,0.7045352,0.0,0.0,-0.001,0,0
4828000,0.0,0.0,1.5635203,0.0,0.70967454,0.0,0.0,0.70452964,0.0,0.0,-0.001,0,0
4836000,0.0,0.0,1.5634838,0.0,0.7096874,0.0,0.0,0.70451677,0.0,0.0,-0.001,0,0
4844000,0.0,0.0,1.5635134,0.0,0.709677,0.0,0.0,0.7045272,0.0,0.0,-0.001,0,0
4852000,0.0,0.0,1.5634966,0.0,0.7096829,0.0,0.0,0.70452124,0.0,0.0,-0.001,0,0
4860000,0.0,0.0,1.563499,0.0,0.70968205,0.0,0.0,0.70452213,0.0,0.0,-0.001,0,0
4868000,0.0,0.0,1.5634459,0.0,0.70970076,0.0,0.0,0.70450324,0.0,0.0,-0.001,0,0
4876000,0.0,0.0,1.5633706,0.0,0.7097273,0.0,0.0,0.7044766,0.0,0.0,-0.001,0,0
4884000,0.0,0.0,1.5633657,0.0,0.709729,0.0,0.0,0.7044748,0.0,0.0,-0.001,0,0
4892000,0.0,0.0,1.5633593,0.0,0.7097313,0.0,0.0,0.7044725,0.0,0.0,-0.001,0,0
4900000,0.0,0.0,1.5633473,0.0,0.7097355,0.0,0.0,0.70446825,0.0,0.0,-0.001,0,0
4908000,0.0,0.0,1.5633619,0.0,0.7097304,0.0,0.0,0.7044735,0.0,0.0,-0.001,0,0
4916000,0.0,0.0,1.5633887,0.0,0.7097209,0.0,0.0,0.704483,0.0,0.0,-0.001,0,0
4924000,0.0,0.0,1.5633684,0.0,0.70972806,0.0,0.0,0.70447576,0.0,0.0,-0.001,0,0
4932000,0.0,0.0,1.5633138,0.0,0.70974725,0.0,0.0,0.70445645,0.0,0.0,-0.001,0,0
4940000,0.0,0.0,1.5632515,0.0,0.70976925,0.0,0.0,0.70443434,0.0,0.0,-0.001,0,0
4948000,0.0,0.0,1.5631915,0.0,0.70979035,0.0,0.0,0.704413,0.0,0.0,-0.001,0,0
4956000,0.0,0.0,1.5630596,0.0,0.70983684,0.0,0.0,0.70436615,0.0,0.0,-0.001,0,0
4964000,0.0,0.0,1.5629797,0.0,0.709865,0.0,0.0,0.70433784,0.0,0.0,-0.001,0,0
4972000,0.0,0.0,1.5628835,0.0,0.7098988,0.0,0.0,0.7043037,0.0,0.0,-0.001,0,0
4980000,0.0,0.0,1.5627989,0.0,0.70992863,0.0,0.0,0.7042737,0.0,0.0,-0.001,0,0
4988000,0.0,0.0,1.5627289,0.0,0.7099533,0.0,0.0,0.7042487,0.0,0.0,-0.001,0,0
4996000,0.0,0.0,1.5626452,0.0,0.70998275,0.0,0.0,0.7042191,0.0,0.0,-0.001,0,0
5004000,0.0,0.0,1.5625103,0.0,0.71003026,0.0,0.0,0.7041711,0.0,0.0,-0.001,0,0
5012000,0.0,0.0,1.5624269,0.0,0.71005964,0.0,0.0,0.70414156,0.0,0.0,-0.001,0,0
5020000,0.0,0.0,1.5623423,0.0,0.71008945,0.0,0.0,0.7041116,0.0,0.0,-0.001,0,0
5028000,0.0,0.0,1.5622776,0.0,0.7101122,0.0,0.0,0.7040886,0.0,0.0,-0.001,0,0
5036000,0.0,0.0,1.56221,0.0,0.710136,0.0,0.0,0.70406455,0.0,0.0,-0.001,0,0
5044000,0.0,0.0,1.562141,0.0,0.7101603,0.0,0.0,0.70404005,0.0,0.0,-0.001,0,0
5052000,0.0,0.0,1.5621057,0.0,0.7101727,0.0,0.0,0.70402753,0.0,0.0,-0.001,0,0
5060000,0.0,0.0,1.5620226,0.0,0.7102019,0.0,0.0,0.70399815,0.0,0.0,-0.001,0,0
5068000,0.0,0.0,1.5620228,0.0,0.71020186,0.0,0.0,0.7039982,0.0,0.0,-0.001,0,0
5076000,0.0,0.0,1.5620229,0.0,0.71020186,0.0,0.0,0.7039982,0.0,0.0,-0.001,0,0
5084000,0.0,0.0,1.5620345,0.0,0.71019775,0.0,0.0,0.70400226,0.0,0.0,-0.001,0,0
5092000,0.0,0.0,1.56205,0.0,0.71019226,0.0,0.0,0.7040078,0.0,0.0,-0.001,0,0
5100000,0.0,0.0,1.5620469,0.0,0.7101934,0.0,0.0,0.7040066,0.0,0.0,-0.001,0,0
5108000,0.0,0.0,1.5620557,0.0,0.71019024,0.0,0.0,0.70400983,0.0,0.0,-0.001,0,0
5116000,0.0,0.0,1.5620697,0.0,0.7101854,0.0,0.0,0.70401466,0.0,0.0,-0.001,0,0
5124000,0.0,0.0,1.5620527,0.0,0.71019137,0.0,0.0,0.7040087,0.0,0.0,-0.001,0,0
5132000,0.0,0.0,1.5620625,0.0,0.7101879,0.0,0.0,0.70401216,0.0,0.0,-0.001,0,0
5140000,0.0,0.0,1.5620512,0.0,0.71019185,0.0,0.0,0.7040082,0.0,0.0,-0.001,0,0
5148000,0.0,0.0,1.5620756,0.0,0.7101833,0.0,0.0,0.7040168,0.0,0.0,-0.001,0,0
5156000,0.0,0.0,1.5621473,0.0,0.71015805,0.0,0.0,0.7040423,0.0,0.0,-0.001,0,0
5164000,0.0,0.0,1.5622096,0.0,0.7101361,0.0,0.0,0.7040645,0.0,0.0,-0.001,0,0
5172000,0.0,0.0,1.5622187,0.0,0.71013296,0.0,0.0,0.70406765,0.0,0.0,-0.001,0,0
5180000,0.0,0.0,1.5622619,0.0,0.7101177,0.0,0.0,0.704083,0.0,0.0,-0.001,0,0
5188000,0.0,0.0,1.5623025,0.0,0.71010345,0.0,0.0,0.7040974,0.0,0.0,-0.001,0,0
5196000,0.0,0.0,1.5622566,0.0,0.7101196,0.0,0.0,0.7040811,0.0,0.0,-0.001,0,0
5204000,0.0,0.0,1.5622709,0.0,0.71011454,0.0,0.0,0.70408624,0.0,0.0,-0.001,0,0
5212000,0.0,0.0,1.5623198,0.0,0.7100974,0.0,0.0,0.7041036,0.0,0.0,-0.001,0,0
5220000,0.0,0.0,1.5623133,0.0,0.71009964,0.0,0.0,0.70410126,0.0,0.0,-0.001,0,0
5228000,0.0,0.0,1.562326,0.0,0.71009517,0.0,0.0,0.7041057,0.0,0.0,-0.001,0,0
5236000,0.0,0.0,1.5623595,0.0,0.71008337,0.0,0.0,0.70411766,0.0,0.0,-0.001,0,0
5244000,0.0,0.0,1.5623593,0.0,0.7100834,0.0,0.0,0.7041176,0.0,0.0,-0.001,0,0
5252000,0.0,0.0,1.5623612,0.0,0.71008277,0.0,0.0,0.70411825,0.0,0.0,-0.001,0,0
5260000,0.0,0.0,1.5623412,0.0,0.7100898,0.0,0.0,0.7041112,0.0,0.0,-0.001,0,0
5268000,0.0,0.0,1.5623372,0.0,0.71009123,0.0,0.0,0.7041097,0.0,0.0,-0.001,0,0
5276000,0.0,0.0,1.5623356,0.0,0.71009177,0.0,0.0,0.7041092,0.0,0.0,-0.001,0,0
5284000,0.0,0.0,1.5623353,0.0,0.7100919,0.0,0.0,0.7041091,0.0,0.0,-0.001,0,0
5292000,0.0,0.0,1.5623163,0.0,0.71009856,0.0,0.0,0.7041023,0.0,0.0,-0.001,0,0
5300000,0.0,0.0,1.5623035,0.0,0.71010303,0.0,0.0,0.7040978,0.0,0.0,-0.001,0,0
5308000,0.0,0.0,1.562311,0.0,0.7101004,0.0,0.0,0.70410043,0.0,0.0,-0.001,0,0
5316000,0.0,0.0,1.5622878,0.0,0.7101086,0.0,0.0,0.7040922,0.0,0.0,-0.001,0,0
5324000,0.0,0.0,1.562289,0.0,0.71010816,0.0,0.0,0.7040926,0.0,0.0,-0.001,0,0
5332000,0.0,0.0,1.5622698,0.0,0.71011496,0.0,0.0,0.7040857,0.0,0.0,-0.001,0,0
5340000,0.0,0.0,1.5622349,0.0,0.71012723,0.0,0.0,0.70407337,0.0,0.0,-0.001,0,0
5348000,0.0,0.0,1.5621967,0.0,0.71014065,0.0,0.0,0.70405984,0.0,0.0,-0.001,0,0
5356000,0.0,0.0,1.5621916,0.0,0.71014243,0.0,0.0,0.70405805,0.0,0.0,-0.001,0,0
5364000,0.0,0.0,1.5621883,0.0,0.7101436,0.0,0.0,0.70405686,0.0,0.0,-0.001,0,0
5372000,0.0,0.0,1.5622044,0.0,0.71013796,0.0,0.0,0.7040625,0.0,0.0,-0.001,0,0
5380000,0.0,0.0,1.5621893,0.0,0.71014327,0.0,0.0,0.7040572,0.0,0.0,-0.001,0,0
5388000,0.0,0.0,1.5621402,0.0,0.71016055,0.0,0.0,0.7040399,0.0,0.0,-0.001,0,0
5396000,0.0,0.0,1.5621053,0.0,0.71017283,0.0,0.0,0.7040274,0.0,0.0,-0.001,0,0
5404000,0.0,0.0,1.5620699,0.0,0.7101853,0.0,0.0,0.7040148,0.0,0.0,-0.001,0,0
5412000,0.0,0.0,1.5620409,0.0,0.7101955,0.0,0.0,0.7040045,0.0,0.0,-0.001,0,0
5420000,0.0,0.0,1.5619967,0.0,0.7102111,0.0,0.0,0.70398885,0.0,0.0,-0.001,0,0
5428000,0.0,0.0,1.5620188,0.0,0.7102033,0.0,0.0,0.70399666,0.0,0.0,-0.001,0,0
5436000,0.0,0.0,1.5620542,0.0,0.71019083,0.0,0.0,0.70400923,0.0,0.0,-0.001,0,0
5444000,0.0,0.0,1.5620689,0.0,0.71018565,0.0,0.0,0.7040144,0.0,0.0,-0.001,0,0
5452000,0.0,0.0,1.5620921,0.0,0.7101775,0.0,0.0,0.70402277,0.0,0.0,-0.001,0,0
5460000,0.0,0.0,1.5620778,0.0,0.71018255,0.0,0.0,0.70401764,0.0,0.0,-0.001,0,0
5468000,0.0,0.0,1.5620161,0.0,0.7102042,0.0,0.0,0.7039958,0.0,0.0,-0.001,0,0
5476000,0.0,0.0,1.5619404,0.0,0.7102309,0.0,0.0,0.7039688,0.0,0.0,-0.001,0,0
5484000,0.0,0.0,1.5619042,0.0,0.71024364,0.0,0.0,0.70395595,0.0,0.0,-0.001,0,0
5492000,0.0,0.0,1.5618795,0.0,0.7102523,0.0,0.0,0.7039472,0.0,0.0,-0.001,0,0
5500000,0.0,0.0,1.5618185,0.0,0.71027374,0.0,0.0,0.70392555,0.0,0.0,-0.001,0,0
5508000,0.0,0.0,1.5617517,0.0,0.7102973,0.0,0.0,0.7039018,0.0,0.0,-0.001,0,0
5516000,0.0,0.0,1.5617628,0.0,0.7102934,0.0,0.0,0.70390576,0.0,0.0,-0.001,0,0
5524000,0.0,0.0,1.5617672,0.0,0.7102918,0.0,0.0,0.7039074,0.0,0.0,-0.001,0,0
5532000,0.0,0.0,1.5618114,0.0,0.7102763,0.0,0.0,0.703923,0.0,0.0,-0.001,0,0
5540000,0.0,0.0,1.5618488,0.0,0.71026313,0.0,0.0,0.70393634,0.0,0.0,-0.001,0,0
5548000,0.0,0.0,1.561864,0.0,0.71025777,0.0,0.0,0.7039417,0.0,0.0,-0.001,0,0
5556000,0.0,0.0,1.5618508,0.0,0.7102624,0.0,0.0,0.70393705,0.0,0.0,-0.001,0,0
5564000,0.0,0.0,1.5618249,0.0,0.7102715,0.0,0.0,0.7039279,0.0,0.0,-0.001,0,0
5572000,0.0,0.0,1.5617738,0.0,0.71028954,0.0,0.0,0.70390964,0.0,0.0,-0.001,0,0
5580000,0.0,0.0,1.5617379,0.0,0.7103021,0.0,0.0,0.703897,0.0,0.0,-0.001,0,0
5588000,0.0,0.0,1.561744,0.0,0.7103,0.0,0.0,0.703899,0.0,0.0,-0.001,0,0
5596000,0.0,0.0,1.5617735,0.0,0.71028966,0.0,0.0,0.7039095,0.0,0.0,-0.001,0,0
5604000,0.0,0.0,1.5617597,0.0,0.7102945,0.0,0.0,0.7039046,0.0,0.0,-0.001,0,0
5612000,0.0,0.0,1.5617366,0.0,0.71030265,0.0,0.0,0.70389646,0.0,0.0,-0.001,0,0
5620000,0.0,0.0,1.5617273,0.0,0.7103059,0.0,0.0,0.70389307,0.0,0.0,-0.001,0,0
5628000,0.0,0.0,1.5617158,0.0,0.7103099,0.0,0.0,0.70388913,0.0,0.0,-0.001,0,0
5636000,0.0,0.0,1.5617181,0.0,0.7103091,0.0,0.0,0.70388997,0.0,0.0,-0.001,0,0
5644000,0.0,0.0,1.5617527,0.0,0.7102969,0.0,0.0,0.7039022,0.0,0.0,-0.001,0,0
5652000,0.0,0.0,1.5617588,0.0,0.71029484,0.0,0.0,0.7039043,0.0,0.0,-0.001,0,0
5660000,0.0,0.0,1.5617566,0.0,0.71029556,0.0,0.0,0.7039036,0.0,0.0,-0.001,0,0
5668000,0.0,0.0,1.5617331,0.0,0.7103038,0.0,0.0,0.7038953,0.0,0.0,-0.001,0,0
5676000,0.0,0.0,1.5617236,0.0,0.7103072,0.0,0.0,0.7038918,0.0,0.0,-0.001,0,0
5684000,0.0,0.0,1.5617268,0.0,0.71030605,0.0,0.0,0.70389295,0.0,0.0,-0.001,0,0
5692000,0.0,0.0,1.5617124,0.0,0.7103111,0.0,0.0,0.7038879,0.0,0.0,-0.001,0,0
5700000,0.0,0.0,1.5617393,0.0,0.71030164,0.0,0.0,0.7038974,0.0,0.0,-0.001,0,0
5708000,0.0,0.0,1.5617309,0.0,0.7103047,0.0,0.0,0.7038944,0.0,0.0,-0.001,0,0
5716000,0.0,0.0,1.5617187,0.0,0.7103089,0.0,0.0,0.70389014,0.0,0.0,-0.001,0,0
5724000,0.0,0.0,1.5617148,0.0,0.7103103,0.0,0.0,0.7038887,0.0,0.0,-0.001,0,0
5732000,0.0,0.0,1.5617363,0.0,0.7103027,0.0,0.0,0.7038964,0.0,0.0,-0.001,0,0
5740000,0.0,0.0,1.5617403,0.0,0.7103013,0.0,0.0,0.7038978,0.0,0.0,-0.001,0,0
5748000,0.0,0.0,1.5617242,0.0,0.710307,0.0,0.0,0.703892,0.0,0.0,-0.001,0,0
5756000,0.0,0.0,1.5617073,0.0,0.71031296,0.0,0.0,0.703886,0.0,0.0,-0.001,0,0
5764000,0.0,0.0,1.5617092,0.0,0.7103123,0.0,0.0,0.70388675,0.0,0.0,-0.001,0,0
5772000,0.0,0.0,1.5617111,0.0,0.7103116,0.0,0.0,0.7038874,0.0,0.0,-0.001,0,0
5780000,0.0,0.0,1.5616976,0.0,0.7103163,0.0,0.0,0.70388263,0.0,0.0,-0.001,0,0
5788000,0.0,0.0,1.56171,0.0,0.71031195,0.0,0.0,0.7038871,0.0,0.0,-0.001,0,0
5796000,0.0,0.0,1.5616924,0.0,0.71031815,0.0,0.0,0.7038808,0.0,0.0,-0.001,0,0
5804000,0.0,0.0,1.5616227,0.0,0.71034265,0.0,0.0,0.70385605,0.0,0.0,-0.001,0,0
5812000,0.0,0.0,1.5615915,0.0,0.7103537,0.0,0.0,0.70384496,0.0,0.0,-0.001,0,0
5820000,0.0,0.0,1.5615731,0.0,0.7103601,0.0,0.0,0.70383847,0.0,0.0,-0.001,0,0
5828000,0.0,0.0,1.5615754,0.0,0.71035933,0.0,0.0,0.7038392,0.0,0.0,-0.001,0,0
5836000,0.0,0.0,1.5615613,0.0,0.7103643,0.0,0.0,0.70383424,0.0,0.0,-0.001,0,0
5844000,0.0,0.0,1.5615596,0.0,0.7103649,0.0,0.0,0.70383364,0.0,0.0,-0.001,0,0
5852000,0.0,0.0,1.5615464,0.0,0.7103695,0.0,0.0,0.703829,0.0,0.0,-0.001,0,0
5860000,0.0,0.0,1.5615649,0.0,0.71036303,0.0,0.0,0.7038355,0.0,0.0,-0.001,0,0
5868000,0.0,0.0,1.5615593,0.0,0.710365,0.0,0.0,0.7038335,0.0,0.0,-0.001,0,0
5876000,0.0,0.0,1.5615476,0.0,0.7103691,0.0,0.0,0.7038294,0.0,0.0,-0.001,0,0
5884000,0.0,0.0,1.5615554,0.0,0.7103664,0.0,0.0,0.70383203,0.0,0.0,-0.001,0,0
5892000,0.0,0.0,1.5615332,0.0,0.71037424,0.0,0.0,0.70382416,0.0,0.0,-0.001,0,0
5900000,0.0,0.0,1.5615029,0.0,0.71038485,0.0,0.0,0.70381343,0.0,0.0,-0.001,0,0
5908000,0.0,0.0,1.5615073,0.0,0.7103833,0.0,0.0,0.703815,0.0,0.0,-0.001,0,0
5916000,0.0,0.0,1.5614874,0.0,0.7103903,0.0,0.0,0.7038079,0.0,0.0,-0.001,0,0
5924000,0.0,0.0,1.5614742,0.0,0.7103949,0.0,0.0,0.7038033,0.0,0.0,-0.001,0,0
5932000,0.0,0.0,1.5614392,0.0,0.71040726,0.0,0.0,0.70379084,0.0,0.0,-0.001,0,0
5940000,0.0,0.0,1.5614266,0.0,0.7104117,0.0,0.0,0.7037863,0.0,0.0,-0.001,0,0
5948000,0.0,0.0,1.5614599,0.0,0.7104,0.0,0.0,0.70379823,0.0,0.0,-0.001,0,0
5956000,0.0,0.0,1.5614433,0.0,0.7104058,0.0,0.0,0.7037922,0.0,0.0,-0.001,0,0
5964000,0.0,0.0,1.5614321,0.0,0.71040976,0.0,0.0,0.70378834,0.0,0.0,-0.001,0,0
5972000,0.0,0.0,1.5614667,0.0,0.7103976,0.0,0.0,0.70380056,0.0,0.0,-0.001,0,0
5980000,0.0,0.0,1.5614595,0.0,0.71040016,0.0,0.0,0.70379806,0.0,0.0,-0.001,0,0
5988000,0.0,0.0,1.5614387,0.0,0.71040744,0.0,0.0,0.7037907,0.0,0.0,-0.001,0,0
5996000,0.0,0.0,1.5613962,0.0,0.7104224,0.0,0.0,0.7037755,0.0,0.0,-0.001,0,0
6004000,0.0,0.0,1.561394,0.0,0.71042323,0.0,0.0,0.70377475,0.0,0.0,-0.001,0,0
6012000,0.0,0.0,1.561374,0.0,0.71043026,0.0,0.0,0.70376766,0.0,0.0,-0.001,0,0
6020000,0.0,0.0,1.5613459,0.0,0.7104401,0.0,0.0,0.7037577,0.0,0.0,-0.001,0,0
6028000,0.0,0.0,1.5613148,0.0,0.71045107,0.0,0.0,0.7037466,0.0,0.0,-0.001,0,0
6036000,0.0,0.0,1.5613062,0.0,0.7104541,0.0,0.0,0.7037436,0.0,0.0,-0.001,0,0
6044000,0.0,0.0,1.5612756,0.0,0.71046484,0.0,0.0,0.7037327,0.0,0.0,-0.001,0,0
6052000,0.0,0.0,1.5612216,0.0,0.71048385,0.0,0.0,0.70371354,0.0,0.0,-0.001,0,0
6060000,0.0,0.0,1.5612317,0.0,0.7104803,0.0,0.0,0.7037171,0.0,0.0,-0.001,0,0
6068000,0.0,0.0,1.5612113,0.0,0.7104875,0.0,0.0,0.7037099,0.0,0.0,-0.001,0,0
6076000,0.0,0.0,1.5611957,0.0,0.7104929,0.0,0.0,0.70370436,0.0,0.0,-0.001,0,0
6084000,0.0,0.0,1.5611678,0.0,0.71050274,0.0,0.0,0.7036945,0.0,0.0,-0.001,0,0
6092000,0.0,0.0,1.5611137,0.0,0.71052176,0.0,0.0,0.70367527,0.0,0.0,-0.001,0,0
6100000,0.0,0.0,1.5611228,0.0,0.7105186,0.0,0.0,0.7036784,0.0,0.0,-0.001,0,0
6108000,0.0,0.0,1.5611122,0.0,0.71052235,0.0,0.0,0.70367473,0.0,0.0,-0.001,0,0
6116000,0.0,0.0,1.561104,0.0,0.7105252,0.0,0.0,0.7036717,0.0,0.0,-0.001,0,0
6124000,0.0,0.0,1.5610688,0.0,0.7105376,0.0,0.0,0.7036593,0.0,0.0,-0.001,0,0
6132000,0.0,0.0,1.5610641,0.0,0.7105392,0.0,0.0,0.7036577,0.0,0.0,-0.001,0,0
6140000,0.0,0.0,1.5610703,0.0,0.7105371,0.0,0.0,0.70365983,0.0,0.0,-0.001,0,0
6148000,0.0,0.0,1.5610838,0.0,0.71053237,0.0,0.0,0.7036645,0.0,0.0,-0.001,0,0
6156000,0.0,0.0,1.5611004,0.0,0.71052647,0.0,0.0,0.70367056,0.0,0.0,-0.001,0,0
6164000,0.0,0.0,1.5611176,0.0,0.71052045,0.0,0.0,0.7036766,0.0,0.0,-0.001,0,0
6172000,0.0,0.0,1.5611287,0.0,0.7105165,0.0,0.0,0.7036805,0.0,0.0,-0.001,0,0
6180000,0.0,0.0,1.5611255,0.0,0.7105177,0.0,0.0,0.7036794,0.0,0.0,-0.001,0,0
6188000,0.0,0.0,1.561134,0.0,0.71051466,0.0,0.0,0.7036824,0.0,0.0,-0.001,0,0
6196000,0.0,0.0,1.561157,0.0,0.7105066,0.0,0.0,0.7036905,0.0,0.0,-0.001,0,0
6204000,0.0,0.0,1.5611447,0.0,0.7105109,0.0,0.0,0.7036862,0.0,0.0,-0.001,0,0
6212000,0.0,0.0,1.5611558,0.0,0.71050704,0.0,0.0,0.7036902,0.0,0.0,-0.001,0,0
6220000,0.0,0.0,1.5611824,0.0,0.7104976,0.0,0.0,0.70369965,0.0,0.0,-0.001,0,0
6228000,0.0,0.0,1.5612187,0.0,0.71048486,0.0,0.0,0.7037125,0.0,0.0,-0.001,0,0
6236000,0.0,0.0,1.5612693,0.0,0.7104671,0.0,0.0,0.7037304,0.0,0.0,-0.001,0,0
6244000,0.0,0.0,1.5612948,0.0,0.7104581,0.0,0.0,0.7037395,0.0,0.0,-0.001,0,0
6252000,0.0,0.0,1.5612931,0.0,0.7104587,0.0,0.0,0.703739,0.0,0.0,-0.001,0,0
6260000,0.0,0.0,1.5612898,0.0,0.7104599,0.0,0.0,0.70373774,0.0,0.0,-0.001,0,0
6268000,0.0,0.0,1.561272,0.0,0.7104661,0.0,0.0,0.7037314,0.0,0.0,-0.001,0,0
6276000,0.0,0.0,1.5612383,0.0,0.710478,0.0,0.0,0.70371944,0.0,0.0,-0.001,0,0
6284000,0.0,0.0,1.5612262,0.0,0.7104822,0.0,0.0,0.7037152,0.0,0.0,-0.001,0,0
6292000,0.0,0.0,1.5612215,0.0,0.71048385,0.0,0.0,0.70371354,0.0,0.0,-0.001,0,0
6300000,0.0,0.0,1.5612137,0.0,0.71048665,0.0,0.0,0.7037107,0.0,0.0,-0.001,0,0
6308000,0.0,0.0,1.5612313,0.0,0.71048045,0.0,0.0,0.70371693,0.0,0.0,-0.001,0,0
6316000,0.0,0.0,1.561232,0.0,0.71048015,0.0,0.0,0.70371723,0.0,0.0,-0.001,0,0
6324000,0.0,0.0,1.5612407,0.0,0.7104772,0.0,0.0,0.7037203,0.0,0.0,-0.001,0,0
6332000,0.0,0.0,1.5612038,0.0,0.71049005,0.0,0.0,0.7037073,0.0,0.0,-0.001,0,0
6340000,0.0,0.0,1.5611413,0.0,0.71051216,0.0,0.0,0.7036849,0.0,0.0,-0.001,0,0
6348000,0.0,0.0,1.5611045,0.0,0.71052504,0.0,0.0,0.7036719,0.0,0.0,-0.001,0,0
6356000,0.0,0.0,1.5610995,0.0,0.7105268,0.0,0.0,0.7036702,0.0,0.0,-0.001,0,0
6364000,0.0,0.0,1.561103,0.0,0.7105256,0.0,0.0,0.70367134,0.0,0.0,-0.001,0,0
6372000,0.0,0.0,1.5610385,0.0,0.7105483,0.0,0.0,0.7036485,0.0,0.0,-0.001,0,0
6380000,0.0,0.0,1.5609545,0.0,0.71057785,0.0,0.0,0.70361865,0.0,0.0,-0.001,0,0
6388000,0.0,0.0,1.560924,0.0,0.7105886,0.0,0.0,0.70360786,0.0,0.0,-0.001,0,0
6396000,0.0,0.0,1.5609412,0.0,0.7105825,0.0,0.0,0.703614,0.0,0.0,-0.001,0,0
6404000,0.0,0.0,1.5609806,0.0,0.71056867,0.0,0.0,0.7036278,0.0,0.0,-0.001,0,0
6412000,0.0,0.0,1.5609571,0.0,0.7105769,0.0,0.0,0.7036196,0.0,0.0,-0.001,0,0
6420000,0.0,0.0,1.5609238,0.0,0.71058863,0.0,0.0,0.7036078,0.0,0.0,-0.001,0,0
6428000,0.0,0.0,1.5609182,0.0,0.7105906,0.0,0.0,0.7036058,0.0,0.0,-0.001,0,0
6436000,0.0,0.0,1.5609174,0.0,0.7105909,0.0,0.0,0.7036055,0.0,0.0,-0.001,0,0
6444000,0.0,0.0,1.5609285,0.0,0.71058697,0.0,0.0,0.70360935,0.0,0.0,-0.001,0,0
6452000,0.0,0.0,1.560919,0.0,0.7105903,0.0,0.0,0.703606,0.0,0.0,-0.001,0,0
6460000,0.0,0.0,1.560965,0.0,0.71057415,0.0,0.0,0.7036223,0.0,0.0,-0.001,0,0
6468000,0.0,0.0,1.5609444,0.0,0.71058136,0.0,0.0,0.703615,0.0,0.0,-0.001,0,0
6476000,0.0,0.0,1.5609161,0.0,0.7105913,0.0,0.0,0.703605,0.0,0.0,-0.001,0,0
6484000,0.0,0.0,1.5609015,0.0,0.71059644,0.0,0.0,0.7035998,0.0,0.0,-0.001,0,0
6492000,0.0,0.0,1.5609058,0.0,0.71059495,0.0,0.0,0.7036014,0.0,0.0,-0.001,0,0
6500000,0.0,0.0,1.560911,0.0,0.7105931,0.0,0.0,0.7036032,0.0,0.0,-0.001,0,0
6508000,0.0,0.0,1.5608906,0.0,0.7106003,0.0,0.0,0.70359594,0.0,0.0,-0.001,0,0
6516000,0.0,0.0,1.5608633,0.0,0.71061,0.0,0.0,0.7035862,0.0,0.0,-0.001,0,0
6524000,0.0,0.0,1.5608536,0.0,0.7106133,0.0,0.0,0.7035828,0.0,0.0,-0.001,0,0
6532000,0.0,0.0,1.560847,0.0,0.71061563,0.0,0.0,0.70358044,0.0,0.0,-0.001,0,0
6540000,0.0,0.0,1.560856,0.0,0.7106125,0.0,0.0,0.70358366,0.0,0.0,-0.001,0,0
6548000,0.0,0.0,1.5608417,0.0,0.7106175,0.0,0.0,0.70357853,0.0,0.0,-0.001,0,0
6556000,0.0,0.0,1.5608797,0.0,0.71060413,0.0,0.0,0.70359206,0.0,0.0,-0.001,0,0
6564000,0.0,0.0,1.5608807,0.0,0.71060383,0.0,0.0,0.7035924,0.0,0.0,-0.001,0,0
6572000,0.0,0.0,1.5608541,0.0,0.71061313,0.0,0.0,0.703583,0.0,0.0,-0.001,0,0
6580000,0.0,0.0,1.5608222,0.0,0.71062434,0.0,0.0,0.70357174,0.0,0.0,-0.001,0,0
6588000,0.0,0.0,1.5608224,0.0,0.7106243,0.0,0.0,0.70357174,0.0,0.0,-0.001,0,0
6596000,0.0,0.0,1.5608033,0.0,0.710631,0.0,0.0,0.703565,0.0,0.0,-0.001,0,0
6604000,0.0,0.0,1.5608093,0.0,0.7106289,0.0,0.0,0.703567,0.0,0.0,-0.001,0,0
6612000,0.0,0.0,1.5608044,0.0,0.7106306,0.0,0.0,0.7035654,0.0,0.0,-0.001,0,0
6620000,0.0,0.0,1.5607842,0.0,0.7106377,0.0,0.0,0.70355815,0.0,0.0,-0.001,0,0
6628000,0.0,0.0,1.5607681,0.0,0.71064335,0.0,0.0,0.70355254,0.0,0.0,-0.001,0,0
6636000,0.0,0.0,1.5607641,0.0,0.7106448,0.0,0.0,0.703551,0.0,0.0,-0.001,0,0
6644000,0.0,0.0,1.5608097,0.0,0.71062875,0.0,0.0,0.7035672,0.0,0.0,-0.001,0,0
6652000,0.0,0.0,1.5608752,0.0,0.71060574,0.0,0.0,0.70359045,0.0,0.0,-0.001,0,0
6660000,0.0,0.0,1.5608761,0.0,0.71060544,0.0,0.0,0.70359075,0.0,0.0,-0.001,0,0
6668000,0.0,0.0,1.560853,0.0,0.71061355,0.0,0.0,0.7035826,0.0,0.0,-0.001,0,0
6676000,0.0,0.0,1.5608343,0.0,0.7106201,0.0,0.0,0.70357597,0.0,0.0,-0.001,0,0
6684000,0.0,0.0,1.5608181,0.0,0.7106258,0.0,0.0,0.7035701,0.0,0.0,-0.001,0,0
6692000,0.0,0.0,1.5608035,0.0,0.7106309,0.0,0.0,0.7035651,0.0,0.0,-0.001,0,0
6700000,0.0,0.0,1.560793,0.0,0.7106346,0.0,0.0,0.7035613,0.0,0.0,-0.001,0,0
6708000,0.0,0.0,1.5607854,0.0,0.7106373,0.0,0.0,0.7035587,0.0,0.0,-0.001,0,0
6716000,0.0,0.0,1.5607743,0.0,0.7106412,0.0,0.0,0.70355463,0.0,0.0,-0.001,0,0
6724000,0.0,0.0,1.5607765,0.0,0.71064043,0.0,0.0,0.7035554,0.0,0.0,-0.001,0,0
6732000,0.0,0.0,1.5607861,0.0,0.71063703,0.0,0.0,0.7035589,0.0,0.0,-0.001,0,0
6740000,0.0,0.0,1.5608339,0.0,0.7106203,0.0,0.0,0.7035758,0.0,0.0,-0.001,0,0
6748000,0.0,0.0,1.5608604,0.0,0.7106109,0.0,0.0,0.70358515,0.0,0.0,-0.001,0,0
6756000,0.0,0.0,1.560819,0.0,0.71062547,0.0,0.0,0.7035705,0.0,0.0,-0.001,0,0
6764000,0.0,0.0,1.5608647,0.0,0.71060944,0.0,0.0,0.7035867,0.0,0.0,-0.001,0,0
6772000,0.0,0.0,1.5608635,0.0,0.71060985,0.0,0.0,0.70358634,0.0,0.0,-0.001,0,0
6780000,0.0,0.0,1.5608715,0.0,0.710607,0.0,0.0,0.7035892,0.0,0.0,-0.001,0,0
6788000,0.0,0.0,1.5608473,0.0,0.7106156,0.0,0.0,0.7035805,0.0,0.0,-0.001,0,0
6796000,0.0,0.0,1.5608197,0.0,0.71062523,0.0,0.0,0.7035707,0.0,0.0,-0.001,0,0
6804000,0.0,0.0,1.5608455,0.0,0.7106162,0.0,0.0,0.70357996,0.0,0.0,-0.001,0,0
6812000,0.0,0.0,1.5608889,0.0,0.7106009,0.0,0.0,0.70359534,0.0,0.0,-0.001,0,0
6820000,0.0,0.0,1.5609231,0.0,0.7105889,0.0,0.0,0.70360756,0.0,0.0,-0.001,0,0
6828000,0.0,0.0,1.5608976,0.0,0.7105979,0.0,0.0,0.7035984,0.0,0.0,-0.001,0,0
6836000,0.0,0.0,1.5608914,0.0,0.7106001,0.0,0.0,0.7035962,0.0,0.0,-0.001,0,0
6844000,0.0,0.0,1.5608847,0.0,0.7106024,0.0,0.0,0.7035938,0.0,0.0,-0.001,0,0
6852000,0.0,0.0,1.5608596,0.0,0.7106112,0.0,0.0,0.70358485,0.0,0.0,-0.001,0,0
6860000,0.0,0.0,1.5608765,0.0,0.71060526,0.0,0.0,0.7035909,0.0,0.0,-0.001,0,0
6868000,0.0,0.0,1.5608957,0.0,0.7105985,0.0,0.0,0.7035977,0.0,0.0,-0.001,0,0
6876000,0.0,0.0,1.5608948,0.0,0.71059877,0.0,0.0,0.7035975,0.0,0.0,-0.001,0,0
6884000,0.0,0.0,1.5608664,0.0,0.71060884,0.0,0.0,0.7035873,0.0,0.0,-0.001,0,0
6892000,0.0,0.0,1.5608683,0.0,0.7106082,0.0,0.0,0.70358795,0.0,0.0,-0.001,0,0
6900000,0.0,0.0,1.5608691,0.0,0.7106078,0.0,0.0,0.7035884,0.0,0.0,-0.001,0,0
6908000,0.0,0.0,1.5608767,0.0,0.71060514,0.0,0.0,0.70359105,0.0,0.0,-0.001,0,0
6916000,0.0,0.0,1.5608729,0.0,0.7106065,0.0,0.0,0.7035897,0.0,0.0,-0.001,0,0
6924000,0.0,0.0,1.560908,0.0,0.7105942,0.0,0.0,0.70360214,0.0,0.0,-0.001,0,0
6932000,0.0,0.0,1.560886,0.0,0.71060187,0.0,0.0,0.7035943,0.0,0.0,-0.001,0,0
6940000,0.0,0.0,1.5608504,0.0,0.7106145,0.0,0.0,0.7035816,0.0,0.0,-0.001,0,0
6948000,0.0,0.0,1.5608524,0.0,0.7106137,0.0,0.0,0.7035824,0.0,0.0,-0.001,0,0
6956000,0.0,0.0,1.5608985,0.0,0.7105975,0.0,0.0,0.70359874,0.0,0.0,-0.001,0,0
6964000,0.0,0.0,1.5609094,0.0,0.7105937,0.0,0.0,0.70360255,0.0,0.0,-0.001,0,0
6972000,0.0,0.0,1.5609272,0.0,0.71058744,0.0,0.0,0.7036089,0.0,0.0,-0.001,0,0
6980000,0.0,0.0,1.5609499,0.0,0.7105794,0.0,0.0,0.70361704,0.0,0.0,-0.001,0,0
6988000,0.0,0.0,1.560931,0.0,0.71058613,0.0,0.0,0.70361024,0.0,0.0,-0.001,0,0
6996000,0.0,0.0,1.5608786,0.0,0.7106045,0.0,0.0,0.7035917,0.0,0.0,-0.001,0,0
7004000,0.0,0.0,1.560858,0.0,0.7106118,0.0,0.0,0.7035843,0.0,0.0,-0.001,0,0
7012000,0.0,0.0,1.5608687,0.0,0.710608,0.0,0.0,0.70358825,0.0,0.0,-0.001,0,0
7020000,0.0,0.0,1.5608655,0.0,0.71060914,0.0,0.0,0.703587,0.0,0.0,-0.001,0,0
7028000,0.0,0.0,1.5608269,0.0,0.71062267,0.0,0.0,0.7035734,0.0,0.0,-0.001,0,0
7036000,0.0,0.0,1.5608186,0.0,0.71062565,0.0,0.0,0.7035703,0.0,0.0,-0.001,0,0
7044000,0.0,0.0,1.5608072,0.0,0.71062964,0.0,0.0,0.70356625,0.0,0.0,-0.001,0,0
7052000,0.0,0.0,1.5608265,0.0,0.71062285,0.0,0.0,0.7035731,0.0,0.0,-0.001,0,0
7060000,0.0,0.0,1.5608318,0.0,0.710621,0.0,0.0,0.703575,0.0,0.0,-0.001,0,0
7068000,0.0,0.0,1.5608562,0.0,0.71061236,0.0,0.0,0.7035838,0.0,0.0,-0.001,0,0
7076000,0.0,0.0,1.5608538,0.0,0.7106132,0.0,0.0,0.70358294,0.0,0.0,-0.001,0,0
7084000,0.0,0.0,1.5608429,0.0,0.71061707,0.0,0.0,0.70357895,0.0,0.0,-0.001,0,0
7092000,0.0,0.0,1.5608584,0.0,0.71061164,0.0,0.0,0.70358443,0.0,0.0,-0.001,0,0
7100000,0.0,0.0,1.5608408,0.0,0.7106178,0.0,0.0,0.70357823,0.0,0.0,-0.001,0,0
7108000,0.0,0.0,1.5608333,0.0,0.7106204,0.0,0.0,0.7035757,0.0,0.0,-0.001,0,0
7116000,0.0,0.0,1.5608058,0.0,0.7106301,0.0,0.0,0.7035658,0.0,0.0,-0.001,0,0
7124000,0.0,0.0,1.5607896,0.0,0.71063584,0.0,0.0,0.70356,0.0,0.0,-0.001,0,0
7132000,0.0,0.0,1.560815,0.0,0.7106269,0.0,0.0,0.7035691,0.0,0.0,-0.001,0,0
7140000,0.0,0.0,1.5607886,0.0,0.71063614,0.0,0.0,0.7035597,0.0,0.0,-0.001,0,0
7148000,0.0,0.0,1.5607545,0.0,0.7106482,0.0,0.0,0.70354754,0.0,0.0,-0.001,0,0
7156000,0.0,0.0,1.5607635,0.0,0.710645,0.0,0.0,0.70355076,0.0,0.0,-0.001,0,0
7164000,0.0,0.0,1.5607557,0.0,0.71064776,0.0,0.0,0.703548,0.0,0.0,-0.001,0,0
7172000,0.0,0.0,1.5607218,0.0,0.7106597,0.0,0.0,0.7035359,0.0,0.0,-0.001,0,0
7180000,0.0,0.0,1.5606774,0.0,0.7106753,0.0,0.0,0.7035202,0.0,0.0,-0.001,0,0
7188000,0.0,0.0,1.560691,0.0,0.71067053,0.0,0.0,0.703525,0.0,0.0,-0.001,0,0
7196000,0.0,0.0,1.5606797,0.0,0.71067446,0.0,0.0,0.7035211,0.0,0.0,-0.001,0,0
7204000,0.0,0.0,1.5606828,0.0,0.7106734,0.0,0.0,0.7035221,0.0,0.0,-0.001,0,0
7212000,0.0,0.0,1.5606952,0.0,0.71066904,0.0,0.0,0.7035265,0.0,0.0,-0.001,0,0
7220000,0.0,0.0,1.560681,0.0,0.71067405,0.0,0.0,0.70352143,0.0,0.0,-0.001,0,0
7228000,0.0,0.0,1.5606599,0.0,0.71068144,0.0,0.0,0.703514,0.0,0.0,-0.001,0,0
7236000,0.0,0.0,1.5606444,0.0,0.7106869,0.0,0.0,0.7035085,0.0,0.0,-0.001,0,0
7244000,0.0,0.0,1.5606471,0.0,0.7106859,0.0,0.0,0.70350945,0.0,0.0,-0.001,0,0
7252000,0.0,0.0,1.5606251,0.0,0.7106937,0.0,0.0,0.7035015,0.0,0.0,-0.001,0,0
7260000,0.0,0.0,1.560587,0.0,0.71070707,0.0,0.0,0.70348805,0.0,0.0,-0.001,0,0
7268000,0.0,0.0,1.5605761,0.0,0.71071094,0.0,0.0,0.7034842,0.0,0.0,-0.001,0,0
7276000,0.0,0.0,1.5605567,0.0,0.71071774,0.0,0.0,0.7034773,0.0,0.0,-0.001,0,0
7284000,0.0,0.0,1.5605149,0.0,0.71073246,0.0,0.0,0.7034625,0.0,0.0,-0.001,0,0
7292000,0.0,0.0,1.5604706,0.0,0.710748,0.0,0.0,0.7034467,0.0,0.0,-0.001,0,0
7300000,0.0,0.0,1.5604409,0.0,0.7107585,0.0,0.0,0.70343614,0.0,0.0,-0.001,0,0
7308000,0.0,0.0,1.5603987,0.0,0.71077335,0.0,0.0,0.7034211,0.0,0.0,-0.001,0,0
7316000,0.0,0.0,1.5603894,0.0,0.71077657,0.0,0.0,0.7034179,0.0,0.0,-0.001,0,0
7324000,0.0,0.0,1.5603627,0.0,0.710786,0.0,0.0,0.70340836,0.0,0.0,-0.001,0,0
7332000,0.0,0.0,1.5603178,0.0,0.7108018,0.0,0.0,0.7033924,0.0,0.0,-0.001,0,0
7340000,0.0,0.0,1.5602839,0.0,0.7108137,0.0,0.0,0.70338035,0.0,0.0,-0.001,0,0
7348000,0.0,0.0,1.5602974,0.0,0.71080893,0.0,0.0,0.70338523,0.0,0.0,-0.001,0,0
7356000,0.0,0.0,1.560318,0.0,0.7108017,0.0,0.0,0.70339245,0.0,0.0,-0.001,0,0
7364000,0.0,0.0,1.5603496,0.0,0.7107906,0.0,0.0,0.7034037,0.0,0.0,-0.001,0,0
7372000,0.0,0.0,1.5603821,0.0,0.71077913,0.0,0.0,0.7034153,0.0,0.0,-0.001,0,0
7380000,0.0,0.0,1.5603514,0.0,0.71079,0.0,0.0,0.7034043,0.0,0.0,-0.001,0,0
7388000,0.0,0.0,1.5603027,0.0,0.7108071,0.0,0.0,0.7033871,0.0,0.0,-0.001,0,0
7396000,0.0,0.0,1.5602946,0.0,0.71080995,0.0,0.0,0.7033841,0.0,0.0,-0.001,0,0
7404000,0.0,0.0,1.5603008,0.0,0.71080774,0.0,0.0,0.70338637,0.0,0.0,-0.001,0,0
7412000,0.0,0.0,1.5603005,0.0,0.71080786,0.0,0.0,0.70338625,0.0,0.0,-0.001,0,0
7420000,0.0,0.0,1.560261,0.0,0.71082175,0.0,0.0,0.7033722,0.0,0.0,-0.001,0,0
7428000,0.0,0.0,1.5602384,0.0,0.71082973,0.0,0.0,0.70336413,0.0,0.0,-0.001,0,0
7436000,0.0,0.0,1.5602223,0.0,0.7108354,0.0,0.0,0.7033584,0.0,0.0,-0.001,0,0
7444000,0.0,0.0,1.560223,0.0,0.7108351,0.0,0.0,0.70335865,0.0,0.0,-0.001,0,0
7452000,0.0,0.0,1.5602164,0.0,0.7108374,0.0,0.0,0.7033564,0.0,0.0,-0.001,0,0
7460000,0.0,0.0,1.5602124,0.0,0.71083885,0.0,0.0,0.70335495,0.0,0.0,-0.001,0,0
7468000,0.0,0.0,1.5602059,0.0,0.7108411,0.0,0.0,0.70335263,0.0,0.0,-0.001,0,0
7476000,0.0,0.0,1.5601951,0.0,0.71084493,0.0,0.0,0.7033488,0.0,0.0,-0.001,0,0
7484000,0.0,0.0,1.5602186,0.0,0.71083665,0.0,0.0,0.7033572,0.0,0.0,-0.001,0,0
7492000,0.0,0.0,1.5602376,0.0,0.71083,0.0,0.0,0.7033639,0.0,0.0,-0.001,0,0
7500000,0.0,0.0,1.5602665,0.0,0.71081984,0.0,0.0,0.70337415,0.0,0.0,-0.001,0,0
7508000,0.0,0.0,1.5602689,0.0,0.710819,0.0,0.0,0.70337504,0.0,0.0,-0.001,0,0
7516000,0.0,0.0,1.560281,0.0,0.7108147,0.0,0.0,0.7033794,0.0,0.0,-0.001,0,0
7524000,0.0,0.0,1.5602921,0.0,0.7108108,0.0,0.0,0.7033833,0.0,0.0,-0.001,0,0
7532000,0.0,0.0,1.5603211,0.0,0.71080065,0.0,0.0,0.7033935,0.0,0.0,-0.001,0,0
7540000,0.0,0.0,1.560318,0.0,0.7108017,0.0,0.0,0.70339245,0.0,0.0,-0.001,0,0
7548000,0.0,0.0,1.5603267,0.0,0.7107986,0.0,0.0,0.7033956,0.0,0.0,-0.001,0,0
7556000,0.0,0.0,1.560363,0.0,0.71078587,0.0,0.0,0.7034085,0.0,0.0,-0.001,0,0
7564000,0.0,0.0,1.5603908,0.0,0.7107761,0.0,0.0,0.7034183,0.0,0.0,-0.001,0,0
7572000,0.0,0.0,1.5603888,0.0,0.7107768,0.0,0.0,0.70341766,0.0,0.0,-0.001,0,0
7580000,0.0,0.0,1.5604038,0.0,0.7107715,0.0,0.0,0.70342296,0.0,0.0,-0.001,0,0
7588000,0.0,0.0,1.5604324,0.0,0.7107614,0.0,0.0,0.70343316,0.0,0.0,-0.001,0,0
7596000,0.0,0.0,1.5604655,0.0,0.71074986,0.0,0.0,0.70344484,0.0,0.0,-0.001,0,0
7604000,0.0,0.0,1.560474,0.0,0.7107468,0.0,0.0,0.7034479,0.0,0.0,-0.001,0,0
7612000,0.0,0.0,1.5605099,0.0,0.7107342,0.0,0.0,0.70346075,0.0,0.0,-0.001,0,0
7620000,0.0,0.0,1.5605234,0.0,0.7107295,0.0,0.0,0.7034654,0.0,0.0,-0.001,0,0
7628000,0.0,0.0,1.5605125,0.0,0.7107333,0.0,0.0,0.7034616,0.0,0.0,-0.001,0,0
7636000,0.0,0.0,1.560529,0.0,0.7107275,0.0,0.0,0.7034674,0.0,0.0,-0.001,0,0
7644000,0.0,0.0,1.5605158,0.0,0.71073216,0.0,0.0,0.7034628,0.0,0.0,-0.001,0,0
7652000,0.0,0.0,1.5605056,0.0,0.71073574,0.0,0.0,0.7034591,0.0,0.0,-0.001,0,0
7660000,0.0,0.0,1.5605087,0.0,0.7107346,0.0,0.0,0.7034602,0.0,0.0,-0.001,0,0
7668000,0.0,0.0,1.5605215,0.0,0.71073014,0.0,0.0,0.7034648,0.0,0.0,-0.001,0,0
7676000,0.0,0.0,1.5605165,0.0,0.7107319,0.0,0.0,0.703463,0.0,0.0,-0.001,0,0
7684000,0.0,0.0,1.5605242,0.0,0.7107292,0.0,0.0,0.7034657,0.0,0.0,-0.001,0,0
7692000,0.0,0.0,1.5605164,0.0,0.7107319,0.0,0.0,0.703463,0.0,0.0,-0.001,0,0
7700000,0.0,0.0,1.5604969,0.0,0.7107388,0.0,0.0,0.70345604,0.0,0.0,-0.001,0,0
7708000,0.0,0.0,1.5604459,0.0,0.7107567,0.0,0.0,0.703438,0.0,0.0,-0.001,0,0
7716000,0.0,0.0,1.560405,0.0,0.7107711,0.0,0.0,0.7034234,0.0,0.0,-0.001,0,0
7724000,0.0,0.0,1.5603855,0.0,0.710778,0.0,0.0,0.70341647,0.0,0.0,-0.001,0,0
7732000,0.0,0.0,1.56035,0.0,0.71079046,0.0,0.0,0.70340383,0.0,0.0,-0.001,0,0
7740000,0.0,0.0,1.5603149,0.0,0.7108028,0.0,0.0,0.70339143,0.0,0.0,-0.001,0,0
7748000,0.0,0.0,1.5603315,0.0,0.71079695,0.0,0.0,0.70339733,0.0,0.0,-0.001,0,0
7756000,0.0,0.0,1.5603423,0.0,0.71079314,0.0,0.0,0.70340115,0.0,0.0,-0.001,0,0
7764000,0.0,0.0,1.5602992,0.0,0.71080834,0.0,0.0,0.7033858,0.0,0.0,-0.001,0,0
7772000,0.0,0.0,1.5602324,0.0,0.7108318,0.0,0.0,0.70336205,0.0,0.0,-0.001,0,0
7780000,0.0,0.0,1.5601768,0.0,0.7108514,0.0,0.0,0.70334226,0.0,0.0,-0.001,0,0
7788000,0.0,0.0,1.5601923,0.0,0.7108459,0.0,0.0,0.7033478,0.0,0.0,-0.001,0,0
7796000,0.0,0.0,1.5601857,0.0,0.7108483,0.0,0.0,0.7033454,0.0,0.0,-0.001,0,0
7804000,0.0,0.0,1.5601518,0.0,0.71086013,0.0,0.0,0.70333344,0.0,0.0,-0.001,0,0
7812000,0.0,0.0,1.5601656,0.0,0.7108553,0.0,0.0,0.70333827,0.0,0.0,-0.001,0,0
7820000,0.0,0.0,1.5601473,0.0,0.71086174,0.0,0.0,0.70333177,0.0,0.0,-0.001,0,0
7828000,0.0,0.0,1.5601335,0.0,0.71086663,0.0,0.0,0.7033269,0.0,0.0,-0.001,0,0
7836000,0.0,0.0,1.5601377,0.0,0.7108651,0.0,0.0,0.70332843,0.0,0.0,-0.001,0,0
7844000,0.0,0.0,1.5601472,0.0,0.7108618,0.0,0.0,0.7033317,0.0,0.0,-0.001,0,0
7852000,0.0,0.0,1.5601491,0.0,0.71086115,0.0,0.0,0.70333236,0.0,0.0,-0.001,0,0
7860000,0.0,0.0,1.5601339,0.0,0.71086645,0.0,0.0,0.70332706,0.0,0.0,-0.001,0,0
7868000,0.0,0.0,1.5601325,0.0,0.7108669,0.0,0.0,0.7033265,0.0,0.0,-0.001,0,0
7876000,0.0,0.0,1.5601342,0.0,0.71086633,0.0,0.0,0.7033272,0.0,0.0,-0.001,0,0
7884000,0.0,0.0,1.5601434,0.0,0.7108631,0.0,0.0,0.70333034,0.0,0.0,-0.001,0,0
7892000,0.0,0.0,1.5602123,0.0,0.7108389,0.0,0.0,0.7033549,0.0,0.0,-0.001,0,0
7900000,0.0,0.0,1.5602161,0.0,0.71083754,0.0,0.0,0.70335627,0.0,0.0,-0.001,0,0
7908000,0.0,0.0,1.560189,0.0,0.7108471,0.0,0.0,0.7033466,0.0,0.0,-0.001,0,0
7916000,0.0,0.0,1.5601711,0.0,0.71085334,0.0,0.0,0.7033403,0.0,0.0,-0.001,0,0
7924000,0.0,0.0,1.5601546,0.0,0.7108592,0.0,0.0,0.7033344,0.0,0.0,-0.001,0,0
7932000,0.0,0.0,1.5601553,0.0,0.71085894,0.0,0.0,0.7033346,0.0,0.0,-0.001,0,0
7940000,0.0,0.0,1.5601954,0.0,0.7108448,0.0,0.0,0.70334893,0.0,0.0,-0.001,0,0
7948000,0.0,0.0,1.5601931,0.0,0.71084565,0.0,0.0,0.70334804,0.0,0.0,-0.001,0,0
7956000,0.0,0.0,1.5602188,0.0,0.7108366,0.0,0.0,0.7033573,0.0,0.0,-0.001,0,0
7964000,0.0,0.0,1.5602329,0.0,0.71083164,0.0,0.0,0.7033622,0.0,0.0,-0.001,0,0
7972000,0.0,0.0,1.5602176,0.0,0.710837,0.0,0.0,0.70335686,0.0,0.0,-0.001,0,0
7980000,0.0,0.0,1.5602186,0.0,0.71083665,0.0,0.0,0.7033572,0.0,0.0,-0.001,0,0
7988000,0.0,0.0,1.5602163,0.0,0.7108375,0.0,0.0,0.7033563,0.0,0.0,-0.001,0,0
7996000,0.0,0.0,1.5601935,0.0,0.7108455,0.0,0.0,0.7033482,0.0,0.0,-0.001,0,0
8004000,0.0,0.0,1.5602047,0.0,0.71084154,0.0,0.0,0.7033522,0.0,0.0,-0.001,0,0
8012000,0.0,0.0,1.5602528,0.0,0.71082467,0.0,0.0,0.7033693,0.0,0.0,-0.001,0,0
8020000,0.0,0.0,1.5602589,0.0,0.7108225,0.0,0.0,0.7033714,0.0,0.0,-0.001,0,0
8028000,0.0,0.0,1.5602591,0.0,0.7108224,0.0,0.0,0.7033715,0.0,0.0,-0.001,0,0
8036000,0.0,0.0,1.5602417,0.0,0.71082854,0.0,0.0,0.7033653,0.0,0.0,-0.001,0,0
8044000,0.0,0.0,1.5602239,0.0,0.7108348,0.0,0.0,0.70335907,0.0,0.0,-0.001,0,0
8052000,0.0,0.0,1.5602762,0.0,0.71081644,0.0,0.0,0.70337754,0.0,0.0,-0.001,0,0
8060000,0.0,0.0,1.5602778,0.0,0.71081585,0.0,0.0,0.70337814,0.0,0.0,-0.001,0,0
8068000,0.0,0.0,1.5603056,0.0,0.7108061,0.0,0.0,0.70338804,0.0,0.0,-0.001,0,0
8076000,0.0,0.0,1.5602742,0.0,0.7108171,0.0,0.0,0.70337695,0.0,0.0,-0.001,0,0
8084000,0.0,0.0,1.5602416,0.0,0.7108286,0.0,0.0,0.7033653,0.0,0.0,-0.001,0,0
8092000,0.0,0.0,1.5602405,0.0,0.71082896,0.0,0.0,0.70336497,0.0,0.0,-0.001,0,0
8100000,0.0,0.0,1.5601825,0.0,0.7108494,0.0,0.0,0.7033442,0.0,0.0,-0.001,0,0
8108000,0.0,0.0,1.5601461,0.0,0.71086216,0.0,0.0,0.70333135,0.0,0.0,-0.001,0,0
8116000,0.0,0.0,1.5601314,0.0,0.71086735,0.0,0.0,0.7033261,0.0,0.0,-0.001,0,0
8124000,0.0,0.0,1.5601249,0.0,0.7108696,0.0,0.0,0.70332384,0.0,0.0,-0.001,0,0
8132000,0.0,0.0,1.5601212,0.0,0.7108709,0.0,0.0,0.7033225,0.0,0.0,-0.001,0,0
8140000,0.0,0.0,1.5601447,0.0,0.7108627,0.0,0.0,0.7033309,0.0,0.0,-0.001,0,0
8148000,0.0,0.0,1.5601455,0.0,0.7108624,0.0,0.0,0.7033312,0.0,0.0,-0.001,0,0
8156000,0.0,0.0,1.5601671,0.0,0.71085477,0.0,0.0,0.7033389,0.0,0.0,-0.001,0,0
8164000,0.0,0.0,1.5601746,0.0,0.71085215,0.0,0.0,0.7033415,0.0,0.0,-0.001,0,0
8172000,0.0,0.0,1.560171,0.0,0.7108534,0.0,0.0,0.70334023,0.0,0.0,-0.001,0,0
8180000,0.0,0.0,1.5601659,0.0,0.7108552,0.0,0.0,0.7033384,0.0,0.0,-0.001,0,0
8188000,0.0,0.0,1.5601809,0.0,0.71084994,0.0,0.0,0.7033437,0.0,0.0,-0.001,0,0
8196000,0.0,0.0,1.5601519,0.0,0.71086013,0.0,0.0,0.70333344,0.0,0.0,-0.001,0,0
8204000,0.0,0.0,1.5601333,0.0,0.71086663,0.0,0.0,0.7033269,0.0,0.0,-0.001,0,0
8212000,0.0,0.0,1.5601262,0.0,0.7108692,0.0,0.0,0.7033242,0.0,0.0,-0.001,0,0
8220000,0.0,0.0,1.5601063,0.0,0.71087617,0.0,0.0,0.7033173,0.0,0.0,-0.001,0,0
8228000,0.0,0.0,1.5600746,0.0,0.7108873,0.0,0.0,0.70330596,0.0,0.0,-0.001,0,0
8236000,0.0,0.0,1.5600682,0.0,0.7108895,0.0,0.0,0.7033037,0.0,0.0,-0.001,0,0
8244000,0.0,0.0,1.5600575,0.0,0.71089333,0.0,0.0,0.7032999,0.0,0.0,-0.001,0,0
8252000,0.0,0.0,1.5600669,0.0,0.71089,0.0,0.0,0.7033033,0.0,0.0,-0.001,0,0
8260000,0.0,0.0,1.5600371,0.0,0.7109005,0.0,0.0,0.7032926,0.0,0.0,-0.001,0,0
8268000,0.0,0.0,1.5600158,0.0,0.710908,0.0,0.0,0.703285,0.0,0.0,-0.001,0,0
8276000,0.0,0.0,1.5599914,0.0,0.7109166,0.0,0.0,0.70327634,0.0,0.0,-0.001,0,0
8284000,0.0,0.0,1.5599627,0.0,0.71092665,0.0,0.0,0.70326626,0.0,0.0,-0.001,0,0
8292000,0.0,0.0,1.559933,0.0,0.71093714,0.0,0.0,0.7032556,0.0,0.0,-0.001,0,0
8300000,0.0,0.0,1.5599116,0.0,0.71094465,0.0,0.0,0.70324796,0.0,0.0,-0.001,0,0
8308000,0.0,0.0,1.5599022,0.0,0.71094793,0.0,0.0,0.70324475,0.0,0.0,-0.001,0,0
8316000,0.0,0.0,1.5599086,0.0,0.71094567,0.0,0.0,0.70324695,0.0,0.0,-0.001,0,0
8324000,0.0,0.0,1.5598992,0.0,0.710949,0.0,0.0,0.7032436,0.0,0.0,-0.001,0,0
8332000,0.0,0.0,1.5598724,0.0,0.7109584,0.0,0.0,0.703234,0.0,0.0,-0.001,0,0
8340000,0.0,0.0,1.559873,0.0,0.7109582,0.0,0.0,0.70323426,0.0,0.0,-0.001,0,0
8348000,0.0,0.0,1.5598655,0.0,0.71096087,0.0,0.0,0.7032316,0.0,0.0,-0.001,0,0
8356000,0.0,0.0,1.5598584,0.0,0.7109633,0.0,0.0,0.7032291,0.0,0.0,-0.001,0,0
8364000,0.0,0.0,1.5598387,0.0,0.7109703,0.0,0.0,0.7032221,0.0,0.0,-0.001,0,0
8372000,0.0,0.0,1.5598822,0.0,0.71095496,0.0,0.0,0.70323753,0.0,0.0,-0.001,0,0
8380000,0.0,0.0,1.5599056,0.0,0.71094674,0.0,0.0,0.7032458,0.0,0.0,-0.001,0,0
8388000,0.0,0.0,1.5599279,0.0,0.7109389,0.0,0.0,0.7032538,0.0,0.0,-0.001,0,0
8396000,0.0,0.0,1.5599391,0.0,0.71093494,0.0,0.0,0.70325774,0.0,0.0,-0.001,0,0
8404000,0.0,0.0,1.5599326,0.0,0.71093726,0.0,0.0,0.7032555,0.0,0.0,-0.001,0,0
8412000,0.0,0.0,1.5599828,0.0,0.7109196,0.0,0.0,0.70327324,0.0,0.0,-0.001,0,0
8420000,0.0,0.0,1.5600048,0.0,0.71091187,0.0,0.0,0.7032811,0.0,0.0,-0.001,0,0
8428000,0.0,0.0,1.5599927,0.0,0.7109161,0.0,0.0,0.7032768,0.0,0.0,-0.001,0,0
8436000,0.0,0.0,1.5599525,0.0,0.7109302,0.0,0.0,0.70326257,0.0,0.0,-0.001,0,0
8444000,0.0,0.0,1.5599192,0.0,0.710942,0.0,0.0,0.7032507,0.0,0.0,-0.001,0,0
8452000,0.0,0.0,1.5599071,0.0,0.7109462,0.0,0.0,0.7032465,0.0,0.0,-0.001,0,0
8460000,0.0,0.0,1.559888,0.0,0.71095294,0.0,0.0,0.70323956,0.0,0.0,-0.001,0,0
8468000,0.0,0.0,1.5599006,0.0,0.71094847,0.0,0.0,0.70324415,0.0,0.0,-0.001,0,0
8476000,0.0,0.0,1.5599226,0.0,0.7109408,0.0,0.0,0.70325184,0.0,0.0,-0.001,0,0
8484000,0.0,0.0,1.5599535,0.0,0.71092993,0.0,0.0,0.70326287,0.0,0.0,-0.001,0,0
8492000,0.0,0.0,1.5599692,0.0,0.7109244,0.0,0.0,0.70326847,0.0,0.0,-0.001,0,0
8500000,0.0,0.0,1.5599965,0.0,0.7109148,0.0,0.0,0.7032782,0.0,0.0,-0.001,0,0
8508000,0.0,0.0,1.5600265,0.0,0.71090424,0.0,0.0,0.70328885,0.0,0.0,-0.001,0,0
8516000,0.0,0.0,1.5600402,0.0,0.7108994,0.0,0.0,0.70329374,0.0,0.0,-0.001,0,0
8524000,0.0,0.0,1.5600502,0.0,0.7108959,0.0,0.0,0.7032973,0.0,0.0,-0.001,0,0
8532000,0.0,0.0,1.5600467,0.0,0.71089715,0.0,0.0,0.70329595,0.0,0.0,-0.001,0,0
8540000,0.0,0.0,1.5600471,0.0,0.71089697,0.0,0.0,0.7032961,0.0,0.0,-0.001,0,0
8548000,0.0,0.0,1.5600108,0.0,0.7109097,0.0,0.0,0.7032833,0.0,0.0,-0.001,0,0
8556000,0.0,0.0,1.5600106,0.0,0.71090984,0.0,0.0,0.7032832,0.0,0.0,-0.001,0,0
8564000,0.0,0.0,1.5600363,0.0,0.7109008,0.0,0.0,0.7032923,0.0,0.0,-0.001,0,0
8572000,0.0,0.0,1.5600379,0.0,0.71090025,0.0,0.0,0.70329285,0.0,0.0,-0.001,0,0
8580000,0.0,0.0,1.560038,0.0,0.7109002,0.0,0.0,0.7032929,0.0,0.0,-0.001,0,0
8588000,0.0,0.0,1.5600182,0.0,0.71090716,0.0,0.0,0.7032859,0.0,0.0,-0.001,0,0
8596000,0.0,0.0,1.5600097,0.0,0.71091014,0.0,0.0,0.7032829,0.0,0.0,-0.001,0,0
8604000,0.0,0.0,1.5599943,0.0,0.7109155,0.0,0.0,0.7032774,0.0,0.0,-0.001,0,0
8612000,0.0,0.0,1.5599879,0.0,0.7109178,0.0,0.0,0.70327514,0.0,0.0,-0.001,0,0
8620000,0.0,0.0,1.5600041,0.0,0.7109121,0.0,0.0,0.70328087,0.0,0.0,-0.001,0,0
8628000,0.0,0.0,1.5600387,0.0,0.71089995,0.0,0.0,0.7032932,0.0,0.0,-0.001,0,0
8636000,0.0,0.0,1.5600784,0.0,0.710886,0.0,0.0,0.7033073,0.0,0.0,-0.001,0,0
8644000,0.0,0.0,1.5601037,0.0,0.7108771,0.0,0.0,0.7033162,0.0,0.0,-0.001,0,0
8652000,0.0,0.0,1.5601078,0.0,0.71087563,0.0,0.0,0.70331776,0.0,0.0,-0.001,0,0
8660000,0.0,0.0,1.5601175,0.0,0.71087223,0.0,0.0,0.7033212,0.0,0.0,-0.001,0,0
8668000,0.0,0.0,1.5601189,0.0,0.7108717,0.0,0.0,0.70332175,0.0,0.0,-0.001,0,0
8676000,0.0,0.0,1.5601314,0.0,0.71086735,0.0,0.0,0.7033261,0.0,0.0,-0.001,0,0
8684000,0.0,0.0,1.5600928,0.0,0.71088094,0.0,0.0,0.7033124,0.0,0.0,-0.001,0,0
8692000,0.0,0.0,1.5600964,0.0,0.7108796,0.0,0.0,0.7033137,0.0,0.0,-0.001,0,0
8700000,0.0,0.0,1.5601223,0.0,0.71087056,0.0,0.0,0.70332295,0.0,0.0,-0.001,0,0
8708000,0.0,0.0,1.5601542,0.0,0.7108593,0.0,0.0,0.7033343,0.0,0.0,-0.001,0,0
8716000,0.0,0.0,1.560162,0.0,0.7108566,0.0,0.0,0.703337,0.0,0.0,-0.001,0,0
8724000,0.0,0.0,1.5601627,0.0,0.7108563,0.0,0.0,0.7033373,0.0,0.0,-0.001,0,0
8732000,0.0,0.0,1.5601809,0.0,0.71084994,0.0,0.0,0.7033437,0.0,0.0,-0.001,0,0
8740000,0.0,0.0,1.5601953,0.0,0.7108449,0.0,0.0,0.7033489,0.0,0.0,-0.001,0,0
8748000,0.0,0.0,1.5601977,0.0,0.71084404,0.0,0.0,0.70334965,0.0,0.0,-0.001,0,0
8756000,0.0,0.0,1.5602008,0.0,0.7108429,0.0,0.0,0.7033509,0.0,0.0,-0.001,0,0
8764000,0.0,0.0,1.5602014,0.0,0.7108427,0.0,0.0,0.7033511,0.0,0.0,-0.001,0,0
8772000,0.0,0.0,1.5601802,0.0,0.7108502,0.0,0.0,0.70334345,0.0,0.0,-0.001,0,0
8780000,0.0,0.0,1.56021,0.0,0.7108397,0.0,0.0,0.70335406,0.0,0.0,-0.001,0,0
8788000,0.0,0.0,1.56021,0.0,0.7108397,0.0,0.0,0.70335406,0.0,0.0,-0.001,0,0
8796000,0.0,0.0,1.5602107,0.0,0.71083945,0.0,0.0,0.7033543,0.0,0.0,-0.001,0,0
8804000,0.0,0.0,1.5602348,0.0,0.710831,0.0,0.0,0.70336294,0.0,0.0,-0.001,0,0
8812000,0.0,0.0,1.5602355,0.0,0.71083075,0.0,0.0,0.7033632,0.0,0.0,-0.001,0,0
8820000,0.0,0.0,1.5602753,0.0,0.71081674,0.0,0.0,0.7033773,0.0,0.0,-0.001,0,0
8828000,0.0,0.0,1.5602703,0.0,0.71081847,0.0,0.0,0.7033756,0.0,0.0,-0.001,0,0
8836000,0.0,0.0,1.5602576,0.0,0.71082294,0.0,0.0,0.70337105,0.0,0.0,-0.001,0,0
8844000,0.0,0.0,1.5602458,0.0,0.7108271,0.0,0.0,0.7033668,0.0,0.0,-0.001,0,0
8852000,0.0,0.0,1.5602297,0.0,0.7108328,0.0,0.0,0.7033611,0.0,0.0,-0.001,0,0
8860000,0.0,0.0,1.5602155,0.0,0.7108378,0.0,0.0,0.703356,0.0,0.0,-0.001,0,0
8868000,0.0,0.0,1.560235,0.0,0.71083087,0.0,0.0,0.70336306,0.0,0.0,-0.001,0,0
8876000,0.0,0.0,1.5602672,0.0,0.71081954,0.0,0.0,0.70337445,0.0,0.0,-0.001,0,0
8884000,0.0,0.0,1.5602376,0.0,0.71083,0.0,0.0,0.7033639,0.0,0.0,-0.001,0,0
8892000,0.0,0.0,1.5602144,0.0,0.71083814,0.0,0.0,0.70335567,0.0,0.0,-0.001,0,0
8900000,0.0,0.0,1.5602005,0.0,0.710843,0.0,0.0,0.70335066,0.0,0.0,-0.001,0,0
8908000,0.0,0.0,1.5602137,0.0,0.7108384,0.0,0.0,0.70335543,0.0,0.0,-0.001,0,0
8916000,0.0,0.0,1.5602472,0.0,0.71082664,0.0,0.0,0.7033673,0.0,0.0,-0.001,0,0
8924000,0.0,0.0,1.5602455,0.0,0.7108272,0.0,0.0,0.7033667,0.0,0.0,-0.001,0,0
8932000,0.0,0.0,1.5602595,0.0,0.7108223,0.0,0.0,0.70337164,0.0,0.0,-0.001,0,0
8940000,0.0,0.0,1.5602329,0.0,0.71083164,0.0,0.0,0.7033622,0.0,0.0,-0.001,0,0
8948000,0.0,0.0,1.5601988,0.0,0.7108436,0.0,0.0,0.70335007,0.0,0.0,-0.001,0,0
8956000,0.0,0.0,1.5601901,0.0,0.7108467,0.0,0.0,0.703347,0.0,0.0,-0.001,0,0
8964000,0.0,0.0,1.5601517,0.0,0.7108602,0.0,0.0,0.7033334,0.0,0.0,-0.001,0,0
8972000,0.0,0.0,1.5601794,0.0,0.7108505,0.0,0.0,0.7033432,0.0,0.0,-0.001,0,0
8980000,0.0,0.0,1.5601412,0.0,0.7108639,0.0,0.0,0.7033296,0.0,0.0,-0.001,0,0
8988000,0.0,0.0,1.5601339,0.0,0.71086645,0.0,0.0,0.70332706,0.0,0.0,-0.001,0,0
8996000,0.0,0.0,1.5601196,0.0,0.71087146,0.0,0.0,0.703322,0.0,0.0,-0.001,0,0
9004000,0.0,0.0,1.560109,0.0,0.7108752,0.0,0.0,0.7033182,0.0,0.0,-0.001,0,0
9012000,0.0,0.0,1.560079,0.0,0.71088576,0.0,0.0,0.7033075,0.0,0.0,-0.001,0,0
9020000,0.0,0.0,1.5600364,0.0,0.7109007,0.0,0.0,0.70329237,0.0,0.0,-0.001,0,0
9028000,0.0,0.0,1.5600291,0.0,0.7109033,0.0,0.0,0.7032898,0.0,0.0,-0.001,0,0
9036000,0.0,0.0,1.5600202,0.0,0.71090645,0.0,0.0,0.7032866,0.0,0.0,-0.001,0,0
9044000,0.0,0.0,1.5600033,0.0,0.7109124,0.0,0.0,0.70328057,0.0,0.0,-0.001,0,0
9052000,0.0,0.0,1.5599935,0.0,0.7109158,0.0,0.0,0.7032771,0.0,0.0,-0.001,0,0
9060000,0.0,0.0,1.5599875,0.0,0.71091795,0.0,0.0,0.70327497,0.0,0.0,-0.001,0,0
9068000,0.0,0.0,1.5599651,0.0,0.7109258,0.0,0.0,0.70326704,0.0,0.0,-0.001,0,0
9076000,0.0,0.0,1.5599451,0.0,0.71093285,0.0,0.0,0.70326,0.0,0.0,-0.001,0,0
9084000,0.0,0.0,1.5599586,0.0,0.7109281,0.0,0.0,0.7032647,0.0,0.0,-0.001,0,0
9092000,0.0,0.0,1.5599629,0.0,0.7109266,0.0,0.0,0.7032663,0.0,0.0,-0.001,0,0
9100000,0.0,0.0,1.5599641,0.0,0.7109262,0.0,0.0,0.7032667,0.0,0.0,-0.001,0,0
9108000,0.0,0.0,1.5599488,0.0,0.71093154,0.0,0.0,0.70326126,0.0,0.0,-0.001,0,0
9116000,0.0,0.0,1.5599262,0.0,0.7109395,0.0,0.0,0.70325315,0.0,0.0,-0.001,0,0
9124000,0.0,0.0,1.5599179,0.0,0.7109424,0.0,0.0,0.70325035,0.0,0.0,-0.001,0,0
9132000,0.0,0.0,1.5599144,0.0,0.71094364,0.0,0.0,0.70324904,0.0,0.0,-0.001,0,0
9140000,0.0,0.0,1.5599365,0.0,0.7109359,0.0,0.0,0.7032568,0.0,0.0,-0.001,0,0
9148000,0.0,0.0,1.5599484,0.0,0.71093166,0.0,0.0,0.70326114,0.0,0.0,-0.001,0,0
9156000,0.0,0.0,1.5599712,0.0,0.7109237,0.0,0.0,0.7032692,0.0,0.0,-0.001,0,0
9164000,0.0,0.0,1.5599912,0.0,0.71091664,0.0,0.0,0.7032763,0.0,0.0,-0.001,0,0
9172000,0.0,0.0,1.5600166,0.0,0.7109077,0.0,0.0,0.7032854,0.0,0.0,-0.001,0,0
9180000,0.0,0.0,1.560023,0.0,0.7109055,0.0,0.0,0.7032876,0.0,0.0,-0.001,0,0
9188000,0.0,0.0,1.5600125,0.0,0.7109092,0.0,0.0,0.7032839,0.0,0.0,-0.001,0,0
9196000,0.0,0.0,1.5600185,0.0,0.71090704,0.0,0.0,0.703286,0.0,0.0,-0.001,0,0
9204000,0.0,0.0,1.5600185,0.0,0.71090704,0.0,0.0,0.703286,0.0,0.0,-0.001,0,0
9212000,0.0,0.0,1.5600251,0.0,0.7109047,0.0,0.0,0.7032884,0.0,0.0,-0.001,0,0
9220000,0.0,0.0,1.5600485,0.0,0.7108965,0.0,0.0,0.7032966,0.0,0.0,-0.001,0,0
9228000,0.0,0.0,1.5600505,0.0,0.7108958,0.0,0.0,0.70329744,0.0,0.0,-0.001,0,0
9236000,0.0,0.0,1.5600393,0.0,0.7108997,0.0,0.0,0.70329344,0.0,0.0,-0.001,0,0
9244000,0.0,0.0,1.5600543,0.0,0.71089447,0.0,0.0,0.7032987,0.0,0.0,-0.001,0,0
9252000,0.0,0.0,1.5600607,0.0,0.7108922,0.0,0.0,0.703301,0.0,0.0,-0.001,0,0
9260000,0.0,0.0,1.5600704,0.0,0.7108888,0.0,0.0,0.7033044,0.0,0.0,-0.001,0,0
9268000,0.0,0.0,1.5600787,0.0,0.7108859,0.0,0.0,0.7033074,0.0,0.0,-0.001,0,0
9276000,0.0,0.0,1.5601029,0.0,0.71087736,0.0,0.0,0.703316,0.0,0.0,-0.001,0,0
9284000,0.0,0.0,1.5601254,0.0,0.71086943,0.0,0.0,0.703324,0.0,0.0,-0.001,0,0
9292000,0.0,0.0,1.5601314,0.0,0.71086735,0.0,0.0,0.7033261,0.0,0.0,-0.001,0,0
9300000,0.0,0.0,1.5601697,0.0,0.7108539,0.0,0.0,0.70333976,0.0,0.0,-0.001,0,0
9308000,0.0,0.0,1.5601447,0.0,0.7108627,0.0,0.0,0.7033309,0.0,0.0,-0.001,0,0
9316000,0.0,0.0,1.5601012,0.0,0.71087795,0.0,0.0,0.70331544,0.0,0.0,-0.001,0,0
9324000,0.0,0.0,1.5601124,0.0,0.710874,0.0,0.0,0.70331943,0.0,0.0,-0.001,0,0
9332000,0.0,0.0,1.5601425,0.0,0.7108634,0.0,0.0,0.70333004,0.0,0.0,-0.001,0,0
9340000,0.0,0.0,1.5601035,0.0,0.7108771,0.0,0.0,0.7033162,0.0,0.0,-0.001,0,0
9348000,0.0,0.0,1.560116,0.0,0.7108727,0.0,0.0,0.7033207,0.0,0.0,-0.001,0,0
9356000,0.0,0.0,1.5601063,0.0,0.71087617,0.0,0.0,0.7033173,0.0,0.0,-0.001,0,0
9364000,0.0,0.0,1.5600799,0.0,0.7108854,0.0,0.0,0.70330787,0.0,0.0,-0.001,0,0
9372000,0.0,0.0,1.5600835,0.0,0.71088415,0.0,0.0,0.7033092,0.0,0.0,-0.001,0,0
9380000,0.0,0.0,1.5600721,0.0,0.7108882,0.0,0.0,0.7033051,0.0,0.0,-0.001,0,0
9388000,0.0,0.0,1.5600815,0.0,0.71088487,0.0,0.0,0.7033084,0.0,0.0,-0.001,0,0
9396000,0.0,0.0,1.5600756,0.0,0.71088696,0.0,0.0,0.7033063,0.0,0.0,-0.001,0,0
9404000,0.0,0.0,1.5600395,0.0,0.71089965,0.0,0.0,0.7032935,0.0,0.0,-0.001,0,0
9412000,0.0,0.0,1.5599686,0.0,0.71092457,0.0,0.0,0.7032683,0.0,0.0,-0.001,0,0
9420000,0.0,0.0,1.5599562,0.0,0.710929,0.0,0.0,0.7032639,0.0,0.0,-0.001,0,0
9428000,0.0,0.0,1.5599904,0.0,0.71091694,0.0,0.0,0.70327604,0.0,0.0,-0.001,0,0
9436000,0.0,0.0,1.5600395,0.0,0.71089965,0.0,0.0,0.7032935,0.0,0.0,-0.001,0,0
9444000,0.0,0.0,1.5600765,0.0,0.71088666,0.0,0.0,0.7033066,0.0,0.0,-0.001,0,0
9452000,0.0,0.0,1.5600727,0.0,0.71088797,0.0,0.0,0.70330536,0.0,0.0,-0.001,0,0
9460000,0.0,0.0,1.5600573,0.0,0.7108934,0.0,0.0,0.7032998,0.0,0.0,-0.001,0,0
9468000,0.0,0.0,1.5600579,0.0,0.7108932,0.0,0.0,0.7033,0.0,0.0,-0.001,0,0
9476000,0.0,0.0,1.5600871,0.0,0.7108829,0.0,0.0,0.7033104,0.0,0.0,-0.001,0,0
9484000,0.0,0.0,1.5600994,0.0,0.7108786,0.0,0.0,0.7033147,0.0,0.0,-0.001,0,0
9492000,0.0,0.0,1.560114,0.0,0.7108734,0.0,0.0,0.70331997,0.0,0.0,-0.001,0,0
9500000,0.0,0.0,1.5601712,0.0,0.71085334,0.0,0.0,0.7033403,0.0,0.0,-0.001,0,0
9508000,0.0,0.0,1.5602049,0.0,0.7108415,0.0,0.0,0.7033523,0.0,0.0,-0.001,0,0
9516000,0.0,0.0,1.5601887,0.0,0.7108472,0.0,0.0,0.7033465,0.0,0.0,-0.001,0,0
9524000,0.0,0.0,1.5601755,0.0,0.7108518,0.0,0.0,0.70334184,0.0,0.0,-0.001,0,0
9532000,0.0,0.0,1.5601629,0.0,0.71085626,0.0,0.0,0.7033373,0.0,0.0,-0.001,0,0
9540000,0.0,0.0,1.5601727,0.0,0.7108528,0.0,0.0,0.7033409,0.0,0.0,-0.001,0,0
9548000,0.0,0.0,1.5601803,0.0,0.7108501,0.0,0.0,0.7033435,0.0,0.0,-0.001,0,0
9556000,0.0,0.0,1.5602183,0.0,0.71083677,0.0,0.0,0.7033571,0.0,0.0,-0.001,0,0
9564000,0.0,0.0,1.5602483,0.0,0.7108262,0.0,0.0,0.7033677,0.0,0.0,-0.001,0,0
9572000,0.0,0.0,1.560248,0.0,0.71082634,0.0,0.0,0.7033676,0.0,0.0,-0.001,0,0
9580000,0.0,0.0,1.5602772,0.0,0.710816,0.0,0.0,0.70337796,0.0,0.0,-0.001,0,0
9588000,0.0,0.0,1.5603055,0.0,0.71080613,0.0,0.0,0.703388,0.0,0.0,-0.001,0,0
9596000,0.0,0.0,1.5603476,0.0,0.7107913,0.0,0.0,0.703403,0.0,0.0,-0.001,0,0
9604000,0.0,0.0,1.5604073,0.0,0.7107703,0.0,0.0,0.70342416,0.0,0.0,-0.001,0,0
9612000,0.0,0.0,1.5604286,0.0,0.7107628,0.0,0.0,0.70343184,0.0,0.0,-0.001,0,0
9620000,0.0,0.0,1.5604423,0.0,0.710758,0.0,0.0,0.7034367,0.0,0.0,-0.001,0,0
9628000,0.0,0.0,1.5604727,0.0,0.7107473,0.0,0.0,0.7034474,0.0,0.0,-0.001,0,0
9636000,0.0,0.0,1.5604883,0.0,0.7107418,0.0,0.0,0.70345294,0.0,0.0,-0.001,0,0
