timestamp,timestamp_sample,device_id,bias,bias_var,innov,innov_var,innov_test_ratio
8732000,8651999,6620172,29.301714,0.0008114689,0.055072784,13.251279,2.5431606e-05
10940000,10860000,6620172,29.300676,0.036664665,-0.034511566,12.441629,1.0636765e-05
12732000,12648000,6620172,29.301762,0.060824417,0.05630493,12.426039,2.834769e-05
13268000,13188000,6620172,29.30298,0.06686361,0.05177307,12.435008,2.3950759e-05
14172000,14088000,6620172,29.304094,0.075846404,0.04061699,12.444704,1.4729512e-05
14412000,14328000,6620172,29.30296,0.07796483,-0.14290428,12.43921,0.00018241274
14588000,14508000,6620172,29.301807,0.07941767,-0.0500679,12.447521,2.2376564e-05
14948000,14868000,6620172,29.303375,0.08228455,0.090522766,12.447743,7.3144634e-05
15372000,15288000,6620172,29.304998,0.08541754,0.1036396,12.451123,9.5851836e-05
15668000,15588000,6620172,29.306463,0.0873645,0.09328079,12.4483595,7.76658e-05
16212000,16128000,6620172,29.3078,0.09071432,0.09359741,12.457178,7.8138575e-05
16508000,16428000,6620172,29.308859,0.09229167,0.14084435,12.454294,0.00017697716
16748000,16668000,6620172,29.310131,0.09352179,0.03809166,12.449141,1.2950242e-05
16868000,16788000,6620172,29.311531,0.094108954,0.11597633,12.454406,0.000119997785
16988000,16908000,6620172,29.31267,0.09467897,0.04190445,12.459863,1.5659018e-05
17588000,17508000,6620172,29.31479,0.09727635,0.16231918,12.454449,0.00023505672
18308000,18228000,6620172,29.316198,0.099896744,0.07445145,12.454185,4.9452523e-05
18908000,18828000,6620172,29.317577,0.1017223,0.10388374,12.4642935,9.62022e-05
19028000,18948000,6620172,29.319397,0.1020534,0.15318489,12.469756,0.0002090891
19628000,19548000,6620172,29.32064,0.10354966,0.08577728,12.463163,6.559546e-05
19812000,19728000,6620172,29.322584,0.10401948,0.11770058,12.4714985,0.00012342299
20108000,20028000,6620172,29.323984,0.104578845,0.073797226,12.467739,4.853442e-05
20468000,20388000,6620172,29.322186,0.105264045,-0.1498146,12.466878,0.00020003597
20588000,20508000,6620172,29.323248,0.10547763,0.067474365,12.472203,4.0559436e-05
20772000,20688000,6620172,29.324493,0.105850585,0.05123329,12.463695,2.3399967e-05
21612000,21528000,6620172,29.325567,0.107088506,0.07504082,12.466761,5.0187893e-05
21732000,21648000,6620172,29.326738,0.107242085,0.091947556,12.471934,7.5318916e-05
22268000,22188000,6620172,29.3281,0.10780418,0.046207428,12.478378,1.9011786e-05
22572000,22488000,6620172,29.329185,0.1081791,0.071344376,12.474694,4.5336405e-05
22692000,22608000,6620172,29.330324,0.10829587,0.12323761,12.475359,0.00013526673
22868000,22788000,6620172,29.331486,0.10839463,0.10110283,12.470425,9.107577e-05
23052000,22968000,6620172,29.33348,0.10862059,0.13889694,12.478618,0.0001717815
23228000,23148000,6620172,29.334661,0.10870225,0.079524994,12.469122,5.635454e-05
23348000,23268000,6620172,29.336103,0.10879801,0.11088562,12.474241,0.00010952009
23468000,23388000,6620172,29.337227,0.10889124,0.10011864,12.479554,8.92459e-05
23708000,23628000,6620172,29.33836,0.10906529,0.09684372,12.4728365,8.354783e-05
23948000,23868000,6620172,29.339363,0.109228835,0.052412033,12.466407,2.4483765e-05
24308000,24228000,6620172,29.338305,0.10945263,-0.086610794,12.465067,6.686625e-05
24428000,24348000,6620172,29.340363,0.10952146,0.2063942,12.469943,0.0003795666
24612000,24528000,6620172,29.34177,0.10968869,0.07856941,12.477947,5.496944e-05
24908000,24828000,6620172,29.343111,0.10977597,0.043279648,12.47352,1.6685372e-05
25028000,24946000,6620172,29.344347,0.10983479,0.05614853,12.478717,2.8071418e-05
25436000,25356000,6620172,29.345352,0.10984446,0.059453964,12.4788265,3.1473523e-05
25740000,25656000,6620172,29.34644,0.11004588,0.05939102,12.475011,3.1416523e-05
25916000,25836000,6620172,29.347828,0.110054955,0.105480194,12.465788,9.916983e-05
26036000,25956000,6620172,29.349115,0.110102676,0.113119125,12.470642,0.000114009425
26516000,26434000,6620172,29.350698,0.110279806,0.12026024,12.474112,0.00012882258
26684000,26604000,6620172,29.351902,0.1101491,0.0369339,12.476395,1.2148389e-05
26748000,26664000,6620172,29.353045,0.1102383,0.12799263,12.467141,0.00014600258
26868000,26784000,6620172,29.354853,0.110282086,0.12107468,12.472045,0.00013059497
27044000,26964000,6620172,29.356136,0.11027937,0.056625366,12.479458,2.8548533e-05
27228000,27144000,6620172,29.357464,0.11040516,0.0741539,12.470588,4.8993512e-05
27404000,27324000,6620172,29.358536,0.11039561,0.05347252,12.477901,2.5461102e-05
27828000,27744000,6620172,29.359837,0.11058433,0.077425,12.479201,5.3374417e-05
27948000,27864000,6620172,29.361004,0.110616475,0.09767723,12.467575,8.502804e-05
28004000,27924000,6620172,29.362062,0.11056474,0.11832619,12.469701,0.0001247565
28484000,28404000,6620172,29.363827,0.11067921,0.11033249,12.473088,0.000108440196
28604000,28524000,6620172,29.365625,0.11070602,0.1724987,12.478196,0.0002649582
28724000,28644000,6620172,29.36671,0.11073135,0.06471825,12.466673,3.7330206e-05
28964000,28884000,6620172,29.368149,0.110779084,0.13534546,12.476547,0.00016313624
29148000,29064000,6620172,29.36956,0.110880464,0.10046768,12.467826,8.99538e-05
29324000,29244000,6620172,29.371054,0.11084516,0.09627342,12.474915,8.255297e-05
29444000,29364000,6620172,29.372534,0.11086637,0.14549065,12.480081,0.00018845612
29868000,29784000,6620172,29.373589,0.11099905,0.16530037,12.481338,0.00024324506
30108000,30024000,6620172,29.374908,0.11103205,0.051647186,12.47449,2.3758994e-05
30332000,30252000,6620172,29.376831,0.110805854,0.10343742,12.466878,9.535757e-05
30516000,30432000,6620172,29.377893,0.11090479,0.06244278,12.47452,3.4729466e-05
30692000,30612000,6620172,29.379213,0.110869475,0.077768326,12.4773655,5.3856744e-05
30932000,30852000,6620172,29.380947,0.110907145,0.11294556,12.475155,0.000113618706
30996000,30912000,6620172,29.382154,0.11098365,0.13456535,12.47803,0.00016124193
31172000,31092000,6620172,29.383532,0.11094271,0.05919075,12.468653,3.1220916e-05
31476000,31392000,6620172,29.384747,0.11105188,0.1328106,12.481613,0.00015701899
31596000,31512000,6620172,29.38371,0.111066446,-0.033441544,12.469823,9.964828e-06
31772000,31692000,6620172,29.385271,0.111021794,0.07234764,12.4770155,4.6611764e-05
32252000,32172000,6620172,29.386744,0.11107627,0.08128357,12.480546,5.88206e-05
32372000,32292000,6620172,29.388304,0.11108748,0.06434631,12.468849,3.6895926e-05
32612000,32532000,6620172,29.389341,0.11111103,0.03740692,12.478855,1.2459101e-05
32796000,32712000,6620172,29.390501,0.11119406,0.033885956,12.470047,1.0231254e-05
32972000,32892000,6620172,29.391794,0.11114271,0.10665703,12.477239,0.00010130199
33092000,33012000,6620172,29.393406,0.111153334,0.11673546,12.477822,0.00012134566
33212000,33132000,6620172,29.394588,0.11116207,0.048295975,12.470599,2.0782225e-05
33332000,33250000,6620172,29.39635,0.111171275,0.09205055,12.47557,7.546575e-05
33380000,33300000,6620172,29.397406,0.110977426,0.11748123,12.477201,0.0001229072
33620000,33540000,6620172,29.398678,0.11100742,0.09082794,12.470655,7.350335e-05
33980000,33900000,6620172,29.399714,0.111049816,0.009372711,12.46911,7.8280306e-07
34044000,33960000,6620172,29.400806,0.11112326,0.12160683,12.471841,0.00013174764
34340000,34260000,6620172,29.401909,0.11108806,0.0865078,12.467629,6.669359e-05
34524000,34440000,6620172,29.402975,0.111172244,0.0914402,12.475292,7.446996e-05
34940000,34860000,6620172,29.40403,0.11114222,0.06484413,12.475876,3.7447928e-05
35060000,34980000,6620172,29.405178,0.11115301,0.1311531,12.481061,0.000153131
35420000,35340000,6620172,29.406439,0.1111801,0.046590805,12.479405,1.932698e-05
35604000,35520000,6620172,29.40799,0.11125958,0.07438469,12.470488,4.9299346e-05
36084000,36000000,6620172,29.409359,0.11128962,0.092264175,12.473795,7.5827214e-05
36564000,36478666,6620172,29.408201,0.111316375,-0.051246643,12.477183,2.3386852e-05
36740000,36660000,6620172,29.40944,0.11125893,0.026815414,12.467849,6.4081846e-06
37868000,37788000,6620172,29.408028,0.11112133,-0.06704712,12.481307,4.001821e-05
38588000,38508000,6620172,29.409163,0.111178406,0.063928604,12.478027,3.6391673e-05
38772000,38686666,6620172,29.40748,0.111257665,-0.124427795,12.469202,0.00013796015
38892000,38808000,6620172,29.40644,0.11126558,-0.08930206,12.474114,7.103473e-05
39012000,38928000,6620172,29.407614,0.11127402,0.061153412,12.479227,3.3297467e-05
39188000,39108000,6620172,29.406021,0.11121797,-0.14171982,12.469737,0.00017896223
40508000,40428000,6620172,29.40484,0.11128414,-0.09367561,12.474761,7.815888e-05
40692000,40608000,6620172,29.403214,0.11135931,-0.104688644,12.478186,9.758997e-05
41348000,41268000,6620172,29.404467,0.11131451,0.12319565,12.476447,0.00013516283
41708000,41628000,6620172,29.406338,0.111325316,0.14546967,12.474761,0.00018848211
42012000,41928000,6620172,29.40734,0.11139977,0.11505318,12.47099,0.000117938005
42188000,42108000,6620172,29.408817,0.111337736,0.100997925,12.478211,9.083015e-05
42660000,42576000,6620172,29.41011,0.11123462,0.05658722,12.481159,2.8506196e-05
42836000,42756000,6620172,29.411858,0.11117979,0.1057663,12.471548,9.966249e-05
43076000,42996000,6620172,29.413462,0.11119778,0.07962227,12.481764,5.643527e-05
43380000,43296000,6620172,29.41447,0.11128339,0.060970306,12.47776,3.3102257e-05
43436000,43354000,6620172,29.415527,0.11122052,0.11751175,12.480042,0.00012294306
43548000,43464000,6620172,29.41677,0.11109969,0.07898331,12.467833,5.559518e-05
43604000,43524000,6620172,29.417856,0.11103931,0.12081528,12.469949,0.00013005783
43788000,43704000,6620172,29.419321,0.111126654,0.089839935,12.47777,7.1871946e-05
43964000,43884000,6620172,29.417692,0.11107809,-0.19600296,12.468424,0.0003423507
44148000,44064000,6620172,29.419142,0.111163005,0.054775238,12.47614,2.6720574e-05
44268000,44182666,6620172,29.420353,0.11117543,0.060962677,12.481341,3.308448e-05
44324000,44244000,6620172,29.421534,0.111113444,0.13137627,12.466912,0.00015382694
44444000,44364000,6620172,29.423166,0.11112378,0.102264404,12.471732,9.317078e-05
44924000,44844000,6620172,29.424614,0.11116374,0.07515907,12.475176,5.031224e-05
44988000,44904000,6620172,29.425972,0.11123563,0.15096283,12.478043,0.00020293226
45164000,45084000,6620172,29.427162,0.11118135,0.099372864,12.468656,8.799813e-05
45284000,45204000,6620172,29.428408,0.11118955,0.13785172,12.473545,0.00016927466
45468000,45384000,6620172,29.430052,0.111269824,0.0726738,12.481574,4.70158e-05
45588000,45504000,6620172,29.431082,0.11127662,0.062208176,12.469838,3.448193e-05
45708000,45624000,6620172,29.432457,0.11128396,0.06709099,12.474776,4.0091574e-05
45828000,45744000,6620172,29.433842,0.111291856,0.10090828,12.479915,9.065661e-05
46068000,45984000,6620172,29.43491,0.11130487,0.027954102,12.4731865,6.960992e-06
46364000,46284000,6620172,29.436245,0.11125348,0.11482048,12.468837,0.000117481715
46484000,46404000,6620172,29.43761,0.11125914,0.06594849,12.473727,3.8741007e-05
46604000,46524000,6620172,29.439384,0.1112654,0.10283089,12.478819,9.415235e-05
46724000,46644000,6620172,29.440973,0.11127092,0.13962555,12.467262,0.00017374655
46844000,46764000,6620172,29.442188,0.111275695,0.100214005,12.472084,8.946956e-05
46964000,46884000,6620172,29.44342,0.1112811,0.04188347,12.477106,1.5621723e-05
47324000,47244000,6620172,29.444864,0.11129533,0.05593872,12.475472,2.7869268e-05
47684000,47604000,6620172,29.44589,0.11130768,0.045053482,12.47385,1.8080635e-05
47868000,47784000,6620172,29.447327,0.11138176,0.10451317,12.481882,9.723429e-05
48164000,48084000,6620172,29.448454,0.11132314,0.09468651,12.47721,7.983921e-05
48876000,48792000,6620172,29.45012,0.11123933,0.07517624,12.473407,5.0342365e-05
48932000,48852000,6620172,29.451246,0.1111769,0.12511444,12.475619,0.00013941525
49652000,49572000,6620172,29.452572,0.11122417,0.07901573,12.47233,5.5620774e-05
50076000,49992000,6620172,29.453857,0.11131469,0.09274292,12.4734745,7.661813e-05
50196000,50112000,6620172,29.455069,0.11132127,0.057554245,12.478556,2.9494966e-05
50556000,50472000,6620172,29.456196,0.111337885,0.029989243,12.476912,8.009057e-06
51036000,50952000,6620172,29.457552,0.111358754,0.08836937,12.480369,6.952381e-05
51932000,51852000,6620172,29.45874,0.11132226,0.03997612,12.467654,1.42421e-05
51996000,51912000,6620172,29.459776,0.11139067,0.11489868,12.470337,0.00011762764
52412000,52332000,6620172,29.45779,0.11133442,-0.12721634,12.4709015,0.00014419341
52532000,52452000,6620172,29.459385,0.11133753,0.085386276,12.475871,6.4932596e-05
53132000,53052000,6620172,29.460741,0.11135158,0.10877609,12.467728,0.000105447696
53732000,53652000,6620172,29.462034,0.111362904,0.0627861,12.475878,3.5108595e-05
53972000,53892000,6620172,29.463814,0.11136675,0.13798523,12.469288,0.00016966062
54332000,54252000,6620172,29.465067,0.1113727,0.04991722,12.46774,2.220601e-05
54452000,54372000,6620172,29.466154,0.111373916,0.052425385,12.472571,2.4484134e-05
55532000,55452000,6620172,29.467155,0.1113874,0.04343033,12.467697,1.6809603e-05
55652000,55572000,6620172,29.46586,0.11138809,-0.092739105,12.472524,7.661767e-05
56492000,56412000,6620172,29.46728,0.11139443,0.05803871,12.47426,3.0003936e-05
56732000,56652000,6620172,29.46624,0.11139689,-0.05270958,12.467753,2.4759873e-05
56852000,56772000,6620172,29.465193,0.111397244,-0.008087158,12.472584,5.8263015e-07
57212000,57132000,6620172,29.463991,0.111399,-0.072761536,12.470985,4.7169407e-05
57396000,57312000,6620172,29.46509,0.11146752,0.10128784,12.478824,9.134788e-05
57516000,57432000,6620172,29.463898,0.11146816,-0.080991745,12.467264,5.8461217e-05
58412000,58332000,6620172,29.465212,0.11140473,0.07370567,12.470978,4.84015e-05
58772000,58692000,6620172,29.46406,0.11140624,-0.1295433,12.469346,0.0001495353
58956000,58872000,6620172,29.462826,0.11147396,-0.08664513,12.477076,6.685486e-05
59852000,59772000,6620172,29.464262,0.11141128,0.05357361,12.481042,2.5551033e-05
60092000,60012000,6620172,29.463127,0.11141071,-0.09072876,12.47419,7.332213e-05
60452000,60372000,6620172,29.4621,0.111411825,-0.024002075,12.472579,5.1321435e-06
60572000,60490000,6620172,29.460737,0.11141244,-0.064468384,12.47761,3.7010046e-05
60860000,60780000,6620172,29.45936,0.11122843,-0.08586502,12.472532,6.568034e-05
61764000,61680000,6620172,29.458147,0.11134056,-0.076231,12.477106,5.174959e-05
62004000,61920000,6620172,29.459461,0.11135097,0.09615898,12.470482,8.2386105e-05
62300000,62220000,6620172,29.458298,0.11129582,-0.033960342,12.466249,1.0279353e-05
62484000,62400000,6620172,29.456894,0.111368634,-0.082632065,12.473787,6.0821392e-05
62660000,62580000,6620172,29.455547,0.11130895,-0.040813446,12.481176,1.4828885e-05
62844000,62760000,6620172,29.45442,0.11138069,-0.030916214,12.472157,8.515077e-06
62900000,62820000,6620172,29.453316,0.11131561,-0.12254143,12.47434,0.00013375368
63140000,63060000,6620172,29.454544,0.11132363,0.08416939,12.467858,6.313555e-05
64148000,64068000,6620172,29.45573,0.11118223,0.056674957,12.476146,2.8606153e-05
64268000,64188000,6620172,29.456821,0.11119164,0.07808304,12.4813385,5.427624e-05
65036000,64956000,6620172,29.457897,0.11106141,0.025733948,12.479671,5.8961323e-06
65100000,65016000,6620172,29.459105,0.111134164,0.13414955,12.465994,0.00016040173
65564000,65484000,6620172,29.457918,0.11092888,-0.16545105,12.468126,0.00024394692
66284000,66204000,6620172,29.459478,0.111025125,0.11428261,12.477132,0.00011630624
66468000,66384000,6620172,29.460505,0.11111206,0.10048103,12.472767,8.994207e-05
67004000,66924000,6620172,29.461699,0.11110141,0.058307648,12.478472,3.027242e-05
67484000,67404000,6620172,29.46278,0.111145146,0.036930084,12.482041,1.21403855e-05
67604000,67524000,6620172,29.46173,0.11115411,-0.09205055,12.470215,7.549816e-05
68508000,68424000,6620172,29.46302,0.11128378,0.15115166,12.474718,0.00020349446
68628000,68542666,6620172,29.46407,0.11129167,0.092954636,12.479853,7.6929005e-05
69284000,69202000,6620172,29.462154,0.111259244,-0.12835693,12.473692,0.00014675778
69636000,69552000,6620172,29.460548,0.11116103,-0.106845856,12.471513,0.00010170767
69980000,69900000,6620172,29.459475,0.11092914,-0.04455757,12.468793,1.7691966e-05
70284000,70200000,6620172,29.458076,0.11103954,-0.096508026,12.481785,8.291015e-05
70524000,70440000,6620172,29.456957,0.11106986,-0.06365013,12.474969,3.6084162e-05
70580000,70500000,6620172,29.4557,0.1110106,-0.13998604,12.477216,0.00017450555
70644000,70560000,6620172,29.454626,0.111085415,-0.11953735,12.480133,0.00012721712
70764000,70680000,6620172,29.453104,0.11109857,-0.09878349,12.46849,8.695857e-05
71124000,71040000,6620172,29.451591,0.11113861,-0.1116333,12.466986,0.00011106662
71364000,71280000,6620172,29.449986,0.11116257,-0.0807724,12.476846,5.8100337e-05
71540000,71460000,6620172,29.448812,0.11111285,-0.18052101,12.467612,0.00029042212
71844000,71760000,6620172,29.446556,0.111206844,-0.1454277,12.480438,0.0001882877
72020000,71940000,6620172,29.44477,0.11115333,-0.11723518,12.470876,0.00012245498
72204000,72120000,6620172,29.442814,0.11123486,-0.13536072,12.478744,0.0001631443
72444000,72360000,6620172,29.441736,0.11125187,-0.056427002,12.4720335,2.8365745e-05
72980000,72900000,6620172,29.44043,0.11122084,-0.03994751,12.477644,1.4210335e-05
73340000,73260000,6620172,29.439259,0.11124061,-0.045042038,12.475966,1.8068386e-05
73460000,73380000,6620172,29.43736,0.111247905,-0.10977745,12.481147,0.0001072826
73580000,73500000,6620172,29.435469,0.111253075,-0.11902046,12.469447,0.00012622739
73644000,73558666,6620172,29.434235,0.11132288,-0.1369915,12.4721775,0.00016718698
73764000,73680000,6620172,29.432995,0.111326605,-0.06415558,12.462453,3.6696343e-05
74060000,73980000,6620172,29.431871,0.111271605,-0.035499573,12.474129,1.1225185e-05
74364000,74278666,6620172,29.42978,0.11134844,-0.14154434,12.471516,0.00017849386
74540000,74460000,6620172,29.427668,0.111288026,-0.15236092,12.463443,0.00020695057
74660000,74580000,6620172,29.426432,0.11129156,-0.091430664,12.468155,7.4497046e-05
74780000,74700000,6620172,29.425383,0.111295745,-0.059944153,12.473076,3.2009404e-05
74964000,74880000,6620172,29.424107,0.11136776,-0.03129959,12.465313,8.73236e-06
75084000,75000000,6620172,29.422503,0.11137111,-0.12838173,12.470115,0.0001468566
75260000,75180000,6620172,29.421127,0.11131039,-0.06430435,12.477395,3.682259e-05
75684000,75600000,6620172,29.420065,0.11138907,-0.06444931,12.479376,3.6982918e-05
76884000,76800000,6620172,29.4189,0.11141644,-0.025655746,12.481112,5.8596756e-06
77724000,77640000,6620172,29.417852,0.11143059,-0.17776299,12.466904,0.0002816317
77900000,77820000,6620172,29.416403,0.11136592,-0.072431564,12.473939,4.6731486e-05
78500000,78420000,6620172,29.415209,0.111375086,-0.064502716,12.466124,3.7083613e-05
79220000,79140000,6620172,29.413963,0.11138363,-0.08095932,12.479435,5.835745e-05
79524000,79440000,6620172,29.414984,0.1114535,0.03656006,12.475518,1.1904542e-05
79820000,79740000,6620172,29.416042,0.11138881,0.1425438,12.471112,0.00018102932
80484000,80400000,6620172,29.414862,0.11146219,-0.13118935,12.477875,0.00015325476
80964000,80880000,6620172,29.41589,0.11146448,0.08260536,12.469089,6.0804996e-05
82044000,81960000,6620172,29.416906,0.1114713,0.011831284,12.480855,1.2461687e-06
84324000,84240000,6620172,29.41525,0.11147811,-0.14842033,12.475837,0.00019618898
84620000,84540000,6620172,29.413483,0.111411385,-0.09531784,12.471356,8.09454e-05
84860000,84780000,6620172,29.411892,0.11141307,-0.070547104,12.481514,4.4304576e-05
85164000,85080000,6620172,29.41296,0.11147988,0.06486702,12.477462,3.7469606e-05
85220000,85140000,6620172,29.411922,0.11141345,-0.11516571,12.479731,0.00011808607
85700000,85620000,6620172,29.410313,0.11141432,-0.1263485,12.466552,0.00014228243
86060000,85978000,6620172,29.409246,0.11141534,-0.05296135,12.481481,2.4969477e-05
86228000,86148000,6620172,29.408,0.111222826,-0.056531906,12.4712515,2.8473098e-05
86348000,86268000,6620172,29.40673,0.11122998,-0.10266876,12.476242,9.387509e-05
86588000,86508000,6620172,29.407751,0.11124327,0.075899124,12.46966,5.133061e-05
86948000,86868000,6620172,29.406492,0.111261785,-0.04554367,12.468074,1.8484778e-05
87068000,86988000,6620172,29.404604,0.111267015,-0.1596775,12.472913,0.00022713134
87308000,87228000,6620172,29.40565,0.11127798,0.013467789,12.466509,1.6166099e-06
87732000,87648000,6620172,29.404192,0.1113618,-0.06094551,12.467593,3.310231e-05
88092000,88008000,6620172,29.402946,0.11137423,-0.054880142,12.4661045,2.6844615e-05
89708000,89628000,6620172,29.401829,0.111350454,-0.045337677,12.466634,1.8320057e-05
89828000,89748000,6620172,29.403065,0.11135228,0.04501152,12.471418,1.805049e-05
90612000,90528000,6620172,29.404171,0.11143373,0.040075302,12.471017,1.4308998e-05
90668000,90588000,6620172,29.405308,0.111367606,0.12611389,12.47322,0.00014167876
90908000,90828000,6620172,29.403978,0.11137166,-0.059444427,12.466813,3.1493746e-05
91028000,90948000,6620172,29.402891,0.11137278,-0.062000275,12.471752,3.4246583e-05
91812000,91728000,6620172,29.404325,0.11145068,0.04994774,12.472036,2.2225513e-05
92340000,92256000,6620172,29.40325,0.11127532,-0.05997467,12.478136,3.202901e-05
92700000,92616000,6620172,29.402157,0.11129784,-0.010820389,12.476944,1.0426414e-06
93060000,92976000,6620172,29.400665,0.11131879,-0.069862366,12.475501,4.346964e-05
93356000,93276000,6620172,29.399,0.11126717,-0.10346031,12.471021,9.536808e-05
93540000,93456000,6620172,29.396883,0.11134277,-0.13030624,12.47931,0.00015118106
93660000,93576000,6620172,29.39505,0.111349344,-0.1051712,12.484877,9.843893e-05
93780000,93696000,6620172,29.393597,0.111353666,-0.06435394,12.472157,3.6894893e-05
93836000,93756000,6620172,29.392406,0.111289084,-0.13218689,12.474421,0.00015563738
93900000,93816000,6620172,29.391321,0.111358665,-0.12060928,12.477349,0.00012953783
94020000,93936000,6620172,29.389708,0.111364335,-0.14169312,12.48272,0.00017870871
94316000,94236000,6620172,29.388647,0.11130864,-0.07718849,12.477517,5.305599e-05
94620000,94536000,6620172,29.387,0.11138549,-0.086709976,12.473134,6.697612e-05
94916000,94836000,6620172,29.385933,0.111328356,-0.061431885,12.4683895,3.3630615e-05
95516000,95436000,6620172,29.384409,0.11134425,-0.082351685,12.476101,6.039814e-05
95700000,95616000,6620172,29.382101,0.111415565,-0.1550026,12.46728,0.00021412318
95756000,95676000,6620172,29.380955,0.11134945,-0.12727165,12.4693365,0.00014433694
96044000,95964000,6620172,29.379063,0.11116486,-0.15456009,12.480832,0.00021267119
96164000,96084000,6620172,29.377924,0.111172944,-0.14364815,12.469076,0.00018387525
96228000,96144000,6620172,29.37691,0.111244164,-0.112810135,12.471759,0.000113377275
96348000,96264000,6620172,29.375652,0.11125297,-0.055065155,12.476693,2.7002983e-05
96588000,96504000,6620172,29.374557,0.11126938,-0.04990387,12.47001,2.2190094e-05
96644000,96564000,6620172,29.372814,0.11120612,-0.19380188,12.4721155,0.00033460572
96764000,96684000,6620172,29.37113,0.111214,-0.12060547,12.477046,0.0001295328
96884000,96804000,6620172,29.369518,0.11122241,-0.11892891,12.482161,0.00012590489
97068000,96984000,6620172,29.368513,0.111298956,-0.0555439,12.473031,2.7482625e-05
97124000,97044000,6620172,29.36693,0.11123542,-0.17603493,12.47519,0.00027599934
97308000,97224000,6620172,29.365538,0.11131229,-0.093696594,12.466565,7.8245306e-05
97428000,97344000,6620172,29.362995,0.111317806,-0.17561913,12.471281,0.00027478312
97484000,97404000,6620172,29.361982,0.11125378,-0.11255264,12.473417,0.000112845286
97724000,97644000,6620172,29.360674,0.11126584,-0.062711716,12.467018,3.505034e-05
97844000,97764000,6620172,29.359255,0.11127074,-0.14571953,12.4717865,0.00018917526
97964000,97884000,6620172,29.357664,0.11127627,-0.10106659,12.476768,9.0964226e-05
98028000,97942666,6620172,29.35657,0.11134627,-0.121679306,12.479654,0.00013182215
98084000,98004000,6620172,29.355457,0.11128242,-0.12356377,12.481963,0.0001359117
98204000,98124000,6620172,29.353844,0.11128648,-0.08667183,12.470185,6.693303e-05
98324000,98244000,6620172,29.351656,0.11129119,-0.1660099,12.4751625,0.00024545917
98564000,98484000,6620172,29.350285,0.11129988,-0.05714798,12.468742,2.9102923e-05
98684000,98604000,6620172,29.348833,0.11130388,-0.08260155,12.473754,6.0776638e-05
98804000,98724000,6620172,29.347622,0.11130858,-0.04294777,12.47904,1.642319e-05
98924000,98844000,6620172,29.34545,0.11131259,-0.18011093,12.467359,0.00028911003
99044000,98964000,6620172,29.344278,0.11131591,-0.08869171,12.472432,7.00765e-05
99164000,99084000,6620172,29.341637,0.11131998,-0.19620514,12.477825,0.00034279883
99284000,99204000,6620172,29.340054,0.11132438,-0.10900688,12.478195,0.000105806794
99404000,99324000,6620172,29.33874,0.111327104,-0.087070465,12.471336,6.7543915e-05
99524000,99444000,6620172,29.336634,0.111330606,-0.1388607,12.476865,0.00017171598
99588000,99504000,6620172,29.335424,0.11139966,-0.13419533,12.480105,0.00016032973
99644000,99564000,6620172,29.334341,0.11133492,-0.120363235,12.48276,0.00012895392
99764000,99684000,6620172,29.332075,0.11133711,-0.15210915,12.470375,0.00020615252
99884000,99804000,6620172,29.330547,0.11134012,-0.10551071,12.47603,9.914577e-05
99948000,99864000,6620172,29.329176,0.11140894,-0.1523056,12.4793415,0.00020653688
100068000,99982666,6620172,29.326616,0.11141323,-0.17419243,12.485569,0.00027002732
100188000,100104000,6620172,29.325193,0.11141531,-0.10506058,12.472556,9.8328994e-05
100244000,100164000,6620172,29.323807,0.11134967,-0.15398216,12.475105,0.00021118064
100308000,100224000,6620172,29.322727,0.11141825,-0.1197319,12.478395,0.00012764933
100428000,100344000,6620172,29.320822,0.11142205,-0.15055084,12.484538,0.00020172114
100548000,100464000,6620172,29.318901,0.111425154,-0.14470291,12.471499,0.0001865492
100668000,100584000,6620172,29.317625,0.111427546,-0.08647919,12.477175,6.65985e-05
100788000,100704000,6620172,29.31639,0.111430794,-0.060136795,12.483088,3.2189633e-05
100908000,100824000,6620172,29.314785,0.11143336,-0.0792675,12.47019,5.5985394e-05
101324000,101244000,6620172,29.313177,0.11137496,-0.09992027,12.47088,8.895444e-05
101388000,101304000,6620172,29.31203,0.1114427,-0.12716103,12.473767,0.00014403494
101628000,101544000,6620172,29.311005,0.11144767,-0.037590027,12.484495,1.2575688e-05
101868000,101784000,6620172,29.30999,0.111450896,-0.0069026947,12.476699,4.243216e-07
102044000,101964000,6620172,29.307703,0.11138756,-0.15331078,12.484138,0.00020919162
102452000,102372000,6620172,29.306618,0.11120099,-0.16203308,12.482942,0.0002336942
103580000,103500000,6620172,29.305464,0.111087024,-0.103601456,12.476679,9.558511e-05
103940000,103860000,6620172,29.304323,0.1111201,-0.05690193,12.4745,2.8839542e-05
104060000,103980000,6620172,29.303028,0.11113141,-0.033792496,12.479268,1.0167377e-05
104180000,104100000,6620172,29.30202,0.11114051,-0.12336159,12.467962,0.00013561943
104300000,104220000,6620172,29.300783,0.11115001,-0.028175354,12.472507,7.072004e-06
105380000,105300000,6620172,29.29939,0.11122208,-0.1508503,12.4674425,0.00020280208
105444000,105360000,6620172,29.298338,0.11129227,-0.11696434,12.470028,0.00012189811
105804000,105720000,6620172,29.297117,0.1113117,-0.075883865,12.4685135,5.1314688e-05
105924000,105840000,6620172,29.295588,0.111317545,-0.10174751,12.473248,9.222009e-05
106100000,106020000,6620172,29.29293,0.11125912,-0.2037468,12.464562,0.0003700514
106460000,106380000,6620172,29.29182,0.1112751,-0.13219452,12.478938,0.00015559899
106940000,106860000,6620172,29.29002,0.111292884,-0.1252346,12.466304,0.00013978756
107540000,107458000,6620172,29.28839,0.11131187,-0.097587585,12.474265,8.482652e-05
107652000,107568000,6620172,29.287287,0.11118821,-0.084983826,12.478774,6.430698e-05
107708000,107628000,6620172,29.286129,0.11112583,-0.1286335,12.464869,0.00014749523
107828000,107748000,6620172,29.285097,0.111135386,-0.032058716,12.469681,9.157869e-06
107948000,107868000,6620172,29.283545,0.11114542,-0.12141609,12.474846,0.00013130305
108068000,107988000,6620172,29.28196,0.11115598,-0.08952713,12.480406,7.135725e-05
108308000,108228000,6620172,29.280758,0.11117323,-0.04743576,12.474322,2.0042518e-05
108492000,108408000,6620172,29.278994,0.11125428,-0.11717224,12.477724,0.0001222564
108548000,108468000,6620172,29.27756,0.11119098,-0.15944481,12.468178,0.00022655584
108788000,108708000,6620172,29.275728,0.11120748,-0.099121094,12.480324,8.7470944e-05
108908000,108828000,6620172,29.273867,0.11121528,-0.12328911,12.467603,0.00013546401
108972000,108888000,6620172,29.272285,0.111285664,-0.17558098,12.470869,0.00027467284
109148000,109068000,6620172,29.269926,0.11122998,-0.22178459,12.480179,0.0004379247
109268000,109188000,6620172,29.268507,0.11123858,-0.0884285,12.487351,6.957796e-05
109452000,109368000,6620172,29.266998,0.111314915,-0.10934067,12.476619,0.00010646921
110052000,109968000,6620172,29.265932,0.111348115,-0.05499649,12.490098,2.6906771e-05
110228000,110148000,6620172,29.26486,0.11128845,-0.10598564,12.477304,0.00010003012
110348000,110268000,6620172,29.266134,0.11129446,0.084028244,12.484197,6.284163e-05
110532000,110448000,6620172,29.265097,0.11137041,-0.03913498,12.472696,1.3643549e-05
110708000,110628000,6620172,29.266687,0.11131067,0.13575935,12.482011,0.00016406368
110948000,110868000,6620172,29.267693,0.111319974,0.09632301,12.473432,8.264787e-05
111068000,110988000,6620172,29.26892,0.11132415,0.033111572,12.479575,9.761517e-06
111188000,111108000,6620172,29.270435,0.111329205,0.09567833,12.486047,8.146287e-05
111372000,111288000,6620172,29.271736,0.11140193,0.09095764,12.47428,7.3692005e-05
111492000,111408000,6620172,29.27339,0.11140562,0.116313934,12.480174,0.00012044821
111548000,111468000,6620172,29.274483,0.11134078,0.121435165,12.482867,0.0001312599
111668000,111588000,6620172,29.276426,0.111345746,0.10650444,12.489119,0.00010091626
111788000,111708000,6620172,29.278204,0.11134816,0.15752602,12.474171,0.00022102958
111908000,111826000,6620172,29.280146,0.111351386,0.122745514,12.479775,0.00013414114
111956000,111876000,6620172,29.281504,0.11115466,0.15112495,12.4816475,0.00020330964
112020000,111934666,6620172,29.283075,0.111227274,0.17492485,12.484915,0.00027231712
112196000,112116000,6620172,29.284462,0.11117472,0.071647644,12.473253,4.5727935e-05
112316000,112236000,6620172,29.286263,0.11118395,0.10101318,12.478598,9.085479e-05
112380000,112296000,6620172,29.28774,0.11125577,0.1643219,12.4816675,0.00024036752
112500000,112416000,6620172,29.289284,0.11126431,0.10181618,12.468512,9.2379676e-05
112620000,112536000,6620172,29.290558,0.11127189,0.1020031,12.473499,9.268211e-05
112796000,112716000,6620172,29.293203,0.11121729,0.18463326,12.480995,0.00030347865
112916000,112836000,6620172,29.295164,0.111224785,0.1262455,12.468243,0.00014203129
112980000,112896000,6620172,29.2966,0.111295,0.1595478,12.470939,0.00022679842
113084000,113004000,6620172,29.298391,0.11103623,0.10977173,12.474679,0.00010732703
113204000,113124000,6620172,29.299503,0.1110506,0.08852959,12.479777,6.9779446e-05
113268000,113184000,6620172,29.30084,0.1111249,0.14875793,12.482711,0.00019697398
113508000,113424000,6620172,29.30211,0.11114931,0.053253174,12.475092,2.5258336e-05
113612000,113532000,6620172,29.304224,0.1108964,0.13677216,12.478894,0.00016656233
113676000,113592000,6620172,29.305378,0.110973395,0.12863731,12.481786,0.00014730405
113732000,113652000,6620172,29.306797,0.11091505,0.15808105,12.46701,0.00022271776
113852000,113772000,6620172,29.30788,0.110932454,0.058912277,12.471737,3.092019e-05
113972000,113892000,6620172,29.308912,0.110950015,0.12537193,12.476646,0.00013997815
114036000,113952000,6620172,29.310007,0.11102586,0.12199974,12.479481,0.0001325192
114212000,114132000,6620172,29.311209,0.11098262,0.076524734,12.46981,5.217967e-05
114452000,114372000,6620172,29.312395,0.111013785,0.044830322,12.479657,1.7893633e-05
114692000,114612000,6620172,29.3137,0.111040674,0.058452606,12.47282,3.0436911e-05
114756000,114672000,6620172,29.314802,0.11111458,0.12262535,12.475579,0.00013392366
114876000,114792000,6620172,29.316294,0.11112863,0.15797997,12.480647,0.00022218996
114996000,114912000,6620172,29.318071,0.11114034,0.10968399,12.469045,0.00010720395
115116000,115030666,6620172,29.319363,0.1111524,0.040359497,12.47387,1.4509344e-05
115172000,115092000,6620172,29.320524,0.11109157,0.12937546,12.476051,0.0001490679
115236000,115152000,6620172,29.321583,0.11116482,0.11774254,12.478892,0.00012343783
115412000,115332000,6620172,29.323362,0.11111415,0.10279083,12.46956,9.4148876e-05
115476000,115392000,6620172,29.324478,0.11118647,0.124090195,12.472262,0.00013717887
115596000,115512000,6620172,29.325735,0.11119741,0.087955475,12.477241,6.889135e-05
115716000,115632000,6620172,29.327326,0.11120747,0.16514587,12.466044,0.00024308843
115836000,115752000,6620172,29.328754,0.11121664,0.09486771,12.470776,8.0186415e-05
115956000,115872000,6620172,29.330627,0.11122627,0.14780235,12.475712,0.00019456059
116132000,116052000,6620172,29.3322,0.11117326,0.1145134,12.466625,0.00011687488
116196000,116112000,6620172,29.333666,0.11124427,0.16298676,12.4692745,0.00023671235
116300000,116220000,6620172,29.335474,0.11098704,0.14960289,12.472965,0.00019937365
116364000,116280000,6620172,29.337122,0.11106192,0.18338585,12.475775,0.0002995171
116484000,116400000,6620172,29.338303,0.1110779,0.026802063,12.480946,6.395087e-06
116604000,116520000,6620172,29.339588,0.11109147,0.06305504,12.469372,3.542848e-05
116724000,116640000,6620172,29.341751,0.11110534,0.13268852,12.47429,0.0001568225
116844000,116760000,6620172,29.343287,0.11111952,0.07906151,12.479411,5.565364e-05
116900000,116820000,6620172,29.344402,0.11105842,0.12406731,12.465362,0.00013720417
117020000,116940000,6620172,29.346186,0.111070454,0.13549232,12.470113,0.00016357485
117140000,117060000,6620172,29.347626,0.11108285,0.081020355,12.475069,5.846593e-05
117204000,117120000,6620172,29.348785,0.11115619,0.1290474,12.477936,0.00014829046
117260000,117180000,6620172,29.34987,0.11109562,0.120723724,12.4802265,0.00012975385
117380000,117300000,6620172,29.351746,0.11110611,0.14502716,12.468713,0.00018742804
117564000,117480000,6620172,29.35285,0.11118961,0.09747124,12.47645,8.460956e-05
117684000,117600000,6620172,29.353876,0.111201145,0.06714058,12.481666,4.0128703e-05
117804000,117720000,6620172,29.355705,0.111210406,0.15613365,12.469943,0.00021721312
117924000,117840000,6620172,29.356915,0.11122012,0.025028229,12.474896,5.5793134e-06
118164000,118080000,6620172,29.358366,0.11123831,0.052972794,12.468506,2.5006264e-05
118340000,118260000,6620172,29.360062,0.11118423,0.082393646,12.4756155,6.046206e-05
118460000,118380000,6620172,29.361248,0.111193486,0.07662392,12.480798,5.226896e-05
118700000,118620000,6620172,29.362492,0.11120814,0.03938675,12.47403,1.3818185e-05
118940000,118860000,6620172,29.364553,0.11122324,0.1309185,12.467651,0.00015274779
119484000,119400000,6620172,29.365938,0.11131883,0.06160736,12.473694,3.3808632e-05
119604000,119520000,6620172,29.367146,0.1113253,0.08289528,12.478794,6.118493e-05
119660000,119580000,6620172,29.36843,0.11126177,0.14276123,12.481097,0.00018143677
119844000,119760000,6620172,29.36988,0.11133599,0.057590485,12.472088,2.9547435e-05
120380000,120300000,6620172,29.371037,0.111292325,0.08329964,12.477704,6.178869e-05
121220000,121140000,6620172,29.369148,0.11132074,-0.1600666,12.479534,0.00022811853
121284000,121200000,6620172,29.37017,0.111390166,0.11348343,12.482488,0.00011463606
121692000,121606666,6620172,29.37123,0.11121372,0.04849243,12.477801,2.0939551e-05
121812000,121728000,6620172,29.369917,0.11122265,-0.120224,12.470599,0.00012878122
121868000,121788000,6620172,29.371464,0.111160286,0.17195702,12.472761,0.00026341146
122412000,122328000,6620172,29.372631,0.11126645,0.07637787,12.479053,5.194108e-05
122772000,122688000,6620172,29.371351,0.11128892,-0.03304863,12.477371,9.726158e-06
123012000,122928000,6620172,29.369986,0.11130175,-0.123254776,12.470789,0.000135354
123068000,122988000,6620172,29.368677,0.11123798,-0.14538765,12.472951,0.00018829695
123356000,123276000,6620172,29.367489,0.11105499,-0.08232117,12.468053,6.039234e-05
123708000,123624000,6620172,29.366253,0.11096441,-0.041999817,12.46605,1.5722566e-05
124188000,124104000,6620172,29.36469,0.111034125,-0.07226372,12.4694,4.6532088e-05
124244000,124164000,6620172,29.363491,0.11097506,-0.13361168,12.47155,0.00015904715
124428000,124344000,6620172,29.36206,0.1110662,-0.08855629,12.479491,6.982315e-05
124724000,124644000,6620172,29.360659,0.11103535,-0.0914917,12.4749775,7.455575e-05
124788000,124704000,6620172,29.35954,0.11110953,-0.12442589,12.477848,0.00013786033
124964000,124884000,6620172,29.35817,0.11106189,-0.044525146,12.468535,1.766659e-05
125028000,124944000,6620172,29.356878,0.111135066,-0.14367294,12.471255,0.00018390661
125324000,125244000,6620172,29.355015,0.111098975,-0.13240814,12.46701,0.00015625164
125388000,125304000,6620172,29.35396,0.11117136,-0.11714172,12.469691,0.00012227143
125804000,125724000,6620172,29.352068,0.11114225,-0.12364197,12.470259,0.00013621151
126044000,125964000,6620172,29.350025,0.11116244,-0.11919403,12.480384,0.00012648487
126164000,126084000,6620172,29.3483,0.111170545,-0.15462303,12.46869,0.00021305171
126284000,126204000,6620172,29.347279,0.11117914,-0.0779686,12.473583,5.4150903e-05
126404000,126324000,6620172,29.345894,0.11118824,-0.043512344,12.478678,1.6858305e-05
126524000,126444000,6620172,29.344221,0.111196496,-0.11870384,12.467189,0.00012557943
126708000,126624000,6620172,29.342241,0.111274816,-0.112314224,12.474809,0.000112355185
126884000,126804000,6620172,29.340467,0.11121999,-0.15756607,12.477636,0.00022108057
126948000,126864000,6620172,29.339422,0.11129008,-0.11607933,12.468338,0.00012007669
127004000,126924000,6620172,29.338015,0.11122632,-0.15649223,12.470455,0.00021820303
127068000,126984000,6620172,29.336714,0.11129669,-0.14454079,12.47321,0.00018610587
127308000,127224000,6620172,29.33547,0.11131028,-0.028856277,12.466818,7.4213426e-06
127548000,127464000,6620172,29.334448,0.11132215,-0.06518364,12.47663,3.7838803e-05
127668000,127584000,6620172,29.333382,0.11132898,-0.08233452,12.481835,6.034523e-05
127788000,127704000,6620172,29.331337,0.1113337,-0.13849258,12.469994,0.00017090088
127908000,127824000,6620172,29.330038,0.111339025,-0.08802605,12.47493,6.901473e-05
128084000,128004000,6620172,29.32894,0.11128082,-0.10891533,12.477752,0.00010563289
128148000,128064000,6620172,29.327843,0.11134983,-0.12180519,12.46844,0.00013221386
128324000,128244000,6620172,29.326822,0.11128982,-0.0033779144,12.475513,1.0162402e-07
128628000,128544000,6620172,29.325157,0.11136764,-0.12760353,12.471702,0.00014506317
128748000,128664000,6620172,29.323988,0.111372046,-0.08976936,12.476706,7.176519e-05
128868000,128784000,6620172,29.321686,0.11137712,-0.149683,12.481907,0.00019944426
128924000,128844000,6620172,29.319933,0.11131154,-0.19449615,12.467383,0.00033713528
129164000,129084000,6620172,29.317705,0.1113189,-0.18094063,12.477222,0.00029154916
129284000,129204000,6620172,29.316565,0.11132361,-0.11455345,12.482439,0.00011680849
129404000,129324000,6620172,29.315462,0.111326255,-0.09114647,12.470554,7.40204e-05
129588000,129504000,6620172,29.313522,0.11139853,-0.109106064,12.478368,0.000105997955
129884000,129804000,6620172,29.31169,0.11133841,-0.14812088,12.473814,0.0001954298
130068000,129984000,6620172,29.310019,0.11141085,-0.08111954,12.481831,5.8577407e-05
130188000,130104000,6620172,29.308935,0.11141264,-0.1113224,12.470008,0.00011042207
130428000,130344000,6620172,29.30765,0.11141839,-0.08708191,12.48006,6.751445e-05
130668000,130584000,6620172,29.306253,0.111422576,-0.087495804,12.473312,6.8194626e-05
130788000,130704000,6620172,29.304583,0.11142528,-0.095882416,12.478374,8.186108e-05
131204000,131124000,6620172,29.303436,0.11136543,-0.036449432,12.478925,1.18293765e-05
131268000,131184000,6620172,29.302162,0.111434,-0.14143372,12.48184,0.00017806754
131804000,131724000,6620172,29.300327,0.11137445,-0.16773796,12.470363,0.0002506924
132284000,132204000,6620172,29.299149,0.11137988,-0.068546295,12.473408,4.1854328e-05
132404000,132322000,6620172,29.298029,0.11138176,-0.026039124,12.478369,6.037434e-06
132764000,132684000,6620172,29.29616,0.11138523,-0.10501289,12.476625,9.820772e-05
132828000,132744000,6620172,29.295069,0.11145326,-0.121118546,12.479502,0.00013061154
133124000,133044000,6620172,29.29332,0.11138883,-0.099206924,12.47505,8.765954e-05
133428000,133344000,6620172,29.291565,0.1114579,-0.13278961,12.471379,0.00015709818
133724000,133644000,6620172,29.290201,0.11139389,-0.09227562,12.467303,7.588552e-05
134748000,134664000,6620172,29.291454,0.11146813,0.0395298,12.477671,1.39146805e-05
135108000,135024000,6620172,29.292564,0.111470446,0.12012482,12.476184,0.00012851127
135228000,135144000,6620172,29.294352,0.11147194,0.103342056,12.481651,9.5069154e-05
135348000,135264000,6620172,29.295486,0.11147284,0.1000309,12.469417,8.9161986e-05
135404000,135324000,6620172,29.296873,0.11140588,0.15378189,12.471647,0.00021069006
135588000,135504000,6620172,29.297972,0.11147425,0.14081192,12.479898,0.00017653276
135764000,135684000,6620172,29.299543,0.111407675,0.13337898,12.470058,0.0001585126
135884000,135804000,6620172,29.300941,0.11140805,0.09832573,12.475172,8.610835e-05
135948000,135864000,6620172,29.302038,0.11147554,0.12175369,12.478128,0.00013199952
136068000,135984000,6620172,29.30338,0.111477174,0.0468235,12.483574,1.9514e-05
136308000,136224000,6620172,29.304682,0.11147719,0.106918335,12.476235,0.000101807156
136484000,136404000,6620172,29.306726,0.11141197,0.16009712,12.478838,0.00022821827
136604000,136524000,6620172,29.308603,0.111411616,0.10942078,12.471568,0.000106668456
136724000,136644000,6620172,29.309744,0.111412086,0.05073738,12.476639,2.292535e-05
136908000,136824000,6620172,29.311777,0.11147992,0.12475777,12.467611,0.00013871053
137028000,136944000,6620172,29.3132,0.11147964,0.07452583,12.472472,4.9478742e-05
137084000,137004000,6620172,29.314453,0.11141281,0.13909721,12.474671,0.00017233173
137324000,137244000,6620172,29.316328,0.11141409,0.13309097,12.467906,0.00015785603
137508000,137424000,6620172,29.317421,0.11148104,0.06031227,12.475545,3.2397336e-05
137684000,137604000,6620172,29.318964,0.111415826,0.0701828,12.483022,4.3842887e-05
137852000,137772000,6620172,29.320028,0.11121662,0.039384842,12.472471,1.3818573e-05
138036000,137952000,6620172,29.321863,0.111295186,0.12670708,12.480438,0.00014293198
139100000,139020000,6620172,29.322882,0.11108255,0.07701874,12.474127,5.283724e-05
139884000,139800000,6620172,29.32178,0.1112199,-0.015895844,12.474267,2.2506583e-06
140004000,139920000,6620172,29.320663,0.11123002,-0.047800064,12.479696,2.0342784e-05
140364000,140280000,6620172,29.319256,0.11125656,-0.07818031,12.478335,5.4424654e-05
141548000,141468000,6620172,29.318007,0.11109515,-0.11203194,12.478153,0.000111761154
142268000,142188000,6620172,29.319141,0.11116025,0.067747116,12.474794,4.0879513e-05
142748000,142668000,6620172,29.320389,0.111196265,0.0845356,12.478299,6.363285e-05
142988000,142908000,6620172,29.321602,0.11121251,0.047704697,12.471221,2.0275464e-05
143052000,142968000,6620172,29.322966,0.1112832,0.15145874,12.474064,0.00020433286
143412000,143328000,6620172,29.324663,0.11130419,0.1057663,12.472218,9.965714e-05
143588000,143508000,6620172,29.32602,0.11124755,0.04113388,12.479619,1.5064527e-05
143708000,143628000,6620172,29.327211,0.111253805,0.06591034,12.46767,3.8715003e-05
143828000,143748000,6620172,29.32847,0.11125926,0.07409096,12.472529,4.8902763e-05
144068000,143988000,6620172,29.330273,0.111272,0.15196037,12.482815,0.0002055444
144188000,144108000,6620172,29.331459,0.11127651,0.026218414,12.470645,6.124652e-06
144372000,144288000,6620172,29.333218,0.11135144,0.116127014,12.478423,0.00012007824
144548000,144468000,6620172,29.3351,0.11129202,0.14233208,12.468749,0.00018052619
144788000,144708000,6620172,29.336126,0.11130118,0.063323975,12.478583,3.5704958e-05
144852000,144768000,6620172,29.337137,0.11137088,0.112356186,12.481475,0.0001123791
144972000,144888000,6620172,29.33926,0.11137402,0.16373444,12.469544,0.00023888395
145148000,145068000,6620172,29.34111,0.11131298,0.14281082,12.4765625,0.00018162883
145452000,145368000,6620172,29.342241,0.11138914,0.030239105,12.472546,8.145922e-06
145868000,145788000,6620172,29.343775,0.11133384,0.062158585,12.472858,3.4418645e-05
146108000,146028000,6620172,29.344957,0.1113401,0.15333939,12.46645,0.00020956664
146348000,146268000,6620172,29.346342,0.11134511,0.043725967,12.47607,1.7027798e-05
146708000,146628000,6620172,29.34514,0.11135259,-0.09913826,12.474385,8.7542896e-05
147548000,147468000,6620172,29.343834,0.11136642,-0.08944702,12.476068,7.125438e-05
147852000,147768000,6620172,29.342804,0.111437805,-0.08174133,12.472297,5.9524322e-05
148028000,147948000,6620172,29.341782,0.11137407,-0.020898819,12.479569,3.8886724e-06
148212000,148128000,6620172,29.34051,0.111442946,-0.06837082,12.470696,4.164936e-05
148332000,148248000,6620172,29.339054,0.11144449,-0.09583855,12.475647,8.1804064e-05
148388000,148308000,6620172,29.338007,0.11137855,-0.11632538,12.477885,0.00012049401
148508000,148428000,6620172,29.336908,0.11137989,-0.06538391,12.466526,3.810253e-05
148628000,148548000,6620172,29.335907,0.111380644,-0.15155411,12.471302,0.00020463558
148812000,148728000,6620172,29.334766,0.11145021,-0.053964615,12.479165,2.592926e-05
149052000,148968000,6620172,29.33316,0.11145226,-0.12329292,12.47245,0.00013541974
149172000,149088000,6620172,29.331257,0.11145376,-0.105997086,12.477483,0.00010005029
149292000,149208000,6620172,29.330116,0.111454695,-0.07119942,12.466137,4.518335e-05
149348000,149268000,6620172,29.32853,0.11138779,-0.1759758,12.468206,0.00027596843
149468000,149388000,6620172,29.327301,0.11138855,-0.106716156,12.473063,0.00010144829
149652000,149568000,6620172,29.325655,0.111458145,-0.108982086,12.481048,0.00010573449
149772000,149688000,6620172,29.32379,0.111458145,-0.11510658,12.469367,0.00011806289
150068000,149988000,6620172,29.322432,0.11139457,-0.08093834,12.481695,5.831664e-05
150188000,150108000,6620172,29.320822,0.11139457,-0.134058,12.469893,0.00016013277
150372000,150288000,6620172,29.319601,0.11146305,-0.07175064,12.477675,4.5843248e-05
150492000,150408000,6620172,29.31849,0.11146465,-0.023859024,12.478245,5.068849e-06
150548000,150468000,6620172,29.317362,0.11139757,-0.12505722,12.4683075,0.00013936944
150668000,150588000,6620172,29.315714,0.11139799,-0.09773064,12.473169,8.508287e-05
150788000,150708000,6620172,29.31447,0.1113992,-0.08484459,12.478231,6.409922e-05
150852000,150768000,6620172,29.313347,0.11146711,-0.124694824,12.481157,0.0001384202
150972000,150888000,6620172,29.311644,0.11146679,-0.1262474,12.469399,0.0001420224
151092000,151008000,6620172,29.310484,0.111467265,-0.084653854,12.474306,6.383143e-05
151212000,151128000,6620172,29.309473,0.11146854,-0.03391075,12.479415,1.0238541e-05
151332000,151248000,6620172,29.308044,0.11146924,-0.09249115,12.467866,7.623699e-05
151452000,151368000,6620172,29.306936,0.11146937,-0.11240196,12.472707,0.00011254975
151508000,151428000,6620172,29.305397,0.11140274,-0.17080879,12.474898,0.00025986088
151692000,151608000,6620172,29.303724,0.11147166,-0.12283325,12.478318,0.00013434867
151748000,151668000,6620172,29.302706,0.111404456,-0.11302757,12.468367,0.00011384572
151812000,151728000,6620172,29.301384,0.111471444,-0.14653206,12.471065,0.0001913019
151932000,151848000,6620172,29.299696,0.11147203,-0.09159851,12.476038,7.4723575e-05
151988000,151908000,6620172,29.298435,0.111405626,-0.13997269,12.478287,0.00017445728
152108000,152028000,6620172,29.296877,0.11140606,-0.070858,12.466836,4.4748558e-05
152172000,152088000,6620172,29.295427,0.11147289,-0.16065025,12.469497,0.00022997012
152228000,152148000,6620172,29.293938,0.11140593,-0.16517067,12.471628,0.00024305255
152348000,152268000,6620172,29.29242,0.11140661,-0.08942795,12.476624,7.122082e-05
152588000,152508000,6620172,29.290705,0.11140764,-0.09973526,12.470044,8.863126e-05
152652000,152568000,6620172,29.28918,0.11147471,-0.16908073,12.472782,0.00025467272
152708000,152628000,6620172,29.287838,0.11140799,-0.14901543,12.474973,0.00019777907
152772000,152688000,6620172,29.286684,0.11147546,-0.12802696,12.477823,0.00014595587
152828000,152748000,6620172,29.285624,0.11140914,-0.11772728,12.480101,0.00012339388
152948000,152868000,6620172,29.283958,0.11140936,-0.1114769,12.468423,0.00011074286
153068000,152988000,6620172,29.281694,0.11140938,-0.1653347,12.473281,0.00024350328
153188000,153108000,6620172,29.27933,0.11141021,-0.1518383,12.478338,0.00020528793
153308000,153228000,6620172,29.277935,0.11141048,-0.07168579,12.466876,4.5800058e-05
153372000,153288000,6620172,29.276249,0.11147724,-0.1869793,12.469535,0.00031152598
153548000,153468000,6620172,29.274574,0.11141074,-0.087480545,12.476658,6.815256e-05
153612000,153528000,6620172,29.273262,0.1114783,-0.14554214,12.479543,0.00018859768
153788000,153708000,6620172,29.272022,0.11141147,-0.09074974,12.470015,7.338061e-05
153852000,153768000,6620172,29.269964,0.11147846,-0.2281475,12.472749,0.00046368898
153908000,153828000,6620172,29.268627,0.11141167,-0.14841461,12.474936,0.00019618802
153972000,153888000,6620172,29.266993,0.111479074,-0.1813488,12.477781,0.00029285287
154028000,153948000,6620172,29.265478,0.11141269,-0.16815376,12.480055,0.00025174112
154212000,154128000,6620172,29.26392,0.11147868,-0.10035515,12.471136,8.972857e-05
154268000,154188000,6620172,29.26283,0.11141175,-0.12091255,12.473294,0.00013023241
154388000,154308000,6620172,29.261436,0.11141249,-0.09498978,12.478349,8.034412e-05
154508000,154428000,6620172,29.260187,0.11141268,-0.07123566,12.466835,4.522683e-05
154628000,154548000,6620172,29.257685,0.11141232,-0.21026993,12.471616,0.00039390282
154748000,154668000,6620172,29.256119,0.111412756,-0.07820511,12.4766,5.4466756e-05
154812000,154728000,6620172,29.254904,0.11148028,-0.13474274,12.47948,0.00016164852
154932000,154848000,6620172,29.252853,0.11148058,-0.13423157,12.467921,0.0001605731
154988000,154908000,6620172,29.25185,0.11141335,-0.11128235,12.470018,0.00011034254
155108000,155028000,6620172,29.25064,0.111413494,-0.11289787,12.474936,0.00011352479
155228000,155148000,6620172,29.24954,0.11141444,-0.06178856,12.48005,3.399048e-05
155412000,155328000,6620172,29.24757,0.111481264,-0.15945435,12.471078,0.00022653025
155468000,155388000,6620172,29.246273,0.11141428,-0.14384079,12.473231,0.00018430734
155532000,155448000,6620172,29.244509,0.111481495,-0.1957035,12.476033,0.0003410972
155772000,155688000,6620172,29.243322,0.11148168,-0.031461716,12.469423,8.82015e-06
155892000,155808000,6620172,29.242193,0.11148162,-0.0890007,12.47428,7.055517e-05
155948000,155866000,6620172,29.241083,0.111414894,-0.12322998,12.476469,0.00013523795
156116000,156036000,6620172,29.239407,0.111223884,-0.088451385,12.466648,6.972959e-05
156300000,156216000,6620172,29.237745,0.11130059,-0.099393845,12.474071,8.799708e-05
156420000,156336000,6620172,29.236664,0.111307755,-0.061296463,12.479051,3.34539e-05
156540000,156456000,6620172,29.235653,0.11131414,-0.075035095,12.467565,5.0177005e-05
156660000,156576000,6620172,29.234308,0.11131975,-0.08109093,12.472264,5.858099e-05
156716000,156636000,6620172,29.232882,0.11125577,-0.15845108,12.474386,0.00022362931
156836000,156756000,6620172,29.230915,0.11126225,-0.14753532,12.479355,0.0001938016
156956000,156876000,6620172,29.229008,0.11126667,-0.17214012,12.467932,0.000264075
157140000,157054666,6620172,29.227772,0.11134143,-0.048635483,12.475413,2.1067306e-05
157196000,157116000,6620172,29.226221,0.11127733,-0.17235184,12.477612,0.0002645196
157316000,157236000,6620172,29.225092,0.11128224,-0.051067352,12.466302,2.3243769e-05
157556000,157476000,6620172,29.223198,0.11129127,-0.12340927,12.475947,0.00013563743
157620000,157536000,6620172,29.222149,0.11136092,-0.11650467,12.478801,0.000120856865
157740000,157656000,6620172,29.221083,0.11136538,-0.10258293,12.467381,9.378481e-05
157796000,157716000,6620172,29.219885,0.11130018,-0.1330452,12.46945,0.00015772792
157980000,157896000,6620172,29.218605,0.111373544,-0.1379509,12.477078,0.00016947031
158220000,158136000,6620172,29.21685,0.111380346,-0.11351204,12.47048,0.0001148043
158460000,158376000,6620172,29.215778,0.11138844,-0.029115677,12.480105,7.5473245e-06
158580000,158496000,6620172,29.214693,0.111390814,-0.019529343,12.468602,3.3987167e-06
158876000,158794000,6620172,29.213646,0.11133258,-0.056352615,12.479946,2.8273067e-05
159708000,159624000,6620172,29.212473,0.1112593,-0.040481567,12.4645195,1.4608196e-05
159948000,159864000,6620172,29.213558,0.11127388,0.12509155,12.473637,0.0001393864
160548000,160464000,6620172,29.214563,0.11130751,0.053001404,12.466151,2.5038013e-05
160724000,160644000,6620172,29.216185,0.11124914,0.07106209,12.472938,4.4984685e-05
160908000,160824000,6620172,29.217617,0.11132478,0.068496704,12.464802,4.182264e-05
161324000,161244000,6620172,29.218739,0.11127584,0.06985474,12.465466,4.3495136e-05
161868000,161784000,6620172,29.219978,0.111363135,0.08093643,12.471401,5.8362024e-05
162284000,162204000,6620172,29.221294,0.11130952,0.055065155,12.472088,2.7012953e-05
162468000,162384000,6620172,29.222748,0.11138305,0.11715889,12.479882,0.0001222074
162764000,162684000,6620172,29.22159,0.11132368,-0.0788517,12.475443,5.5376262e-05
163604000,163524000,6620172,29.223104,0.111343965,0.08966446,12.477268,7.159434e-05
163788000,163704000,6620172,29.22439,0.1114143,0.07839012,12.468695,5.475946e-05
163844000,163764000,6620172,29.22276,0.11134832,-0.18096352,12.470787,0.00029177338
164132000,164052000,6620172,29.221565,0.11116312,-0.021810532,12.466116,4.2399315e-06
164252000,164172000,6620172,29.222588,0.11117154,0.05801773,12.470852,2.9990439e-05
164436000,164352000,6620172,29.224066,0.11125209,0.09763527,12.478642,8.487965e-05
165332000,165252000,6620172,29.222605,0.111238964,-0.05630684,12.466668,2.8257218e-05
165572000,165492000,6620172,29.220186,0.11125118,-0.17269897,12.476461,0.0002656107
165692000,165612000,6620172,29.218521,0.11125686,-0.1199913,12.465309,0.00012833762
165876000,165792000,6620172,29.217377,0.11133151,-0.04673767,12.472797,1.9459325e-05
165996000,165912000,6620172,29.216263,0.11133738,-0.0902462,12.477859,7.252292e-05
166052000,165972000,6620172,29.215233,0.11127355,-0.11444092,12.480146,0.00011660052
166292000,166212000,6620172,29.213356,0.111282416,-0.14665604,12.473472,0.00019158877
166412000,166332000,6620172,29.211992,0.1112878,-0.06062317,12.478563,3.2724285e-05
166476000,166392000,6620172,29.210657,0.11135774,-0.14821625,12.481504,0.00019556096
166700000,166620000,6620172,29.209478,0.11110009,-0.0701828,12.473592,4.387603e-05
166884000,166800000,6620172,29.208187,0.111184746,-0.08324242,12.477063,6.1707e-05
167180000,167100000,6620172,29.206896,0.11114322,-0.035741806,12.477209,1.137609e-05
167300000,167220000,6620172,29.205545,0.11115285,-0.10500717,12.465855,9.828186e-05
167420000,167340000,6620172,29.204144,0.111161605,-0.11321068,12.470642,0.000114194045
167660000,167580000,6620172,29.202583,0.11118057,-0.09908295,12.480824,8.740013e-05
167780000,167700000,6620172,29.203709,0.1111881,0.104206085,12.469131,9.676258e-05
168084000,168000000,6620172,29.202496,0.111276194,-0.048921585,12.482138,2.1304413e-05
168620000,168540000,6620172,29.203623,0.111239485,0.04613304,12.47096,1.8961897e-05
168804000,168720000,6620172,29.202362,0.111316465,-0.05840683,12.478839,3.0374602e-05
169044000,168958666,6620172,29.201193,0.11132778,-0.073358536,12.472126,4.794224e-05
169340000,169260000,6620172,29.20293,0.11127531,0.12085724,12.467837,0.00013017024
169524000,169438666,6620172,29.204844,0.11134961,0.110616684,12.4755,0.000108978486
169764000,169680000,6620172,29.206152,0.111358896,0.0481987,12.469002,2.0701245e-05
169884000,169800000,6620172,29.207636,0.11136316,0.067625046,12.473901,4.0735245e-05
170004000,169920000,6620172,29.208796,0.11136808,0.05441475,12.479,2.636398e-05
170364000,170280000,6620172,29.21026,0.11138002,0.07035637,12.477276,4.4080298e-05
170540000,170460000,6620172,29.212116,0.11131922,0.13615036,12.467926,0.0001651965
170900000,170820000,6620172,29.213871,0.11132942,0.14860153,12.466349,0.00019681799
171084000,171000000,6620172,29.215084,0.11140047,0.041841507,12.473877,1.5594473e-05
171324000,171240000,6620172,29.216898,0.11140698,0.12776756,12.467399,0.00014548656
171444000,171360000,6620172,29.218702,0.11140926,0.11878967,12.472209,0.00012571047
171620000,171540000,6620172,29.219738,0.11134703,0.031311035,12.479486,8.728822e-06
171924000,171840000,6620172,29.22077,0.111420095,0.041067123,12.475511,1.5020616e-05
172044000,171960000,6620172,29.222187,0.11142325,0.06499863,12.480655,3.761218e-05
172164000,172080000,6620172,29.224049,0.111424424,0.13604355,12.46895,0.00016492387
172284000,172200000,6620172,29.225508,0.11142634,0.053897858,12.473827,2.5876216e-05
172524000,172440000,6620172,29.226837,0.111431025,0.09029198,12.467413,7.2657334e-05
172644000,172560000,6620172,29.228865,0.11143245,0.13743019,12.472227,0.0001682588
172764000,172680000,6620172,29.230167,0.111434616,0.07794762,12.477246,5.4105876e-05
172820000,172740000,6620172,29.231499,0.111368984,0.1479435,12.479516,0.00019487293
172940000,172860000,6620172,29.233051,0.11137055,0.10879707,12.467959,0.00010548642
173060000,172980000,6620172,29.23442,0.11137188,0.08658028,12.472803,6.6777684e-05
173124000,173040000,6620172,29.235521,0.111439824,0.12216377,12.475607,0.00013291703
173300000,173218000,6620172,29.236872,0.111375466,0.13723946,12.466384,0.00016787073
173348000,173268000,6620172,29.238049,0.11117719,0.13080597,12.46789,0.00015248239
173468000,173388000,6620172,29.239971,0.11118542,0.14892578,12.472753,0.00019757634
173652000,173568000,6620172,29.241179,0.11126572,0.047060013,12.48075,1.9716093e-05
173772000,173688000,6620172,29.242847,0.111272536,0.11523056,12.469035,0.0001183205
173828000,173748000,6620172,29.244274,0.11120915,0.15865326,12.47117,0.00022425818
173892000,173806666,6620172,29.24579,0.11127989,0.16835594,12.47395,0.00025247035
174012000,173928000,6620172,29.246906,0.111287795,0.03160858,12.479072,8.895804e-06
174132000,174048000,6620172,29.249908,0.111294895,0.22605324,12.467552,0.00045540498
174308000,174228000,6620172,29.251917,0.11123758,0.12118149,12.474609,0.0001307986
174668000,174588000,6620172,29.253637,0.11125643,0.09805679,12.472993,8.565292e-05
174732000,174648000,6620172,29.254963,0.11132647,0.14716339,12.47582,0.00019288035
174788000,174708000,6620172,29.255964,0.11126267,0.11122894,12.478084,0.000110165405
174852000,174768000,6620172,29.257399,0.11133303,0.15924644,12.481024,0.00022575987
174972000,174888000,6620172,29.259205,0.11133749,0.098220825,12.469303,8.5965155e-05
175092000,175008000,6620172,29.26146,0.11134257,0.1414032,12.474241,0.00017809913
175148000,175068000,6620172,29.262558,0.111278355,0.12216377,12.4764805,0.00013290773
175268000,175186000,6620172,29.264683,0.1112844,0.1626606,12.481715,0.00023553094
175380000,175296000,6620172,29.266201,0.11116022,0.10697937,12.469346,0.000101979735
175436000,175356000,6620172,29.267403,0.11109888,0.13362694,12.471503,0.00015908407
175500000,175416000,6620172,29.268826,0.11117163,0.1581726,12.474309,0.00022284532
175676000,175594000,6620172,29.271368,0.11112253,0.18784714,12.481818,0.00031411508
175908000,175824000,6620172,29.272463,0.111021124,0.037733078,12.474426,1.2681814e-05
175964000,175884000,6620172,29.273699,0.1109627,0.13779831,12.476686,0.00016910095
176084000,176004000,6620172,29.276169,0.11098002,0.17258644,12.481969,0.00026514762
