timestamp,roll_body,pitch_body,yaw_body,yaw_sp_move_rate,q_d[0],q_d[1],q_d[2],q_d[3],thrust_body[0],thrust_body[1],thrust_body[2],reset_integral,fw_control_yaw_wheel
96212000,0.0061592557,0.034906585,1.4617033,0.0,0.74452513,-0.009356738,0.015050455,0.6673592,0.0,0.0,0.0,0,0
96236000,0.006735239,0.034906585,1.4443108,0.0,0.7503031,-0.009009424,0.015321576,0.66085505,0.0,0.0,0.0,0,0
96252000,0.0071729003,0.034906585,1.4329401,0.0,0.7540501,-0.00875716,0.015516229,0.65657526,0.0,0.0,0.0,0,0
96276000,0.0077900263,0.034906585,1.4165108,0.0,0.7594207,-0.008395078,0.015788317,0.65035415,0.0,0.0,0.0,0,0
96292000,0.008142132,0.034906585,1.4059736,0.0,0.7628381,-0.008177478,0.015946118,0.6463412,0.0,0.0,0.0,0,0
96316000,0.00860593,0.034906585,1.3907864,0.0,0.7677259,-0.007878122,0.016156292,0.6405263,0.0,0.0,0.0,0,0
96332000,0.00885127,0.034906585,1.3811897,0.0,0.7707915,-0.007705955,0.016272029,0.6368331,0.0,0.0,0.0,0,0
96356000,0.009236203,0.034906585,1.3673973,0.0,0.7751663,-0.0074443636,0.016446326,0.6314993,0.0,0.0,0.0,0,0
96372000,0.009440566,0.034906585,1.3586135,0.0,0.77793306,-0.0072925715,0.016543042,0.62808704,0.0,0.0,0.0,0,0
96396000,0.009669428,0.034906585,1.3459656,0.0,0.7818903,-0.0070983367,0.016660137,0.62315303,0.0,0.0,0.0,0,0
96412000,0.009747458,0.034906585,1.337874,0.0,0.7844053,-0.0070002726,0.016712906,0.619984,0.0,0.0,0.0,0,0
96436000,0.009886369,0.034906585,1.3263253,0.0,0.7879727,-0.006848921,0.016795797,0.615443,0.0,0.0,0.0,0,0
96452000,0.009972012,0.034906585,1.3189473,0.0,0.79023796,-0.0067530735,0.016847176,0.6125312,0.0,0.0,0.0,0,0
96476000,0.010086762,0.034906585,1.3083044,0.0,0.7934867,-0.0066178027,0.016917776,0.6083165,0.0,0.0,0.0,0,0
96492000,0.01009563,0.034906585,1.3014708,0.0,0.7955606,-0.0065564304,0.016942974,0.6056016,0.0,0.0,0.0,0,0
96516000,0.009946204,0.034906585,1.2916758,0.0,0.79851645,-0.0065330337,0.016929926,0.6016994,0.0,0.0,0.0,0,0
96532000,0.009875308,0.034906585,1.285574,0.0,0.8003483,-0.0065097227,0.016928537,0.599261,0.0,0.0,0.0,0,0
96556000,0.009780211,0.034906585,1.2766852,0.0,0.8030034,-0.006472604,0.016928976,0.59569883,0.0,0.0,0.0,0,0
96572000,0.009699173,0.034906585,1.2710385,0.0,0.8046818,-0.0064573875,0.016923137,0.59343,0.0,0.0,0.0,0,0
96596000,0.009485413,0.034906585,1.2630695,0.0,0.8070392,-0.00647616,0.01688565,0.5902208,0.0,0.0,0.0,0,0
96612000,0.009385009,0.034906585,1.2579784,0.0,0.8085387,-0.0064737475,0.016872555,0.5881654,0.0,0.0,0.0,0,0
96636000,0.009203376,0.034906585,1.2507274,0.0,0.8106652,-0.006486155,0.016842766,0.5852317,0.0,0.0,0.0,0,0
96652000,0.009115148,0.034906585,1.2461296,0.0,0.8120082,-0.00648324,0.016831897,0.5833673,0.0,0.0,0.0,0,0
96676000,0.008948643,0.034906585,1.239583,0.0,0.8139128,-0.006495869,0.016804684,0.5807076,0.0,0.0,0.0,0,0
96692000,0.008811257,0.034906585,1.235424,0.0,0.81511813,-0.0065169027,0.01677838,0.57901496,0.0,0.0,0.0,0,0
96716000,0.008638642,0.034906585,1.2296145,0.0,0.81679606,-0.0065386337,0.01674747,0.57664627,0.0,0.0,0.0,0,0
96732000,0.008520345,0.034906585,1.2259002,0.0,0.81786525,-0.006555896,0.016725566,0.5751294,0.0,0.0,0.0,0,0
96756000,0.008332705,0.034906585,1.2206771,0.0,0.8193638,-0.0065890653,0.016688872,0.57299304,0.0,0.0,0.0,0,0
96772000,0.008273052,0.034906585,1.2173994,0.0,0.8203016,-0.0065861735,0.016682599,0.57164997,0.0,0.0,0.0,0,0
96796000,0.008178298,0.034906585,1.2127213,0.0,0.8216361,-0.006586061,0.016670968,0.5697305,0.0,0.0,0.0,0,0
96812000,0.008154352,0.034906585,1.2096643,0.0,0.82250595,-0.0065704193,0.016674208,0.5684742,0.0,0.0,0.0,0,0
96836000,0.008091192,0.034906585,1.2053548,0.0,0.8237287,-0.0065604886,0.01667043,0.56670105,0.0,0.0,0.0,0,0
96852000,0.008058679,0.034906585,1.2026445,0.0,0.8244958,-0.0065512946,0.016670112,0.56558454,0.0,0.0,0.0,0,0
96876000,0.008040615,0.034906585,1.1989571,0.0,0.8255371,-0.006528006,0.016677067,0.5640636,0.0,0.0,0.0,0,0
96892000,0.008066546,0.034906585,1.1965721,0.0,0.82620925,-0.0064974013,0.01669214,0.5630785,0.0,0.0,0.0,0,0
96916000,0.008010269,0.034906585,1.1931065,0.0,0.82718354,-0.006491743,0.01668757,0.5616465,0.0,0.0,0.0,0,0
96932000,0.008019383,0.034906585,1.1909783,0.0,0.8277808,-0.006470209,0.016697023,0.56076586,0.0,0.0,0.0,0,0
96956000,0.0079339035,0.034906585,1.1878853,0.0,0.8286467,-0.0064797956,0.016683098,0.55948573,0.0,0.0,0.0,0,0
96972000,0.007980316,0.034906585,1.1859527,0.0,0.8291871,-0.006444429,0.016702315,0.55868435,0.0,0.0,0.0,0,0
96996000,0.0080481535,0.034906585,1.183233,0.0,0.8299462,-0.006393561,0.016729975,0.55755574,0.0,0.0,0.0,0,0
97012000,0.008181478,0.034906585,1.181551,0.0,0.8304153,-0.0063241324,0.016772468,0.55685645,0.0,0.0,0.0,0,0
97036000,0.008356316,0.034906585,1.179201,0.0,0.8310696,-0.006231768,0.016828481,0.5558789,0.0,0.0,0.0,0,0
97052000,0.008448874,0.034906585,1.1777236,0.0,0.83148026,-0.0061808564,0.016858777,0.55526406,0.0,0.0,0.0,0,0
97076000,0.008683745,0.034906585,1.1756303,0.0,0.8320617,-0.0060654934,0.016930344,0.5543915,0.0,0.0,0.0,0,0
97092000,0.008870824,0.034906585,1.1743242,0.0,0.83242416,-0.005976571,0.016986107,0.55384636,0.0,0.0,0.0,0,0
97116000,0.009202336,0.034906585,1.1724771,0.0,0.8329362,-0.005822817,0.017083295,0.55307454,0.0,0.0,0.0,0,0
97132000,0.009440676,0.034906585,1.171308,0.0,0.8332601,-0.0057135304,0.017152548,0.5525855,0.0,0.0,0.0,0,0
97156000,0.0097774835,0.034906585,1.1698494,0.0,0.8336638,-0.0055606277,0.017249664,0.55197483,0.0,0.0,0.0,0,0
97172000,0.010009872,0.034906585,1.1689404,0.0,0.8339153,-0.005455892,0.017316284,0.55159384,0.0,0.0,0.0,0,0
97196000,0.01045117,0.034906585,1.1675596,0.0,0.83429706,-0.0052598477,0.017441627,0.5510141,0.0,0.0,0.0,0,0
97212000,0.010694875,0.034906585,1.1667458,0.0,0.8345218,-0.005151062,0.017510865,0.5506724,0.0,0.0,0.0,0,0
97236000,0.011104563,0.034906585,1.1655208,0.0,0.83485997,-0.004969319,0.017626714,0.5501576,0.0,0.0,0.0,0,0
97252000,0.011429441,0.034906585,1.1648223,0.0,0.83505285,-0.004827518,0.017717768,0.54986316,0.0,0.0,0.0,0,0
97276000,0.011932872,0.034906585,1.1638969,0.0,0.8353084,-0.004609059,0.017858312,0.5494722,0.0,0.0,0.0,0,0
97292000,0.012247622,0.034906585,1.1632619,0.0,0.8354835,-0.0044719055,0.017946204,0.5492042,0.0,0.0,0.0,0,0
97316000,0.012695,0.034906585,1.1623888,0.0,0.8357242,-0.0042771283,0.018070925,0.5488354,0.0,0.0,0.0,0,0
97332000,0.013062054,0.034906585,1.1617938,0.0,0.83588815,-0.004118344,0.018172875,0.5485833,0.0,0.0,0.0,0,0
97356000,0.013531436,0.034906585,1.1611576,0.0,0.8360636,-0.003916347,0.01830287,0.5483132,0.0,0.0,0.0,0,0
97372000,0.013832572,0.034906585,1.1607829,0.0,0.83616686,-0.003787018,0.018386137,0.5481538,0.0,0.0,0.0,0,0
97396000,0.014352396,0.034906585,1.1602395,0.0,0.8363168,-0.0035646525,0.018529579,0.5479218,0.0,0.0,0.0,0,0
97412000,0.014698225,0.034906585,1.1599357,0.0,0.83640057,-0.003417213,0.018624842,0.54779154,0.0,0.0,0.0,0,0
97436000,0.015310295,0.034906585,1.1595216,0.0,0.836515,-0.0031573535,0.018793138,0.5476126,0.0,0.0,0.0,0,0
97452000,0.015764154,0.034906585,1.1593229,0.0,0.8365701,-0.0029656435,0.018917702,0.54752517,0.0,0.0,0.0,0,0
97476000,0.016484216,0.034906585,1.1591724,0.0,0.8366123,-0.0026630145,0.019115027,0.54745543,0.0,0.0,0.0,0,0
97492000,0.016972953,0.034906585,1.1590757,0.0,0.8366394,-0.0024576425,0.019248927,0.5474103,0.0,0.0,0.0,0,0
97516000,0.017699614,0.034906585,1.1589987,0.0,0.8366613,-0.002152916,0.019447898,0.54737103,0.0,0.0,0.0,0,0
97532000,0.018167388,0.034906585,1.1590233,0.0,0.836655,-0.001957472,0.019575898,0.54737675,0.0,0.0,0.0,0,0
97556000,0.018972559,0.034906585,1.1590511,0.0,0.8366481,-0.0016209222,0.019796237,0.5473804,0.0,0.0,0.0,0,0
97572000,0.019471535,0.034906585,1.1591198,0.0,0.8366297,-0.0014128741,0.019932754,0.5474042,0.0,0.0,0.0,0,0
97596000,0.02023286,0.034906585,1.1592054,0.0,0.83660674,-0.0010952614,0.020141082,0.5474324,0.0,0.0,0.0,0,0
97612000,0.020801006,0.034906585,1.1593037,0.0,0.8365802,-0.0008586012,0.02029655,0.54746777,0.0,0.0,0.0,0,0
97636000,0.021525439,0.034906585,1.1595252,0.0,0.8365197,-0.00055784825,0.020494789,0.54755306,0.0,0.0,0.0,0,0
97652000,0.022028599,0.034906585,1.1597136,0.0,0.8364683,-0.0003493391,0.020632507,0.5476266,0.0,0.0,0.0,0,0
97676000,0.022815816,0.034906585,1.1600591,0.0,0.83637375,-2.3701228e-05,0.020848054,0.547763,0.0,0.0,0.0,0,0
97692000,0.023343632,0.034906585,1.1603416,0.0,0.8362963,0.00019405782,0.02099264,0.54787564,0.0,0.0,0.0,0,0
97716000,0.02413017,0.034906585,1.1607726,0.0,0.8361781,0.0005183788,0.021208212,0.5480475,0.0,0.0,0.0,0,0
97732000,0.024698144,0.034906585,1.1610584,0.0,0.8360996,0.00075278897,0.021363959,0.548161,0.0,0.0,0.0,0,0
97756000,0.025539117,0.034906585,1.1614728,0.0,0.8359856,0.0010998826,0.021594679,0.5483252,0.0,0.0,0.0,0,0
97772000,0.026138388,0.034906585,1.1618046,0.0,0.8358943,0.001346766,0.0217592,0.54845726,0.0,0.0,0.0,0,0
97796000,0.027065309,0.034906585,1.1622545,0.0,0.83577025,0.0017292174,0.022013776,0.5486352,0.0,0.0,0.0,0,0
97812000,0.02768476,0.034906585,1.1626594,0.0,0.83565855,0.001983584,0.022184104,0.54879755,0.0,0.0,0.0,0,0
97836000,0.02855056,0.034906585,1.1632549,0.0,0.83549416,0.0023386646,0.022422373,0.5490367,0.0,0.0,0.0,0,0
97852000,0.029083502,0.034906585,1.1637363,0.0,0.8353613,0.0025558677,0.02256929,0.5492318,0.0,0.0,0.0,0,0
97876000,0.02998335,0.034906585,1.1644255,0.0,0.8351708,0.0029238537,0.022817409,0.54950947,0.0,0.0,0.0,0,0
97892000,0.030598158,0.034906585,1.1648927,0.0,0.83504146,0.0031752177,0.022987071,0.54969746,0.0,0.0,0.0,0,0
97916000,0.03149624,0.034906585,1.1656739,0.0,0.8348252,0.0035411129,0.023235291,0.5500132,0.0,0.0,0.0,0,0
97932000,0.03208482,0.034906585,1.1662651,0.0,0.8346614,0.0037798742,0.02339827,0.5502531,0.0,0.0,0.0,0,0
97956000,0.033052478,0.034906585,1.1670916,0.0,0.83443207,0.004173928,0.023666224,0.5505866,0.0,0.0,0.0,0,0
97972000,0.033639543,0.034906585,1.1677155,0.0,0.83425903,0.0044114254,0.023829218,0.5508399,0.0,0.0,0.0,0,0
97996000,0.03467389,0.034906585,1.1686946,0.0,0.8339869,0.0048310785,0.02411646,0.55123585,0.0,0.0,0.0,0,0
98012000,0.035323568,0.034906585,1.1692859,0.0,0.83382225,0.0050948067,0.024297029,0.5514745,0.0,0.0,0.0,0,0
98036000,0.03627463,0.034906585,1.1702915,0.0,0.83354235,0.0054789633,0.024562027,0.5518821,0.0,0.0,0.0,0,0
98052000,0.03694709,0.034906585,1.1709031,0.0,0.83337164,0.005751659,0.024749344,0.5521286,0.0,0.0,0.0,0,0
98076000,0.037870165,0.034906585,1.1718557,0.0,0.83310586,0.006124381,0.025007091,0.552514,0.0,0.0,0.0,0,0
98092000,0.03847711,0.034906585,1.1725172,0.0,0.83292115,0.0063688783,0.02517687,0.55278194,0.0,0.0,0.0,0,0
98116000,0.039380822,0.034906585,1.1736531,0.0,0.83260405,0.006730793,0.025430473,0.5532435,0.0,0.0,0.0,0,0
98132000,0.03993642,0.034906585,1.1744113,0.0,0.83239245,0.006952393,0.025586799,0.55355203,0.0,0.0,0.0,0,0
98156000,0.040782113,0.034906585,1.1755581,0.0,0.83207196,0.0072895586,0.02582505,0.5540184,0.0,0.0,0.0,0,0
98172000,0.041382186,0.034906585,1.1763889,0.0,0.8318395,0.0075284103,0.025994403,0.55435616,0.0,0.0,0.0,0,0
98196000,0.042234372,0.034906585,1.1774962,0.0,0.83152914,0.00786833,0.026234968,0.55480546,0.0,0.0,0.0,0,0
98212000,0.04282516,0.034906585,1.1783372,0.0,0.83129346,0.008102857,0.026402261,0.55514735,0.0,0.0,0.0,0,0
98236000,0.04370503,0.034906585,1.179562,0.0,0.8309496,0.008452249,0.02665167,0.55564463,0.0,0.0,0.0,0,0
98252000,0.044404086,0.034906585,1.1804059,0.0,0.8307122,0.008731362,0.026849568,0.5559858,0.0,0.0,0.0,0,0
98276000,0.045496132,0.034906585,1.1817764,0.0,0.830326,0.0091663385,0.027159434,0.55654025,0.0,0.0,0.0,0,0
98292000,0.046304945,0.034906585,1.1826704,0.0,0.8300735,0.009489887,0.027388744,0.5569003,0.0,0.0,0.0,0,0
98316000,0.047458768,0.034906585,1.1838913,0.0,0.8297277,0.009951845,0.0277161,0.55739105,0.0,0.0,0.0,0,0
98332000,0.048201095,0.034906585,1.1847453,0.0,0.8294859,0.010247885,0.027927361,0.55773497,0.0,0.0,0.0,0,0
98356000,0.049351983,0.034906585,1.186046,0.0,0.82911694,0.010706834,0.02825527,0.5582581,0.0,0.0,0.0,0,0
98372000,0.0500381,0.034906585,1.1869185,0.0,0.82886964,0.010978859,0.028451577,0.55861,0.0,0.0,0.0,0,0
98396000,0.05113886,0.034906585,1.1882001,0.0,0.8285053,0.011416616,0.028766342,0.55912536,0.0,0.0,0.0,0,0
98412000,0.051794853,0.034906585,1.1891379,0.0,0.82823926,0.011674789,0.02895521,0.5595043,0.0,0.0,0.0,0,0
98436000,0.052813184,0.034906585,1.1904176,0.0,0.8278751,0.012077783,0.029247819,0.5600193,0.0,0.0,0.0,0,0
98452000,0.05350209,0.034906585,1.1913136,0.0,0.8276199,0.012349758,0.029446252,0.56038,0.0,0.0,0.0,0,0
98476000,0.054413263,0.034906585,1.1926675,0.0,0.8272346,0.012706702,0.029710159,0.5609267,0.0,0.0,0.0,0,0
98492000,0.054890756,0.034906585,1.193516,0.0,0.8269935,0.012891534,0.029849552,0.5612705,0.0,0.0,0.0,0,0
98516000,0.055631716,0.034906585,1.1948247,0.0,0.8266213,0.01317825,0.030066116,0.56180036,0.0,0.0,0.0,0,0
98532000,0.056067366,0.034906585,1.195758,0.0,0.8263562,0.013344218,0.030194722,0.56217945,0.0,0.0,0.0,0,0
98556000,0.05662974,0.034906585,1.1970937,0.0,0.8259767,0.013556305,0.030361857,0.56272274,0.0,0.0,0.0,0,0
98572000,0.0570742,0.034906585,1.1980257,0.0,0.8257114,0.013725655,0.030493312,0.56310076,0.0,0.0,0.0,0,0
98596000,0.057733245,0.034906585,1.1993796,0.0,0.8253254,0.013976973,0.030688332,0.56364954,0.0,0.0,0.0,0,0
98612000,0.058219485,0.034906585,1.200312,0.0,0.8250591,0.014163253,0.030831974,0.5640268,0.0,0.0,0.0,0,0
98636000,0.05882941,0.034906585,1.2017219,0.0,0.824657,0.014393002,0.031014133,0.56459886,0.0,0.0,0.0,0,0
98652000,0.05916919,0.034906585,1.202698,0.0,0.82437885,0.014517919,0.031117141,0.5649959,0.0,0.0,0.0,0,0
98676000,0.05978823,0.034906585,1.2040751,0.0,0.8239851,0.01475153,0.031302184,0.5655538,0.0,0.0,0.0,0,0
98692000,0.060191393,0.034906585,1.2049658,0.0,0.8237302,0.014903638,0.031422824,0.56591445,0.0,0.0,0.0,0,0
98716000,0.06082419,0.034906585,1.2063663,0.0,0.823329,0.015142132,0.03161249,0.56648105,0.0,0.0,0.0,0,0
98732000,0.061238285,0.034906585,1.207301,0.0,0.8230609,0.01529777,0.03173693,0.5668592,0.0,0.0,0.0,0,0
98756000,0.061826255,0.034906585,1.2085849,0.0,0.82269233,0.015519252,0.031913545,0.5673781,0.0,0.0,0.0,0,0
98772000,0.062199596,0.034906585,1.209465,0.0,0.8224397,0.015658733,0.032026354,0.5677341,0.0,0.0,0.0,0,0
98796000,0.06273335,0.034906585,1.2108727,0.0,0.82203573,0.015855573,0.032189034,0.56830424,0.0,0.0,0.0,0,0
98812000,0.06304233,0.034906585,1.2117331,0.0,0.82178867,0.015968677,0.0322837,0.5686529,0.0,0.0,0.0,0,0
98836000,0.063497856,0.034906585,1.2130737,0.0,0.8214037,0.016134119,0.032424044,0.5691963,0.0,0.0,0.0,0,0
98852000,0.06381988,0.034906585,1.213959,0.0,0.82114905,0.016251981,0.032522887,0.56955457,0.0,0.0,0.0,0,0
98876000,0.06431774,0.034906585,1.2152977,0.0,0.8207635,0.016434524,0.032675676,0.57009596,0.0,0.0,0.0,0,0
98892000,0.06456663,0.034906585,1.2161672,0.0,0.82051355,0.016522422,0.032753803,0.57044864,0.0,0.0,0.0,0,0
98916000,0.06490185,0.034906585,1.2176191,0.0,0.8200965,0.0166361,0.032861505,0.57103866,0.0,0.0,0.0,0,0
98932000,0.06510276,0.034906585,1.2185922,0.0,0.8198169,0.016702466,0.032927,0.57143426,0.0,0.0,0.0,0,0
98956000,0.06533009,0.034906585,1.2200639,0.0,0.81939423,0.016771365,0.0330043,0.57203364,0.0,0.0,0.0,0,0
98972000,0.06551891,0.034906585,1.2210208,0.0,0.81911886,0.016832903,0.033066362,0.5724225,0.0,0.0,0.0,0,0
98996000,0.0658629,0.034906585,1.2224092,0.0,0.8187184,0.016950762,0.03317659,0.57298535,0.0,0.0,0.0,0,0
99012000,0.06605096,0.034906585,1.2232583,0.0,0.81847346,0.01701364,0.033237696,0.57332975,0.0,0.0,0.0,0,0
99036000,0.06635598,0.034906585,1.224522,0.0,0.81810844,0.017117402,0.033335954,0.5738417,0.0,0.0,0.0,0,0
99052000,0.06645609,0.034906585,1.2254089,0.0,0.81785303,0.017143555,0.033372283,0.5742027,0.0,0.0,0.0,0,0
99076000,0.066644646,0.034906585,1.226722,0.0,0.8174742,0.017198712,0.033437718,0.5747364,0.0,0.0,0.0,0,0
99092000,0.06675435,0.034906585,1.227586,0.0,0.817225,0.017229091,0.03347669,0.57508767,0.0,0.0,0.0,0,0
99116000,0.06688811,0.034906585,1.2288295,0.0,0.81686604,0.017262908,0.03352589,0.5755934,0.0,0.0,0.0,0,0
99132000,0.06698687,0.034906585,1.2296963,0.0,0.81661564,0.017288696,0.033561807,0.5759458,0.0,0.0,0.0,0,0
99156000,0.06716326,0.034906585,1.230962,0.0,0.8162495,0.017339442,0.033623584,0.57645947,0.0,0.0,0.0,0,0
99172000,0.06724981,0.034906585,1.2318258,0.0,0.8159997,0.017360233,0.03365603,0.57681054,0.0,0.0,0.0,0,0
99196000,0.06741635,0.034906585,1.2331039,0.0,0.8156295,0.017406639,0.033715192,0.57732904,0.0,0.0,0.0,0,0
99212000,0.06737916,0.034906585,1.2339277,0.0,0.8153919,0.017377585,0.03371162,0.57766557,0.0,0.0,0.0,0,0
99236000,0.06738016,0.034906585,1.2351475,0.0,0.81503946,0.017357431,0.033722498,0.5781627,0.0,0.0,0.0,0,0
99252000,0.06738467,0.034906585,1.2359755,0.0,0.8148,0.017345306,0.033730984,0.57850003,0.0,0.0,0.0,0,0
99276000,0.06735969,0.034906585,1.2372091,0.0,0.8144433,0.017314328,0.03373445,0.57900286,0.0,0.0,0.0,0,0
99292000,0.06725423,0.034906585,1.23802,0.0,0.81420934,0.017257717,0.03371092,0.57933486,0.0,0.0,0.0,0,0
99316000,0.067114204,0.034906585,1.2393901,0.0,0.8138135,0.017177634,0.03368213,0.5798949,0.0,0.0,0.0,0,0
99332000,0.066990145,0.034906585,1.240261,0.0,0.813562,0.017112507,0.033653617,0.5802513,0.0,0.0,0.0,0,0
99356000,0.066773705,0.034906585,1.2415195,0.0,0.8131985,0.017003322,0.033601522,0.58076674,0.0,0.0,0.0,0,0
99372000,0.06662875,0.034906585,1.2423238,0.0,0.8129661,0.016930882,0.033566244,0.5810962,0.0,0.0,0.0,0,0
99396000,0.06639758,0.034906585,1.243561,0.0,0.81260836,0.016816191,0.033509485,0.5816028,0.0,0.0,0.0,0,0
99412000,0.066274635,0.034906585,1.2443216,0.0,0.81238824,0.01675351,0.033480108,0.5819138,0.0,0.0,0.0,0,0
99436000,0.06599235,0.034906585,1.2454967,0.0,0.81204855,0.016619217,0.033407748,0.5823959,0.0,0.0,0.0,0,0
99452000,0.06579754,0.034906585,1.2462546,0.0,0.81182945,0.016527481,0.03335728,0.58270675,0.0,0.0,0.0,0,0
99476000,0.06556078,0.034906585,1.2473507,0.0,0.81151193,0.01641313,0.033297304,0.5831556,0.0,0.0,0.0,0,0
99492000,0.06544135,0.034906585,1.2481564,0.0,0.8112778,0.016351271,0.03326907,0.5834845,0.0,0.0,0.0,0,0
99516000,0.065130785,0.034906585,1.2493399,0.0,0.81093496,0.016205657,0.03318806,0.58396953,0.0,0.0,0.0,0,0
99532000,0.0648409,0.034906585,1.2501698,0.0,0.81069493,0.016074382,0.03311009,0.5843108,0.0,0.0,0.0,0,0
99556000,0.064426266,0.034906585,1.251295,0.0,0.8103694,0.015887748,0.0329979,0.58477366,0.0,0.0,0.0,0,0
99572000,0.064193755,0.034906585,1.2520282,0.0,0.8101568,0.015781466,0.0329357,0.58507454,0.0,0.0,0.0,0,0
99596000,0.06367261,0.034906585,1.2530878,0.0,0.80985075,0.015552988,0.032791488,0.58551216,0.0,0.0,0.0,0,0
99612000,0.06335694,0.034906585,1.253777,0.0,0.8096514,0.015413898,0.03270439,0.5857964,0.0,0.0,0.0,0,0
99636000,0.0628361,0.034906585,1.2549185,0.0,0.8093209,0.015184469,0.032560505,0.5862669,0.0,0.0,0.0,0,0
99652000,0.06491056,0.015594013,1.2556314,0.0,0.80901027,0.021683719,0.025366431,0.5868465,0.1,0.0,0.0,0,0
99676000,0.06443488,0.0172483,1.2567289,0.0,0.8087034,0.020991333,0.025907297,0.5872708,0.23386417,0.0,0.0,0,0
99692000,0.06397576,0.01925435,1.2574782,0.0,0.8084996,0.020206215,0.026590869,0.5875483,0.23835906,0.0,0.0,0,0
99716000,0.06315713,0.022328649,1.2585771,0.0,0.80820054,0.018956173,0.027603012,0.5879547,0.24516349,0.0,0.0,0,0
99732000,0.062695265,0.024425939,1.2593805,0.0,0.8079781,0.018140994,0.028321596,0.5882519,0.24974261,0.0,0.0,0,0
99756000,0.06253931,0.017304584,1.2604935,0.0,0.80761635,0.020160511,0.025411423,0.58881545,0.26691633,0.0,0.0,0,0
99772000,0.061879512,0.020452982,1.261267,0.0,0.8074119,0.018956203,0.026495337,0.58908796,0.26879522,0.0,0.0,0,0
99796000,0.060970433,0.025211208,1.2624022,0.0,0.80710685,0.017170437,0.028157312,0.5894836,0.2716447,0.0,0.0,0,0
99812000,0.060384795,0.028409073,1.263109,0.0,0.8069146,0.015980192,0.029280111,0.58972543,0.27356613,0.0,0.0,0,0
99836000,0.059412867,0.02069142,1.2642934,0.0,0.80654335,0.017850934,0.02589204,0.5903378,0.28526726,0.0,0.0,0,0
99852000,0.058826696,0.024144497,1.2650882,0.0,0.8063283,0.016583646,0.027117489,0.5906134,0.28713292,0.0,0.0,0,0
99876000,0.057978716,0.029337328,1.2661855,0.0,0.8060277,0.014690854,0.028967552,0.59098595,0.28995827,0.0,0.0,0,0
99892000,0.057350215,0.032809168,1.266932,0.0,0.8058194,0.0133991735,0.030185137,0.5912398,0.29186136,0.0,0.0,0,0
99916000,0.056369513,0.038073022,1.2680026,0.0,0.8055155,0.011428758,0.03202067,0.59159845,0.29474777,0.0,0.0,0,0
99932000,0.05572494,0.041593567,1.2687552,0.0,0.8052974,0.0101137245,0.03325059,0.59185153,0.29669398,0.0,0.0,0,0
99956000,0.05476922,0.034729198,1.2698244,0.0,0.8049826,0.011747241,0.030212231,0.5924123,0.3082345,0.0,0.0,0,0
99972000,0.054072186,0.038450737,1.2705743,0.0,0.8047669,0.010351087,0.03150645,0.59266394,0.3101316,0.0,0.0,0,0
99996000,0.053020146,0.044034064,1.2716242,0.0,0.80445856,0.008253315,0.03344387,0.59300905,0.31299838,0.0,0.0,0,0
100012000,0.052265853,0.047766905,1.272365,0.0,0.8042364,0.006828486,0.034722876,0.5932549,0.31492737,0.0,0.0,0,0
100036000,0.051178522,0.045507938,1.2733386,0.0,0.8039552,0.0070461463,0.033496197,0.593704,0.32345548,0.0,0.0,0,0
100052000,0.050557822,0.049770415,1.2740932,0.0,0.80372447,0.0055160895,0.035025913,0.5939442,0.32508457,0.0,0.0,0,0
100076000,0.049466725,0.056157812,1.2751716,0.0,0.8033861,0.0031574033,0.037267935,0.59428275,0.32754436,0.0,0.0,0,0
100092000,0.04874771,0.060434878,1.2757986,0.0,0.8031818,0.0015831441,0.038771022,0.594469,0.32920897,0.0,0.0,0,0
100116000,0.047635995,0.06689283,1.2768111,0.0,0.80284476,-0.0008074157,0.04103066,0.594774,0.33173513,0.0,0.0,0,0
100132000,0.046935514,0.071200356,1.277368,0.0,0.8026492,-0.0023841932,0.04254871,0.5949271,0.33343375,0.0,0.0,0,0
100156000,0.045873486,0.077856675,1.27839,0.0,0.80228966,-0.0048177876,0.04489819,0.5952244,0.3358782,0.0,0.0,0,0
100172000,0.04510796,0.08227871,1.2790478,0.0,0.80205077,-0.0064593386,0.046439685,0.5954127,0.33752203,0.0,0.0,0,0
100196000,0.044008754,0.08891063,1.2800324,0.0,0.8016836,-0.008903377,0.048763774,0.5956897,0.33999923,0.0,0.0,0,0
100212000,0.04326289,0.0933173,1.2807493,0.0,0.8014146,-0.010536298,0.050301567,0.5958971,0.34166408,0.0,0.0,0,0
100236000,0.042078894,0.10002191,1.2817621,0.0,0.8010188,-0.013040319,0.052624542,0.5961792,0.34410492,0.0,0.0,0,0
100252000,0.04129708,0.10445367,1.2824752,0.0,0.80073756,-0.014697494,0.05415833,0.596381,0.34573713,0.0,0.0,0,0
100276000,0.040179655,0.10777517,1.2834601,0.0,0.8003848,-0.01616529,0.055144813,0.5967259,0.3457761,0.0,0.0,0,0
100292000,0.03944434,0.109688625,1.2841309,0.0,0.80014825,-0.017050778,0.05568421,0.59696835,0.34558776,0.0,0.0,0,0
100316000,0.038317036,0.1125021,1.2851375,0.0,0.7997915,-0.018372372,0.05646224,0.597334,0.34526995,0.0,0.0,0,0
100332000,0.037579764,0.11434162,1.2857949,0.0,0.799557,-0.019236898,0.05697013,0.5975725,0.34504035,0.0,0.0,0,0
100356000,0.03643643,0.11711778,1.2867578,0.0,0.799209,-0.020553589,0.057726674,0.59792155,0.34460446,0.0,0.0,0,0
100372000,0.035718344,0.11701816,1.2873862,0.0,0.79901546,-0.020828731,0.057465702,0.5981958,0.34288004,0.0,0.0,0,0
100396000,0.034659088,0.11625485,1.2883528,0.0,0.79872894,-0.021050444,0.056834225,0.59863085,0.3398195,0.0,0.0,0,0
100412000,0.0339401,0.11577828,1.2888975,0.0,0.79856676,-0.021209918,0.056423195,0.59888023,0.3378025,0.0,0.0,0,0
100436000,0.032772966,0.11466797,1.2897724,0.0,0.79831237,-0.021366931,0.05562166,0.5992889,0.33436257,0.0,0.0,0,0
100452000,0.03205119,0.11388217,1.2903509,0.0,0.7981453,-0.02143492,0.055085965,0.5995583,0.33202535,0.0,0.0,0,0
100476000,0.030936113,0.11263108,1.2911043,0.0,0.79792976,-0.0215244,0.054244958,0.59991854,0.3284414,0.0,0.0,0,0
100492000,0.030211119,0.11177327,1.2916224,0.0,0.7977818,-0.021569643,0.053680096,0.6001645,0.32602158,0.0,0.0,0,0
100516000,0.02905991,0.110464096,1.2922647,0.0,0.79759973,-0.02165208,0.052806094,0.6004809,0.32234192,0.0,0.0,0,0
100532000,0.028358346,0.10954416,1.2926788,0.0,0.79748404,-0.021665886,0.052224535,0.600685,0.31984922,0.0,0.0,0,0
100556000,0.027202265,0.10815047,1.2932447,0.0,0.79732597,-0.02172194,0.05131606,0.60097104,0.3160194,0.0,0.0,0,0
100572000,0.026588779,0.10718669,1.2935988,0.0,0.79722965,-0.021685328,0.050744064,0.6011486,0.31342945,0.0,0.0,0,0
100596000,0.025640326,0.10568155,1.2940522,0.0,0.79710907,-0.021621447,0.049854726,0.6013852,0.30948475,0.0,0.0,0,0
100612000,0.024994804,0.104637876,1.294397,0.0,0.7970163,-0.021572823,0.049241353,0.60156035,0.30682087,0.0,0.0,0,0
100636000,0.02413408,0.10304357,1.2948269,0.0,0.79690486,-0.021445857,0.048343107,0.6017854,0.30274624,0.0,0.0,0,0
100652000,0.023514623,0.1019419,1.2951566,0.0,0.7968176,-0.021368515,0.04771462,0.6019539,0.29999748,0.0,0.0,0,0
100676000,0.022637635,0.10024002,1.2955977,0.0,0.7967038,-0.021215197,0.046768527,0.6021841,0.29582322,0.0,0.0,0,0
100692000,0.022068366,0.09906852,1.2958235,0.0,0.79664916,-0.021093916,0.046128463,0.6023101,0.29301047,0.0,0.0,0,0
100716000,0.021241052,0.09725532,1.296274,0.0,0.7965343,-0.020886783,0.045152925,0.60254306,0.28874347,0.0,0.0,0,0
100732000,0.020698085,0.0960156,1.2965211,0.0,0.7964741,-0.020734522,0.04449341,0.60267687,0.2858722,0.0,0.0,0,0
100756000,0.019914314,0.09408979,1.2968781,0.0,0.796389,-0.020473335,0.043487187,0.6028718,0.28152782,0.0,0.0,0,0
100772000,0.019371953,0.09277581,1.297121,0.0,0.79633075,-0.020297928,0.042798366,0.60300386,0.2786059,0.0,0.0,0,0
100796000,0.01872596,0.09074783,1.2975055,0.0,0.7962396,-0.019951008,0.041792814,0.6032064,0.27418366,0.0,0.0,0,0
100812000,0.018306758,0.08937166,1.2977293,0.0,0.7961887,-0.019706972,0.041116633,0.6033278,0.27121183,0.0,0.0,0,0
100836000,0.017585166,0.08725166,1.297972,0.0,0.79614,-0.01935888,0.040053133,0.60347503,0.26671308,0.0,0.0,0,0
100852000,0.017138045,0.08580737,1.2981558,0.0,0.7961014,-0.019104239,0.03934185,0.6035809,0.26369193,0.0,0.0,0,0
100876000,0.016520679,0.086116225,1.2984035,0.0,0.79601616,-0.019448146,0.039276,0.6036866,0.2611166,0.0,0.0,0,0
100892000,0.016135395,0.08875161,1.298503,0.0,0.7959429,-0.020399686,0.040207,0.60369045,0.2613137,0.0,0.0,0,0
100916000,0.015569818,0.09352049,1.2985435,0.0,0.7958496,-0.022066358,0.04193259,0.60363746,0.26227382,0.0,0.0,0,0
100932000,0.015260186,0.09672016,1.2985704,0.0,0.7957848,-0.023156766,0.043111306,0.603599,0.26294643,0.0,0.0,0,0
100956000,0.014727397,0.10152452,1.298614,0.0,0.79568136,-0.024821008,0.044860408,0.6035418,0.2640331,0.0,0.0,0,0
100972000,0.0143478075,0.104743704,1.2986835,0.0,0.79559654,-0.025945991,0.0460249,0.60351855,0.2647923,0.0,0.0,0,0
100996000,0.013843458,0.1056675,1.2987096,0.0,0.79556465,-0.02642626,0.04623964,0.6035234,0.26287296,0.0,0.0,0,0
101012000,0.013472218,0.10480353,1.2987348,0.0,0.7955685,-0.026313541,0.045783788,0.60355794,0.26044044,0.0,0.0,0,0
101036000,0.012923935,0.10267989,1.2986954,0.0,0.7956128,-0.02588929,0.04477451,0.6035936,0.2562538,0.0,0.0,0,0
101052000,0.012550359,0.1035063,1.2987702,0.0,0.79557,-0.026289199,0.044989362,0.60361665,0.25526664,0.0,0.0,0,0
101076000,0.012078873,0.106117174,1.2988212,0.0,0.7954987,-0.027266543,0.045884393,0.60359997,0.2549153,0.0,0.0,0,0
101092000,0.011808833,0.10827254,1.2988584,0.0,0.7954416,-0.028025838,0.04665923,0.603581,0.2550296,0.0,0.0,0,0
101116000,0.011375349,0.10925688,1.2989912,0.0,0.7953758,-0.028498664,0.046917815,0.60362554,0.25342587,0.0,0.0,0,0
101132000,0.0111009935,0.10880345,1.2990562,0.0,0.79536146,-0.02847233,0.046653852,0.6036663,0.25147432,0.0,0.0,0,0
101156000,0.010625682,0.10971187,1.2992191,0.0,0.79528713,-0.028939571,0.046869118,0.6037252,0.24985455,0.0,0.0,0,0
101172000,0.010371602,0.11126588,1.2992523,0.0,0.7952417,-0.029510833,0.04740959,0.6037152,0.24955103,0.0,0.0,0,0
101196000,0.009959038,0.11238396,1.2992781,0.0,0.79520464,-0.030013243,0.04772904,0.6037141,0.24814251,0.0,0.0,0,0
101212000,0.009703098,0.112534285,1.2992972,0.0,0.79519194,-0.030160869,0.04771124,0.60372496,0.24607447,0.0,0.0,0,0
101236000,0.009261837,0.11352335,1.2992494,0.0,0.7951787,-0.030633932,0.04797185,0.6036977,0.24378704,0.0,0.0,0,0
101252000,0.008949155,0.114451274,1.2992492,0.0,0.7951543,-0.031038525,0.048246253,0.60368747,0.24269485,0.0,0.0,0,0
101276000,0.008586655,0.115343615,1.2992021,0.0,0.7951436,-0.03145103,0.04849221,0.6036605,0.24032228,0.0,0.0,0,0
101292000,0.008423276,0.11586475,1.2992048,0.0,0.7951289,-0.031673446,0.048649967,0.6036555,0.23864761,0.0,0.0,0,0
101316000,0.008191607,0.11684765,1.2991759,0.0,0.79511243,-0.032061692,0.04897112,0.60363084,0.23647666,0.0,0.0,0,0
101332000,0.008009423,0.11749928,1.2991124,0.0,0.79511416,-0.03232935,0.04917612,0.6035974,0.23504141,0.0,0.0,0,0
101356000,0.007711447,0.11833118,1.2991261,0.0,0.79508674,-0.03269937,0.04941658,0.6035941,0.23287508,0.0,0.0,0,0
101372000,0.0075098895,0.118884176,1.299063,0.0,0.7950901,-0.03294492,0.04957655,0.60356325,0.23145594,0.0,0.0,0,0
101396000,0.007231134,0.11970444,1.2989596,0.0,0.79509807,-0.033300843,0.04982013,0.6035131,0.22933936,0.0,0.0,0,0
101412000,0.007075935,0.11991316,1.2989026,0.0,0.79510796,-0.03342414,0.049857195,0.60349023,0.22843507,0.0,0.0,0,0
101436000,0.006807003,0.120067075,1.29876,0.0,0.79514295,-0.033573974,0.049839612,0.60343724,0.22728501,0.0,0.0,0,0
101452000,0.0065913084,0.120159775,1.2986951,0.0,0.7951568,-0.033686094,0.049812473,0.6034151,0.22652474,0.0,0.0,0,0
101476000,0.006343573,0.12029439,1.2986692,0.0,0.7951573,-0.033824578,0.04979167,0.6034083,0.22539404,0.0,0.0,0,0
101492000,0.0062036263,0.12037505,1.298644,0.0,0.7951607,-0.033903934,0.04978193,0.6034001,0.22464535,0.0,0.0,0,0
101516000,0.00603925,0.12047961,1.2986081,0.0,0.7951663,-0.03399996,0.049774513,0.60338795,0.223535,0.0,0.0,0,0
101532000,0.0059285806,0.12054592,1.2985725,0.0,0.7951736,-0.03406309,0.049768087,0.6033753,0.22279868,0.0,0.0,0,0
101556000,0.0057366113,0.12060207,1.2985454,0.0,0.7951772,-0.03415568,0.04973295,0.6033681,0.22173092,0.0,0.0,0,0
101572000,0.0055741305,0.12063685,1.2985258,0.0,0.79517955,-0.034230296,0.04969809,0.6033638,0.22102332,0.0,0.0,0,0
101596000,0.0054205493,0.12067437,1.2985082,0.0,0.7951814,-0.034302242,0.04966697,0.6033598,0.21997349,0.0,0.0,0,0
101612000,0.0052867015,0.1206979,1.298532,0.0,0.7951713,-0.034363154,0.049635537,0.6033722,0.21927801,0.0,0.0,0,0
101636000,0.0051089306,0.12061408,1.2985198,0.0,0.7951739,-0.034408234,0.049548797,0.6033734,0.21840656,0.0,0.0,0,0
101652000,0.0050042067,0.12055248,1.298516,0.0,0.7951747,-0.03443118,0.049492788,0.6033756,0.2178299,0.0,0.0,0,0
101676000,0.004814416,0.12045738,1.2985066,0.0,0.7951765,-0.034477703,0.049397886,0.6033784,0.2169787,0.0,0.0,0,0
101692000,0.0047299177,0.12041405,1.2984939,0.0,0.79517984,-0.034497913,0.04935539,0.6033762,0.21645144,0.0,0.0,0,0
101716000,0.004530468,0.12033768,1.2983739,0.0,0.7952144,-0.03455121,0.049266934,0.60333496,0.21566914,0.0,0.0,0,0
101732000,0.0044671036,0.120288566,1.2983505,0.0,0.79522157,-0.034561,0.0492287,0.6033281,0.21515118,0.0,0.0,0,0
101756000,0.0043887626,0.12011871,1.2983403,0.0,0.79522717,-0.034540646,0.04913772,0.60332924,0.21451491,0.0,0.0,0,0
101772000,0.0043357196,0.11999877,1.2983296,0.0,0.7952323,-0.034525275,0.04907422,0.6033286,0.21409349,0.0,0.0,0,0
101796000,0.004244043,0.11980735,1.2982599,0.0,0.79525614,-0.03450226,0.048971675,0.60330665,0.21347289,0.0,0.0,0,0
101812000,0.004203328,0.11967948,1.2982587,0.0,0.7952588,-0.03447983,0.04890858,0.6033096,0.21306267,0.0,0.0,0,0
101836000,0.004025216,0.119446635,1.298197,0.0,0.7952797,-0.034478895,0.048763342,0.6032939,0.21250369,0.0,0.0,0,0
101852000,0.003968195,0.11928883,1.2982247,0.0,0.795274,-0.03445462,0.048682928,0.6033092,0.21213453,0.0,0.0,0,0
101876000,0.00387883,0.11905372,1.2981484,0.0,0.7953009,-0.03441736,0.048563812,0.6032855,0.21159317,0.0,0.0,0,0
101892000,0.0037767007,0.118888065,1.2981019,0.0,0.7953171,-0.034406863,0.04846794,0.6032726,0.21123426,0.0,0.0,0,0
101916000,0.0036836234,0.118639156,1.2980673,0.0,0.79533166,-0.034367938,0.048341498,0.60326576,0.21070589,0.0,0.0,0,0
101932000,0.003608424,0.118479624,1.2980831,0.0,0.7953293,-0.034350086,0.048255112,0.6032768,0.21035486,0.0,0.0,0,0
101956000,0.003544953,0.11818425,1.2980262,0.0,0.79535216,-0.034284838,0.048119504,0.60326123,0.20990562,0.0,0.0,0,0
101972000,0.0034818158,0.11798626,1.2979908,0.0,0.79536635,-0.034249358,0.048022337,0.6032523,0.20960847,0.0,0.0,0,0
101996000,0.0033984338,0.11768238,1.2978914,0.0,0.7954018,-0.034188457,0.04787806,0.60322034,0.20917411,0.0,0.0,0,0
102012000,0.0033342927,0.11748332,1.2978086,0.0,0.79543024,-0.03415193,0.047780972,0.6031927,0.2088873,0.0,0.0,0,0
102036000,0.0032157812,0.117107436,1.2977239,0.0,0.79546237,-0.034083657,0.047597196,0.60316867,0.2085814,0.0,0.0,0,0
102052000,0.0031463373,0.11686066,1.2977033,0.0,0.79547304,-0.034036342,0.04747847,0.60316664,0.20838575,0.0,0.0,0,0
102076000,0.0030918734,0.11648443,1.2976904,0.0,0.79548454,-0.033944212,0.047312647,0.6031697,0.20809722,0.0,0.0,0,0
102092000,0.0031056784,0.1162477,1.2976395,0.0,0.79550546,-0.0338661,0.047223523,0.60315335,0.20792125,0.0,0.0,0,0
102116000,0.0032336398,0.11588223,1.2975571,0.0,0.7955408,-0.033703025,0.04711816,0.60312426,0.20766376,0.0,0.0,0,0
102132000,0.0033044845,0.115645096,1.2975044,0.0,0.7955632,-0.033602078,0.047046095,0.60310596,0.20749395,0.0,0.0,0,0
102156000,0.0032786697,0.11514102,1.2974064,0.0,0.79560363,-0.033458006,0.046839464,0.6030767,0.20745166,0.0,0.0,0,0
102172000,0.0033103894,0.11481145,1.2973742,0.0,0.7956213,-0.033345226,0.04671848,0.603069,0.20742714,0.0,0.0,0,0
102196000,0.0033694354,0.114309505,1.2972572,0.0,0.7956687,-0.03316762,0.046538573,0.6030301,0.20739707,0.0,0.0,0,0
102212000,0.003414222,0.11397885,1.2971761,0.0,0.79570127,-0.0330482,0.04642189,0.6030028,0.20737766,0.0,0.0,0,0
102236000,0.0035077939,0.113496125,1.2971773,0.0,0.79571307,-0.03286542,0.04625805,0.60300964,0.20734249,0.0,0.0,0,0
102252000,0.003562011,0.11317323,1.2971987,0.0,0.7957147,-0.032746963,0.046145607,0.60302263,0.20731956,0.0,0.0,0,0
102276000,0.00355472,0.11268945,1.2971518,0.0,0.79573935,-0.03260288,0.045951728,0.60301274,0.20729169,0.0,0.0,0,0
102292000,0.003491981,0.11237061,1.2970933,0.0,0.7957629,-0.032530345,0.045806922,0.6029965,0.2072735,0.0,0.0,0,0
102316000,0.0035832392,0.11189206,1.2970144,0.0,0.7957986,-0.032347914,0.045645334,0.6029715,0.20725155,0.0,0.0,0,0
102332000,0.003582065,0.11157869,1.2969389,0.0,0.79582816,-0.03225216,0.045521524,0.60294706,0.20723721,0.0,0.0,0,0
102356000,0.003548281,0.11103168,1.2968668,0.0,0.7958612,-0.032099016,0.04529487,0.6029287,0.20733662,0.0,0.0,0,0
102372000,0.0035992595,0.11067273,1.2967769,0.0,0.7958968,-0.03196846,0.04516885,0.602898,0.20740218,0.0,0.0,0,0
102396000,0.003481698,0.11014441,1.2965875,0.0,0.79596347,-0.031851687,0.04492622,0.60283446,0.20750508,0.0,0.0,0,0
102412000,0.0034213641,0.10979244,1.2964469,0.0,0.79601234,-0.031766433,0.04477021,0.6027859,0.20757516,0.0,0.0,0,0
102436000,0.0034051074,0.10926798,1.2962968,0.0,0.7960685,-0.03161145,0.044558972,0.60273564,0.20768975,0.0,0.0,0,0
102452000,0.0034292338,0.10892972,1.2962178,0.0,0.79609984,-0.031498127,0.044432867,0.6027094,0.207767,0.0,0.0,0,0
102476000,0.0034126635,0.10842645,1.2960646,0.0,0.7961564,-0.031349633,0.044229973,0.6026574,0.20789513,0.0,0.0,0,0
102492000,0.003459779,0.108098716,1.2959754,0.0,0.79619086,-0.031230127,0.044115115,0.6026264,0.20798491,0.0,0.0,0,0
102516000,0.0035359825,0.1076154,1.2958839,0.0,0.79622984,-0.031052116,0.04394712,0.6025965,0.20813216,0.0,0.0,0,0
102532000,0.003585541,0.107297435,1.295752,0.0,0.7962769,-0.030933669,0.04383752,0.6025483,0.20822944,0.0,0.0,0,0
102556000,0.0037246477,0.106696114,1.2956609,0.0,0.79631907,-0.030695083,0.043641455,0.6025191,0.20855933,0.0,0.0,0,0
102572000,0.0037728425,0.10629837,1.2955995,0.0,0.79634655,-0.030554706,0.043498572,0.60250026,0.20877863,0.0,0.0,0,0
102596000,0.0038306,0.10569775,1.2955139,0.0,0.79638547,-0.030348865,0.043278154,0.6024749,0.20911044,0.0,0.0,0,0
102612000,0.0039036397,0.10530925,1.2953477,0.0,0.7964446,-0.030199135,0.043147992,0.6024137,0.20932913,0.0,0.0,0,0
102636000,0.004113574,0.10466018,1.295213,0.0,0.7965016,-0.029917084,0.042954806,0.6023664,0.20975268,0.0,0.0,0,0
102652000,0.004150747,0.10423745,1.2951051,0.0,0.7965431,-0.029772611,0.042799283,0.60232955,0.21003266,0.0,0.0,0,0
102676000,0.0041886014,0.10360466,1.2949073,0.0,0.79661584,-0.029562695,0.04256162,0.6022604,0.210454,0.0,0.0,0,0
102692000,0.0041859313,0.103192806,1.2948358,0.0,0.7966456,-0.029438185,0.042397846,0.60223883,0.21073231,0.0,0.0,0,0
102716000,0.004204906,0.10257611,1.294723,0.0,0.7966922,-0.029242497,0.042159606,0.60220355,0.21114883,0.0,0.0,0,0
102732000,0.0042326297,0.10217373,1.2946267,0.0,0.79672945,-0.029108236,0.042009093,0.6021711,0.2114248,0.0,0.0,0,0
102756000,0.00422586,0.10148372,1.294462,0.0,0.79679257,-0.028899685,0.041734606,0.6021168,0.21196006,0.0,0.0,0,0
102772000,0.0042029275,0.10103434,1.2944033,0.0,0.7968187,-0.028772272,0.04154954,0.60210115,0.21231258,0.0,0.0,0,0
102796000,0.0042707017,0.100369364,1.2942493,0.0,0.79687893,-0.02854184,0.041307252,0.60204905,0.21284166,0.0,0.0,0,0
102812000,0.004272615,0.099929824,1.2941344,0.0,0.796922,-0.028406367,0.041134357,0.60201025,0.21319127,0.0,0.0,0,0
102836000,0.0042948946,0.09924391,1.2939475,0.0,0.79699177,-0.028187143,0.040870424,0.6019462,0.21376306,0.0,0.0,0,0
102852000,0.004334416,0.09879422,1.2937641,0.0,0.7970561,-0.028032279,0.04070572,0.6018793,0.21414061,0.0,0.0,0,0
102876000,0.0043721753,0.09812817,1.2936232,0.0,0.7971117,-0.027813882,0.040453643,0.60183287,0.21470733,0.0,0.0,0,0
102892000,0.004438302,0.097699165,1.2934936,0.0,0.79715973,-0.027655782,0.04030438,0.6017866,0.21508473,0.0,0.0,0,0
102916000,0.004591576,0.09705901,1.2933519,0.0,0.7972165,-0.027399175,0.040097326,0.601737,0.21565408,0.0,0.0,0,0
102932000,0.004742217,0.096646905,1.2932535,0.0,0.79725575,-0.027213132,0.03997975,0.60170114,0.21602958,0.0,0.0,0,0
102956000,0.004877175,0.09599448,1.2931013,0.0,0.79731554,-0.026959963,0.039762378,0.60164785,0.21664602,0.0,0.0,0,0
102972000,0.0049770656,0.09556938,1.2930266,0.0,0.797347,-0.02679074,0.03962398,0.60162264,0.2170543,0.0,0.0,0,0
102996000,0.0051837,0.09493478,1.2928088,0.0,0.797427,-0.026513107,0.039436072,0.60154146,0.21766564,0.0,0.0,0,0
103012000,0.0052922056,0.09451914,1.29268,0.0,0.79747456,-0.026342258,0.03930471,0.6014944,0.21806838,0.0,0.0,0,0
103036000,0.005454817,0.09385038,1.2926145,0.0,0.79750854,-0.026074944,0.039087866,0.6014752,0.21873344,0.0,0.0,0,0
103052000,0.005558588,0.0934082,1.2925557,0.0,0.7975354,-0.02589939,0.038943544,0.6014564,0.21917158,0.0,0.0,0,0
103076000,0.0056311716,0.092765555,1.2924155,0.0,0.7975899,-0.025674406,0.038710956,0.60140884,0.21982563,0.0,0.0,0,0
103092000,0.005677944,0.092347965,1.2923822,0.0,0.79760784,-0.025529496,0.03855894,0.601401,0.22025697,0.0,0.0,0,0
103116000,0.005768857,0.09173329,1.292198,0.0,0.7976752,-0.02530481,0.038343523,0.601335,0.22090113,0.0,0.0,0,0
103132000,0.005822958,0.091332436,1.292095,0.0,0.79771376,-0.025160696,0.038201243,0.60129887,0.22132663,0.0,0.0,0,0
103156000,0.005898218,0.09073291,1.2919109,0.0,0.79778045,-0.02494687,0.037987083,0.6012329,0.22196442,0.0,0.0,0,0
103172000,0.0059011914,0.090338886,1.2917855,0.0,0.7978249,-0.02482482,0.037832394,0.60118866,0.22238456,0.0,0.0,0,0
103196000,0.0059949826,0.08976045,1.2916288,0.0,0.79788303,-0.02461052,0.037631817,0.60113287,0.22301008,0.0,0.0,0,0
103212000,0.006005908,0.089380786,1.2914966,0.0,0.7979294,-0.02448953,0.037485287,0.60108554,0.22342275,0.0,0.0,0,0
103236000,0.005994444,0.08873646,1.2913507,0.0,0.79798394,-0.02429767,0.037226602,0.60103697,0.22415105,0.0,0.0,0,0
103252000,0.006037012,0.0883196,1.2912211,0.0,0.7980304,-0.024152962,0.037074666,0.6009905,0.22463231,0.0,0.0,0,0
103276000,0.0060838596,0.08770482,1.2910388,0.0,0.798096,-0.023946106,0.03684567,0.60092574,0.22535202,0.0,0.0,0,0
103292000,0.0062092547,0.087304965,1.2909495,0.0,0.798131,-0.023774238,0.036724877,0.6008935,0.22583057,0.0,0.0,0,0
103316000,0.0063912296,0.08671373,1.2908765,0.0,0.7981647,-0.023522587,0.036544513,0.6008696,0.2265491,0.0,0.0,0,0
103332000,0.006517608,0.08632861,1.2907963,0.0,0.7981966,-0.023354944,0.03642976,0.60084075,0.22702262,0.0,0.0,0,0
103356000,0.0066499137,0.08578899,1.2906978,0.0,0.7982364,-0.023138179,0.036255322,0.6008067,0.22768494,0.0,0.0,0,0
103372000,0.006783659,0.08543852,1.2906222,0.0,0.79826635,-0.02297811,0.03615652,0.6007791,0.22812152,0.0,0.0,0,0
103396000,0.006930393,0.08491959,1.2905291,0.0,0.79830426,-0.022761928,0.03599458,0.60074663,0.22876787,0.0,0.0,0,0
103412000,0.006992843,0.08458452,1.2904873,0.0,0.79832286,-0.02263556,0.035880096,0.6007335,0.2291947,0.0,0.0,0,0
103436000,0.00702421,0.08402541,1.2903432,0.0,0.79837537,-0.02245247,0.03566802,0.6006834,0.2299092,0.0,0.0,0,0
103452000,0.007052935,0.083662376,1.2902994,0.0,0.7983945,-0.022331145,0.03553224,0.60067046,0.23038003,0.0,0.0,0,0
103476000,0.0071560233,0.08312696,1.2902157,0.0,0.79842913,-0.022127647,0.035350442,0.60064274,0.23108375,0.0,0.0,0,0
103492000,0.007171058,0.082782835,1.2901087,0.0,0.79846674,-0.02201637,0.03521878,0.6006045,0.23154683,0.0,0.0,0,0
103516000,0.007228566,0.082272336,1.2900779,0.0,0.79848444,-0.021839507,0.035032623,0.6005982,0.23223412,0.0,0.0,0,0
103532000,0.0072431457,0.081942216,1.2900349,0.0,0.7985026,-0.021733759,0.034905702,0.60058534,0.23268847,0.0,0.0,0,0
103556000,0.007344821,0.08142583,1.2898964,0.0,0.79855317,-0.02153563,0.0347316,0.60053533,0.2333952,0.0,0.0,0,0
103572000,0.0073823524,0.08108953,1.2898273,0.0,0.7985794,-0.02141843,0.034609362,0.6005118,0.23386095,0.0,0.0,0,0
103596000,0.007348797,0.08060095,1.2896893,0.0,0.79862785,-0.021282695,0.034405716,0.60046387,0.23455675,0.0,0.0,0,0
103612000,0.007361124,0.08028196,1.2896094,0.0,0.79865664,-0.021180596,0.034282915,0.6004361,0.23501499,0.0,0.0,0,0
103636000,0.007277951,0.07980922,1.289526,0.0,0.798688,-0.021070404,0.034070086,0.6004105,0.23569275,0.0,0.0,0,0
103652000,0.007238243,0.079500124,1.2894095,0.0,0.79872704,-0.020991458,0.03393598,0.6003688,0.23613863,0.0,0.0,0,0
103676000,0.007241822,0.07905795,1.2893871,0.0,0.7987404,-0.020856865,0.033760734,0.60036576,0.23680124,0.0,0.0,0,0
103692000,0.007291395,0.07876906,1.28933,0.0,0.79876226,-0.020749353,0.03366086,0.60034597,0.23724107,0.0,0.0,0,0
103716000,0.007414668,0.07835507,1.2893167,0.0,0.7987736,-0.02057558,0.033532698,0.6003441,0.23789747,0.0,0.0,0,0
103732000,0.0074416883,0.07807806,1.2892914,0.0,0.79878545,-0.020481184,0.033430457,0.6003372,0.23833017,0.0,0.0,0,0
103756000,0.0075789276,0.07763532,1.2892842,0.0,0.7987954,-0.0202933,0.03329493,0.6003379,0.23903145,0.0,0.0,0,0
103772000,0.0076737753,0.07734041,1.2892921,0.0,0.7987982,-0.020166993,0.033205565,0.60034335,0.23949447,0.0,0.0,0,0
103796000,0.007817042,0.076915056,1.2892965,0.0,0.79880434,-0.019982116,0.033078678,0.60034835,0.2401821,0.0,0.0,0,0
103812000,0.00788002,0.07663469,1.2893436,0.0,0.79879487,-0.019873545,0.03298516,0.6003697,0.24063551,0.0,0.0,0,0
103836000,0.008064124,0.07612297,1.2893776,0.0,0.7987937,-0.019646898,0.032835755,0.600387,0.24143475,0.0,0.0,0,0
103852000,0.008106785,0.075789034,1.2893492,0.0,0.7988072,-0.01952911,0.0327155,0.6003793,0.24196184,0.0,0.0,0,0
103876000,0.008167947,0.075301304,1.2893316,0.0,0.7988199,-0.019357923,0.03253927,0.6003776,0.24274537,0.0,0.0,0,0
103892000,0.008212957,0.07498109,1.2892998,0.0,0.7988343,-0.019243268,0.032425225,0.6003683,0.24326244,0.0,0.0,0,0
103916000,0.008284324,0.07450876,1.2892928,0.0,0.7988435,-0.019072803,0.032258097,0.6003704,0.24403012,0.0,0.0,0,0
103932000,0.008274041,0.07420521,1.2893133,0.0,0.7988414,-0.01898608,0.0321336,0.6003826,0.24449226,0.0,0.0,0,0
103956000,0.008292901,0.073823795,1.2892638,0.0,0.7988616,-0.018863212,0.031987417,0.6003675,0.24492994,0.0,0.0,0,0
103972000,0.008280688,0.07357414,1.2892374,0.0,0.79887277,-0.018792694,0.0318843,0.6003603,0.24521889,0.0,0.0,0,0
103996000,0.008273757,0.07320649,1.2892063,0.0,0.79888695,-0.018684564,0.031735692,0.60035264,0.24564768,0.0,0.0,0,0
104012000,0.008295136,0.072970346,1.2891399,0.0,0.7989103,-0.018604059,0.031648424,0.60032874,0.24593024,0.0,0.0,0,0
104036000,0.008234981,0.0725441,1.2890444,0.0,0.79894406,-0.018498592,0.031461023,0.6002969,0.24640208,0.0,0.0,0,0
104052000,0.008254222,0.07227402,1.2890592,0.0,0.7989434,-0.01841004,0.031358793,0.60030586,0.24671416,0.0,0.0,0,0
104076000,0.008207641,0.07187721,1.2890501,0.0,0.7989509,-0.018309355,0.031186417,0.60030794,0.24717984,0.0,0.0,0,0
104092000,0.008215025,0.0716148,1.2890373,0.0,0.79895824,-0.018227413,0.031083949,0.60030603,0.24748746,0.0,0.0,0,0
104116000,0.008372681,0.071235925,1.2891219,0.0,0.7989392,-0.018051976,0.030979186,0.60034204,0.24794364,0.0,0.0,0,0
104132000,0.008480329,0.07098709,1.2891469,0.0,0.79893595,-0.017934639,0.030911895,0.6003534,0.24824579,0.0,0.0,0,0
104156000,0.008683379,0.07053697,1.2891836,0.0,0.79893243,-0.017718922,0.03079275,0.6003705,0.24875063,0.0,0.0,0,0
104172000,0.008805322,0.07024491,1.2891333,0.0,0.79895234,-0.017581725,0.030713156,0.6003521,0.24908419,0.0,0.0,0,0
104196000,0.008949021,0.06981522,1.2892215,0.0,0.79893255,-0.017396634,0.03058391,0.60039043,0.24958138,0.0,0.0,0,0
104212000,0.009067178,0.06953641,1.2892903,0.0,0.7989165,-0.017266752,0.030507442,0.6004196,0.24990967,0.0,0.0,0,0
104236000,0.009183223,0.069153875,1.2894032,0.0,0.7988883,-0.017107222,0.030388543,0.6004675,0.2503785,0.0,0.0,0,0
104252000,0.009227172,0.068903476,1.2893991,0.0,0.798893,-0.017014395,0.030301774,0.6004683,0.2506872,0.0,0.0,0,0
104276000,0.0093245935,0.068534836,1.2894504,0.0,0.79888314,-0.01686553,0.030183375,0.6004919,0.2511442,0.0,0.0,0,0
104292000,0.009391888,0.068302855,1.2895147,0.0,0.79886717,-0.016769934,0.030110402,0.60051924,0.25144562,0.0,0.0,0,0
104316000,0.0094419345,0.067960314,1.2895126,0.0,0.79887235,-0.016647018,0.029988654,0.60052186,0.2518928,0.0,0.0,0,0
104332000,0.009388801,0.06773646,1.2894807,0.0,0.7988842,-0.016600523,0.029883575,0.6005126,0.25218755,0.0,0.0,0,0
104356000,0.009438284,0.06747828,1.2896116,0.0,0.79884845,-0.016505152,0.029794244,0.6005672,0.25258338,0.0,0.0,0,0
104372000,0.009350067,0.06731478,1.2896197,0.0,0.79884726,-0.01649139,0.029702395,0.6005738,0.25284398,0.0,0.0,0,0
104396000,0.009312822,0.06707309,1.2896659,0.0,0.79883593,-0.01643435,0.02959432,0.6005957,0.25322926,0.0,0.0,0,0
104412000,0.0093081435,0.06691607,1.2896378,0.0,0.79884624,-0.016388629,0.029530443,0.60058635,0.2534829,0.0,0.0,0,0
104436000,0.009239877,0.06662668,1.2896366,0.0,0.7988495,-0.01632894,0.029394394,0.60059035,0.25389966,0.0,0.0,0,0
104452000,0.0091643445,0.06644379,1.2896029,0.0,0.7988612,-0.016303673,0.029298952,0.60058016,0.25417566,0.0,0.0,0,0
104476000,0.009073969,0.06617719,1.2895837,0.0,0.7988694,-0.016259396,0.0291655,0.60057694,0.25458622,0.0,0.0,0,0
104492000,0.009184378,0.06600227,1.2896245,0.0,0.79886013,-0.016163345,0.029128475,0.6005936,0.25485823,0.0,0.0,0,0
104516000,0.00931842,0.06575243,1.2896712,0.0,0.7988501,-0.016035428,0.029068582,0.60061336,0.25526202,0.0,0.0,0,0
104532000,0.009405957,0.06559142,1.2896993,0.0,0.7988442,-0.015952498,0.029030345,0.6006251,0.25552878,0.0,0.0,0,0
104556000,0.009448683,0.06535424,1.2897433,0.0,0.79883415,-0.015864812,0.028948119,0.6006449,0.25592327,0.0,0.0,0,0
104572000,0.009540668,0.06519838,1.289788,0.0,0.79882324,-0.015781889,0.028913148,0.60066324,0.25618276,0.0,0.0,0,0
104596000,0.009612679,0.064970225,1.2899271,0.0,0.7987846,-0.015686583,0.028842578,0.60072047,0.25656533,0.0,0.0,0,0
104612000,0.009610672,0.064825825,1.2899101,0.0,0.79879147,-0.01564375,0.02878445,0.60071534,0.25681806,0.0,0.0,0,0
104636000,0.009770741,0.0647073,1.289933,0.0,0.7987872,-0.015544534,0.028785024,0.60072356,0.25713333,0.0,0.0,0,0
104652000,0.009764816,0.06463531,1.2899438,0.0,0.7987847,-0.015525424,0.028754415,0.6007288,0.2573405,0.0,0.0,0,0
104676000,0.009767144,0.064529866,1.2899241,0.0,0.7987918,-0.015492527,0.028713165,0.6007222,0.25764516,0.0,0.0,0,0
104692000,0.009758263,0.06446062,1.2899413,0.0,0.79878736,-0.0154755125,0.028682712,0.60073,0.25784552,0.0,0.0,0,0
104716000,0.009703844,0.06437373,1.2900083,0.0,0.79876786,-0.015472099,0.028631158,0.60075855,0.25814185,0.0,0.0,0,0
104732000,0.009648857,0.06431882,1.2900707,0.0,0.7987493,-0.01547845,0.02859223,0.60078484,0.2583366,0.0,0.0,0,0
104756000,0.009616224,0.064190194,1.2901692,0.0,0.7987209,-0.015454231,0.028530305,0.60082614,0.25865963,0.0,0.0,0,0
104772000,0.009583428,0.06410817,1.2901373,0.0,0.79873115,-0.015442225,0.028487952,0.60081476,0.25887287,0.0,0.0,0,0
104796000,0.009512464,0.06399138,1.2900798,0.0,0.79874927,-0.015434651,0.028420448,0.6007942,0.2591889,0.0,0.0,0,0
104812000,0.009486406,0.06391503,1.2901442,0.0,0.79873055,-0.015423024,0.028381636,0.6008212,0.25939745,0.0,0.0,0,0
104836000,0.009321062,0.0637922,1.2901524,0.0,0.79872817,-0.015452259,0.028282858,0.60082823,0.25971562,0.0,0.0,0,0
104852000,0.009232145,0.06371534,1.2901773,0.0,0.7987209,-0.015465025,0.028225267,0.60084033,0.25992563,0.0,0.0,0,0
104876000,0.009196281,0.063605264,1.2901342,0.0,0.79873484,-0.015445657,0.028170876,0.6008249,0.26023695,0.0,0.0,0,0
104892000,0.00920535,0.063534215,1.2901695,0.0,0.7987251,-0.01542118,0.02814496,0.60083956,0.26044267,0.0,0.0,0,0
104916000,0.009359935,0.06343828,1.2902551,0.0,0.79870164,-0.015331816,0.02815244,0.6008727,0.26074585,0.0,0.0,0,0
104932000,0.00938296,0.06336948,1.2903125,0.0,0.7986853,-0.015302749,0.028131448,0.6008961,0.26094663,0.0,0.0,0,0
104956000,0.00944936,0.06334269,1.2903613,0.0,0.7986715,-0.015268869,0.028140329,0.60091496,0.26120225,0.0,0.0,0,0
104972000,0.009534587,0.0633302,1.2904239,0.0,0.7986535,-0.015231961,0.028160473,0.6009389,0.26137018,0.0,0.0,0,0
104996000,0.0095372945,0.06330669,1.2905118,0.0,0.7986274,-0.01522505,0.028151229,0.60097426,0.26161647,0.0,0.0,0,0
105012000,0.009576642,0.06329471,1.290546,0.0,0.7986176,-0.015206218,0.028158015,0.60098743,0.26177806,0.0,0.0,0,0
105036000,0.009696021,0.06323299,1.2905703,0.0,0.7986118,-0.015140336,0.028169058,0.6009962,0.2620502,0.0,0.0,0,0
105052000,0.00968377,0.06320086,1.2906151,0.0,0.79859865,-0.015136201,0.028152213,0.6010147,0.26222992,0.0,0.0,0,0
105076000,0.0097258445,0.06314276,1.2906389,0.0,0.7985924,-0.015102269,0.028141482,0.6010242,0.2624942,0.0,0.0,0,0
105092000,0.009769508,0.063107856,1.2907178,0.0,0.79856944,-0.015075453,0.028140077,0.6010555,0.2626688,0.0,0.0,0,0
105116000,0.009738946,0.06305581,1.2907848,0.0,0.7985496,-0.015072951,0.028109612,0.6010833,0.26292637,0.0,0.0,0,0
105132000,0.00972149,0.06302517,1.2907522,0.0,0.7985596,-0.0150702465,0.028092377,0.60107076,0.26309597,0.0,0.0,0,0
105156000,0.009686934,0.06301879,1.2907729,0.0,0.7985532,-0.015082418,0.02807929,0.60107964,0.26332095,0.0,0.0,0,0
105172000,0.009664778,0.06302163,1.2907689,0.0,0.79855424,-0.01509206,0.028073795,0.6010783,0.26346865,0.0,0.0,0,0
105196000,0.009627571,0.063020885,1.2907238,0.0,0.79856753,-0.015106059,0.028062655,0.60106087,0.26368538,0.0,0.0,0,0
105212000,0.009537876,0.06302775,1.2906795,0.0,0.7985801,-0.015143316,0.028038776,0.60104436,0.26382765,0.0,0.0,0,0
105236000,0.009454417,0.06305757,1.2906122,0.0,0.79859936,-0.015184668,0.028026111,0.6010184,0.2640259,0.0,0.0,0,0
105252000,0.009343249,0.063076586,1.2905803,0.0,0.7986078,-0.015234325,0.02800054,0.60100687,0.26415586,0.0,0.0,0,0
105276000,0.009191977,0.063115686,1.2905444,0.0,0.798617,-0.015305981,0.027970964,0.6009942,0.26434666,0.0,0.0,0,0
105292000,0.009216497,0.06314751,1.2905617,0.0,0.7986117,-0.015305997,0.027990904,0.6010005,0.26447344,0.0,0.0,0,0
105316000,0.009329103,0.06319505,1.290648,0.0,0.7985861,-0.015276532,0.02804306,0.6010328,0.26465794,0.0,0.0,0,0
105332000,0.009401436,0.0632277,1.2906988,0.0,0.79857105,-0.01525818,0.028077444,0.6010518,0.26478097,0.0,0.0,0,0
105356000,0.009486401,0.06333426,1.2907066,0.0,0.7985681,-0.015256399,0.028145455,0.6010524,0.26493394,0.0,0.0,0,0
105372000,0.0095222825,0.063397676,1.2907109,0.0,0.7985664,-0.015261202,0.028181525,0.60105294,0.26503408,0.0,0.0,0,0
105396000,0.009469814,0.063498974,1.2908018,0.0,0.79853755,-0.015313888,0.028205499,0.6010888,0.26518145,0.0,0.0,0,0
105412000,0.009496456,0.06356987,1.2908719,0.0,0.7985159,-0.015325556,0.02824127,0.6011156,0.2652779,0.0,0.0,0,0
105436000,0.009517365,0.06359153,1.2909704,0.0,0.7984862,-0.015325112,0.028255444,0.6011544,0.26547506,0.0,0.0,0,0
105452000,0.009493941,0.06361262,1.2910165,0.0,0.79847187,-0.015341457,0.028256467,0.6011728,0.26560506,0.0,0.0,0,0
105476000,0.009464499,0.06364112,1.291035,0.0,0.79846585,-0.015362045,0.028258853,0.6011803,0.2657978,0.0,0.0,0,0
105492000,0.0094571505,0.06366058,1.2910652,0.0,0.79845643,-0.015371253,0.028264172,0.60119224,0.26592502,0.0,0.0,0,0
105516000,0.00940542,0.063692965,1.2910883,0.0,0.7984487,-0.0154019715,0.028261375,0.60120183,0.2661126,0.0,0.0,0,0
105532000,0.009379857,0.063715294,1.2911549,0.0,0.79842824,-0.015419835,0.028262092,0.60122854,0.266237,0.0,0.0,0,0
105556000,0.009304016,0.06375327,1.291225,0.0,0.7984062,-0.01546252,0.028253905,0.6012571,0.26641348,0.0,0.0,0,0
105572000,0.009220075,0.06378175,1.2912174,0.0,0.7984075,-0.0155044915,0.028240096,0.601255,0.26652962,0.0,0.0,0,0
105596000,0.009167322,0.06382726,1.2912916,0.0,0.79838425,-0.015540283,0.028241826,0.60128486,0.26670066,0.0,0.0,0,0
105612000,0.009124074,0.06385715,1.2913158,0.0,0.7983763,-0.015566882,0.028240565,0.6012947,0.2668133,0.0,0.0,0,0
105636000,0.008966519,0.063934445,1.2912571,0.0,0.7983918,-0.015652195,0.028224504,0.6012727,0.26695147,0.0,0.0,0,0
105652000,0.0088783,0.06398836,1.2912366,0.0,0.79839665,-0.015703337,0.02821966,0.6012652,0.2670418,0.0,0.0,0,0
105676000,0.008751867,0.06407368,1.2912714,0.0,0.7983842,-0.015779957,0.028215425,0.60127985,0.2671735,0.0,0.0,0,0
105692000,0.008697523,0.064124435,1.2912662,0.0,0.7983848,-0.01581684,0.028219385,0.60127795,0.26725885,0.0,0.0,0,0
105716000,0.008822042,0.06421365,1.2913562,0.0,0.7983578,-0.015795238,0.028291717,0.60131115,0.26738262,0.0,0.0,0,0
105732000,0.008920317,0.06427451,1.2914047,0.0,0.79834324,-0.015775004,0.028345171,0.6013284,0.267464,0.0,0.0,0,0
105756000,0.009001715,0.064440794,1.2914948,0.0,0.79831487,-0.015793808,0.028435295,0.6013613,0.26753628,0.0,0.0,0,0
105772000,-0.016131029,0.06454669,1.2915648,0.0,0.7980306,-0.025856782,0.020917684,0.6016983,0.26758343,0.0,0.0,0,0
105796000,-0.053830143,0.06471119,1.2916384,0.0,0.7973759,-0.040943578,0.009637063,0.6020152,0.26765016,0.0,0.0,0,0
105812000,-0.078962885,0.0648232,1.2916493,0.0,0.7967924,-0.050993823,0.0021157842,0.6020939,0.2676937,0.0,0.0,0,0
105836000,-0.116661996,0.0649339,1.2916799,0.0,0.7956772,-0.066036075,-0.00918996,0.6020404,0.26778996,0.0,0.0,0,0
105852000,-0.14179474,0.06500313,1.2917136,0.0,0.7947719,-0.07604978,-0.016728174,0.601892,0.26785251,0.0,0.0,0,0
105876000,-0.17949386,0.065119825,1.2916963,0.0,0.79319793,-0.09105156,-0.028022654,0.60146606,0.2679454,0.0,0.0,0,0
105892000,-0.2046266,0.06519732,1.2916024,0.0,0.792016,-0.10103648,-0.03554291,0.6010316,0.26800936,0.0,0.0,0,0
105916000,-0.24232572,0.06530506,1.2914208,0.0,0.7900201,-0.11598306,-0.046811767,0.60018736,0.26810977,0.0,0.0,0,0
105932000,-0.26745847,0.06538436,1.2912385,0.0,0.78855073,-0.12592977,-0.05430711,0.5994833,0.26818168,0.0,0.0,0,0
105956000,-0.30515757,0.06552276,1.2909454,0.0,0.7861166,-0.1408208,-0.06552133,0.59824497,0.2682784,0.0,0.0,0,0
105972000,-0.33029032,0.06561199,1.2905703,0.0,0.78439146,-0.15072802,-0.072970174,0.59723234,0.2683517,0.0,0.0,0,0
105996000,-0.36798942,0.06575278,1.2900962,0.0,0.7815428,-0.165547,-0.08411936,0.59557456,0.26847556,0.0,0.0,0,0
106012000,-0.39312217,0.0658512,1.289562,0.0,0.7795525,-0.17540802,-0.091511145,0.594269,0.26857322,0.0,0.0,0,0
106036000,-0.43082127,0.06591587,1.2887363,0.0,0.77634746,-0.19013138,-0.102592066,0.59212303,0.26878557,0.0,0.0,0,0
106052000,-0.45595402,0.06596784,1.2881085,0.0,0.7740782,-0.19992155,-0.10994153,0.59054834,0.26894948,0.0,0.0,0,0
106076000,-0.49365312,0.06605406,1.2870322,0.0,0.7704815,-0.2145661,-0.12090384,0.58796424,0.2692307,0.0,0.0,0,0
106092000,-0.51878583,0.06611002,1.2862115,0.0,0.76796,-0.22429968,-0.12816885,0.5860886,0.2694466,0.0,0.0,0,0
106116000,-0.55648494,0.06620053,1.2849073,0.0,0.7639676,-0.23885112,-0.13900219,0.5830798,0.2698169,0.0,0.0,0,0
106132000,-0.58161765,0.06626459,1.2839129,0.0,0.7611885,-0.24852315,-0.14616993,0.5809154,0.27009213,0.0,0.0,0,0
106156000,-0.61931676,0.06640839,1.2822479,0.0,0.75683504,-0.26299724,-0.15681916,0.5774435,0.27052277,0.0,0.0,0,0
106172000,-0.6444495,0.06650714,1.2810413,0.0,0.75380695,-0.2726134,-0.16386068,0.57498413,0.27084816,0.0,0.0,0,0
106196000,-0.6821486,0.06666877,1.2790339,0.0,0.7490901,-0.2869929,-0.17431958,0.5710621,0.27139446,0.0,0.0,0,0
106212000,-0.7072813,0.066781566,1.2775903,0.0,0.7458219,-0.29654527,-0.18122499,0.56830287,0.2718025,0.0,0.0,0,0
106236000,-0.7449804,0.066970855,1.2751414,0.0,0.7407681,-0.3108364,-0.1914525,0.56390536,0.27248308,0.0,0.0,0,0
106252000,-0.7701131,0.06710327,1.2733545,0.0,0.73728853,-0.32033342,-0.19818757,0.56081533,0.27299252,0.0,0.0,0,0
106276000,-0.8078122,0.067323595,1.2703955,0.0,0.7319146,-0.33454058,-0.20814587,0.5559307,0.27384397,0.0,0.0,0,0
106292000,-0.8329449,0.0674766,1.2681462,0.0,0.72825456,-0.34399372,-0.2146716,0.552476,0.27446923,0.0,0.0,0,0
106316000,-0.84255993,0.06771789,1.2644207,0.0,0.72758615,-0.34795868,-0.21658775,0.5501208,0.2755018,0.0,0.0,0,0
106332000,-0.8426644,0.067890525,1.2617106,0.0,0.7282898,-0.3483354,-0.21608046,0.54915,0.27625886,0.0,0.0,0,0
106356000,-0.8427779,0.06814389,1.2574137,0.0,0.7294145,-0.34890673,-0.21526818,0.54761136,0.27750552,0.0,0.0,0,0
106372000,-0.8428637,0.06833366,1.2543006,0.0,0.7302258,-0.34932244,-0.2146774,0.5464958,0.27838543,0.0,0.0,0,0
106396000,-0.84307295,0.068631254,1.2492273,0.0,0.7315338,-0.35002005,-0.21373631,0.544666,0.27973595,0.0,0.0,0,0
106412000,-0.84320116,0.06884265,1.2455792,0.0,0.7324757,-0.35051134,-0.2130532,0.5433503,0.2806548,0.0,0.0,0,0
106436000,-0.8434517,0.06917243,1.2396889,0.0,0.73398536,-0.35131466,-0.21196398,0.5412159,0.2820511,0.0,0.0,0,0
106452000,-0.84356546,0.06943817,1.2355127,0.0,0.73505896,-0.35186696,-0.2111608,0.539712,0.28296682,0.0,0.0,0,0
106476000,-0.8437653,0.069855325,1.228913,0.0,0.7367461,-0.3527427,-0.2098951,0.53732836,0.28436092,0.0,0.0,0,0
106492000,-0.8439279,0.07013689,1.2242614,0.0,0.7379283,-0.353362,-0.2090115,0.535641,0.2852959,0.0,0.0,0,0
106516000,-0.8441855,0.0705699,1.2169058,0.0,0.73979133,-0.35433385,-0.20761538,0.53296554,0.2866914,0.0,0.0,0,0
106532000,-0.8443434,0.07087308,1.2118258,0.0,0.7410752,-0.35499546,-0.2066418,0.5311166,0.28761947,0.0,0.0,0,0
106556000,-0.84451103,0.07128957,1.2037178,0.0,0.7431386,-0.35599753,-0.205087,0.52815723,0.28905,0.0,0.0,0,0
106572000,-0.8446503,0.07157968,1.1980457,0.0,0.74457127,-0.3567024,-0.2040028,0.5260797,0.28999802,0.0,0.0,0,0
106596000,-0.8448992,0.072019435,1.1890768,0.0,0.74682206,-0.35781622,-0.20229834,0.5227809,0.29141837,0.0,0.0,0,0
106612000,-0.8450772,0.072307475,1.1828508,0.0,0.7483771,-0.35858226,-0.20111968,0.5204819,0.2923601,0.0,0.0,0,0
106636000,-0.8453057,0.072876155,1.1731226,0.0,0.7507864,-0.35978195,-0.19921397,0.5169047,0.29370517,0.0,0.0,0,0
106652000,-0.8454794,0.073256165,1.166439,0.0,0.75243014,-0.36060408,-0.19790912,0.51443714,0.29459828,0.0,0.0,0,0
106676000,-0.84571815,0.07383788,1.1561297,0.0,0.7549555,-0.36185068,-0.19588424,0.51062304,0.2959223,0.0,0.0,0,0
106692000,-0.8458801,0.074229255,1.1489667,0.0,0.7567008,-0.3627056,-0.19447683,0.50796384,0.29679462,0.0,0.0,0,0
106716000,-0.84606296,0.07482935,1.1379687,0.0,0.7593745,-0.3639824,-0.19229265,0.50387573,0.29809386,0.0,0.0,0,0
106732000,-0.84624857,0.07523018,1.1303955,0.0,0.76119334,-0.3648738,-0.19080366,0.50104475,0.29895023,0.0,0.0,0,0
