timestamp,timestamp_sample,xyz[0],xyz[1],xyz[2]
3564000,3564000,0.005805373,0.03086507,6.0048475e-05
3568000,3568000,0.00085284933,0.027898658,-0.000373367
3576000,3576000,-0.00373514,0.012502556,0.00012917923
3580000,3580000,-0.0033973008,0.011682003,0.0003314373
3584000,3584000,-0.0011239633,0.026436418,0.0004030654
3588000,3588000,0.000316267,0.03718387,0.00022238155
3596000,3596000,0.0014622965,0.010384863,0.00047337412
3600000,3600000,0.0029348882,0.009853781,0.0007677127
3608000,3608000,0.0036837053,0.034394242,-5.8655933e-05
3612000,3612000,0.003022744,0.035944153,-0.00016578252
3616000,3616000,0.00088560313,0.021198982,-0.00045187195
3620000,3620000,-0.00016844731,-0.0006023849,-0.0007945292
3624000,3624000,0.00051653327,-0.006393012,-0.00052576204
3628000,3628000,0.00060236873,0.002259793,0.00016756235
3636000,3636000,0.00031798676,0.010511674,-7.8443234e-05
3640000,3640000,0.0006764232,0.014407661,-0.00065692293
3644000,3644000,0.0035725106,0.032606374,-0.0007409059
3648000,3648000,0.0064917095,0.05087265,-0.0004380397
3652000,3652000,0.0083595915,0.04894133,7.072514e-05
3660000,3660000,0.005763514,0.034005385,0.00031404736
3664000,3664000,0.005201282,0.029239194,0.00033928582
3668000,3668000,0.0073673464,0.033431876,-6.482766e-05
3672000,3672000,0.0076831644,0.035528615,-0.00066225254
3676000,3676000,0.0062822537,0.024361813,-0.00046357577
3680000,3680000,0.005262513,0.01697928,0.00028254275
3684000,3684000,0.0032256707,0.021240737,0.0005909079
3688000,3688000,0.0008366568,0.017646093,4.0881958e-05
3692000,3692000,0.0018800694,0.00584171,-0.0006903514
3700000,3700000,0.007859913,0.026798,-0.0012954317
3704000,3704000,0.0045169494,0.030403925,-0.00077503355
3708000,3708000,0.0025405497,0.030274123,0.00033994045
3712000,3712000,0.0014180708,0.023519237,0.0010278965
3716000,3716000,-0.0024618106,0.010062492,0.00092385756
3720000,3720000,-0.0037158118,0.005935897,0.00043165724
3724000,3724000,4.7065776e-05,0.011680453,0.000127628
3728000,3728000,0.0027570003,-0.0042560315,-0.00040706026
3732000,3732000,0.0047131237,-0.0051897066,-0.0010849292
3740000,3740000,0.0020099538,-0.014968444,-0.000650017
3748000,3748000,-0.0015618956,0.0011389293,-0.0002837663
3752000,3752000,-0.0008966096,0.00034859264,6.371355e-05
3756000,3756000,0.002413341,-0.0029392613,-5.9147216e-05
3764000,3764000,0.061498854,-0.037204623,-0.000154475
3772000,3772000,0.05789369,-0.025081426,0.0029871003
3776000,3776000,0.058386333,-0.03315177,0.0030645104
3780000,3780000,0.06111277,-0.04114768,0.00061649026
3784000,3784000,0.06520928,-0.05023085,0.0004025183
3788000,3788000,0.06565834,-0.05005002,6.49702e-05
3796000,3796000,0.06102582,-0.047058478,0.00014475915
3800000,3800000,0.06016923,-0.041038223,0.00068023684
3804000,3804000,0.056258734,-0.030473603,0.0006065456
3808000,3808000,0.054123327,-0.023464423,0.00065453816
3812000,3812000,0.05701986,-0.020404555,0.00067977514
3816000,3816000,0.05680601,-0.020074902,0.00048939977
3824000,3824000,0.058221642,-0.0066080014,3.5635749e-06
3828000,3828000,0.06166229,0.0027564978,9.037327e-05
3832000,3832000,0.060663197,0.0011470993,4.3321994e-05
3836000,3836000,0.059498973,-0.00475146,-0.00043154936
3844000,3844000,0.051142212,-0.0020409056,-0.00016656677
3848000,3848000,0.04990472,0.0060291076,0.0004164161
3852000,3852000,0.052504946,0.015789673,0.00086747715
3856000,3856000,0.054956414,0.016819632,0.0011520793
3860000,3860000,0.05627337,0.012610452,0.0016977179
3864000,3864000,0.055739645,0.0052709235,0.0014664301
3872000,3872000,0.054426245,0.011366783,-0.00014721078
3876000,3876000,0.055932082,0.010460089,-6.547446e-05
3884000,3884000,0.058362387,0.020086056,0.0011990644
3888000,3888000,0.060141034,0.021421168,0.00087858643
3892000,3892000,0.05973668,0.027761426,2.4199595e-05
3896000,3896000,0.056640074,0.033557225,-0.0004102977
3900000,3900000,0.055669684,0.038803898,-0.00062665343
3908000,3908000,0.05862036,0.024797482,0.00011696975
3912000,3912000,0.05928395,0.009969895,-4.95368e-05
3916000,3916000,0.058882818,0.001022543,0.0002889829
3924000,3924000,0.0561233,0.017529119,0.00050930365
3928000,3928000,0.055220347,0.025742775,0.0007655475
3932000,3932000,0.057966862,0.02303425,0.0005094501
3936000,3936000,0.061329592,0.017049054,0.0008647499
3944000,3944000,0.05882547,0.019741157,0.0013827735
3948000,3948000,0.058281325,0.022813577,0.0013158979
3952000,3952000,0.05679395,0.019716721,0.0008710148
3956000,3956000,0.05650375,0.016182598,0.00022572713
3960000,3960000,0.060107052,0.021165174,5.9906248e-05
3964000,3964000,0.06291541,0.023862299,0.0004278734
3968000,3968000,0.0605004,0.028211178,0.0010003764
3972000,3972000,0.05652111,0.041397713,0.00073751295
3976000,3976000,0.058402214,0.050834294,3.7505946e-05
3980000,3980000,0.06262124,0.046846755,-0.00072656927
3984000,3984000,0.061876297,0.03401336,-0.00012463148
3988000,3988000,0.05704724,0.030226782,0.00066238694
3992000,3992000,0.052627526,0.04024084,0.0013883598
3996000,3996000,0.05441871,0.051622406,0.0016532105
4004000,4004000,0.0660674,0.013338866,0.0015766446
4012000,4012000,0.053351454,0.017510155,0.00027261663
4016000,4016000,0.05188628,0.037620936,-0.00016628634
4020000,4020000,0.057587437,0.04709066,0.00018172777
4024000,4024000,0.061719116,0.039452955,0.00044361554
4032000,4032000,0.05647095,0.03194392,0.00032053614
4036000,4036000,0.057621278,0.027766448,-0.00068930606
4040000,4040000,0.06032876,0.022383781,-0.0009543627
4044000,4044000,0.06060909,0.020222414,-0.00054251595
4048000,4048000,0.059242386,0.023148378,0.0002771358
4052000,4052000,0.05760863,0.035154205,0.00048376637
4056000,4056000,0.055342063,0.050432295,0.0004506575
4060000,4060000,0.053309843,0.057370253,0.00017410898
4064000,4064000,0.053085506,0.04749385,-0.00025019277
4068000,4068000,0.055543028,0.025446106,-0.0010919512
4076000,4076000,0.05931381,0.024724508,0.000100668534
4080000,4080000,0.057357322,0.027078638,0.00032878108
4084000,4084000,0.05515608,0.024722788,0.0002207188
4088000,4088000,0.05477364,0.02038165,0.0007281142
4092000,4092000,0.053354587,0.025419904,0.00090810243
4100000,4100000,0.051453196,0.0357361,-0.00024166508
4104000,4104000,0.052445635,0.033475716,-0.000606843
4108000,4108000,0.053298153,0.04284761,-0.00082024327
4112000,4112000,0.05229041,0.0520702,-0.00029774843
4116000,4116000,0.04895484,0.04777547,-0.00029658643
4120000,4120000,0.0457486,0.041133575,-0.00017072476
4124000,4124000,0.046850715,0.035297707,-4.6508867e-06
4132000,4132000,0.053564593,0.0063085845,-8.2711165e-05
4136000,4136000,0.05625602,0.01206028,0.0008708871
4140000,4140000,0.056767307,0.027866991,0.0012704277
4148000,4148000,0.055384375,0.04751265,-0.00037663832
4152000,4152000,0.0526415,0.043687973,-0.0012406255
4156000,4156000,0.05390387,0.03162646,-0.0009827677
4160000,4160000,0.05549071,0.023672417,4.784869e-05
4164000,4164000,0.054063965,0.025841933,0.00026608456
4168000,4168000,0.051954634,0.027996201,0.000243532
4172000,4172000,0.050837792,0.028905327,0.00025851122
4176000,4176000,0.053744085,0.032772038,0.00069194275
4180000,4180000,0.05815682,0.034050796,0.00040438844
4188000,4188000,0.05682216,0.03313881,0.00018295455
4192000,4192000,0.053890157,0.034606185,0.00026495644
4196000,4196000,0.052610278,0.0338452,-0.00012486815
4200000,4200000,0.05459162,0.02527983,-0.00015627121
4204000,4204000,0.05798483,0.014956437,-0.00029783754
4212000,4212000,0.055576865,0.0210607,-0.0006297638
4216000,4216000,0.05508156,0.026344161,-4.501357e-05
4220000,4220000,0.052860126,0.035827123,0.0004908793
4228000,4228000,0.04573257,0.024175731,0.00085794437
4232000,4232000,0.051538676,0.014307239,0.0009844996
4236000,4236000,0.056938972,0.030589977,0.00096811913
4240000,4240000,0.057173043,0.04013205,0.00064406043
4244000,4244000,0.054211978,0.037817232,0.0002691436
4248000,4248000,0.05019012,0.042191744,0.00065904896
4252000,4252000,0.048774123,0.04560175,0.0007779021
4256000,4256000,0.0519919,0.041186117,0.0012075821
4260000,4260000,0.058181558,0.029052515,0.0015096467
4264000,4264000,0.06355412,0.018596636,0.0014038117
4268000,4268000,0.06487067,0.015742946,0.0011119551
4276000,4276000,0.0625387,0.020289268,0.0006918574
4280000,4280000,0.06201408,0.013788622,0.00054564246
4284000,4284000,0.059248794,0.006766567,0.00021619201
4288000,4288000,0.053880375,0.020008128,-0.00023502165
4292000,4292000,0.05195255,0.038146015,-0.0006295382
4296000,4296000,0.056069143,0.039952625,-0.00014969129
4304000,4304000,0.06139026,0.015996393,0.001578331
4308000,4308000,0.058974143,0.013680341,0.0011079104
4316000,4316000,0.05019288,0.018922158,-0.001001512
4320000,4320000,0.04991533,0.02376122,-0.0010816811
4324000,4324000,0.05292285,0.02195949,-0.00089430605
4328000,4328000,0.054392956,0.025671417,-0.00052477606
4332000,4332000,0.051845387,0.039063837,-0.00039813295
4340000,4340000,0.052494735,0.055022612,-0.00047196794
4344000,4344000,0.0588119,0.034904264,7.990806e-05
4348000,4348000,0.059677552,0.008802422,0.0005385943
4352000,4352000,0.054998487,0.006765117,0.0005872647
4356000,4356000,0.050715122,0.018594254,-5.1257644e-05
4360000,4360000,0.048983354,0.018747922,-0.000630216
4364000,4364000,0.051411483,0.011561055,-0.00080012565
4368000,4368000,0.055013075,0.015353554,-0.0006755098
4376000,4376000,0.06266685,0.04587681,-0.00075463887
4380000,4380000,0.061709996,0.034708582,-0.0001402162
4388000,4388000,0.05259371,0.015688913,7.437034e-05
4392000,4392000,0.051600456,0.019733641,-0.00076001964
4396000,4396000,0.05443862,0.02314146,-0.0009622718
4400000,4400000,0.05901734,0.022429746,-0.0006757369
4408000,4408000,0.05258325,0.025206363,-7.070281e-06
4412000,4412000,0.049900245,0.031145914,0.00015130661
4416000,4416000,0.05055065,0.030978596,7.550552e-07
4420000,4420000,0.051433947,0.028024029,-8.735932e-05
4428000,4428000,0.051245976,0.022895643,0.0010416737
4432000,4432000,0.052199766,0.026203748,0.0011276259
4436000,4436000,0.05571472,0.019895881,0.0005775968
4440000,4440000,0.05727933,0.011192964,0.00037990065
4444000,4444000,0.055522192,0.015003646,0.00037742907
4452000,4452000,0.058787316,0.03734278,-3.778153e-05
4456000,4456000,0.05761506,0.03909064,7.030984e-05
4460000,4460000,0.053371824,0.032975182,5.019163e-05
4468000,4468000,0.049810108,0.034361627,-0.00034255732
4472000,4472000,0.04848616,0.033528596,-0.00075499964
4476000,4476000,0.04520175,0.03160723,-0.00012489775
4480000,4480000,0.04679672,0.028689072,0.0009813927
4484000,4484000,0.051920608,0.024617868,0.0010700423
4488000,4488000,0.055203285,0.025070954,0.0007239814
4496000,4496000,0.053465955,0.037239414,-2.981918e-05
4500000,4500000,0.05159453,0.038853824,-0.00039656117
4508000,4508000,0.052935317,0.02039393,-0.00044134675
4512000,4512000,0.05179298,0.018216778,-0.0003778078
4516000,4516000,0.048293527,0.022889903,0.00011107756
4520000,4520000,0.048034675,0.031090047,0.00054239266
4524000,4524000,0.048957627,0.041962266,0.00022569086
4528000,4528000,0.04826885,0.044614222,-0.00040972995
4532000,4532000,0.050171215,0.03428048,-0.0005487126
4536000,4536000,0.053294837,0.028663134,0.00022317686
4540000,4540000,0.056198902,0.03284778,0.0010132652
4544000,4544000,0.056352917,0.03983389,0.0012315207
4552000,4552000,0.04588161,0.024148894,0.00011827683
4556000,4556000,0.04838591,0.020187097,-0.00016624367
4564000,4564000,0.055619437,0.016270904,0.00030693057
4568000,4568000,0.060946263,0.018058486,0.00052611146
4572000,4572000,0.06401303,0.026062103,0.0005801045
4576000,4576000,0.062261175,0.029249007,0.00071717094
4580000,4580000,0.059481982,0.0210122,0.0007798297
4584000,4584000,0.058965564,0.014932189,0.00077444885
4592000,4592000,0.057470877,0.024438668,0.0001873569
4596000,4596000,0.05494716,0.02800551,-0.000308582
4600000,4600000,0.05404008,0.035165273,-0.000790544
4604000,4604000,0.05340739,0.042534582,-0.0009414781
4608000,4608000,0.05302337,0.045045517,-0.0008582366
4616000,4616000,0.054451,0.045016013,-0.0003866368
4620000,4620000,0.048822045,0.038938828,-0.00023838661
4628000,4628000,0.05333999,0.020156486,-0.0006872482
4632000,4632000,0.057114206,0.023960218,-4.7762685e-05
4636000,4636000,0.05810889,0.03701757,0.00038936496
4640000,4640000,0.05913386,0.042006478,6.8602e-05
4644000,4644000,0.059018817,0.033761267,-0.00023344943
4648000,4648000,0.054803267,0.020661036,0.00022902488
4652000,4652000,0.05073967,0.013699723,0.0009088435
4656000,4656000,0.050242845,0.018854551,0.0011352286
4664000,4664000,0.05131515,0.03024723,0.0005114278
4668000,4668000,0.055372514,0.029846456,0.0002294213
4672000,4672000,0.0567927,0.027879935,-0.000172801
4676000,4676000,0.054358415,0.030577961,-0.0007058918
4680000,4680000,0.05187574,0.02852238,-0.00059630116
4684000,4684000,0.049306616,0.019220911,-0.00022824897
4688000,4688000,0.04811234,0.01890643,-0.00023236594
4692000,4692000,0.050652348,0.022976615,-0.00013774403
4696000,4696000,0.052938297,0.017531857,0.00029273532
4700000,4700000,0.051438108,0.01356223,0.00038030592
4708000,4708000,0.0508936,0.033578224,-0.00022904361
4712000,4712000,0.054228656,0.038305253,-0.0004749153
4716000,4716000,0.057084847,0.040436268,-0.0007633952
4720000,4720000,0.0556482,0.046019204,-0.00081945973
4728000,4728000,0.053221013,0.04199273,-0.0012351398
4732000,4732000,0.0521195,0.0287605,-0.001704497
4736000,4736000,0.05013399,0.017004225,-0.0014427014
4740000,4740000,0.053084202,0.021153955,-0.00074674573
4744000,4744000,0.05589828,0.03286342,-0.0005818406
4748000,4748000,0.054696474,0.042698104,-0.0011667345
4756000,4756000,0.052974556,0.045611344,-0.0007081326
4760000,4760000,0.05474858,0.03634564,-0.00034879398
4768000,4768000,0.053811803,0.023999698,-0.0011500128
4772000,4772000,0.051988598,0.036228724,-0.0020807297
4776000,4776000,0.05191961,0.05018395,-0.0015616156
4780000,4780000,0.053418305,0.040763002,-0.00031784194
4788000,4788000,0.05496029,0.016960155,-0.00039677907
4792000,4792000,0.053767793,0.025217533,-0.00030037903
4796000,4796000,0.052653603,0.03466924,2.0977423e-05
4800000,4800000,0.052655987,0.039389286,-5.5315355e-05
4804000,4804000,0.054853916,0.035245307,-0.0005589258
4812000,4812000,0.052714806,0.024630982,-0.0019486821
4816000,4816000,0.049934175,0.029999252,-0.0020061769
4820000,4820000,0.048936315,0.044602893,-0.0019290451
4828000,4828000,0.050488137,0.05813971,0.00015834093
4832000,4832000,0.053233482,0.05497514,0.0009531255
4836000,4836000,0.053552397,0.048505455,0.0009202273
4840000,4840000,0.055395115,0.039918747,4.524287e-05
4848000,4848000,0.058966458,0.03006769,-0.0012136761
4852000,4852000,0.058018,0.026422843,-0.00038774536
4860000,4860000,0.056823928,0.025989,-0.00062163867
4864000,4864000,0.05680282,0.017042845,-0.00033957948
4868000,4868000,0.054313716,0.01927713,0.0009369992
4872000,4872000,0.05110119,0.0256606,0.0020787895
4880000,4880000,0.05295428,0.02873338,0.00044533281
4888000,4888000,0.05517671,0.02105121,-0.0006928495
4892000,4892000,0.05522653,0.01177609,-0.0005039641
4896000,4896000,0.055777635,0.013833884,-0.00016687674
4900000,4900000,0.058961865,0.020701446,-0.00020354839
4904000,4904000,0.05980192,0.030227508,-0.0006659074
4908000,4908000,0.05617878,0.04024413,-0.00092515704
4912000,4912000,0.052411553,0.033860065,-0.0010072968
4916000,4916000,0.052058548,0.015756246,-0.0013790167
4920000,4920000,0.054504827,0.011726651,-0.0015370954
4924000,4924000,0.0554318,0.020026326,-0.0012331109
4928000,4928000,0.054353043,0.017646236,-0.0009729983
4936000,4936000,0.051796213,-0.00067224586,-0.00025460447
4940000,4940000,0.05155507,-0.008049112,-0.00047194562
4944000,4944000,0.05216401,-0.0072946926,-0.00097528775
4948000,4948000,0.052626744,0.008801498,-0.0003946077
4952000,4952000,0.053836234,0.024675004,0.0012315706
4956000,4956000,0.053710513,0.032537874,0.0016399375
4960000,4960000,0.051372267,0.037700303,0.00087752077
4964000,4964000,0.04931926,0.034977295,0.00029299717
4968000,4968000,0.051678356,0.024103377,0.00058280287
4972000,4972000,0.05606818,0.0102939885,0.00058935443
4976000,4976000,0.05298861,0.0037040515,0.00037835637
4980000,4980000,0.046736192,0.007091895,0.0003744277
4988000,4988000,0.039732374,0.021709556,-8.6392574e-05
4992000,4992000,0.04001219,0.03257174,-0.00017980207
4996000,4996000,0.04453312,0.039213046,0.00017108199
5000000,5000000,0.04682508,0.045602407,0.0011561656
5004000,5004000,0.045811843,0.046745494,0.0018717082
5008000,5008000,0.0474083,0.0326881,0.0016561135
5012000,5012000,0.050243616,0.011774133,0.00043031937
5020000,5020000,0.053863674,0.011905517,0.00037275988
5024000,5024000,0.051166255,0.017265763,0.00048094697
5028000,5028000,0.046366196,0.0088342475,7.192792e-05
5032000,5032000,0.042209063,0.0012543368,-0.00012937459
5036000,5036000,0.04244971,0.008741388,0.00029691783
5044000,5044000,0.048540268,0.02195951,0.00035476286
5048000,5048000,0.04953034,0.021006037,-0.0004941355
5052000,5052000,0.049161054,0.021958623,-0.00045865972
5056000,5056000,0.047115818,0.018385494,0.00055775815
5060000,5060000,0.043164916,0.014618036,0.0010018694
5068000,5068000,0.045733776,0.016593544,-0.00017908406
5072000,5072000,0.050861277,0.017970305,-0.00037448842
5076000,5076000,0.05412429,0.022817042,-0.00024035593
5084000,5084000,0.05398489,0.021239799,-0.00035930655
5088000,5088000,0.049096037,0.016663276,-0.0005109535
5096000,5096000,0.048248366,0.023722801,8.1040125e-05
5100000,5100000,0.04460318,0.028054344,0.0002684767
5104000,5104000,0.041924827,0.023867797,0.00015564708
5108000,5108000,0.045028366,0.019818174,6.290508e-05
5116000,5116000,0.04474036,0.02341855,-5.8981565e-05
5124000,5124000,0.05235186,0.014544541,0.00094416586
5128000,5128000,0.057730574,-7.304689e-05,0.0006587577
5132000,5132000,0.059618462,-0.012360676,0.00042520202
5140000,5140000,0.051456288,0.0062268777,0.0010619756
5144000,5144000,0.048443407,0.0149707515,0.0010041576
5148000,5148000,0.047822494,0.009642062,7.028055e-05
5152000,5152000,0.046393417,0.01314249,-0.0010202978
5156000,5156000,0.045850325,0.02115239,-0.0013872436
5160000,5160000,0.048109315,0.015201558,-0.0013494471
5164000,5164000,0.05154107,0.013895849,-0.0010267932
5168000,5168000,0.05269524,0.020585224,-0.0001888102
5172000,5172000,0.052835982,0.01940225,0.00062030926
5180000,5180000,0.053640135,0.00754973,-0.0003086606
5184000,5184000,0.050222874,0.004349445,-0.000753799
5188000,5188000,0.048103657,-0.00256983,-0.00040301026
5192000,5192000,0.04753349,-0.004232535,0.0008600669
5196000,5196000,0.049358435,0.010380341,0.002248235
5204000,5204000,0.0520508,0.02200759,0.00057830743
5208000,5208000,0.050138704,0.0065636993,-0.0009255459
5212000,5212000,0.04623507,-0.0044525457,-0.0008954907
5216000,5216000,0.04246097,0.00017011573,4.4906945e-05
5220000,5220000,0.041435007,0.013229324,0.00081797974
5224000,5224000,0.04354077,0.012076398,0.0009813928
5228000,5228000,0.047736224,0.0005881768,0.0003001973
5232000,5232000,0.051369585,-0.0036823843,-0.0004942038
5236000,5236000,0.05162626,-0.003743134,-0.0004661509
5240000,5240000,0.04956997,-0.0037056017,-1.4218891e-05
5248000,5248000,0.047086403,0.009738147,0.0005634766
5252000,5252000,0.049453467,0.012392952,0.00054789515
5260000,5260000,0.05181208,0.009592352,0.0010030096
5268000,5268000,0.041974343,0.017333811,0.0005587326
5272000,5272000,0.047444515,0.0225791,0.00041982572
5276000,5276000,0.049624138,0.0272843,0.00038017356
5280000,5280000,0.047182072,0.029073484,0.00014330304
5288000,5288000,0.052991897,0.018939832,0.00036546652
5292000,5292000,0.053257518,0.006682791,0.0004699088
5300000,5300000,0.047178235,0.0013600328,0.0003446177
5308000,5308000,0.049891833,0.003329148,-0.0002801252
5316000,5316000,0.05569615,0.008946375,0.0004968268
5320000,5320000,0.055542734,0.017537327,0.0001369061
5324000,5324000,0.053688534,0.017810924,-0.0001287431
5328000,5328000,0.048626643,0.0047935876,5.654839e-05
5332000,5332000,0.044767566,-0.0029797303,0.00046259523
5336000,5336000,0.04831599,0.008477778,0.0008771601
5344000,5344000,0.053110626,0.016403392,0.0009811375
5348000,5348000,0.05199702,0.017431859,0.0007259706
5352000,5352000,0.05298563,0.017372549,0.00012683091
5356000,5356000,0.054667283,0.015170936,-0.00027988205
5360000,5360000,0.053490866,0.019527812,-0.00032315025
5364000,5364000,0.050137524,0.024663525,-0.0004094239
5368000,5368000,0.047728855,0.03235757,-0.0007029414
5372000,5372000,0.046685725,0.03878398,-0.0009055229
5380000,5380000,0.051437885,0.03252507,2.6015156e-05
5388000,5388000,0.052304376,0.019520639,0.0010670661
5392000,5392000,0.050488707,0.021165043,0.000700194
5396000,5396000,0.051263012,0.020273851,0.0006994313
5400000,5400000,0.051862124,0.0198714,0.00093614095
5404000,5404000,0.04987209,0.029482532,0.00060021935
5408000,5408000,0.046924487,0.034948077,0.00032216648
5412000,5412000,0.04553728,0.03050706,0.00043513897
5416000,5416000,0.04583639,0.023928704,0.0006294868
5420000,5420000,0.049626246,0.016358115,0.00076620065
5424000,5424000,0.05426683,0.0140458625,0.00025063846
5428000,5428000,0.054580607,0.02531633,-0.0012752544
5432000,5432000,0.054022115,0.038419727,-0.0020909589
5436000,5436000,0.05576381,0.031273887,-0.0017486777
5440000,5440000,0.055485506,0.008133766,-0.0011916304
5444000,5444000,0.052082963,-0.0016831944,-0.0009259722
5448000,5448000,0.048543975,0.009066446,-0.001251696
5456000,5456000,0.041566793,0.03661314,-0.00039591087
5460000,5460000,0.04248906,0.03520725,-5.5884615e-05
5468000,5468000,0.04584337,0.038589872,0.0014653183
5472000,5472000,0.048166227,0.033719417,0.0021541582
5476000,5476000,0.0506603,0.02195827,0.001890335
5480000,5480000,0.05219161,0.015102437,0.0009745974
5484000,5484000,0.053249236,0.017909942,0.00024017697
5488000,5488000,0.05191296,0.023534711,-3.9941315e-05
5492000,5492000,0.047943097,0.025347784,-0.0001816767
5500000,5500000,0.04231333,0.024501959,0.001029781
5504000,5504000,0.043557603,0.02096615,0.0015957027
5508000,5508000,0.04628067,0.021143885,0.0012664566
5512000,5512000,0.048415154,0.024786485,0.00011844697
5516000,5516000,0.04743666,0.025330875,-0.0010848775
5524000,5524000,0.045021698,0.0008730112,-0.0010034714
5528000,5528000,0.047045115,-0.002104951,-0.001092594
5532000,5532000,0.050266176,0.015102595,-0.001830371
5536000,5536000,0.05431006,0.041831907,-0.0021907266
5540000,5540000,0.05588448,0.059886284,-0.0016280639
5544000,5544000,0.05585947,0.056150254,-0.0011040784
5548000,5548000,0.053830698,0.037311383,-0.00090770575
5552000,5552000,0.048536245,0.023524208,-0.00066021073
5556000,5556000,0.04599232,0.022749053,-0.00033199223
5564000,5564000,0.04346438,0.024915619,0.00010097438
5568000,5568000,0.03942927,0.018917402,0.000625083
5572000,5572000,0.042151995,0.028489174,0.0008226001
5576000,5576000,0.0471738,0.041415416,0.00075502036
5580000,5580000,0.048994996,0.035161406,0.00041730248
5584000,5584000,0.049323924,0.022885557,-0.00012540392
5588000,5588000,0.04950443,0.026331756,-0.0008659662
5592000,5592000,0.048263602,0.034055308,-0.0013798572
5596000,5596000,0.045831703,0.028211543,-0.0015534676
5600000,5600000,0.04336445,0.018142775,-0.0011294472
5604000,5604000,0.04265197,0.017149974,-0.000112830945
5608000,5608000,0.045501716,0.02161993,0.00045472578
5612000,5612000,0.049108274,0.023552481,0.00029156383
5616000,5616000,0.047621645,0.019753033,-1.806535e-05
5620000,5620000,0.043667685,0.017106561,-7.9826415e-05
5628000,5628000,0.04646476,0.02737847,-4.4569893e-05
5632000,5632000,0.04760841,0.026628386,-5.3820946e-05
5636000,5636000,0.04968726,0.022488732,-0.00044048115
5640000,5640000,0.05213396,0.020431694,-0.0010185764
5644000,5644000,0.053737156,0.018750397,-0.0013603156
5648000,5648000,0.05255042,0.023088247,-0.0010315228
5652000,5652000,0.05113186,0.029109871,-0.0004951098
5656000,5656000,0.052008446,0.03212839,-0.0003229831
5660000,5660000,0.052400086,0.03012073,-4.3833283e-05
5664000,5664000,0.051392645,0.021569645,0.0002823055
5668000,5668000,0.048919592,0.021176374,0.00054460316
5676000,5676000,0.04826296,0.018505787,0.000118246666
5680000,5680000,0.0508793,0.0167455,-0.0002971619
5688000,5688000,0.04707354,0.01189032,-1.331035e-05
5692000,5692000,0.046454895,0.0030294305,0.00012626323
5700000,5700000,0.05283521,0.009082651,-0.001070314
5704000,5704000,0.0533254,0.017133003,-0.000934213
5708000,5708000,0.0469614,0.014794737,-7.794638e-05
5712000,5712000,0.04261917,0.008250674,0.00034410678
5720000,5720000,0.046172224,0.016531954,5.722317e-05
5724000,5724000,0.045062628,0.017326567,-0.00011788065
5728000,5728000,0.04429435,0.012112351,-0.0005709775
5736000,5736000,0.041732483,0.013949573,-0.0011007009
5740000,5740000,0.040939633,0.020902527,-0.00058291113
5744000,5744000,0.041992113,0.020643556,-7.122815e-05
5748000,5748000,0.04546017,0.013065365,0.00013563347
5756000,5756000,0.047283716,-0.011553789,0.00013542299
5760000,5760000,0.047869217,-0.010087941,2.2623766e-05
5764000,5764000,0.050637513,0.011043102,-0.00040534252
5768000,5768000,0.049460087,0.026488615,-0.0006923664
5772000,5772000,0.04705959,0.03086393,-0.0003916505
5780000,5780000,0.0509567,0.026507467,9.768127e-05
5788000,5788000,0.047888655,0.016081985,-0.0006363893
5792000,5792000,0.046350833,0.018265389,-0.00044710195
5796000,5796000,0.044775713,0.017284924,0.00024094842
5800000,5800000,0.045131706,0.019162325,0.0013364187
5808000,5808000,0.053899027,0.010712494,0.0014081491
5812000,5812000,0.055925913,0.005588197,0.0007492551
5816000,5816000,0.053519323,0.006131416,0.0005135621
5824000,5824000,0.048981987,0.0084675215,-0.00024720852
5828000,5828000,0.052863687,0.009365243,-0.00029024997
5832000,5832000,0.054080844,0.010604896,0.00012344512
5840000,5840000,0.045966756,0.014081964,0.00016800273
5844000,5844000,0.04662782,0.007585628,1.9810825e-05
5848000,5848000,0.052337065,0.008903386,0.00021661678
5856000,5856000,0.056137875,0.0021545412,-0.000147684
5864000,5864000,0.052553486,-0.0042580133,-0.0005015512
5868000,5868000,0.052897096,-0.0016855944,0.00012238152
5872000,5872000,0.05304654,-0.0017040609,0.0005236344
5876000,5876000,0.050112937,-0.011041762,0.00038832304
5884000,5884000,0.04965619,-0.013839579,-0.00026217746
5888000,5888000,0.050271943,-0.008855992,-0.00012988209
5892000,5892000,0.05059437,-0.0035456098,0.00065885123
5900000,5900000,0.05419361,0.01411117,0.0010240589
5908000,5908000,0.058036495,0.020497924,-0.00027041664
5912000,5912000,0.0522762,0.016122459,-4.018839e-05
5916000,5916000,0.047154266,0.011785752,0.00033282925
5920000,5920000,0.0477055,0.0112618655,0.00038306505
5924000,5924000,0.05007201,0.0069560367,0.0003334221
5932000,5932000,0.05204356,0.012341238,0.0008983522
5940000,5940000,0.051582076,0.0005103025,0.00023944552
5948000,5948000,0.04936888,7.143465e-05,-0.0011441598
5952000,5952000,0.04915058,0.0068920674,-0.0005950485
5960000,5960000,0.05340759,0.011313428,0.0006011732
5964000,5964000,0.053815655,0.0071048015,0.00031488884
5968000,5968000,0.05210717,0.011146171,-0.00032918152
5972000,5972000,0.049769465,0.019065354,-0.0012198059
5980000,5980000,0.0548164,0.014927508,-0.00016332674
5988000,5988000,0.05548875,0.0055567673,0.0005131583
5992000,5992000,0.052868336,-0.008044389,0.0007715811
5996000,5996000,0.05312359,-0.023471748,0.0010258429
6000000,6000000,0.054765306,-0.012689151,0.0005813195
6008000,6008000,0.052050162,0.012771535,-0.00013460558
6012000,6012000,0.04689474,0.024450019,0.00026508403
6020000,6020000,0.045044877,0.04147941,0.00069059525
6024000,6024000,0.046520136,0.027813751,0.000857625
6028000,6028000,0.045091536,0.020561134,0.00071438303
6032000,6032000,0.04405118,0.019480215,0.00028933142
6036000,6036000,0.04557251,0.022653086,5.695441e-05
6040000,6040000,0.048316497,0.026752813,0.00029784173
6044000,6044000,0.048499852,0.028224828,0.0006844334
6048000,6048000,0.046571102,0.02907165,0.0012276168
6052000,6052000,0.048564687,0.023789046,0.0010214343
6056000,6056000,0.05046823,0.0155170215,-4.013495e-05
6060000,6060000,0.047165833,0.009955771,-0.00083537993
6064000,6064000,0.043678116,0.009542394,-0.0006561462
6068000,6068000,0.045727387,0.01578288,-4.456332e-05
6072000,6072000,0.050379913,0.013871956,0.00018230455
6076000,6076000,0.051960293,-0.0027026283,1.50622645e-05
6080000,6080000,0.050753698,-0.012090377,4.6681205e-05
6084000,6084000,0.048888333,-0.011220952,0.00030697233
6088000,6088000,0.046423353,-0.010470194,0.00086005847
6092000,6092000,0.04395072,-0.00056156307,0.0011484004
6096000,6096000,0.045584496,0.012181885,0.0003315891
6104000,6104000,0.05197827,-0.0034373654,-0.0006701286
6108000,6108000,0.05087044,0.003917996,-0.00033487435
6116000,6116000,0.04656595,0.002061076,-0.00012619696
6120000,6120000,0.044625618,0.0035894648,0.00031119082
6124000,6124000,0.04733307,0.014072698,0.00059618556
6132000,6132000,0.056710392,0.0021754177,-4.4387645e-05
6136000,6136000,0.0577103,0.0038183068,-0.00024648957
6140000,6140000,0.057071205,0.0068929847,-0.0005077033
6144000,6144000,0.05752742,0.0071354094,-0.0007924325
6148000,6148000,0.059396915,0.011565931,-0.0006085197
6152000,6152000,0.058757775,0.012773144,-0.0004344944
6156000,6156000,0.05533899,0.011757457,-0.0006787855
6160000,6160000,0.051503386,0.011438928,-0.00080550223
6164000,6164000,0.04977656,0.0064197397,-0.00069719297
6168000,6168000,0.05108264,0.0009887072,-0.00061372004
6172000,6172000,0.051801328,-0.0028118342,-0.00042050713
6176000,6176000,0.04958934,-0.002916474,-0.00015056171
6184000,6184000,0.047486138,0.0015295426,-0.00018836239
6192000,6192000,0.050055437,0.026992708,-0.00040829816
6196000,6196000,0.046105877,0.030681096,-0.0007825795
6200000,6200000,0.04526958,0.02063546,-0.000566386
6204000,6204000,0.051692516,0.007105836,0.0003209511
6212000,6212000,0.050050914,0.010925965,-0.0002456923
6216000,6216000,0.047968376,0.03094884,-0.0007324291
6220000,6220000,0.05063518,0.032833703,-0.00089011417
6224000,6224000,0.052502066,0.014921743,-0.00093485723
6228000,6228000,0.04949066,-0.0059343567,-0.0010930283
6232000,6232000,0.045800626,-0.01209081,-0.0014757778
6236000,6236000,0.044016637,-0.0021454827,-0.0014456055
6240000,6240000,0.044314317,0.0035962746,-0.0011605165
6248000,6248000,0.04991235,-0.0012986152,-0.00016380583
6252000,6252000,0.052264288,0.006256981,0.00014123518
6256000,6256000,0.05130353,0.0129084,7.491042e-05
6260000,6260000,0.050231986,0.016742226,0.00017112357
6264000,6264000,0.051901344,0.015185944,0.00040430197
6268000,6268000,0.054007713,0.0080097355,0.00053867453
6272000,6272000,0.05355351,0.012985951,0.0008278006
6276000,6276000,0.052069426,0.026866578,0.0010149368
6280000,6280000,0.049281318,0.026410572,0.0008480558
6284000,6284000,0.043671906,0.010289307,0.00038901536
6292000,6292000,0.044032656,-0.010441024,0.00012750973
6296000,6296000,0.046904303,-0.00063016516,0.00029481418
6300000,6300000,0.04893897,0.014898527,0.00022749681
6304000,6304000,0.051498435,0.013478614,-0.0001818703
6312000,6312000,0.04825763,-0.019511875,-0.00024950484
6316000,6316000,0.043898195,-0.002409552,-8.019609e-05
6324000,6324000,0.054168668,0.013789829,-0.00035408186
6328000,6328000,0.057695508,-0.0016041548,9.220093e-05
6332000,6332000,0.056530844,-0.017479617,0.0006212173
6336000,6336000,0.052550748,-0.024101824,0.0011558014
6344000,6344000,0.043924887,0.0017023997,0.0013624732
6348000,6348000,0.044123903,0.015554809,0.00059550564
6352000,6352000,0.04922435,0.020309817,-0.00019877181
6356000,6356000,0.05269444,0.01246676,-0.00039843706
6360000,6360000,0.050327986,-0.0005523894,-0.00039276757
6364000,6364000,0.048201032,-0.011372821,-0.00064448605
6368000,6368000,0.046239976,-0.010117719,-8.7316555e-05
6372000,6372000,0.043396026,0.0034672979,0.0014782284
6376000,6376000,0.042637512,0.011052379,0.0025364521
6380000,6380000,0.043465603,0.0114606805,0.0021435535
6388000,6388000,0.045492746,0.023936642,0.00047878677
6396000,6396000,0.048259825,0.020842979,-0.0011772194
6400000,6400000,0.046952806,0.021686751,-0.0019216066
6404000,6404000,0.04618881,0.012538415,-0.0017073796
6408000,6408000,0.046636235,0.00019364792,-0.00082080596
6412000,6412000,0.047119606,-0.0021132168,0.0002508472
6420000,6420000,0.040649783,-0.0030819378,0.00059972086
6424000,6424000,0.039855603,-0.00044645672,-3.5174784e-05
6428000,6428000,0.04405455,-0.0002491384,-0.0002855302
6432000,6432000,0.046033643,-0.0035774931,-0.00043086061
6436000,6436000,0.043224353,-0.0022750911,-0.0004187015
6444000,6444000,0.04315742,0.027198737,-0.0007407206
6452000,6452000,0.046806235,0.043696143,-0.00015514356
6456000,6456000,0.046370566,0.029069578,-0.0010794373
6460000,6460000,0.04093426,0.013462836,-0.0019751762
6464000,6464000,0.03740318,0.0066617206,-0.0014175666
6468000,6468000,0.039728694,0.00032426088,-0.00020425454
6472000,6472000,0.044522125,-0.0069972333,0.00036939597
6476000,6476000,0.046939187,-0.004254055,0.00033517097
6480000,6480000,0.046888813,0.005884302,0.00019540123
6484000,6484000,0.045581307,0.010815832,-0.0002453142
6488000,6488000,0.045316234,0.013388933,-0.000696277
6496000,6496000,0.050654285,0.020387523,-0.0008452972
6500000,6500000,0.04752448,0.01790857,-0.0007335424
6504000,6504000,0.044400927,0.020732824,-0.0002867057
6508000,6508000,0.04670111,0.033225637,4.174898e-05
6512000,6512000,0.050412152,0.029378988,0.00025675356
6516000,6516000,0.04915863,0.013632708,0.0003225543
6520000,6520000,0.044985306,0.006770387,6.1295876e-05
6524000,6524000,0.04164524,0.007345112,-0.00022394037
6528000,6528000,0.042111322,0.012721555,-0.00022632162
6532000,6532000,0.045709193,0.0067252847,-0.00027542515
6536000,6536000,0.04808918,-0.0054744673,-0.00051406806
6540000,6540000,0.04728713,-0.009966403,-0.00064605864
6544000,6544000,0.04526279,-0.007503234,-0.00024144349
6548000,6548000,0.04226073,0.0054572956,2.4492478e-05
6552000,6552000,0.040648162,0.016766189,-0.0006689143
6560000,6560000,0.046071965,0.006402409,-0.0011476038
6564000,6564000,0.0473943,-0.007930066,-0.00040398102
6568000,6568000,0.044867832,-0.012336076,0.00014762147
6572000,6572000,0.04254199,-0.0015641209,0.00067054335
6576000,6576000,0.044362612,0.011434113,0.0009708572
6580000,6580000,0.0462337,0.023940746,0.00076893286
6588000,6588000,0.04510749,0.03125884,-0.00022557532
6592000,6592000,0.045456737,0.03083942,-0.00015234211
6600000,6600000,0.04400897,0.0067364043,0.00039938436
6604000,6604000,0.044269316,-0.0070307213,5.3169173e-05
6608000,6608000,0.0429399,5.3388416e-05,-3.4568988e-05
6612000,6612000,0.041472342,0.011767371,0.0003181073
6620000,6620000,0.04104811,5.740032e-05,0.0008242503
6624000,6624000,0.04349882,-0.00026962254,0.00068243657
6632000,6632000,0.047549233,0.0054715676,0.0007359712
6636000,6636000,0.046973772,0.0024793881,0.00033680408
6640000,6640000,0.045367144,-0.009085399,-0.00027837945
6644000,6644000,0.046114914,-0.013379199,-0.0011855399
6648000,6648000,0.04878508,-0.008344725,-0.0019504967
6656000,6656000,0.044282995,-0.013132318,-0.00084545964
6660000,6660000,0.043459006,-0.002228682,0.00023809384
6664000,6664000,0.045104213,0.0053891446,0.0011094132
6668000,6668000,0.044955492,0.0006497021,0.0011001832
6672000,6672000,0.043739744,0.0029421293,0.0007125914
6676000,6676000,0.04441728,0.008535195,0.0007486973
6684000,6684000,0.046447497,0.007801434,0.00062813686
6692000,6692000,0.042227168,-0.00021625485,0.0005431909
6696000,6696000,0.039132208,0.011086823,0.0005747602
6700000,6700000,0.037735008,0.018508669,0.00044877594
6704000,6704000,0.038779575,0.012386475,0.0003368044
6708000,6708000,0.04127257,0.0049691214,0.00034722834
6716000,6716000,0.043661386,-0.0015160539,0.00043366378
6720000,6720000,0.042296216,0.000918342,0.00024472858
6724000,6724000,0.043476056,-0.0003426631,3.565316e-05
6728000,6728000,0.046357214,-0.0052062185,-0.00011866282
6732000,6732000,0.046345305,-0.0071224514,-0.00041914938
6740000,6740000,0.034953766,-0.0010644298,-0.0015845341
6748000,6748000,0.03231264,-0.0048789573,-0.0008629971
6752000,6752000,0.03489458,0.0055169854,0.00031285422
6756000,6756000,0.038037937,0.0073564653,0.0012390371
6760000,6760000,0.04050976,-0.0108734835,0.00034732316
6764000,6764000,0.041771904,-0.015376698,-0.0013125651
6768000,6768000,0.039835904,0.006201134,-0.0013021483
6772000,6772000,0.037680186,0.011583021,-0.00027695275
6776000,6776000,0.039640024,-0.0073211016,0.00015960328
6780000,6780000,0.044312965,-0.018822579,-0.00022528156
6788000,6788000,0.044272285,0.0019123591,0.0006428707
6792000,6792000,0.04059354,-0.00031011115,0.0011996226
6796000,6796000,0.04134309,-0.00040856027,0.0007806711
6800000,6800000,0.040489353,0.00535662,-0.000154204
6804000,6804000,0.03535152,0.011335461,-0.0009127933
6808000,6808000,0.03427276,0.015959572,-0.0011699483
6812000,6812000,0.037822694,0.017792692,-0.0015617425
6816000,6816000,0.041334823,0.015497327,-0.0017435135
6820000,6820000,0.04320486,0.0065512806,-0.0012125738
6824000,6824000,0.043580297,0.0022438725,-0.0003179554
6828000,6828000,0.043599617,0.0036981895,0.00067392923
6832000,6832000,0.042430855,-4.896667e-05,0.0007344761
6836000,6836000,0.039697416,0.0040602083,9.653343e-05
6840000,6840000,0.035511512,0.015126416,-0.0002653751
6844000,6844000,0.033032104,0.012985001,-4.0196795e-05
6848000,6848000,0.033811122,0.005396635,0.00050372444
6852000,6852000,0.03510544,0.0002707098,0.00053181086
6860000,6860000,0.042669013,-0.01698019,-0.00065257045
6868000,6868000,0.041841708,0.011285792,-0.00080736104
6872000,6872000,0.042676196,0.0143228695,-0.0004546956
6876000,6876000,0.04324148,0.0022485526,-0.00013489519
6880000,6880000,0.04234136,-0.0036657867,0.0002215037
6884000,6884000,0.040928006,0.00708146,0.0007519444
6888000,6888000,0.040820703,0.01884219,0.0008605487
6892000,6892000,0.04217702,0.014708103,0.000116193914
6896000,6896000,0.04377868,0.0043518934,-0.00039969062
6900000,6900000,0.043259125,0.002279095,0.000108443186
6904000,6904000,0.038425002,0.005635561,0.0004190668
6908000,6908000,0.03281584,0.0072555756,-3.788781e-05
6916000,6916000,0.03127777,-0.013731202,0.00021132799
6924000,6924000,0.040366,-0.0035530804,-0.0007687906
6928000,6928000,0.039297648,0.0062579825,-0.00026480854
6932000,6932000,0.03560428,0.012749923,0.0007198398
6940000,6940000,0.040665455,-0.0017211365,0.0013176895
6948000,6948000,0.045430258,-0.011555613,3.273248e-05
6952000,6952000,0.041075632,-0.0033596992,-0.001010641
6956000,6956000,0.037071235,0.0011578625,-0.0012885709
6960000,6960000,0.036719307,-0.0063015413,-0.00086511904
6964000,6964000,0.039206304,-0.0077340896,-0.00027049327
6968000,6968000,0.039927058,-0.0009406422,-5.9910493e-05
6972000,6972000,0.039098278,0.0034536698,-0.0003637911
6976000,6976000,0.039188016,0.0020898134,-0.0007527185
6980000,6980000,0.037553586,-0.0025762713,-0.00056601636
6988000,6988000,0.036739565,0.009777025,0.0006851221
6992000,6992000,0.03941225,0.01061833,0.0013511056
6996000,6996000,0.042244766,0.001837046,0.0017106202
7000000,7000000,0.04160344,-0.0066892887,0.0013775366
7008000,7008000,0.04046943,0.01298926,0.00018774618
7012000,7012000,0.04103013,0.007180176,-0.00036372355
7020000,7020000,0.038966626,0.007832411,0.00012546516
7024000,7024000,0.03567123,0.0129308095,0.0010981573
7028000,7028000,0.033830173,0.0047022933,0.0012136977
7036000,7036000,0.036896393,-0.009220433,2.2591103e-05
7044000,7044000,0.0403506,-0.0010328017,-4.1517505e-05
7048000,7048000,0.04234371,-0.008454268,-0.00056436437
7056000,7056000,0.039235443,-0.004936898,-0.0006711525
7060000,7060000,0.034729544,0.00269726,-0.00048366524
7064000,7064000,0.03006397,0.0012675051,-0.0005601685
7068000,7068000,0.03154496,0.007213119,-0.0010077367
7072000,7072000,0.037362486,0.02291603,-0.0010285687
7076000,7076000,0.042217996,0.028769104,-0.00021651665
7080000,7080000,0.044898394,0.014882419,0.00039990316
7084000,7084000,0.046777185,-0.006813709,8.2740786e-05
7088000,7088000,0.04889605,-0.009095418,-0.0005742976
7092000,7092000,0.048608277,0.0060659973,-0.00075598934
7100000,7100000,0.039981216,0.031208418,0.00020755426
7104000,7104000,0.036093414,0.039163545,0.00031546835
7108000,7108000,0.037207365,0.04452507,-2.3610077e-05
7112000,7112000,0.039629526,0.030789878,-5.1617117e-05
7116000,7116000,0.039475888,0.008573224,0.00047245607
7120000,7120000,0.03870638,0.004025059,0.00079011684
7124000,7124000,0.03907168,0.006321554,0.00016276729
7128000,7128000,0.041226503,0.005784251,-0.0006803461
7132000,7132000,0.042862166,0.012475518,-0.0009908067
7140000,7140000,0.041343343,0.014379203,0.0005733903
7144000,7144000,0.041634284,0.0122557655,0.0010762246
7148000,7148000,0.040525146,0.012896271,0.0009717815
7152000,7152000,0.040102523,0.017856829,0.00031080106
7156000,7156000,0.042046722,0.013646069,-0.0004194614
7164000,7164000,0.040121138,-0.014680343,7.914497e-07
7168000,7168000,0.039029453,-0.011097936,0.00036419477
7172000,7172000,0.041258596,0.0066709113,0.0009955529
7176000,7176000,0.043747894,0.015475359,0.0017531493
7180000,7180000,0.041916866,0.0123298,0.0011591514
7188000,7188000,0.03979923,0.009833442,-0.0005050986
7192000,7192000,0.038021296,0.0054029115,-0.00020367261
7196000,7196000,0.03383116,0.009834427,0.0001817853
7204000,7204000,0.034522377,0.028956963,-0.00012954311
7208000,7208000,0.03725738,0.0266595,-0.00038849562
7212000,7212000,0.03761418,0.017242415,-0.0004505041
7216000,7216000,0.036691617,0.0074629267,-0.00021682074
7220000,7220000,0.03699926,-0.0019426651,0.000403156
7224000,7224000,0.039993998,-0.00416518,0.0008010371
7228000,7228000,0.043695994,0.0036598863,0.0006545517
7236000,7236000,0.045009915,0.019232275,0.00040651613
7240000,7240000,0.04723243,0.01757772,-0.00014245456
7248000,7248000,0.041644555,0.0023242778,0.00028023694
7252000,7252000,0.04052399,0.0053873127,0.0005397517
7256000,7256000,0.04455181,0.015106028,0.0008789686
7260000,7260000,0.046407904,0.013408142,0.0010306159
7264000,7264000,0.046813678,0.010264865,0.0007729079
7268000,7268000,0.048389956,0.011218811,0.00028565875
7272000,7272000,0.048362453,0.01601294,5.428886e-05
7280000,7280000,0.040093705,0.012538554,0.0010118482
7284000,7284000,0.037664957,-0.002913605,0.0011922008
7288000,7288000,0.03672997,-0.0027360325,0.0013894167
7292000,7292000,0.03675565,0.009717846,0.0012347352
7300000,7300000,0.039167684,0.0023977659,0.00082884915
7304000,7304000,0.04264178,-0.007776542,0.0012369568
7308000,7308000,0.04324626,-0.016250264,0.0011251543
7316000,7316000,0.035350222,-0.0053580934,0.00014929484
7324000,7324000,0.035578806,0.019249516,0.00078481116
7328000,7328000,0.03768375,0.022561027,0.0013368462
7332000,7332000,0.03883732,0.022849523,0.0013884727
7336000,7336000,0.03929089,0.018466888,0.001349957
7340000,7340000,0.03993365,0.019315604,0.0009737604
7344000,7344000,0.04218275,0.029002659,0.00028071392
7348000,7348000,0.04296198,0.02942032,-0.0004450696
7356000,7356000,0.044472456,0.006955701,-0.0007174373
7360000,7360000,0.04880579,-0.0011555513,-0.0006895139
7364000,7364000,0.04911923,-0.00801634,-0.00096115196
7372000,7372000,0.04161324,-0.024588156,-0.0008739587
7376000,7376000,0.04033862,-0.01996279,0.00025002685
7380000,7380000,0.0395065,-0.0015931575,0.0009924839
7388000,7388000,0.038457308,0.021039348,0.0015819884
7396000,7396000,0.04084025,-0.0003135536,0.0002236779
7400000,7400000,0.044706456,0.0067262063,-9.6487405e-05
7404000,7404000,0.047337234,0.012377679,-0.00031022317
7408000,7408000,0.049056374,0.006603526,-0.00033535087
7416000,7416000,0.043451242,0.012917774,0.0006085793
7420000,7420000,0.039799582,0.01905635,0.0012089756
7424000,7424000,0.03819421,0.016091447,0.0012620498
7428000,7428000,0.035230845,0.00862263,0.0007075605
7432000,7432000,0.030299287,0.006807168,0.00042989352
7436000,7436000,0.028384198,0.013946616,0.00038491047
7440000,7440000,0.03036195,0.013057854,0.00013351013
7444000,7444000,0.033792373,0.008499016,-2.615094e-05
7452000,7452000,0.036070023,0.027074581,0.00015113203
7456000,7456000,0.033184856,0.018372875,0.00019494108
7460000,7460000,0.032700844,0.011103578,0.0001602546
7464000,7464000,0.034940694,0.009843819,0.00012903362
7468000,7468000,0.037328277,0.008957033,0.00025369567
7476000,7476000,0.03773091,-0.011375165,0.00033443165
7480000,7480000,0.035510115,-0.01807673,-0.00033431032
7484000,7484000,0.035096962,-0.011124857,-0.00062305445
7492000,7492000,0.039496344,-0.0022316317,-0.00061782944
7500000,7500000,0.038663913,-0.011327772,-0.00074901286
7508000,7508000,0.032548156,-0.0017574136,2.1585759e-06
7516000,7516000,0.039613478,0.01569214,-0.00028647188
7520000,7520000,0.042351656,0.029426888,-0.0004228807
7524000,7524000,0.040493682,0.034737065,-0.0002862399
7532000,7532000,0.04329214,0.022322427,-0.00033244435
7536000,7536000,0.04869884,0.019557897,0.00013689227
7540000,7540000,0.04899363,0.011966206,0.0006139745
7548000,7548000,0.039983068,0.007122922,0.00029306274
7552000,7552000,0.03989127,0.02353457,-0.00032519133
7560000,7560000,0.044426415,0.02485841,-0.00060828304
7564000,7564000,0.04963546,0.029685264,-0.00034458094
7568000,7568000,0.048964404,0.029735949,0.00014099071
7572000,7572000,0.043843754,0.029310571,0.00061733916
7576000,7576000,0.04283064,0.022142101,0.000653064
7580000,7580000,0.04379092,0.0065060547,9.715361e-05
7588000,7588000,0.03834834,0.009990613,-0.00037450896
7596000,7596000,0.0451243,0.021918688,-0.00051421614
7604000,7604000,0.04570258,0.039817262,0.00021002747
7608000,7608000,0.041795842,0.041947808,0.00018973633
7612000,7612000,0.042190235,0.03137803,-0.00051940326
7616000,7616000,0.04375026,0.022493001,-0.0007642208
7620000,7620000,0.04344333,0.00978546,-4.3686196e-06
7628000,7628000,0.0388544,0.008028614,0.00082124944
7632000,7632000,0.03852155,0.025875563,0.00026280768
7636000,7636000,0.04337588,0.038599666,-2.8374829e-05
7644000,7644000,0.043362893,0.039497722,0.0007593177
7648000,7648000,0.035734534,0.033394802,0.001053056
7652000,7652000,0.03225363,0.032994438,0.00072119734
7656000,7656000,0.035410453,0.028887097,0.00050723634
7660000,7660000,0.03885335,0.01789121,0.00018698031
7668000,7668000,0.044485454,0.009882435,3.4227935e-05
7676000,7676000,0.05573404,0.032780156,0.0005028777
7680000,7680000,0.05279142,0.03630322,0.0001953975
7684000,7684000,0.050357066,0.030310526,2.732194e-05
7688000,7688000,0.04899455,0.019648628,0.000102112994
7692000,7692000,0.049439095,0.008096546,0.00045480044
7696000,7696000,0.051511414,0.004648252,0.00070985936
7700000,7700000,0.050414402,0.008897663,0.0008160338
7704000,7704000,0.04681577,0.009608723,0.0012570082
7712000,7712000,0.04440585,-0.0008571901,0.0016605689
7716000,7716000,0.0449848,0.0026528467,0.0014113759
7724000,7724000,0.043188114,0.0019911118,0.0006353997
7728000,7728000,0.042643797,0.013061333,0.00069321186
7732000,7732000,0.04199747,0.020488294,0.001040301
7736000,7736000,0.041047063,0.018767197,0.0011522922
7740000,7740000,0.04183089,0.01751534,0.0011278358
7744000,7744000,0.042424556,0.015909541,0.0006001822
7748000,7748000,0.042616215,0.006733449,-0.0005274208
7752000,7752000,0.04708365,0.0018165971,-0.000856439
7756000,7756000,0.050641224,0.014788594,-0.00035289634
7760000,7760000,0.046864983,0.02836351,0.00044870068
7764000,7764000,0.041420884,0.024101228,0.0014627466
7768000,7768000,0.040827163,0.013681833,0.0021027087
7772000,7772000,0.04377539,0.008299809,0.002173518
7780000,7780000,0.045121193,0.007003659,0.0016504746
7788000,7788000,0.04368164,0.010878136,-0.00046714628
7792000,7792000,0.044649243,0.017502127,-0.00045519267
7796000,7796000,0.046324834,0.033716124,0.00012494529
7800000,7800000,0.048323914,0.03582149,0.0008969011
7804000,7804000,0.051240027,0.023457158,0.001071017
7808000,7808000,0.052616276,0.011262604,0.00025623932
7812000,7812000,0.052674226,0.0035373871,-0.00029499768
7816000,7816000,0.053108066,0.008224738,0.000111024885
7820000,7820000,0.04994038,0.01141355,0.00045064132
7828000,7828000,0.041167967,0.004998902,0.00041809693
7832000,7832000,0.045682248,-1.1418015e-06,0.00018188202
7836000,7836000,0.046962086,-0.0049258163,-0.0001895441
7844000,7844000,0.03939452,-0.006830603,-0.00044627566
7848000,7848000,0.045577746,0.002103046,-0.00059049577
7852000,7852000,0.051968507,0.0049130595,-9.4193485e-05
7856000,7856000,0.050931692,0.0023248633,0.00035394108
7860000,7860000,0.04643228,0.0015690185,0.00043199278
7864000,7864000,0.045356814,0.0016106125,0.00030031745
7868000,7868000,0.047748394,-0.0028376116,-3.8099064e-05
7872000,7872000,0.049481336,-0.00750131,-0.00018743948
7876000,7876000,0.050114945,-0.004101471,-0.00013752264
7884000,7884000,0.04984703,0.025763068,-0.00033503922
7892000,7892000,0.04696366,0.026847405,-0.0021076568
7896000,7896000,0.04638445,0.02795481,-0.0016738111
7900000,7900000,0.04681599,0.026792705,-0.00036385332
7904000,7904000,0.048359375,0.016211065,0.0006397677
7908000,7908000,0.048929688,0.00596703,0.00077463407
7916000,7916000,0.046809956,-0.012727448,0.0004181347
7920000,7920000,0.04806619,-0.013222704,0.0003609912
7924000,7924000,0.048652444,-0.004393269,0.0003275938
7928000,7928000,0.048325986,0.006079473,0.0006292152
7936000,7936000,0.045955997,0.009013652,-0.00065259676
7940000,7940000,0.046552237,0.00089600845,-0.0008213626
7944000,7944000,0.045088716,-0.0022904812,-8.060864e-05
7948000,7948000,0.04549134,0.008567923,0.00036988014
7956000,7956000,0.052639544,0.021540597,-0.00031465635
7960000,7960000,0.05225683,0.014557288,-0.00036292948
7964000,7964000,0.04707059,0.011774617,-0.00010361736
7968000,7968000,0.04338763,0.014402014,0.0002677828
7972000,7972000,0.04520076,0.013815324,0.00080508285
7980000,7980000,0.04284583,0.0006506125,0.00035582748
7988000,7988000,0.04286909,-0.017654933,0.00029584707
7992000,7992000,0.039600257,-0.003769904,0.00055381935
7996000,7996000,0.037189092,0.008007853,0.0010309435
8004000,8004000,0.047435015,-0.02160127,2.4007397e-05
8008000,8008000,0.050634045,-0.015894752,-0.0009878896
8012000,8012000,0.049466006,0.0016591744,-0.0011678347
8016000,8016000,0.04679355,0.0018529864,-0.00052715174
8020000,8020000,0.043476753,-0.011355257,9.075942e-05
8028000,8028000,0.040036645,0.009502165,0.00042816985
8032000,8032000,0.044067174,0.019682663,0.0006390449
8036000,8036000,0.04887465,0.01108357,0.00084293063
8044000,8044000,0.042953175,0.0017182466,0.0007977368
8048000,8048000,0.03910261,0.01430139,-0.00054039643
8052000,8052000,0.04095021,0.016708046,-0.0012033945
8056000,8056000,0.04574781,0.0041782456,-0.00037382834
8060000,8060000,0.050030462,-0.007097485,4.380039e-05
8064000,8064000,0.053247724,-0.009092753,-0.00045407406
8068000,8068000,0.05251077,-0.0044828593,-0.0003968238
8072000,8072000,0.050355554,-0.0002894735,0.00023696419
8076000,8076000,0.049769334,0.00063625356,0.0012286947
8080000,8080000,0.048491288,0.0001035317,0.001910001
8084000,8084000,0.045440786,-0.0044298978,0.0012509873
8088000,8088000,0.043443527,-0.0025007594,0.00022577759
8092000,8092000,0.04413738,0.008987288,0.00028129938
8096000,8096000,0.04469919,0.018446516,0.0012003436
8100000,8100000,0.04529156,0.01759857,0.0019230087
8104000,8104000,0.04597975,0.010811606,0.002019361
8108000,8108000,0.045231596,0.009662649,0.0013393514
8116000,8116000,0.044757977,0.011313253,0.0005282873
8120000,8120000,0.04616106,0.0069476105,0.0002848525
8124000,8124000,0.04438422,-0.0013502124,0.00029131147
8132000,8132000,0.04688356,0.0042199027,0.00018860154
8136000,8136000,0.048158742,0.0049168747,-0.00046986382
8140000,8140000,0.04583648,0.0059577087,-0.0005492698
8148000,8148000,0.04825304,-0.0012566156,1.1699562e-06
8152000,8152000,0.05103639,-0.0019129454,-0.00038824868
8156000,8156000,0.05266528,0.0076972027,-0.0005084682
8160000,8160000,0.052930877,0.01332893,-0.000422722
8164000,8164000,0.05106628,0.0018926917,-0.00013171112
8168000,8168000,0.04869836,-0.013439006,5.866401e-05
8172000,8172000,0.046742715,-0.00904012,0.00023589065
8180000,8180000,0.049718466,0.0032822215,0.00021365097
8184000,8184000,0.049992517,-0.0019580596,-0.00018047469
8188000,8188000,0.04785378,0.00015017833,-0.0004210154
8192000,8192000,0.046964753,0.0062388596,1.6830285e-05
8196000,8196000,0.04821912,0.004134488,0.00086637464
8200000,8200000,0.04933459,-0.0022312233,0.0011196048
8204000,8204000,0.05021302,-0.00035861717,0.0006522271
8208000,8208000,0.049292132,-0.0030833324,0.00026447122
8212000,8212000,0.047159627,-0.017879821,0.0001628229
8220000,8220000,0.047410246,-0.019811794,0.00062780513
8224000,8224000,0.046442866,-0.0041867006,0.0012722228
8228000,8228000,0.04634679,0.012992496,0.00090851635
8232000,8232000,0.04717919,0.012571963,0.0001896474
8240000,8240000,0.042114265,-0.008165473,0.0004868836
8244000,8244000,0.042377427,-0.010578406,0.00026322293
8248000,8248000,0.046724465,-0.0086198095,-0.00010087427
8252000,8252000,0.050914597,-0.012556914,-0.00030838067
8260000,8260000,0.05045095,-0.024690531,0.0007470788
8264000,8264000,0.046560004,-0.008479775,0.0008561357
8268000,8268000,0.04516684,0.0050378907,0.0006079863
8276000,8276000,0.046821408,-0.0020352153,0.000567068
8280000,8280000,0.046862036,-0.0042117615,0.00045923117
8284000,8284000,0.047110584,-0.009549709,0.0007523627
8292000,8292000,0.043850392,-0.008761434,0.00074880134
8300000,8300000,0.045980774,-0.0148405405,0.0004945372
8308000,8308000,0.04741537,-0.021754967,0.0001315345
8312000,8312000,0.048567574,-0.015132841,-0.0002299211
8316000,8316000,0.05060693,-0.008200594,-0.00035978036
8324000,8324000,0.04897557,-0.015173452,0.00017524052
8328000,8328000,0.04653721,-0.004563344,0.0010833535
8332000,8332000,0.049111616,0.003464098,0.0010018667
8336000,8336000,0.052010875,0.0023532184,0.00022209299
8340000,8340000,0.04631249,0.0027509464,0.00030752612
8344000,8344000,0.03856036,0.0029151298,0.000681558
8348000,8348000,0.038069826,-0.000843553,0.00040839563
8352000,8352000,0.041622505,0.0048497077,0.00018877855
8356000,8356000,0.045157723,0.013928613,0.0004605014
8360000,8360000,0.045554187,0.0054872637,0.0008957861
8364000,8364000,0.042943727,-0.010493694,0.0008333259
8368000,8368000,0.04397551,-0.014205607,-9.621426e-05
8372000,8372000,0.048795328,-0.009363455,-0.001008273
8380000,8380000,0.05109241,-0.012990235,-0.00055861054
8384000,8384000,0.048731536,-0.022975162,-0.00042800288
8392000,8392000,0.048553545,-0.031158928,-0.00019742057
8396000,8396000,0.047412295,-0.014713055,-1.13415745e-05
8400000,8400000,0.044722065,-0.007288082,0.00043755167
8404000,8404000,0.044834692,-0.014881569,0.00047216352
8408000,8408000,0.048179924,-0.022273751,-0.00031258946
8412000,8412000,0.050892778,-0.018462898,-0.0011632558
8416000,8416000,0.050625816,-0.014618115,-0.0010900698
8420000,8420000,0.048907995,-0.017681768,-0.00047512865
8424000,8424000,0.04846624,-0.019740604,-2.6998305e-05
8428000,8428000,0.050774164,-0.015983652,0.00080281
8432000,8432000,0.054025143,-0.012927709,0.0014978949
8436000,8436000,0.053384542,-0.014503809,0.0015488536
8440000,8440000,0.049783338,-0.012044872,0.0014263135
8444000,8444000,0.047293603,-0.004762913,0.0012518156
8448000,8448000,0.045048095,-0.00414904,0.00089585653
8452000,8452000,0.042181622,-0.018487088,0.0006049546
8456000,8456000,0.04135765,-0.032020718,0.00075101864
8460000,8460000,0.045747317,-0.02374944,0.00073030015
8464000,8464000,0.050481357,-0.0061674416,0.00040686576
8468000,8468000,0.050883457,0.001187744,-0.00016050634
8472000,8472000,0.051212832,0.001662535,-0.00045279568
8476000,8476000,0.052697234,-0.0009904772,-0.0002919587
8480000,8480000,0.05284245,-0.0060190046,-0.00033644153
8484000,8484000,0.049182687,-0.008132641,-0.0005265137
8488000,8488000,0.044913903,-0.010767579,-0.0004126851
8496000,8496000,0.051460285,-0.021078313,-0.0001427581
8500000,8500000,0.051463544,-0.02844693,-0.00038221903
8508000,8508000,0.03788742,-0.030764533,-0.0005573583
8512000,8512000,0.036352396,-0.02572512,-0.00037160906
8516000,8516000,0.040115733,-0.019744553,-5.3920314e-05
8524000,8524000,0.040635273,-0.022218332,0.00011256117
8528000,8528000,0.036505595,-0.030038096,0.0004993508
8532000,8532000,0.035091758,-0.033123754,0.00065361476
8536000,8536000,0.03891635,-0.0289334,0.0003971209
8540000,8540000,0.04417395,-0.022248121,0.00064689695
8548000,8548000,0.04437068,-0.012348867,0.0016363044
8552000,8552000,0.04242603,-0.010571834,0.0013029042
8556000,8556000,0.04059447,-0.016843764,0.0005997367
8564000,8564000,0.044493183,-0.0116286725,-0.00027980303
8568000,8568000,0.04460895,-0.005679581,3.4889745e-06
8572000,8572000,0.04142993,-0.010270899,0.0004577972
8576000,8576000,0.0385152,-0.016885547,0.0005976385
8580000,8580000,0.037906446,-0.016980715,0.000585208
8588000,8588000,0.041422635,-0.009379483,0.0010632814
8592000,8592000,0.04360599,-0.008779595,0.0010273632
8596000,8596000,0.04478211,-0.007467098,0.0007508862
8600000,8600000,0.045215268,-0.007855128,0.00059238897
8608000,8608000,0.04487161,0.0036589575,0.0010466969
8612000,8612000,0.04783539,-0.0053010983,0.0006588426
8616000,8616000,0.051095136,-0.026379662,0.00041271417
8620000,8620000,0.050050702,-0.031723697,-0.00016229124
8628000,8628000,0.044194244,-0.024010058,-0.0006622844
8632000,8632000,0.040921476,-0.021169595,-0.00075443013
8636000,8636000,0.039307687,-0.018043263,-0.00078842015
8640000,8640000,0.038983896,-0.014133612,-0.0006924319
8648000,8648000,0.044229146,-0.027346369,-3.159403e-05
8652000,8652000,0.04695041,-0.029772064,0.00024634876
8656000,8656000,0.046229288,-0.026164157,0.00021239107
8660000,8660000,0.04394646,-0.024541646,5.716399e-05
8668000,8668000,0.04166998,-0.016364167,0.00020283027
8672000,8672000,0.045835458,-0.016286055,-6.4523956e-05
8676000,8676000,0.05014801,-0.011954806,-5.5539553e-05
8680000,8680000,0.047577724,-0.010764939,0.0006606758
8684000,8684000,0.042312812,-0.021351771,0.0013568267
8688000,8688000,0.03957454,-0.033024855,0.0010773581
8692000,8692000,0.040943883,-0.033381436,0.0001598666
8696000,8696000,0.043839235,-0.028175414,-0.0004660503
8700000,8700000,0.044378195,-0.025387613,-0.00074028486
8704000,8704000,0.043702267,-0.027493808,-0.00086498406
8708000,8708000,0.04425385,-0.02676577,-0.00089292054
8712000,8712000,0.04763598,-0.014890979,-0.00071770546
8716000,8716000,0.049864653,-0.0074008824,-0.00011680409
8720000,8720000,0.047345158,-0.010489716,0.0002197814
8724000,8724000,0.042897496,-0.014556727,0.00010000387
8728000,8728000,0.04070039,-0.019644793,-0.0001848422
8732000,8732000,0.040756978,-0.026649613,-0.0003511156
8740000,8740000,0.0393536,-0.028642103,-0.00026041214
8744000,8744000,0.041357696,-0.022182103,7.991275e-07
8748000,8748000,0.041708507,-0.015029439,9.895244e-05
8756000,8756000,0.043530293,-0.026017062,9.6378e-05
8760000,8760000,0.042806387,-0.021747245,7.3523195e-05
8764000,8764000,0.04064073,-0.014902411,0.0001188809
8768000,8768000,0.040155064,-0.017113447,0.0005804748
8772000,8772000,0.04185346,-0.023098344,0.0006858698
8776000,8776000,0.042484656,-0.02540381,-0.00010920514
8780000,8780000,0.040512394,-0.022936458,-0.00072237506
8788000,8788000,0.03784796,-0.0109086465,1.8608735e-06
8792000,8792000,0.04081277,-0.015337235,0.00024575667
8796000,8796000,0.04063268,-0.023695033,0.00011836895
8800000,8800000,0.0385838,-0.027074073,-0.00028321365
8804000,8804000,0.039948985,-0.022813808,-0.0006373381
8808000,8808000,0.04270113,-0.01135277,-0.0005355166
8812000,8812000,0.04292968,-0.002500176,4.7695277e-05
8816000,8816000,0.040631197,-0.004353143,-0.00020477184
8820000,8820000,0.040451176,-0.009120345,-0.0010346912
8824000,8824000,0.044555277,-0.0053323787,-0.000806255
8828000,8828000,0.04959345,0.000107402564,0.0001244214
