timestamp,position[0],position[1],position[2],velocity[0],velocity[1],velocity[2],acceleration[0],acceleration[1],acceleration[2],jerk[0],jerk[1],jerk[2],yaw,yawspeed
3556000,nan,nan,nan,nan,nan,nan,0.0,0.0,nan,nan,nan,nan,1.5760217,nan
3580000,nan,nan,nan,nan,nan,nan,0.0,0.0,nan,nan,nan,nan,1.5760188,nan
3756000,nan,nan,nan,nan,nan,nan,0.0,0.0,nan,nan,nan,nan,1.5761199,nan
3956000,nan,nan,nan,nan,nan,nan,0.0,0.0,nan,nan,nan,nan,1.5729736,nan
4156000,nan,nan,nan,nan,nan,nan,0.0,0.0,nan,nan,nan,nan,1.5682598,nan
4356000,nan,nan,nan,nan,nan,0.7,0.0,0.0,nan,nan,nan,nan,1.5651705,nan
4556000,nan,nan,nan,nan,nan,0.7,0.0,0.0,nan,nan,nan,nan,1.5641397,nan
4756000,nan,nan,nan,nan,nan,0.7,0.0,0.0,nan,nan,nan,nan,1.5634266,nan
4956000,nan,nan,-0.003222868,0.0,0.0,-0.026047591,0.0,0.0,0.072000004,nan,nan,4.5,nan,0.0
5156000,nan,nan,-0.0032099236,0.0,0.0,-0.016687585,0.0,0.0,0.072000004,nan,nan,4.5,nan,0.0
5356000,nan,nan,-0.004983431,0.0,0.0,-0.007327587,0.0,0.0,0.072000004,nan,nan,4.5,nan,0.0
5556000,nan,nan,-0.008558317,0.0,0.0,-0.0011552869,0.0,0.0,0.072000004,nan,nan,4.5,nan,0.0
5756000,nan,nan,-0.011795461,0.0,0.0,-0.00094401673,0.0,0.0,0.072000004,nan,nan,4.5,nan,0.0
5956000,nan,nan,-0.012996193,0.0,0.0,-0.0008437057,0.0,0.0,0.072000004,nan,nan,4.5,nan,0.0
6156000,nan,nan,-0.014488822,0.0,0.0,-0.00078569667,0.0,0.0,0.072000004,nan,nan,4.5,nan,0.0
6356000,nan,nan,-0.015477061,0.0,0.0,-0.00074806425,0.0,0.0,0.072000004,nan,nan,4.5,nan,0.0
6556000,nan,nan,-0.014956752,0.0,0.0,-0.00072174275,0.0,0.0,0.072000004,nan,nan,4.5,nan,0.0
6756000,nan,nan,-0.01465723,0.0,0.0,-0.0007023278,0.0,0.0,0.072000004,nan,nan,4.5,nan,0.0
6956000,nan,nan,-0.014434557,0.0,0.0,-0.00068743166,0.0,0.0,0.072000004,nan,nan,4.5,nan,0.0
7156000,nan,nan,-0.013529131,0.0,0.0,-0.0006756496,0.0,0.0,0.072000004,nan,nan,4.5,nan,0.0
7356000,nan,nan,-0.012148619,0.0,0.0,-0.00066610135,0.0,0.0,0.072000004,nan,nan,4.5,nan,0.0
7556000,nan,nan,-0.010307977,0.0,0.0,-0.0006582099,0.0,0.0,0.072000004,nan,nan,4.5,nan,0.0
7756000,nan,nan,-0.008829367,0.0,0.0,-0.0006515803,0.0,0.0,0.072000004,nan,nan,4.5,nan,0.0
7956000,nan,nan,-0.0082917325,0.0,0.0,-0.00064593356,0.0,0.0,0.072000004,nan,nan,4.5,nan,0.0
8156000,nan,nan,-0.008591877,0.0,0.0,-0.0006410667,0.0,0.0,0.072000004,nan,nan,4.5,nan,0.0
8356000,nan,nan,-0.008983576,0.0,0.0,-0.0006368294,0.0,0.0,0.072000004,nan,nan,4.5,nan,0.0
8556000,nan,nan,-0.010264513,0.0,0.0,-0.00063310715,0.0,0.0,0.072000004,nan,nan,4.5,nan,0.0
8756000,nan,nan,-0.026237417,-0.00067673903,0.0061886855,-0.014748608,0.02993203,-0.2737243,0.072000004,nan,nan,4.5,nan,0.0
8956000,nan,nan,-0.031937942,-0.00089238957,0.0059318515,-0.0053886096,0.04046067,-0.26894832,0.072000004,nan,nan,4.5,nan,0.0
9156000,nan,nan,-0.031767078,-0.0010699686,0.0069043506,-0.0010959886,0.044123434,-0.284722,0.072000004,nan,nan,4.5,nan,0.0
9356000,nan,nan,-0.03273801,-0.0010658386,0.0068110935,-0.0009183254,0.044356734,-0.28345558,0.072000004,nan,nan,4.5,nan,0.0
9556000,nan,nan,-0.034914877,-0.00096777634,0.004699906,-0.0008296077,0.050746843,-0.24644682,0.072000004,nan,nan,4.5,nan,0.0
9756000,nan,nan,-0.036098175,-0.0008995029,0.004686016,-0.0007768542,0.04736297,-0.24674033,0.072000004,nan,nan,4.5,nan,0.0
9956000,nan,nan,-0.035451,-0.002276496,0.00480158,-0.0007420231,0.1118754,-0.2359673,0.072000004,nan,nan,4.5,nan,0.0
10156000,nan,nan,-0.032237988,-0.002223018,0.0028701415,-0.00071736285,0.14020802,-0.18102276,0.072000004,nan,nan,4.5,nan,0.0
10356000,nan,nan,-0.029791102,-0.002004697,0.0017591727,-0.0006990117,0.15594985,-0.13684997,0.072000004,nan,nan,4.5,nan,0.0
10556000,nan,nan,-0.028760139,0.00012285846,0.0021838674,-0.0006848363,-0.004044131,-0.07188634,0.072000004,nan,nan,4.5,nan,0.0
10756000,nan,nan,-0.027631052,0.00079194224,0.0014433175,-0.00067356357,-0.034634925,-0.06312228,0.072000004,nan,nan,4.5,nan,0.0
10956000,nan,nan,-0.025495518,0.0022757836,0.0042723827,-0.00066438934,-0.11888329,-0.22318241,0.072000004,nan,nan,4.5,nan,0.0
11156000,nan,nan,-0.022170264,0.0031661075,0.0032636826,-0.0006567802,-0.17226833,-0.17757742,0.072000004,nan,nan,4.5,nan,0.0
11356000,nan,nan,-0.016862532,0.004908054,0.002351905,-0.0006503684,-0.23780571,-0.113954835,0.072000004,nan,nan,4.5,nan,0.0
11556000,nan,nan,-0.013003835,0.00784882,-0.00039038603,-0.00064489327,-0.3019139,0.015016647,0.072000004,nan,nan,4.5,nan,0.0
11756000,nan,nan,-0.010070895,0.008307578,-0.0010951841,-0.0006401646,-0.30718693,0.0404963,0.072000004,nan,nan,4.5,nan,0.0
11956000,nan,nan,-0.009057666,0.007802846,-0.0052587735,-0.0006360394,-0.26879865,0.18115841,0.072000004,nan,nan,4.5,nan,0.0
12156000,nan,nan,-0.012984517,0.0075253667,-0.008598989,-0.0006324098,-0.23058398,0.2634807,0.072000004,nan,nan,4.5,nan,0.0
12356000,nan,nan,-0.0142782815,0.008647886,-0.009055939,-0.00062919187,-0.2509129,0.26275232,0.072000004,nan,nan,4.5,nan,0.0
12556000,nan,nan,-0.014713176,0.009496878,-0.007673609,-0.00062631967,-0.27971888,0.22601673,0.072000004,nan,nan,4.5,nan,0.0
12756000,nan,nan,-0.014358908,0.0054855878,-0.0058633015,-0.00062374014,-0.20825797,0.22259773,0.072000004,nan,nan,4.5,nan,0.0
12956000,nan,nan,-0.013328079,0.0033973446,-0.0047133733,-0.00062141137,-0.15792163,0.2190957,0.072000004,nan,nan,4.5,nan,0.0
13156000,nan,nan,-0.0130227115,0.0031916036,-0.006462624,-0.00061929796,-0.1295495,0.26232257,0.072000004,nan,nan,4.5,nan,0.0
13356000,nan,nan,-0.015587828,0.0023868084,-0.0048179645,-0.00061737176,-0.11657465,0.23531532,0.072000004,nan,nan,4.5,nan,0.0
13556000,nan,nan,-0.013596097,0.00018921762,-0.005698965,-0.000615609,-0.008901375,0.26809675,0.072000004,nan,nan,4.5,nan,0.0
13756000,nan,nan,-0.00906895,-0.0016186301,-0.005212193,-0.00061398954,0.078303844,0.25214827,0.072000004,nan,nan,4.5,nan,0.0
13956000,nan,nan,-0.007787381,-0.001508774,-0.0059664464,-0.000612497,0.06762394,0.2674189,0.072000004,nan,nan,4.5,nan,0.0
14156000,nan,nan,-0.009244762,-0.00031806162,-0.007398616,-0.00061111676,0.012695195,0.2953103,0.072000004,nan,nan,4.5,nan,0.0
14356000,nan,nan,-0.008582057,0.0008881507,-0.0063920897,-0.0006098369,-0.038633473,0.2780481,0.072000004,nan,nan,4.5,nan,0.0
14556000,nan,nan,-0.007109265,0.0011609226,-0.0050458186,-0.00060864666,-0.05809163,0.25248867,0.072000004,nan,nan,4.5,nan,0.0
14756000,nan,nan,-0.0034100893,0.0010128949,-0.0039836084,-0.0006075372,-0.058899637,0.23164606,0.072000004,nan,nan,4.5,nan,0.0
14956000,nan,nan,-0.0007529359,0.0013831474,-0.0028973315,-0.0006065003,-0.09485814,0.19870299,0.072000004,nan,nan,4.5,nan,0.0
15156000,nan,nan,0.001530769,0.0005363855,-0.0030565823,-0.00060552906,-0.037643973,0.21451342,0.072000004,nan,nan,4.5,nan,0.0
15356000,nan,nan,0.0041844863,0.002252035,-0.00440084,-0.0006046175,-0.11610048,0.22687908,0.072000004,nan,nan,4.5,nan,0.0
15556000,nan,nan,0.0059317104,0.0020943743,-0.0037804113,-0.0006037607,-0.11783973,0.21270439,0.072000004,nan,nan,4.5,nan,0.0
15756000,nan,nan,0.005282523,0.002438916,-0.0027064253,-0.0006029537,-0.15363474,0.17048599,0.072000004,nan,nan,4.5,nan,0.0
15956000,nan,nan,0.0065925415,0.0027247642,-0.006303687,-0.00060219166,-0.11399229,0.26371884,0.072000004,nan,nan,4.5,nan,0.0
16156000,nan,nan,0.007013401,0.0029148138,-0.0045840363,-0.00060147163,-0.14143291,0.22242709,0.072000004,nan,nan,4.5,nan,0.0
16356000,nan,nan,0.008283108,0.0017649967,-0.0022585616,-0.00060079,-0.13077113,0.16734006,0.072000004,nan,nan,4.5,nan,0.0
16556000,nan,nan,0.009278914,0.0041215364,-0.002240133,-0.00060014403,-0.21982314,0.119478,0.072000004,nan,nan,4.5,nan,0.0
16756000,nan,nan,0.012590438,0.004812612,-0.0025913161,-0.00059953064,-0.23259778,0.12524056,0.072000004,nan,nan,4.5,nan,0.0
16956000,nan,nan,0.016764205,0.006327988,-0.0031496233,-0.00059894763,-0.26000577,0.12941243,0.072000004,nan,nan,4.5,nan,0.0
17156000,nan,nan,0.020395039,0.0060001053,-0.003313487,-0.00059839257,-0.25131926,0.13878807,0.072000004,nan,nan,4.5,nan,0.0
17356000,nan,nan,0.022572896,0.0074136034,-0.0037547303,-0.0005978637,-0.27557084,0.139567,0.072000004,nan,nan,4.5,nan,0.0
17556000,nan,nan,0.024241082,0.006577664,-0.0047467644,-0.0005973595,-0.2481649,0.17908797,0.072000004,nan,nan,4.5,nan,0.0
17756000,nan,nan,0.0214119,0.004706441,-0.0045772446,-0.00059687754,-0.20252892,0.19696929,0.072000004,nan,nan,4.5,nan,0.0
17956000,nan,nan,0.0213979,0.00451933,-0.005313867,-0.00059641676,-0.18722755,0.22014375,0.072000004,nan,nan,4.5,nan,0.0
18156000,nan,nan,0.021491123,0.0059940973,-0.0036855694,-0.000595976,-0.24698424,0.15186235,0.072000004,nan,nan,4.5,nan,0.0
18356000,nan,nan,0.024087187,0.008765119,-0.00094058865,-0.000595554,-0.31423077,0.033720244,0.072000004,nan,nan,4.5,nan,0.0
18556000,nan,nan,0.027345713,0.010780258,0.0008262855,-0.00059514935,-0.34148932,-0.026174482,0.072000004,nan,nan,4.5,nan,0.0
18756000,nan,nan,0.032145426,0.01317223,0.0002593656,-0.00059476134,-0.37085813,-0.007302321,0.072000004,nan,nan,4.5,nan,0.0
18956000,nan,nan,0.03681674,0.014495251,-0.0013731613,-0.0005943882,-0.38473964,0.036447078,0.072000004,nan,nan,4.5,nan,0.0
19156000,nan,nan,0.03966714,0.016028278,-0.006997479,-0.0005940298,-0.382258,0.16688271,0.072000004,nan,nan,4.5,nan,0.0
19356000,nan,nan,0.03949182,0.015199017,-0.0069035497,-0.00059368496,-0.37242264,0.1691582,0.072000004,nan,nan,4.5,nan,0.0
19556000,nan,nan,0.04108812,0.01700566,-0.006136667,-0.0005933533,-0.39784622,0.14356688,0.072000004,nan,nan,4.5,nan,0.0
19756000,nan,nan,0.040619954,0.017380089,-0.0051113185,-0.0005930336,-0.40612414,0.11943723,0.072000004,nan,nan,4.5,nan,0.0
19956000,nan,nan,0.041333135,0.016541671,-0.006793424,-0.00059272547,-0.3894504,0.15994163,0.072000004,nan,nan,4.5,nan,0.0
20156000,nan,nan,0.04211687,0.017807765,-0.006426551,-0.0005924279,-0.40565896,0.14639613,0.072000004,nan,nan,4.5,nan,0.0
20356000,nan,nan,0.04314442,0.01755767,-0.0069195563,-0.00059214106,-0.40069416,0.15791535,0.072000004,nan,nan,4.5,nan,0.0
20556000,nan,nan,0.04208485,0.017580062,-0.009727304,-0.00059186446,-0.38698885,0.21412659,0.072000004,nan,nan,4.5,nan,0.0
20756000,nan,nan,0.043051753,0.017923314,-0.010637168,-0.0005915967,-0.38632497,0.22927697,0.072000004,nan,nan,4.5,nan,0.0
20956000,nan,nan,0.04313574,0.0175609,-0.0130512575,-0.00059133803,-0.36812776,0.27359247,0.072000004,nan,nan,4.5,nan,0.0
21156000,nan,nan,0.045487728,0.015052497,-0.0131772915,-0.0005910875,-0.33217075,0.2907897,0.072000004,nan,nan,4.5,nan,0.0
21356000,nan,nan,0.04790415,0.013886053,-0.014108583,-0.0005908451,-0.30829278,0.31323332,0.072000004,nan,nan,4.5,nan,0.0
21556000,nan,nan,0.050229,0.010916648,-0.014634743,-0.00059061043,-0.25394386,0.34043443,0.072000004,nan,nan,4.5,nan,0.0
21756000,nan,nan,0.0493369,0.012491638,-0.013760418,-0.0005903832,-0.2876161,0.31682932,0.072000004,nan,nan,4.5,nan,0.0
21956000,nan,nan,0.049492344,0.0109101385,-0.0143044405,-0.0005901627,-0.25597054,0.3356067,0.072000004,nan,nan,4.5,nan,0.0
22156000,nan,nan,0.047336146,0.007975221,-0.017885566,-0.00058994873,-0.17816739,0.39956564,0.072000004,nan,nan,4.5,nan,0.0
22356000,nan,nan,0.047223143,0.008464426,-0.019075282,-0.0005897413,-0.18231052,0.41085184,0.072000004,nan,nan,4.5,nan,0.0
22556000,nan,nan,0.046839952,0.007390865,-0.021855935,-0.0005895399,-0.15031207,0.44449612,0.072000004,nan,nan,4.5,nan,0.0
22756000,nan,nan,0.048556615,0.007786448,-0.021442454,-0.0005893443,-0.15938117,0.43890664,0.072000004,nan,nan,4.5,nan,0.0
22956000,nan,nan,0.04949614,0.009644244,-0.018284881,-0.00058915454,-0.2088526,0.39597142,0.072000004,nan,nan,4.5,nan,0.0
23156000,nan,nan,0.05158286,0.010689188,-0.01872569,-0.0005889699,-0.22596064,0.39584565,0.072000004,nan,nan,4.5,nan,0.0
23356000,nan,nan,0.0524499,0.010066776,-0.015977645,-0.0005887904,-0.22965194,0.3644958,0.072000004,nan,nan,4.5,nan,0.0
23556000,nan,nan,0.05449169,0.008917021,-0.015682632,-0.0005886158,-0.20887111,0.36734787,0.072000004,nan,nan,4.5,nan,0.0
23756000,nan,nan,0.055832777,0.00983037,-0.014938934,-0.00058844604,-0.23143587,0.3517065,0.072000004,nan,nan,4.5,nan,0.0
23956000,nan,nan,0.059172638,0.0077556083,-0.011615949,-0.0005882805,-0.2109524,0.3159536,0.072000004,nan,nan,4.5,nan,0.0
24156000,nan,nan,0.062092654,0.009247707,-0.01147281,-0.00058811915,-0.24373367,0.30237874,0.072000004,nan,nan,4.5,nan,0.0
24356000,nan,nan,0.06543188,0.011550179,-0.013385838,-0.000587962,-0.27373046,0.31723416,0.072000004,nan,nan,4.5,nan,0.0
24556000,nan,nan,0.0660711,0.012462443,-0.015352568,-0.000587809,-0.27686146,0.34106746,0.072000004,nan,nan,4.5,nan,0.0
24756000,nan,nan,0.06671812,0.01563011,-0.017084222,-0.0005876598,-0.31722367,0.34673584,0.072000004,nan,nan,4.5,nan,0.0
24956000,nan,nan,0.06569153,0.013529383,-0.015929798,-0.00058751437,-0.2911548,0.34281215,0.072000004,nan,nan,4.5,nan,0.0
25156000,nan,nan,0.06750027,0.014276917,-0.017309532,-0.00058737246,-0.2950102,0.35767448,0.072000004,nan,nan,4.5,nan,0.0
25356000,nan,nan,0.07031058,0.012569747,-0.017950974,-0.00058723404,-0.2632606,0.3759649,0.072000004,nan,nan,4.5,nan,0.0
25556000,nan,nan,0.07200921,0.010757707,-0.018595,-0.0005870989,-0.22788842,0.3939116,0.072000004,nan,nan,4.5,nan,0.0
25756000,nan,nan,0.070060685,0.009394894,-0.020827454,-0.0005869671,-0.19213213,0.42593598,0.072000004,nan,nan,4.5,nan,0.0
25956000,nan,nan,0.070334084,0.007245118,-0.022591986,-0.0005868381,-0.14502263,0.45221478,0.072000004,nan,nan,4.5,nan,0.0
26156000,nan,nan,0.068118386,0.004286553,-0.023641244,-0.00058671215,-0.0851883,0.46983144,0.072000004,nan,nan,4.5,nan,0.0
26356000,nan,nan,0.06875307,0.0007463709,-0.023792196,-0.0005865891,-0.01491172,0.47534353,0.072000004,nan,nan,4.5,nan,0.0
26556000,nan,nan,0.06788504,0.0014120607,-0.022604406,-0.00058646884,-0.02902273,0.46459877,0.072000004,nan,nan,4.5,nan,0.0
26756000,nan,nan,0.06945652,0.000920529,-0.025347551,-0.0005863514,-0.017739965,0.4884851,0.072000004,nan,nan,4.5,nan,0.0
26956000,nan,nan,0.07020285,-0.0006174856,-0.026228156,-0.0005862365,0.011674487,0.49588245,0.072000004,nan,nan,4.5,nan,0.0
27156000,nan,nan,0.07182776,-0.0026560565,-0.027854644,-0.00058612425,0.04842302,0.50782275,0.072000004,nan,nan,4.5,nan,0.0
27356000,nan,nan,0.07201632,-0.002099899,-0.02623228,-0.0005860145,0.039632753,0.49509877,0.072000004,nan,nan,4.5,nan,0.0
27556000,nan,nan,0.074354954,-0.005567015,-0.027560994,-0.000585907,0.10121499,0.50109184,0.072000004,nan,nan,4.5,nan,0.0
27756000,nan,nan,0.07569251,-0.005913888,-0.027445287,-0.0005858018,0.10761302,0.4994126,0.072000004,nan,nan,4.5,nan,0.0
27956000,nan,nan,0.07932438,-0.007378727,-0.029001111,-0.00058569864,0.12953398,0.5091162,0.072000004,nan,nan,4.5,nan,0.0
28156000,nan,nan,0.078642026,-0.008408284,-0.030382538,-0.0005855978,0.14336002,0.51801777,0.072000004,nan,nan,4.5,nan,0.0
28356000,nan,nan,0.08114015,-0.010197217,-0.028202891,-0.00058549875,0.17879573,0.49450332,0.072000004,nan,nan,4.5,nan,0.0
28556000,nan,nan,0.08103599,-0.009393965,-0.029656656,-0.0005854018,0.1613611,0.50941545,0.072000004,nan,nan,4.5,nan,0.0
28756000,nan,nan,0.08248297,-0.01100491,-0.031562917,-0.000585307,0.18158573,0.5208017,0.072000004,nan,nan,4.5,nan,0.0
28956000,nan,nan,0.081525974,-0.011206761,-0.034546822,-0.00058521377,0.17656061,0.5442793,0.072000004,nan,nan,4.5,nan,0.0
29156000,nan,nan,0.084469415,-0.01023459,-0.034016125,-0.00058512273,0.16324584,0.54257095,0.072000004,nan,nan,4.5,nan,0.0
29356000,nan,nan,0.08553013,-0.013489415,-0.032356024,-0.00058503344,0.21675317,0.5199092,0.072000004,nan,nan,4.5,nan,0.0
29556000,nan,nan,0.089211985,-0.009293507,-0.03094801,-0.000584946,0.15627663,0.52041185,0.072000004,nan,nan,4.5,nan,0.0
29756000,nan,nan,0.09169305,-0.009537222,-0.029729635,-0.0005848601,0.16348922,0.5096321,0.072000004,nan,nan,4.5,nan,0.0
29956000,nan,nan,0.096610844,-0.0078805275,-0.03056246,-0.00058477593,0.1342723,0.52073824,0.072000004,nan,nan,4.5,nan,0.0
30156000,nan,nan,0.09782603,-0.008015612,-0.032637924,-0.00058469316,0.13186212,0.5369154,0.072000004,nan,nan,4.5,nan,0.0
30356000,nan,nan,0.10148419,-0.0053279707,-0.030899134,-0.000584612,0.09111574,0.52841836,0.072000004,nan,nan,4.5,nan,0.0
30556000,nan,nan,0.10133338,-0.0015540494,-0.029152581,-0.00058453216,0.027663272,0.51893836,0.072000004,nan,nan,4.5,nan,0.0
30756000,nan,nan,0.1037132,0.0018288197,-0.03158857,-0.0005844537,-0.031116547,0.5374653,0.072000004,nan,nan,4.5,nan,0.0
30956000,nan,nan,0.10252956,0.002052216,-0.029466448,-0.000584377,-0.03629135,0.52108413,0.072000004,nan,nan,4.5,nan,0.0
31156000,nan,nan,0.104159035,0.0021167484,-0.027549379,-0.0005843014,-0.038865995,0.505839,0.072000004,nan,nan,4.5,nan,0.0
31356000,nan,nan,0.10371054,0.0030645318,-0.026171302,-0.00058422715,-0.057796773,0.49358824,0.072000004,nan,nan,4.5,nan,0.0
31556000,nan,nan,0.10650459,0.006608069,-0.028240167,-0.0005841545,-0.11806371,0.5045557,0.072000004,nan,nan,4.5,nan,0.0
31756000,nan,nan,0.10527955,0.0072229765,-0.028251845,-0.0005840828,-0.12865736,0.5032285,0.072000004,nan,nan,4.5,nan,0.0
31956000,nan,nan,0.107641056,0.008907667,-0.027148638,-0.0005840127,-0.16049433,0.48915187,0.072000004,nan,nan,4.5,nan,0.0
32156000,nan,nan,0.107798636,0.010612964,-0.02850791,-0.00058394356,-0.18460582,0.49587718,0.072000004,nan,nan,4.5,nan,0.0
32356000,nan,nan,0.110375814,0.009294791,-0.030421466,-0.0005838756,-0.15767786,0.51607305,0.072000004,nan,nan,4.5,nan,0.0
32556000,nan,nan,0.10869487,0.014092578,-0.026527572,-0.00058380875,-0.2468709,0.4647046,0.072000004,nan,nan,4.5,nan,0.0
32756000,nan,nan,0.110377334,0.017162245,-0.026039721,-0.0005837431,-0.29438537,0.44666144,0.072000004,nan,nan,4.5,nan,0.0
32956000,nan,nan,0.11037482,0.017660897,-0.023595184,-0.00058367883,-0.31270266,0.41777468,0.072000004,nan,nan,4.5,nan,0.0
33156000,nan,nan,0.113631785,0.020542476,-0.024697797,-0.00058361515,-0.34657064,0.41667473,0.072000004,nan,nan,4.5,nan,0.0
33356000,nan,nan,0.113361076,0.021015568,-0.027683057,-0.0005835529,-0.33930132,0.44694957,0.072000004,nan,nan,4.5,nan,0.0
33556000,nan,nan,0.115823075,0.023941644,-0.027842922,-0.0005834913,-0.37489626,0.43598545,0.072000004,nan,nan,4.5,nan,0.0
33756000,nan,nan,0.11814511,0.02385506,-0.026674194,-0.00058343064,-0.37894088,0.42372322,0.072000004,nan,nan,4.5,nan,0.0
33956000,nan,nan,0.1221616,0.027336817,-0.029376319,-0.00058337103,-0.40751067,0.43791357,0.072000004,nan,nan,4.5,nan,0.0
34156000,nan,nan,0.12249045,0.026971972,-0.02869624,-0.0005833126,-0.40626955,0.4322416,0.072000004,nan,nan,4.5,nan,0.0
34356000,nan,nan,0.12408109,0.02963482,-0.031247513,-0.0005832551,-0.42486158,0.44798207,0.072000004,nan,nan,4.5,nan,0.0
34556000,nan,nan,0.122500025,0.030404905,-0.032846134,-0.00058319827,-0.42673838,0.46100155,0.072000004,nan,nan,4.5,nan,0.0
34756000,nan,nan,0.12174183,0.02976676,-0.035812274,-0.0005831424,-0.40877426,0.49179474,0.072000004,nan,nan,4.5,nan,0.0
34956000,nan,nan,0.11605138,0.028025594,-0.039348226,-0.00058308756,-0.3771872,0.52957475,0.072000004,nan,nan,4.5,nan,0.0
35156000,nan,nan,0.11384173,0.024010975,-0.039693303,-0.0005830334,-0.330425,0.5462359,0.072000004,nan,nan,4.5,nan,0.0
35356000,nan,nan,0.11146144,0.02465498,-0.04065926,-0.00058297976,-0.33471626,0.55199045,0.072000004,nan,nan,4.5,nan,0.0
35556000,nan,nan,0.10916748,0.02255653,-0.04532156,-0.00058292714,-0.29588917,0.5945133,0.072000004,nan,nan,4.5,nan,0.0
35756000,nan,nan,0.10061031,0.021914437,-0.043618716,-0.00058287533,-0.29325926,0.58370626,0.072000004,nan,nan,4.5,nan,0.0
35956000,nan,nan,0.0972927,0.020624362,-0.044842634,-0.0005828242,-0.27432412,0.5964508,0.072000004,nan,nan,4.5,nan,0.0
36156000,nan,nan,0.09321365,0.020363502,-0.04284557,-0.00058277405,-0.27681285,0.5824247,0.072000004,nan,nan,4.5,nan,0.0
36356000,nan,nan,0.091280006,0.021781346,-0.04484935,-0.0005827247,-0.28811565,0.59325075,0.072000004,nan,nan,4.5,nan,0.0
36556000,nan,nan,0.087148376,0.018691797,-0.04655427,-0.0005826758,-0.24641596,0.61372995,0.072000004,nan,nan,4.5,nan,0.0
36756000,nan,nan,0.08592973,0.017127123,-0.048609152,-0.0005826276,-0.22247925,0.631427,0.072000004,nan,nan,4.5,nan,0.0
36956000,nan,nan,0.08225179,0.01562586,-0.049404424,-0.0005825801,-0.20238073,0.63986903,0.072000004,nan,nan,4.5,nan,0.0
37156000,nan,nan,0.0805925,0.014055348,-0.05065001,-0.00058253354,-0.18062016,0.65088487,0.072000004,nan,nan,4.5,nan,0.0
37356000,nan,nan,0.07778315,0.013540546,-0.049687475,-0.00058248744,-0.17596252,0.6457002,0.072000004,nan,nan,4.5,nan,0.0
37556000,nan,nan,0.0773704,0.011472126,-0.047543988,-0.00058244204,-0.15335792,0.63556206,0.072000004,nan,nan,4.5,nan,0.0
37756000,nan,nan,0.07624363,0.010246292,-0.047063928,-0.00058239733,-0.13812463,0.63444304,0.072000004,nan,nan,4.5,nan,0.0
37956000,nan,nan,0.07674241,0.009924159,-0.04830068,-0.0005823531,-0.13207208,0.6427921,0.072000004,nan,nan,4.5,nan,0.0
38156000,nan,nan,0.075776845,0.009269795,-0.046971366,-0.00058230944,-0.12537447,0.63529015,0.072000004,nan,nan,4.5,nan,0.0
38356000,nan,nan,0.07579033,0.0076403646,-0.044663813,-0.0005822667,-0.10651034,0.62263495,0.072000004,nan,nan,4.5,nan,0.0
38556000,nan,nan,0.07376068,0.00801561,-0.04206534,-0.0005822241,-0.115275815,0.604959,0.072000004,nan,nan,4.5,nan,0.0
38756000,nan,nan,0.07277007,0.009239208,-0.043882545,-0.0005821823,-0.1295369,0.61524844,0.072000004,nan,nan,4.5,nan,0.0
38956000,nan,nan,0.06962273,0.011415066,-0.04297939,-0.0005821412,-0.16078512,0.6053795,0.072000004,nan,nan,4.5,nan,0.0
39156000,nan,nan,0.06965117,0.0139037,-0.04418276,-0.0005821005,-0.19149749,0.608535,0.072000004,nan,nan,4.5,nan,0.0
39356000,nan,nan,0.06992724,0.018882142,-0.04372879,-0.0005820602,-0.25610507,0.5931088,0.072000004,nan,nan,4.5,nan,0.0
39556000,nan,nan,0.07293956,0.0205918,-0.043265406,-0.0005820206,-0.2783826,0.58490926,0.072000004,nan,nan,4.5,nan,0.0
39756000,nan,nan,0.07377939,0.019052517,-0.04311619,-0.0005819815,-0.2598969,0.5881514,0.072000004,nan,nan,4.5,nan,0.0
39956000,nan,nan,0.07688539,0.017874178,-0.04018179,-0.00058194285,-0.2533097,0.5694493,0.072000004,nan,nan,4.5,nan,0.0
40156000,nan,nan,0.078726634,0.016352205,-0.038390346,-0.0005819049,-0.23855211,0.5600528,0.072000004,nan,nan,4.5,nan,0.0
40356000,nan,nan,0.082781285,0.016871512,-0.03861676,-0.0005818674,-0.24479122,0.56029624,0.072000004,nan,nan,4.5,nan,0.0
40556000,nan,nan,0.08558282,0.017298333,-0.037298143,-0.0005818303,-0.25442818,0.5485904,0.072000004,nan,nan,4.5,nan,0.0
40756000,nan,nan,0.09324147,0.017625483,-0.037255466,-0.00058179337,-0.2588918,0.5472266,0.072000004,nan,nan,4.5,nan,0.0
40956000,nan,nan,0.10085277,0.014798166,-0.035931975,-0.00058175705,-0.22455445,0.5452489,0.072000004,nan,nan,4.5,nan,0.0
41156000,nan,nan,0.108232416,0.014618801,-0.04080083,-0.0005817213,-0.20884836,0.58289236,0.072000004,nan,nan,4.5,nan,0.0
41356000,nan,nan,0.110007994,0.014362989,-0.041246533,-0.00058168604,-0.20432462,0.5867639,0.072000004,nan,nan,4.5,nan,0.0
41556000,nan,nan,0.11676752,0.012730753,-0.041439332,-0.0005816509,-0.18185186,0.59193826,0.072000004,nan,nan,4.5,nan,0.0
41756000,nan,nan,0.12208208,0.009355374,-0.04078867,-0.0005816164,-0.13626352,0.5940979,0.072000004,nan,nan,4.5,nan,0.0
41956000,nan,nan,0.12867354,0.0067797024,-0.04032272,-0.0005815823,-0.100021236,0.59488285,0.072000004,nan,nan,4.5,nan,0.0
42156000,nan,nan,0.13162023,0.0060006077,-0.03829617,-0.00058154867,-0.091181606,0.58192545,0.072000004,nan,nan,4.5,nan,0.0
42356000,nan,nan,0.13599674,0.0038119166,-0.036099672,-0.0005815155,-0.060073286,0.568907,0.072000004,nan,nan,4.5,nan,0.0
42556000,nan,nan,0.13788047,0.0033058338,-0.033119127,-0.0005814828,-0.054678153,0.547787,0.072000004,nan,nan,4.5,nan,0.0
42756000,nan,nan,0.14392668,0.0004911573,-0.033549823,-0.0005814502,-0.008087168,0.55241585,0.072000004,nan,nan,4.5,nan,0.0
42956000,nan,nan,0.14700364,0.0003399317,-0.029928166,-0.00058141816,-0.0059669586,0.52534115,0.072000004,nan,nan,4.5,nan,0.0
43156000,nan,nan,0.15262301,-0.0018269499,-0.02792995,-0.0005813866,0.033301637,0.50910705,0.072000004,nan,nan,4.5,nan,0.0
43356000,nan,nan,0.15430222,-0.0016561183,-0.026403418,-0.0005813552,0.031163942,0.4968453,0.072000004,nan,nan,4.5,nan,0.0
43556000,nan,nan,0.15921503,-0.0024308919,-0.023770766,-0.000581324,0.048461597,0.4738875,0.072000004,nan,nan,4.5,nan,0.0
43756000,nan,nan,0.15945964,-0.0049578235,-0.019983783,-0.00058129325,0.1076126,0.43376023,0.072000004,nan,nan,4.5,nan,0.0
43956000,nan,nan,0.16358651,-0.0059899925,-0.0200892,-0.000581263,0.12868214,0.43157336,0.072000004,nan,nan,4.5,nan,0.0
44156000,nan,nan,0.16437155,-0.011830373,-0.018312095,-0.00058123295,0.24850957,0.38466507,0.072000004,nan,nan,4.5,nan,0.0
44356000,nan,nan,0.16763885,-0.0144041795,-0.019861516,-0.0005812034,0.28287548,0.39004898,0.072000004,nan,nan,4.5,nan,0.0
44556000,nan,nan,0.16300283,-0.015612788,-0.017877437,-0.00058117404,0.31244037,0.35776016,0.072000004,nan,nan,4.5,nan,0.0
44756000,nan,nan,0.16470645,-0.0152782,-0.017045232,-0.00058114517,0.31212354,0.34822285,0.072000004,nan,nan,4.5,nan,0.0
44956000,nan,nan,0.16540727,-0.014194399,-0.015216004,-0.00058111653,0.30623138,0.32827154,0.072000004,nan,nan,4.5,nan,0.0
45156000,nan,nan,0.16960236,-0.015823241,-0.01562239,-0.00058108836,0.32865408,0.32448235,0.072000004,nan,nan,4.5,nan,0.0
45356000,nan,nan,0.16928113,-0.014182893,-0.013771091,-0.0005810604,0.3151326,0.30598268,0.072000004,nan,nan,4.5,nan,0.0
45556000,nan,nan,0.17206933,-0.016320188,-0.011328989,-0.0005810327,0.3615879,0.2510036,0.072000004,nan,nan,4.5,nan,0.0
45756000,nan,nan,0.17164636,-0.01726594,-0.012693875,-0.000581005,0.36627033,0.269281,0.072000004,nan,nan,4.5,nan,0.0
45956000,nan,nan,0.17435616,-0.018558187,-0.012993948,-0.00058097823,0.38137224,0.26702663,0.072000004,nan,nan,4.5,nan,0.0
46156000,nan,nan,0.17471151,-0.015932573,-0.009696479,-0.00058095146,0.36608565,0.22279777,0.072000004,nan,nan,4.5,nan,0.0
46356000,nan,nan,0.17761947,-0.014948109,-0.00972419,-0.0005809247,0.35249904,0.22931111,0.072000004,nan,nan,4.5,nan,0.0
46556000,nan,nan,0.1736237,-0.013505442,-0.008396863,-0.00058089837,0.3404156,0.2116497,0.072000004,nan,nan,4.5,nan,0.0
46756000,nan,nan,0.17269506,-0.010426971,-0.008009253,-0.0005808725,0.29392055,0.22576873,0.072000004,nan,nan,4.5,nan,0.0
46956000,nan,nan,0.16455398,-0.005813448,-0.0070722774,-0.0005808467,0.20366007,0.24776013,0.072000004,nan,nan,4.5,nan,0.0
47156000,nan,nan,0.16127533,-0.005317052,-0.009082705,-0.0005808213,0.17118175,0.29241642,0.072000004,nan,nan,4.5,nan,0.0
47356000,nan,nan,0.15674642,-0.005605085,-0.009482095,-0.00058079604,0.17558137,0.2970301,0.072000004,nan,nan,4.5,nan,0.0
47556000,nan,nan,0.15571867,-0.0056890794,-0.0062333047,-0.000580771,0.20947781,0.22951676,0.072000004,nan,nan,4.5,nan,0.0
47756000,nan,nan,0.15240136,-0.0073874816,-0.0070428974,-0.00058074645,0.24227898,0.23097803,0.072000004,nan,nan,4.5,nan,0.0
47956000,nan,nan,0.15336104,-0.008856719,-0.008059099,-0.0005807221,0.26391572,0.24014795,0.072000004,nan,nan,4.5,nan,0.0
48156000,nan,nan,0.15118752,-0.008550143,-0.009679526,-0.00058069825,0.24358164,0.27575618,0.072000004,nan,nan,4.5,nan,0.0
48356000,nan,nan,0.15074797,-0.008061758,-0.008638514,-0.00058067415,0.24214634,0.25947,0.072000004,nan,nan,4.5,nan,0.0
48556000,nan,nan,0.14648443,-0.008034854,-0.008518559,-0.00058065064,0.24263887,0.25724596,0.072000004,nan,nan,4.5,nan,0.0
48756000,nan,nan,0.14712802,-0.008241525,-0.012540004,-0.0005806271,0.21491343,0.3270044,0.072000004,nan,nan,4.5,nan,0.0
48956000,nan,nan,0.14525203,-0.0075011384,-0.01471965,-0.00058060384,0.18491663,0.36286598,0.072000004,nan,nan,4.5,nan,0.0
49156000,nan,nan,0.14640363,-0.010880839,-0.014787147,-0.0005805808,0.25230345,0.34288242,0.072000004,nan,nan,4.5,nan,0.0
49356000,nan,nan,0.14369689,-0.011626007,-0.011722397,-0.00058055844,0.28671122,0.2890883,0.072000004,nan,nan,4.5,nan,0.0
49556000,nan,nan,0.14612272,-0.011737341,-0.012223899,-0.0005805361,0.28509307,0.2969113,0.072000004,nan,nan,4.5,nan,0.0
49756000,nan,nan,0.14556457,-0.014947575,-0.012501569,-0.00058051373,0.334884,0.28008392,0.072000004,nan,nan,4.5,nan,0.0
49956000,nan,nan,0.14832288,-0.01825748,-0.015904568,-0.0005804916,0.36124456,0.31468958,0.072000004,nan,nan,4.5,nan,0.0
50156000,nan,nan,0.14602427,-0.022929337,-0.013997478,-0.00058046984,0.42774805,0.26112372,0.072000004,nan,nan,4.5,nan,0.0
50356000,nan,nan,0.14675556,-0.024905102,-0.013565143,-0.00058044854,0.45062217,0.24544184,0.072000004,nan,nan,4.5,nan,0.0
50556000,nan,nan,0.14509441,-0.02771566,-0.013536084,-0.0005804276,0.47835797,0.23362578,0.072000004,nan,nan,4.5,nan,0.0
50756000,nan,nan,0.14795606,-0.03284081,-0.014512193,-0.0005804064,0.5207164,0.23010205,0.072000004,nan,nan,4.5,nan,0.0
50956000,nan,nan,0.1490212,-0.03189575,-0.016702412,-0.00058038486,0.5049504,0.2644205,0.072000004,nan,nan,4.5,nan,0.0
51156000,nan,nan,0.15333158,-0.033686563,-0.017063588,-0.0005803638,0.51936644,0.26307982,0.072000004,nan,nan,4.5,nan,0.0
51356000,nan,nan,0.15438245,-0.033482663,-0.0159151,-0.00058034284,0.5215282,0.24789466,0.072000004,nan,nan,4.5,nan,0.0
51556000,nan,nan,0.15810072,-0.031214332,-0.01692482,-0.00058032246,0.49799758,0.27002084,0.072000004,nan,nan,4.5,nan,0.0
51756000,nan,nan,0.15759505,-0.029625166,-0.015102999,-0.00058030174,0.4902512,0.24993156,0.072000004,nan,nan,4.5,nan,0.0
51956000,nan,nan,0.15923469,-0.030313477,-0.016191881,-0.00058028183,0.49250197,0.26306888,0.072000004,nan,nan,4.5,nan,0.0
52156000,nan,nan,0.15759997,-0.031016791,-0.015812652,-0.00058026204,0.5003038,0.25505963,0.072000004,nan,nan,4.5,nan,0.0
52356000,nan,nan,0.15931396,-0.030684654,-0.015160587,-0.00058024225,0.499679,0.24687998,0.072000004,nan,nan,4.5,nan,0.0
52556000,nan,nan,0.15848388,-0.02860536,-0.012880199,-0.0005802227,0.48904926,0.22020528,0.072000004,nan,nan,4.5,nan,0.0
52756000,nan,nan,0.15950453,-0.027272645,-0.013144375,-0.00058020314,0.4756588,0.2292494,0.072000004,nan,nan,4.5,nan,0.0
52956000,nan,nan,0.15821153,-0.02657697,-0.013358852,-0.0005801839,0.4681402,0.23530957,0.072000004,nan,nan,4.5,nan,0.0
53156000,nan,nan,0.16094297,-0.026987359,-0.010348152,-0.00058016495,0.48310706,0.18524472,0.072000004,nan,nan,4.5,nan,0.0
53356000,nan,nan,0.15832843,-0.025281854,-0.008627277,-0.0005801461,0.47313726,0.16145515,0.072000004,nan,nan,4.5,nan,0.0
53556000,nan,nan,0.16020337,-0.023886016,-0.0064787054,-0.0005801276,0.46677482,0.12660532,0.072000004,nan,nan,4.5,nan,0.0
53756000,nan,nan,0.1582835,-0.02211356,-0.007841986,-0.00058010884,0.4454496,0.15796685,0.072000004,nan,nan,4.5,nan,0.0
53956000,nan,nan,0.15890735,-0.021046462,-0.007006534,-0.0005800907,0.4377473,0.14572954,0.072000004,nan,nan,4.5,nan,0.0
54156000,nan,nan,0.15398361,-0.019978922,-0.0053764884,-0.0005800723,0.4324493,0.11637559,0.072000004,nan,nan,4.5,nan,0.0
54356000,nan,nan,0.1531558,-0.017902479,-0.0032902854,-0.00058005436,0.41718304,0.07667381,0.072000004,nan,nan,4.5,nan,0.0
54556000,nan,nan,0.14915068,-0.01695741,-0.004958654,-0.00058003666,0.40204382,0.1175649,0.072000004,nan,nan,4.5,nan,0.0
54756000,nan,nan,0.1494158,-0.020086607,-0.0041929157,-0.00058001885,0.43684578,0.091187984,0.072000004,nan,nan,4.5,nan,0.0
54956000,nan,nan,0.14539255,-0.017668458,-0.0026863809,-0.0005800013,0.4161247,0.06326922,0.072000004,nan,nan,4.5,nan,0.0
55156000,nan,nan,0.14736281,-0.021562848,-0.0020778126,-0.0005799838,0.45460415,0.043806005,0.072000004,nan,nan,4.5,nan,0.0
55356000,nan,nan,0.14769745,-0.023279175,-0.0026355535,-0.0005799666,0.46932796,0.05313499,0.072000004,nan,nan,4.5,nan,0.0
55556000,nan,nan,0.15068269,-0.025348034,-0.0019850074,-0.00057994947,0.4878258,0.038201693,0.072000004,nan,nan,4.5,nan,0.0
55756000,nan,nan,0.14915034,-0.02427151,-0.0019917588,-0.0005799326,0.47867203,0.03928059,0.072000004,nan,nan,4.5,nan,0.0
55956000,nan,nan,0.15089384,-0.023850504,-0.00022314177,-0.0005799158,0.47596663,0.0044530733,0.072000004,nan,nan,4.5,nan,0.0
56156000,nan,nan,0.15006658,-0.023694197,-0.00041638117,-0.00057989906,0.4745897,0.008340026,0.072000004,nan,nan,4.5,nan,0.0
56356000,nan,nan,0.15043347,-0.023924734,-0.001185404,-0.00057988253,0.47628462,0.023598578,0.072000004,nan,nan,4.5,nan,0.0
56556000,nan,nan,0.14714052,-0.022188526,-0.002814966,-0.00057986623,0.45932543,0.058272704,0.072000004,nan,nan,4.5,nan,0.0
56756000,nan,nan,0.14846924,-0.02274902,-0.0030945926,-0.00057984993,0.46395877,0.06311319,0.072000004,nan,nan,4.5,nan,0.0
56956000,nan,nan,0.14694937,-0.022807283,-0.002990562,-0.00057983375,0.46463984,0.060925025,0.072000004,nan,nan,4.5,nan,0.0
57156000,nan,nan,0.14685227,-0.023533773,-0.0037458022,-0.0005798177,0.46988732,0.074790604,0.072000004,nan,nan,4.5,nan,0.0
57356000,nan,nan,0.14263576,-0.022330316,-0.004050956,-0.00057980174,0.45843056,0.08316416,0.072000004,nan,nan,4.5,nan,0.0
57556000,-0.02224403,-0.010682233,0.15357439,-0.00051193626,-0.0002734134,0.69948804,-0.06399602,-0.020313263,-0.06399602,-4.0,0.0,-4.0,1.5571712,-0.00042803388
57756000,-0.020857094,-0.009997961,0.15010189,-0.0005119811,-0.00032989227,0.699488,-0.06399882,-0.025831938,-0.06399882,-4.0,0.0,-4.0,1.5570287,-0.00069451565
57956000,-0.021112077,-0.009940727,0.15150446,-0.00051194127,-0.00039212994,0.69948804,-0.06399633,-0.033036828,-0.06399633,-4.0,0.0,-4.0,1.5572232,0.00020497275
58156000,-0.019816903,-0.010667021,0.15085943,-0.0005119804,-0.00045321102,0.699488,-0.06399877,-0.04231572,-0.06399877,-4.0,0.0,-4.0,1.557092,-0.00019565296
58356000,-0.019179491,-0.009268985,0.1522901,-0.0005118892,-0.00049801596,0.6994881,-0.063993074,-0.053458095,-0.063993074,-4.0,0.0,-4.0,1.5572771,0.00043480453
58556000,-0.016478017,-0.0057459706,0.1504898,-0.00051195046,-0.00051195046,0.69948804,-0.0639969,-0.0639969,-0.0639969,-4.0,-4.0,-4.0,1.5574092,0.00062681816
58756000,-0.015927128,-0.0026874298,0.15059188,-0.0005119215,-0.0005119215,0.69948804,-0.06399509,-0.06399509,-0.06399509,-4.0,-4.0,-4.0,nan,0.0
58956000,-0.015064288,0.000306976,0.1487711,-0.0005119575,-0.0005119575,0.69948804,-0.06399734,-0.06399734,-0.06399734,-4.0,-4.0,-4.0,nan,0.0
59156000,-0.016460188,0.0023902475,0.14805537,-0.0005119605,-0.0005119605,0.69948804,-0.06399753,-0.06399753,-0.06399753,-4.0,-4.0,-4.0,nan,0.0
59356000,-0.017905368,0.004351553,0.14471754,-0.0005119426,-0.0005119426,0.69948804,-0.06399641,-0.06399641,-0.06399641,-4.0,-4.0,-4.0,nan,0.0
59556000,-0.01936222,0.005499898,0.14190559,-0.00051195786,-0.00051195786,0.69948804,-0.063997366,-0.063997366,-0.063997366,-4.0,-4.0,-4.0,nan,0.0
59756000,-0.018881349,0.005798559,0.13503684,0.0014895647,0.0014728532,0.63125056,-0.0003279373,-0.0004175827,-0.5,0.0,0.0,0.0,nan,0.0
59956000,-0.018590054,0.006084709,0.13109136,0.0014238586,0.0013890687,0.53126734,-0.00032984465,-0.00041949004,-0.5,0.0,0.0,0.0,nan,0.0
60156000,-0.018312078,0.006353932,0.12788768,0.0013577443,0.0013049464,0.43133643,-0.000331752,-0.0004213974,-0.5,0.0,0.0,0.0,nan,0.0
60356000,-0.018047493,0.006606167,0.12592731,0.0012913353,0.001220463,0.33146018,-0.0003331825,-0.0004242584,-0.5,0.0,0.0,0.0,nan,0.0
60556000,-0.017796177,0.0068415236,0.123834446,0.0012244687,0.0011355529,0.23156644,-0.0003355667,-0.00042568892,-0.5,0.0,0.0,0.0,nan,0.0
60756000,-0.017558275,0.007059863,0.12142513,0.0011572075,0.0010502802,0.13168092,-0.00033747405,-0.0004280731,-0.5,0.0,0.0,0.0,nan,0.0
60956000,-0.01733393,0.0072610546,0.11640212,0.0010895409,0.0009646429,0.031832468,-0.0003393814,-0.00042950362,-0.5,0.0,0.0,0.0,nan,0.0
61156000,-0.01712324,0.0074450267,0.11299062,0.00102146,0.00087864907,-0.06796998,-0.00034224242,-0.0004318878,-0.5,0.0,0.0,0.0,nan,0.0
61356000,-0.016926188,0.007611794,0.1085367,0.00095296156,0.00079231424,-0.16777065,-0.00034414977,-0.00043331832,-0.5,0.0,0.0,0.0,nan,0.0
61556000,-0.016742827,0.007761306,0.10521302,0.0008840641,0.00070560176,-0.267581,-0.00034605712,-0.00043522567,-0.5,0.0,0.0,0.0,nan,0.0
61756000,-0.016573252,0.007893479,0.10058305,0.00081475155,0.00061853795,-0.36739686,-0.00034796447,-0.00043665618,-0.5,0.0,0.0,0.0,nan,0.0
61956000,-0.016417535,0.008008262,0.09923347,0.0007449821,0.00053115503,-0.4672293,-0.00035034865,-0.00043856353,-0.5,0.0,0.0,0.0,nan,0.0
62156000,-0.016275762,0.0081055835,0.0974102,0.0006747682,0.00044344596,-0.56708187,-0.00035249442,-0.00043975562,-0.5,0.0,0.0,0.0,nan,0.0
62356000,-0.01614802,0.008185382,0.09511114,0.00060414034,0.00035546135,-0.66695964,-0.00035440177,-0.0004409477,-0.5,0.0,0.0,0.0,nan,0.0
62556000,-0.016034428,0.008247573,0.0782377,0.00053309026,0.00026721522,-0.76683366,-0.00035654753,-0.00044237822,-0.5,0.0,0.0,0.0,nan,0.0
62756000,-0.015935134,0.00829209,0.026421286,0.00046165602,0.00017877312,-0.866643,-0.00035893172,-0.00044357032,-0.5,0.0,0.0,0.0,nan,0.0
62956000,-0.015850276,0.008318898,-0.070376314,0.00038991106,9.022303e-05,-0.966289,-0.00036083907,-0.0004447624,-0.5,0.0,0.0,0.0,nan,0.0
63156000,-0.01577983,0.008328029,-0.1956879,0.0003178218,1.4966331e-06,-1.0658174,-0.00036322325,-0.00044643134,-0.5,0.0,0.0,0.0,nan,0.0
63356000,-0.015723798,0.008319476,-0.35032937,0.00024529628,-8.74765e-05,-1.1653188,-0.00036548823,-0.00044774264,-0.5,0.0,0.0,0.0,nan,0.0
63556000,-0.015682196,0.008293151,-0.5315139,0.00017224617,-0.00017680366,-1.2649442,-0.0003675148,-0.00044893473,-0.5,0.0,0.0,0.0,nan,0.0
63756000,-0.015655112,0.008248803,-0.7386028,9.84738e-05,-0.00026671265,-1.3649441,-0.00036989897,-0.00045006722,-0.5,0.0,0.0,0.0,nan,0.0
63956000,-0.015642831,0.008186455,-0.9700215,2.424057e-05,-0.00035678354,-1.464944,-0.00037228316,-0.00045060366,-0.5,0.0,0.0,0.0,nan,0.0
64156000,-0.015644602,0.008107124,-1.2221886,-2.525672e-05,-0.0004163021,-1.5,0.0,0.0,0.0,0.0,0.0,0.0,nan,0.0
64356000,-0.015649648,0.008023925,-1.4731851,-2.5230893e-05,-0.00041587593,-1.5,0.0,0.0,0.0,0.0,0.0,0.0,nan,0.0
64556000,-0.015654687,0.0079408,-1.7295908,-2.520849e-05,-0.0004155039,-1.5,0.0,0.0,0.0,0.0,0.0,0.0,nan,0.0
64756000,-0.015659727,0.007857751,-1.9899262,-2.5187128e-05,-0.00041515124,-1.5,0.0,0.0,0.0,0.0,0.0,0.0,nan,0.0
64956000,-0.015664764,0.0077747633,-2.2554708,-2.5169067e-05,-0.00041485595,-1.5,0.0,0.0,0.0,0.0,0.0,0.0,nan,0.0
65156000,-0.015669793,0.0076918374,-2.5239754,-2.51519e-05,-0.0004145716,-1.5,0.0,0.0,0.0,0.0,0.0,0.0,nan,0.0
65356000,-0.015674822,0.007608958,-2.7977176,-2.513815e-05,-0.00041434518,-1.5,0.0,0.0,0.0,0.0,0.0,0.0,nan,0.0
65556000,-0.01567985,0.0075261253,-3.074629,-2.5125146e-05,-0.00041413255,-1.5,0.0,0.0,0.0,0.0,0.0,0.0,nan,0.0
65756000,-0.015684875,0.007443329,-3.356201,-2.5115467e-05,-0.000413973,-1.5,0.0,0.0,0.0,0.0,0.0,0.0,nan,0.0
65956000,-0.0156899,0.0073605673,-3.6389847,-2.5105495e-05,-0.00041381267,-1.5,0.0,0.0,0.0,0.0,0.0,0.0,nan,0.0
66156000,-0.01569492,0.0072778314,-3.9247036,-2.5098127e-05,-0.00041368927,-1.5,0.0,0.0,0.0,0.0,0.0,0.0,nan,0.0
66356000,-0.015699942,0.0071951207,-4.21458,-2.509174e-05,-0.00041358787,-1.5,0.0,0.0,0.0,0.0,0.0,0.0,nan,0.0
66556000,-0.015704952,0.0071124206,-4.5086846,-2.5089024e-05,-0.00041353935,-1.5,0.0,0.0,0.0,0.0,0.0,0.0,nan,0.0
66756000,-0.015709963,0.0070297355,-4.802124,-2.5085332e-05,-0.00041347515,-1.5,0.0,0.0,0.0,0.0,0.0,0.0,nan,0.0
66956000,-0.015714973,0.006947057,-5.0970287,-2.5082898e-05,-0.00041343196,-1.5,0.0,0.0,0.0,0.0,0.0,0.0,nan,0.0
67156000,-0.015719978,0.0068643875,-5.3943,-2.5081252e-05,-0.00041339884,-1.5,0.0,0.0,0.0,0.0,0.0,0.0,nan,0.0
67356000,-0.015724989,0.006781718,-5.694739,-2.5082032e-05,-0.0004134089,-1.5,0.0,0.0,0.0,0.0,0.0,0.0,nan,0.0
67556000,-0.015729995,0.0066990945,-5.995297,-2.508218e-05,-0.00041340743,-1.5,0.0,0.0,0.0,0.0,0.0,0.0,nan,0.0
67756000,-0.01573499,0.0066166883,-6.298752,-2.508514e-05,-0.00041345446,-1.5,0.0,0.0,0.0,0.0,0.0,0.0,nan,0.0
67956000,-0.015739974,0.006534338,-6.599342,-2.5086574e-05,-0.00041347,-1.5,0.0,0.0,0.0,0.0,0.0,0.0,nan,0.0
68156000,-0.015744956,0.006451985,-6.899656,-2.5088113e-05,-0.0004134885,-1.5,0.0,0.0,0.0,0.0,0.0,0.0,nan,0.0
68356000,-0.015749944,0.006369603,-7.1996045,-2.5088986e-05,-0.00041349488,-1.5,0.0,0.0,0.0,0.0,0.0,0.0,nan,0.0
68556000,-0.015754934,0.0062872595,-7.5013723,-2.5091125e-05,-0.00041352713,-1.5,0.0,0.0,0.0,0.0,0.0,0.0,nan,0.0
68756000,-0.01575992,0.0062049762,-7.8043427,-2.509366e-05,-0.00041356476,-1.5,0.0,0.0,0.0,0.0,0.0,0.0,nan,0.0
68956000,-0.015764907,0.0061227353,-8.112664,-2.5099911e-05,-0.0004136654,-1.5,0.0,0.0,0.0,0.0,0.0,0.0,nan,0.0
69156000,-0.015769897,0.0060404786,-8.421383,-2.5106045e-05,-0.00041376625,-1.5,0.0,0.0,0.0,0.0,0.0,0.0,nan,0.0
69356000,-0.015774893,0.0059581124,-8.729988,-2.5112466e-05,-0.0004138706,-1.5,0.0,0.0,0.0,0.0,0.0,0.0,nan,0.0
69556000,-0.015779894,0.005875612,-9.035947,-2.5117004e-05,-0.0004139436,-1.5,0.0,0.0,0.0,0.0,0.0,0.0,nan,0.0
69756000,-0.015784897,0.0057930197,-9.339792,-2.5120304e-05,-0.00041399198,-1.5,0.0,0.0,0.0,0.0,0.0,0.0,nan,0.0
69956000,-0.015789906,0.0057104486,-9.6455555,-2.5124094e-05,-0.0004140545,-1.5,0.0,0.0,0.0,0.0,0.0,0.0,nan,0.0
70156000,-0.015794909,0.0056278342,-9.951608,-2.5448864e-05,-0.00041939068,-1.5005091,-2.0503998e-05,-0.00033807755,-0.0638222,0.0,0.0,-4.0,nan,0.0
70356000,-0.015800387,0.0055374494,-10.25749,-2.9538955e-05,-0.0004868296,-1.592823,-2.0503998e-05,-0.00033807755,-0.86173326,0.0,0.0,-4.0,nan,0.0
70556000,-0.015806684,0.0054335496,-10.597865,-3.3631313e-05,-0.000554306,-1.8444861,-2.0503998e-05,-0.00033807755,-1.6600871,0.0,0.0,-4.0,nan,0.0
70756000,-0.015813807,0.0053160945,-11.004686,-3.7726564e-05,-0.00062183006,-2.2558155,-2.0503998e-05,-0.00033807755,-2.4399753,0.0,0.0,4.0,nan,0.0
70956000,-0.015821753,0.0051849945,-11.499207,-4.1826544e-05,-0.000689432,-2.6637456,-2.0503998e-05,-0.00033807755,-1.6401354,0.0,0.0,4.0,nan,0.0
71156000,-0.015830526,0.005040347,-12.059422,-4.5927347e-05,-0.0007570475,-2.911773,-2.0503998e-05,-0.00033807755,-0.8401355,0.0,0.0,4.0,nan,0.0
71356000,-0.015840117,0.004882176,-12.653241,-5.002815e-05,-0.000824663,-2.9998004,-2.0503998e-05,-0.00033807755,-0.040135406,0.0,0.0,4.0,nan,0.0
71556000,-0.015850158,0.004716583,-13.253241,-5.0247127e-05,-0.0008280198,-3.0,0.0,0.0,0.0,0.0,0.0,0.0,nan,0.0
71756000,-0.015860198,0.0045509795,-13.853239,-5.0247923e-05,-0.00082801975,-3.0,0.0,0.0,0.0,0.0,0.0,0.0,nan,0.0
71956000,-0.015870238,0.004385375,-14.45324,-5.0248767e-05,-0.00082801975,-3.0,0.0,0.0,0.0,0.0,0.0,0.0,nan,0.0
72156000,-0.015880277,0.0042197704,-15.053239,-5.0249633e-05,-0.00082801975,-3.0,0.0,0.0,0.0,0.0,0.0,0.0,nan,0.0
72356000,-0.015890317,0.004054166,-15.653236,-5.0250528e-05,-0.0008280195,-3.0,0.0,0.0,0.0,0.0,0.0,0.0,nan,0.0
72556000,-0.015900357,0.0038885605,-16.253239,-5.0251463e-05,-0.00082801946,-3.0,0.0,0.0,0.0,0.0,0.0,0.0,nan,0.0
72756000,-0.015910396,0.0037229569,-16.853241,-5.0252427e-05,-0.0008280195,-3.0,0.0,0.0,0.0,0.0,0.0,0.0,nan,0.0
72956000,-0.015920436,0.0035573533,-17.45324,-5.0253424e-05,-0.0008280196,-3.0,0.0,0.0,0.0,0.0,0.0,0.0,nan,0.0
73156000,-0.015930476,0.0033917502,-18.05324,-5.0254464e-05,-0.0008280196,-3.0,0.0,0.0,0.0,0.0,0.0,0.0,nan,0.0
73356000,-0.015940515,0.0032261468,-18.65324,-5.0255538e-05,-0.00082801975,-3.0,0.0,0.0,0.0,0.0,0.0,0.0,nan,0.0
73556000,-0.015950555,0.0030605434,-19.253242,-5.025666e-05,-0.00082801987,-3.0,0.0,0.0,0.0,0.0,0.0,0.0,nan,0.0
73756000,-0.015960595,0.0028949396,-19.853245,-5.0257833e-05,-0.00082802,-3.0,0.0,0.0,0.0,0.0,0.0,0.0,nan,0.0
73956000,-0.015970634,0.0027293365,-20.453243,-5.0259037e-05,-0.00082802,-3.0,0.0,0.0,0.0,0.0,0.0,0.0,nan,0.0
74156000,-0.015980674,0.002563733,-21.053242,-5.026029e-05,-0.0008280199,-3.0,0.0,0.0,0.0,0.0,0.0,0.0,nan,0.0
74356000,-0.015990714,0.0023981296,-21.653242,-5.026161e-05,-0.0008280201,-3.0,0.0,0.0,0.0,0.0,0.0,0.0,nan,0.0
74556000,-0.016000751,0.0022326144,-22.25292,-5.0262806e-05,-0.00082802004,-3.0,0.0,0.0,0.0,0.0,0.0,0.0,nan,0.0
74756000,-0.016010785,0.0020672372,-22.852097,-5.026336e-05,-0.00082802004,-3.0,0.0,0.0,0.0,0.0,0.0,0.0,nan,0.0
74956000,-0.016020825,0.0019018005,-23.451492,-5.026368e-05,-0.00082802004,-3.0,0.0,0.0,0.0,0.0,0.0,0.0,nan,0.0
75156000,-0.01603086,0.0017364224,-24.050674,-5.026414e-05,-0.00082802016,-3.0,0.0,0.0,0.0,0.0,0.0,0.0,nan,0.0
75356000,-0.01604089,0.0015711223,-24.64957,-5.0264785e-05,-0.0008280199,-3.0,0.0,0.0,0.0,0.0,0.0,0.0,nan,0.0
75556000,-0.016050905,0.0014060038,-25.247814,-5.026556e-05,-0.00082802004,-3.0,0.0,0.0,0.0,0.0,0.0,0.0,nan,0.0
75756000,-0.016060917,0.001240995,-25.845655,-5.026639e-05,-0.00082802004,-3.0,0.0,0.0,0.0,0.0,0.0,0.0,nan,0.0
75956000,-0.016070923,0.0010761439,-26.442926,-5.026631e-05,-0.00082802,-3.0,0.0,0.0,0.0,0.0,0.0,0.0,nan,0.0
76156000,-0.016080916,0.0009113753,-27.039898,-5.0267696e-05,-0.00082801987,-3.0,0.0,0.0,0.0,0.0,0.0,0.0,nan,0.0
76356000,-0.016090909,0.0007467352,-27.636402,-5.0268107e-05,-0.0008280198,-3.0,0.0,0.0,0.0,0.0,0.0,0.0,nan,0.0
76556000,-0.016100893,0.0005821283,-28.23279,-5.0269184e-05,-0.0008280197,-3.0,0.0,0.0,0.0,0.0,0.0,0.0,nan,0.0
76756000,-0.016110877,0.0004175691,-28.829006,-5.0270166e-05,-0.0008280198,-3.0,0.0,0.0,0.0,0.0,0.0,0.0,nan,0.0
76956000,-0.016120864,0.00025295568,-29.425415,-5.027122e-05,-0.0008280197,-3.0,0.0,0.0,0.0,0.0,0.0,0.0,nan,0.0
77156000,-0.016130857,8.826451e-05,-30.022104,-5.0271905e-05,-0.0008280196,-3.0,0.0,0.0,0.0,0.0,0.0,0.0,nan,0.0
77356000,-0.01614085,-7.6536075e-05,-30.619196,-5.0273644e-05,-0.0008280197,-3.0,0.0,0.0,0.0,0.0,0.0,0.0,nan,0.0
77556000,-0.016150858,-0.00024143442,-31.21664,-5.0274684e-05,-0.0008280197,-3.0,0.0,0.0,0.0,0.0,0.0,0.0,nan,0.0
77756000,-0.01616087,-0.00040641456,-31.81438,-5.027544e-05,-0.0008280196,-3.0,0.0,0.0,0.0,0.0,0.0,0.0,nan,0.0
77956000,-0.016170882,-0.00057143316,-32.41226,-5.0276703e-05,-0.0008280197,-3.0,0.0,0.0,0.0,0.0,0.0,0.0,nan,0.0
78156000,-0.016180893,-0.0007364992,-33.010296,-5.0278537e-05,-0.0008280191,-3.0,0.0,0.0,0.0,0.0,0.0,0.0,nan,0.0
78356000,-0.016190905,-0.0009015703,-33.608353,-5.0280603e-05,-0.0008280183,-3.0,0.0,0.0,0.0,0.0,0.0,0.0,nan,0.0
78556000,-0.016200917,-0.0010666685,-34.206524,-5.0283135e-05,-0.0008280184,-3.0,0.0,0.0,0.0,0.0,0.0,0.0,nan,0.0
78756000,-0.016210938,-0.0012318146,-34.804863,-5.0284907e-05,-0.00082801824,-3.0,0.0,0.0,0.0,0.0,0.0,0.0,nan,0.0
78956000,-0.01622096,-0.0013970217,-35.403423,-5.0287137e-05,-0.000828018,-3.0,0.0,0.0,0.0,0.0,0.0,0.0,nan,0.0
79156000,-0.016230991,-0.0015623255,-36.00234,-5.0288796e-05,-0.00082801806,-3.0,0.0,0.0,0.0,0.0,0.0,0.0,nan,0.0
79356000,-0.016241029,-0.0017276931,-36.601475,-5.029041e-05,-0.0008280176,-3.0,0.0,0.0,0.0,0.0,0.0,0.0,nan,0.0
79556000,-0.016251065,-0.0018929852,-37.200336,-5.0290997e-05,-0.00082801713,-3.0,0.0,0.0,0.0,0.0,0.0,0.0,nan,0.0
79756000,-0.016261095,-0.0020582043,-37.798946,-5.0292198e-05,-0.00082801696,-3.0,0.0,0.0,0.0,0.0,0.0,0.0,nan,0.0
79956000,-0.016271126,-0.002223458,-38.397675,-5.0293802e-05,-0.0008280169,-3.0,0.0,0.0,0.0,0.0,0.0,0.0,nan,0.0
80156000,-0.016281163,-0.0023888743,-38.997,-5.0296363e-05,-0.00082801713,-3.0,0.0,0.0,0.0,0.0,0.0,0.0,nan,0.0
80356000,-0.016291212,-0.0025544788,-39.596996,-5.0299335e-05,-0.0008280168,-3.0,0.0,0.0,0.0,0.0,0.0,0.0,nan,0.0
80556000,-0.016301261,-0.002720082,-40.196995,-5.0302646e-05,-0.0008280163,-3.0,0.0,0.0,0.0,0.0,0.0,0.0,nan,0.0
80756000,-0.01631131,-0.002885684,-40.796986,-5.030637e-05,-0.00082801585,-3.0,0.0,0.0,0.0,0.0,0.0,0.0,nan,0.0
80956000,-0.01632136,-0.003051287,-41.39698,-5.031064e-05,-0.00082801544,-3.0,0.0,0.0,0.0,0.0,0.0,0.0,nan,0.0
81156000,-0.016331414,-0.0032168902,-41.996983,-5.03142e-05,-0.00082801573,-3.0,0.0,0.0,0.0,0.0,0.0,0.0,nan,0.0
81356000,-0.016341472,-0.0033824933,-42.596977,-5.0316015e-05,-0.00082801515,-3.0,0.0,0.0,0.0,0.0,0.0,0.0,nan,0.0
81556000,-0.016351506,-0.0035476512,-43.195824,-4.976537e-05,-0.00081894035,-2.9712005,6.5863132e-06,0.00010865927,0.48000002,0.0,0.0,4.0,nan,0.0
81756000,-0.016361278,-0.0037085048,-43.775208,-4.7807247e-05,-0.0007866588,-2.7998116,1.2129545e-05,0.00019991398,1.0668361,0.0,0.0,-4.0,nan,0.0
81956000,-0.016370565,-0.0038613547,-44.31356,-4.4981763e-05,-0.00074017537,-2.5848243,1.5348196e-05,0.00025308132,1.0376403,0.0,0.0,-4.0,nan,0.0
82156000,-0.01637924,-0.004004104,-44.809647,-4.1726642e-05,-0.000686597,-2.3777642,1.6778708e-05,0.00027632713,0.98960215,0.0,0.0,-4.0,nan,0.0
82356000,-0.016387245,-0.004135832,-45.265366,-3.832132e-05,-0.0006305735,-2.181415,1.707673e-05,0.0002810955,0.931736,0.0,0.0,-4.0,nan,0.0
82556000,-0.016394567,-0.0042563262,-45.683006,-3.4905985e-05,-0.0005743545,-1.9971569,1.707673e-05,0.0002810955,0.86943585,0.0,0.0,-4.0,nan,0.0
82756000,-0.016401205,-0.0043655764,-46.065052,-3.149065e-05,-0.0005181355,-1.8255097,1.707673e-05,0.0002810955,0.8060924,0.0,0.0,-4.0,nan,0.0
82956000,-0.01640716,-0.0044635814,-46.41402,-2.8075301e-05,-0.00046191644,-1.6664532,1.707673e-05,0.0002810955,0.74382013,0.0,0.0,-4.0,nan,0.0
83156000,-0.016412433,-0.004550343,-46.732414,-2.4659948e-05,-0.0004056973,-1.5196306,1.707673e-05,0.0002810955,0.6839401,0.0,0.0,-4.0,nan,0.0
83356000,-0.016417025,-0.004625899,-47.02263,-2.1539716e-05,-0.00035432892,-1.3844858,-1.3709068e-06,-2.2798777e-05,0.627149,0.0,0.0,-4.0,nan,0.0
83556000,-0.016421285,-0.0046959757,-47.286922,-2.0820891e-05,-0.00034255587,-1.260361,6.377697e-06,0.000104665756,0.5737885,0.0,0.0,-4.0,nan,0.0
83756000,-0.016425297,-0.0047620083,-47.527447,-1.9247811e-05,-0.00031670748,-1.1465558,8.583069e-06,0.00014093518,0.52397615,0.0,0.0,-4.0,nan,0.0
83956000,-0.016428977,-0.004822478,-47.74617,-1.750044e-05,-0.00028794058,-1.0423648,8.761883e-06,0.00014424324,0.4776491,0.0,0.0,-4.0,nan,0.0
84156000,-0.0164323,-0.0048771813,-47.944954,-1.5748063e-05,-0.00025909184,-0.94710106,8.761883e-06,0.00014424324,0.43474895,0.0,0.0,-4.0,nan,0.0
84356000,-0.01643527,-0.004926114,-48.125534,-1.3995685e-05,-0.00023024315,-0.86008644,8.761883e-06,0.00014424324,0.39515907,0.0,0.0,-4.0,nan,0.0
84556000,-0.016437888,-0.0049692774,-48.289467,-1.2243307e-05,-0.00020139449,-0.78069264,8.761883e-06,0.00014424324,0.3585958,0.0,0.0,-4.0,nan,0.0
84756000,-0.016440276,-0.005008533,-48.438248,-1.1610655e-05,-0.00019100605,-0.70831436,4.4107437e-06,7.225573e-05,0.32502267,0.0,0.0,-4.0,nan,0.0
84956000,-0.016442502,-0.0050450945,-48.573208,-1.0593324e-05,-0.00017427576,-0.64238644,5.26011e-06,8.6560845e-05,0.29419005,0.0,0.0,-4.0,nan,0.0
85156000,-0.016444515,-0.0050782175,-48.69557,-9.5413025e-06,-0.00015696356,-0.58237666,5.26011e-06,8.6560845e-05,0.26585692,0.0,0.0,-4.0,nan,0.0
85356000,-0.01644632,-0.0051078773,-48.80651,-8.489281e-06,-0.00013965137,-0.5277971,5.26011e-06,8.6560845e-05,0.24002548,0.0,0.0,-4.0,nan,0.0
85556000,-0.01644792,-0.005134205,-48.907017,-7.695462e-06,-0.00012661955,-0.47818133,1.4603138e-06,2.3752451e-05,0.2163026,0.0,0.0,-4.0,nan,0.0
85756000,-0.016446672,-0.0051613175,-48.998055,0.0005049283,-0.0006284081,-0.4333714,0.064003535,-0.06394219,0.1947204,4.0,-4.0,0.0,nan,0.0
85956000,-0.00988731,-0.011743965,-49.080193,0.09186453,-0.09197584,-0.39475334,0.85730577,-0.8572444,0.1947204,4.0,-4.0,0.0,nan,-0.085844964
86156000,0.029165672,-0.051933125,-49.155334,0.31182995,-0.34011483,-0.37187085,1.1744437,-1.6492362,0.036271796,0.0,-4.0,0.0,nan,-0.156983
86356000,0.11716532,-0.15587553,-49.22665,0.5910649,-0.7421081,-0.3519772,1.477216,-2.4363756,0.10866092,0.0,-4.0,0.0,nan,-0.19916624
86556000,0.26080737,-0.35218355,-49.29324,0.879624,-1.2884185,-0.32952312,1.477216,-3.0,0.12010597,0.0,0.0,0.0,nan,-0.20180759
86756000,0.4590912,-0.65833193,-49.35478,1.1659994,-1.870003,-0.30500042,1.477216,-3.0,0.13175009,0.0,0.0,0.0,nan,-0.20222344
86956000,0.71241647,-1.076424,-49.411247,1.4518908,-2.450605,-0.27822292,1.477216,-3.0,0.14383124,0.0,0.0,0.0,nan,0.0
87156000,1.0216558,-1.6079013,-49.46239,1.738279,-3.032215,-0.24898301,1.477216,-3.0,0.15664814,0.0,0.0,0.0,nan,0.0
87356000,1.3883337,-2.2528157,-49.507885,2.0260649,-3.565338,-0.21796876,1.477216,-2.3592112,0.15932892,0.0,4.0,0.0,nan,0.0
87556000,1.813243,-2.9909394,-49.547493,2.3152337,-3.9505208,-0.18677977,1.477216,-1.5762019,0.15932892,0.0,4.0,0.0,nan,0.0
87756000,2.2959192,-3.7955387,-49.58122,2.5566883,-4.183576,-0.15525803,0.84564734,-0.7873814,0.15989451,-4.0,4.0,0.0,nan,0.0
87956000,2.815686,-4.6375947,-49.60887,2.6457603,-4.261064,-0.12231161,0.050409712,0.007856198,0.1741144,-4.0,4.0,0.0,nan,0.0
88156000,3.3430028,-5.487619,-49.63065,2.6345136,-4.249628,-0.10464356,0.0,0.0,0.0,0.0,0.0,0.0,nan,0.0
88356000,3.868866,-6.3363924,-49.65153,2.6108532,-4.2208276,-0.10371811,-0.3137103,0.48000002,0.010815889,0.0,4.0,0.0,nan,0.0
88556000,4.3827486,-7.165625,-49.671986,2.5193813,-4.044828,-0.10054744,-0.5756252,1.2800001,0.019592136,0.0,4.0,0.0,nan,0.0
88756000,4.8734126,-7.9473276,-49.69164,2.3809621,-3.7715974,-0.09585828,-0.769495,1.3425676,0.026106328,0.0,-4.0,0.0,nan,0.0
88956000,5.333529,-8.674556,-49.71026,2.21822,-3.501819,-0.0901786,-0.83523375,1.3120031,0.02993694,0.0,-4.0,0.0,nan,0.0
89156000,5.7603827,-9.348508,-49.727688,2.0502455,-3.239186,-0.0839455,-0.84038293,1.2717605,0.031934112,0.0,-4.0,0.0,nan,0.0
89356000,6.153621,-9.970793,-49.743828,1.8821692,-2.9853303,-0.07746186,-0.84038293,1.2246164,0.032637745,0.0,-4.0,0.0,nan,0.0
89556000,6.5132456,-10.543284,-49.758663,1.7140931,-2.7414458,-0.07083264,-0.84038293,1.1723353,0.034271568,0.0,-4.0,0.0,nan,0.0
89756000,6.8392544,-11.068071,-49.77212,1.5460169,-2.508438,-0.06381386,-0.84038293,1.1160241,0.03534314,0.0,-4.0,0.0,nan,0.0
89956000,7.1281753,-11.543823,-49.784172,1.3236637,-2.224075,-0.05674523,-1.2979786,1.8127568,0.03534314,0.0,4.0,0.0,nan,0.0
90156000,7.3668613,-11.947049,-49.79481,1.0628442,-1.7815238,-0.049676605,-1.3088028,2.6127563,0.03534314,0.0,4.0,0.0,nan,0.16198108
90356000,7.5531707,-12.246497,-49.804043,0.7998493,-1.2002685,-0.042607978,-1.3206041,3.0,0.03534314,0.0,0.0,0.0,nan,0.17067634
90556000,7.6866064,-12.426549,-49.811844,0.53390795,-0.6002685,-0.03553935,-1.3381953,3.0,0.03534314,0.0,0.0,0.0,nan,0.17051548
90756000,7.766442,-12.486601,-49.8184,0.26357105,-0.00026844442,-0.03165724,-1.3642273,3.0,0.0010101497,0.0,0.0,0.0,nan,0.16743624
90956000,7.791611,-12.436782,-49.824146,0.011448549,0.5467237,-0.03121148,-1.3996035,3.0,0.0036441982,0.0,0.0,0.0,nan,0.15324898
91156000,7.7706366,-12.28943,-49.82971,-0.24564056,1.0876696,-0.030262038,-1.4506524,3.0,0.006664008,0.0,0.0,0.0,nan,0.13997625
91356000,7.701749,-12.043091,-49.835075,-0.51692677,1.628235,-0.028793063,-1.5354702,3.0,0.008482665,0.0,0.0,0.0,nan,0.13145201
91556000,7.5815706,-11.695949,-49.840183,-0.80132973,2.1757762,-0.027244862,-1.579447,3.0,0.008482665,0.0,0.0,0.0,nan,0.12191663
91756000,7.4071646,-11.245256,-49.84504,-1.0982133,2.7272997,-0.025585974,-1.650629,3.0,0.01020202,0.0,0.0,0.0,nan,0.0
91956000,7.1752167,-10.690514,-49.849583,-1.410721,3.2547896,-0.023462057,-1.6972692,2.5314338,0.011712879,0.0,-4.0,0.0,nan,0.0
92156000,6.8832936,-10.045258,-49.85375,-1.7261401,3.6566226,-0.021282295,-1.6377764,1.7870343,0.011712879,4.0,-4.0,0.0,nan,0.0
92356000,6.5358424,-9.333808,-49.857525,-1.9626416,3.9210644,-0.01908968,-0.8889878,1.0382457,0.011712879,4.0,-4.0,0.0,nan,0.0
92556000,6.154314,-8.58196,-49.860916,-2.0717123,4.045621,-0.016861979,-0.22668308,0.2854864,0.012320131,4.0,-4.0,0.0,nan,0.0
92756000,5.7621984,-7.814739,-49.86389,-2.0428503,4.027902,-0.014527357,0.5313024,-0.47249907,0.012320131,4.0,-4.0,0.0,nan,0.0
92956000,5.3858185,-7.059333,-49.86644,-1.8914837,3.8649035,-0.0121763125,0.88192976,-1.2358173,0.012320131,0.0,-4.0,0.0,nan,0.0
93156000,5.0383935,-6.3428335,-49.86856,-1.7154646,3.5528069,-0.009804137,0.9397713,-2.0059955,0.012320131,0.0,-4.0,0.0,nan,0.0
93356000,4.7200766,-5.688941,-49.87026,-1.525064,3.08181,-0.007385023,0.9938594,-2.7914135,0.012320131,0.0,-4.0,0.0,nan,0.0
93556000,4.4353666,-5.1315856,-49.871494,-1.3201704,2.487248,-0.004920995,1.0503745,-3.0,0.012320131,0.0,0.0,0.0,nan,0.0
93756000,4.192809,-4.6941357,-49.872242,-1.1033261,1.8872474,-0.0029343602,1.1135753,-3.0,-9.647012e-05,0.0,0.0,0.0,nan,-0.0011600181
93956000,3.9949763,-4.3766856,-49.872814,-0.87243754,1.2872474,-0.002918466,1.1905777,-3.0,0.00022765994,0.0,0.0,0.0,nan,-0.018159417
94156000,3.8449683,-4.179211,-49.873386,-0.6245833,0.68939036,-0.00283709,1.2829018,-2.8751147,0.00056120753,0.0,4.0,0.0,nan,-0.04405328
94356000,3.7465394,-4.094396,-49.873943,-0.3557651,0.1823226,-0.0026807422,1.4024826,-2.1732564,0.00097438693,0.0,4.0,0.0,nan,-0.0909388
94556000,3.7052827,-4.09538,-49.874443,-0.06308559,-0.16770865,-0.0024425255,1.5057372,-1.4151711,0.0013559759,-4.0,4.0,0.0,nan,-0.14393778
94756000,3.714737,-4.145365,-49.87487,0.14480218,-0.35910267,-0.00219317,0.7772659,-0.6866998,0.0014424622,-4.0,4.0,0.0,nan,-0.06791703
94956000,3.7509587,-4.2200007,-49.875256,0.2202011,-0.41760123,-0.0018978181,0.030837238,0.05972886,0.0016478002,-4.0,4.0,0.0,nan,0.011619786
95156000,3.790034,-4.294293,-49.875587,0.17861612,-0.337732,-0.001563165,-0.28930214,0.5590172,0.0018393397,0.0,-4.0,0.0,nan,0.07837271
95356000,3.819638,-4.3523006,-49.875862,0.12880099,-0.26529616,-0.0011989811,-0.10591559,0.19121435,0.0018565059,0.0,-4.0,0.0,nan,0.061334938
95556000,3.8440254,-4.40176,-49.876087,0.115086704,-0.23105587,-0.0010648036,-0.07810714,0.13353372,0.0005303323,0.0,-4.0,0.0,nan,0.0313558
95756000,3.8650002,-4.4445996,-49.876278,0.083833426,-0.18150821,-0.000727803,-0.28690588,0.57750183,0.00222034,0.0,4.0,0.0,1.5225133,-0.44542435
95956000,3.8777056,-4.467372,-49.87641,0.06344424,-0.059991837,-0.0006456156,0.25709414,0.2895018,-0.000447087,4.0,-4.0,0.0,1.3654336,-0.6541067
96156000,3.8996196,-4.4789143,-49.87655,0.1644387,-0.08209148,-0.00073503307,0.56374335,-0.5104983,-0.000447087,0.0,-4.0,0.0,1.2941087,-0.41706842
96356000,nan,nan,nan,nan,nan,-0.00068528426,-0.06917588,-0.33539626,nan,nan,nan,nan,nan,nan
96556000,nan,nan,nan,nan,nan,-0.0006203911,-0.09927424,-0.32775083,nan,nan,nan,nan,nan,nan
96756000,nan,nan,nan,nan,nan,-0.0005616429,-0.117465675,-0.32167962,nan,nan,nan,nan,nan,nan
96956000,nan,nan,nan,nan,nan,-0.000508458,-0.1279491,-0.31765547,nan,nan,nan,nan,nan,nan
97156000,nan,nan,nan,nan,nan,-0.00046030944,-0.13365719,-0.31529626,nan,nan,nan,nan,nan,nan
97356000,nan,nan,nan,nan,nan,-0.00041672034,-0.1363926,-0.31412262,nan,nan,nan,nan,nan,nan
97556000,nan,nan,nan,nan,nan,-0.00037725887,-0.137054,-0.3138346,nan,nan,nan,nan,nan,nan
97756000,nan,nan,nan,nan,nan,-0.00034153424,-0.13629358,-0.31416562,nan,nan,nan,nan,nan,nan
97956000,nan,nan,nan,nan,nan,-0.00030919255,-0.1345262,-0.31492645,nan,nan,nan,nan,nan,nan
98156000,nan,nan,nan,nan,nan,-0.00027991345,-0.13185509,-0.3160541,nan,nan,nan,nan,nan,nan
98356000,nan,nan,nan,nan,nan,-0.00025340696,-0.12853315,-0.3174196,nan,nan,nan,nan,nan,nan
98556000,nan,nan,nan,nan,nan,-0.00022941052,-0.12501861,-0.3188202,nan,nan,nan,nan,nan,nan
98756000,nan,nan,nan,nan,nan,-0.00020768642,-0.12134682,-0.32023573,nan,nan,nan,nan,nan,nan
98956000,nan,nan,nan,nan,nan,-0.00018801949,-0.117662914,-0.32160753,nan,nan,nan,nan,nan,nan
99156000,nan,nan,nan,nan,nan,-0.00017021493,-0.11415108,-0.32287073,nan,nan,nan,nan,nan,nan
99356000,nan,nan,nan,nan,nan,-0.00015409637,-0.1107361,-0.32405785,nan,nan,nan,nan,nan,nan
99556000,nan,nan,nan,nan,nan,-0.00013950419,-0.10756303,-0.32512483,nan,nan,nan,nan,nan,nan
99636000,nan,nan,nan,nan,nan,-0.00013406185,-0.10638425,-0.32551247,nan,nan,nan,nan,nan,nan
226820000,nan,nan,nan,nan,nan,0.05010278,0.07475123,0.33419788,nan,nan,nan,nan,nan,nan
226836000,nan,nan,nan,nan,nan,0.04970514,0.07481951,0.3341826,nan,nan,nan,nan,nan,nan
227020000,nan,nan,nan,nan,nan,0.045358285,0.07531624,0.33407095,nan,nan,nan,nan,nan,nan
227220000,nan,nan,nan,nan,nan,0.041063074,0.07543325,0.33404458,nan,nan,nan,nan,nan,nan
227420000,nan,nan,nan,nan,nan,0.037174594,0.07531688,0.33407086,nan,nan,nan,nan,nan,nan
227620000,nan,nan,nan,nan,nan,0.033654336,0.074974954,0.33414775,nan,nan,nan,nan,nan,nan
227820000,nan,nan,nan,nan,nan,0.030467426,0.07452457,0.33424848,nan,nan,nan,nan,nan,nan
228020000,nan,nan,nan,nan,nan,0.027582303,0.07387953,0.33439165,nan,nan,nan,nan,nan,nan
228220000,nan,nan,nan,nan,nan,0.024970388,0.073300175,0.33451912,nan,nan,nan,nan,nan,nan
228420000,nan,nan,nan,nan,nan,0.022605808,0.072510034,0.3346913,nan,nan,nan,nan,nan,nan
