timestamp,timestamp_sample,xyz[0],xyz[1],xyz[2]
3564000,3564000,0.002070298,0.0012944243,5.2308897e-05
3568000,3568000,-0.0005138203,0.00088047935,-0.00032524415
3572000,3572000,-0.0016761785,0.0003142928,-0.00023144709
3576000,3576000,-0.0017888081,-0.0006074862,0.00011252947
3580000,3580000,-0.001216882,-0.0002450708,0.00028871873
3584000,3584000,1.531004e-05,0.0017291179,0.00035111478
3588000,3588000,0.00055422913,0.0026268386,0.00019371905
3592000,3592000,0.00052307267,0.0008677317,4.139622e-05
3596000,3596000,0.000704916,-0.0009435861,0.00041236146
3600000,3600000,0.0012041314,-0.00043664422,0.0006687631
3604000,3604000,0.0013218598,0.0013555426,0.0003137488
3608000,3608000,0.0010808342,0.0024790675,-5.1095838e-05
3612000,3612000,0.0006624368,0.0021272053,-0.000144415
3616000,3616000,-0.000304945,8.809578e-05,-0.0003936307
3620000,3620000,-0.0005671906,-0.002111118,-0.0006921233
3624000,3624000,-2.9656163e-05,-0.0018749367,-0.00045799717
3628000,3628000,7.022977e-05,-0.00017960949,0.00014596543
3632000,3632000,0.00014071724,0.0006904593,0.0003683194
3636000,3636000,-2.6980022e-05,0.00071798684,-6.833278e-05
3640000,3640000,0.00017633432,0.0010187052,-0.0005722529
3644000,3644000,0.0014723607,0.0028858802,-0.0006454114
3648000,3648000,0.0024928274,0.004242086,-0.00038158125
3652000,3652000,0.0028729076,0.0029915245,6.1609455e-05
3656000,3656000,0.0023649726,0.0015016504,0.00029243247
3660000,3660000,0.0010020239,0.00074789446,0.00027357016
3664000,3664000,0.00085681514,0.00041215093,0.00029555568
3668000,3668000,0.0019540854,0.0011704527,-5.64721e-05
3672000,3672000,0.0019464779,0.0014286144,-0.00057689555
3676000,3676000,0.0011960579,9.2366245e-05,-0.00040382604
3680000,3680000,0.0008092921,-0.0004111242,0.00024612615
3684000,3684000,3.377616e-05,0.00051765225,0.00051474647
3688000,3688000,-0.00075816736,0.0002156393,3.561273e-05
3692000,3692000,0.00011750162,-0.0009510851,-0.00060137286
3696000,3696000,0.002276994,0.00020976303,-0.0009388731
3700000,3700000,0.0025634305,0.0020355866,-0.001128465
3704000,3704000,0.00068689504,0.0019908627,-0.00067514036
3708000,3708000,-7.84935e-05,0.0015945968,0.00029612592
3712000,3712000,-0.00031407145,0.0006093378,0.0008954121
3716000,3716000,-0.0017993061,-0.0008238693,0.00080478267
3720000,3720000,-0.0018228849,-0.0007844211,0.00037602143
3724000,3724000,0.00031299144,0.0003020504,0.00011117817
3728000,3728000,0.0016376618,0.0002078828,-0.00035459473
3732000,3732000,0.002075592,-5.4612858e-05,-0.000945094
3736000,3736000,0.0016037561,-0.0009284499,-0.00088165246
3740000,3740000,0.00015074667,-0.0010232003,-0.0005662371
3744000,3744000,-0.0008152737,6.436746e-05,-0.00049443875
3748000,3748000,-0.0010268092,0.0008833929,-0.000247192
3752000,3752000,-0.00042701286,0.00043122092,5.5501587e-05
3756000,3756000,0.0011681034,-0.00012454166,-5.15238e-05
3764000,3764000,0.011783723,0.00075424847,-0.00012214805
3768000,3768000,0.010624452,0.0012467362,0.00039807335
3772000,3772000,0.010364509,7.203198e-07,0.0012498625
3776000,3776000,0.0108347675,-0.0014604918,0.0012608186
3780000,3780000,0.012151084,-0.002398202,0.000490168
3784000,3784000,0.0137552945,-0.0031620152,0.000256644
3788000,3788000,0.013380062,-0.0026538025,1.7076e-05
3792000,3792000,0.011524871,-0.0020426742,-0.00017632412
3796000,3796000,0.011084744,-0.0019997319,9.352379e-05
3800000,3800000,0.01090738,-0.0012782675,0.0005111181
3804000,3804000,0.009354884,-0.00027787033,0.00047896832
3808000,3808000,0.008944113,2.7599803e-05,0.00047377814
3812000,3812000,0.010790909,-0.00040072808,0.0004772896
3816000,3816000,0.0106582735,-0.00042040786,0.00032952364
3820000,3820000,0.009645032,-6.1998726e-05,7.4634418e-06
3824000,3824000,0.011602034,0.00046715618,-7.780546e-05
3828000,3828000,0.012877558,0.001044245,4.0540046e-05
3832000,3832000,0.011918103,0.0002456804,-4.5441207e-05
3836000,3836000,0.011224183,-0.0007042361,-0.00041210986
3840000,3840000,0.009854341,-0.00053464813,-0.000516644
3844000,3844000,0.007811851,-0.00033856175,-0.00024630208
3848000,3848000,0.008017217,0.00051944004,0.00015059032
3852000,3852000,0.0097365985,0.0013100206,0.0004282917
3856000,3856000,0.010872894,0.00089753524,0.0007722087
3860000,3860000,0.011245954,-6.7376386e-05,0.0012228204
3864000,3864000,0.010717489,-0.0006794899,0.001021343
3872000,3872000,0.010112191,0.00019442065,-0.00034666652
3876000,3876000,0.010839423,2.7341506e-05,-0.00015410052
3884000,3884000,0.0115456795,0.0008931103,0.00072475144
3888000,3888000,0.01213055,0.00082583487,0.00053717033
3892000,3892000,0.011623142,0.0013707993,-8.49299e-05
3896000,3896000,0.010094122,0.0016961051,-0.0005558173
3900000,3900000,0.009916572,0.0019114456,-0.0006329362
3908000,3908000,0.0114855645,-0.0002618555,-0.00016954115
3912000,3912000,0.011604624,-0.0015792823,-0.0002298052
3916000,3916000,0.011254396,-0.0018527587,-5.05404e-05
3920000,3920000,0.010719977,-0.0007462842,0.00015094788
3924000,3924000,0.010040726,0.0010662449,0.00031855708
3928000,3928000,0.009862616,0.0016957263,0.0004158699
3932000,3932000,0.011337549,0.00095709355,0.00032148845
3936000,3936000,0.012898725,0.00037492928,0.0005125668
3940000,3940000,0.012207599,0.0005093886,0.0007929746
3944000,3944000,0.010956688,0.0006871578,0.00095728086
3948000,3948000,0.010793137,0.0009735491,0.0007812649
3952000,3952000,0.010214227,0.000470316,0.0005264356
3956000,3956000,0.010303537,0.00011262458,8.835325e-05
3960000,3960000,0.012080329,0.00083036436,-0.00015142447
3964000,3964000,0.013038208,0.001034263,0.00028140142
3968000,3968000,0.011486416,0.0013994264,0.00067463884
3972000,3972000,0.009724022,0.002590362,0.00045126313
3976000,3976000,0.01096488,0.0031568988,-0.0001585208
3980000,3980000,0.012888099,0.0020131639,-0.0007080912
3984000,3984000,0.012115757,0.0003205015,-0.0002516953
3988000,3988000,0.009792283,0.00022509234,0.00046499405
3992000,3992000,0.008233762,0.0016739648,0.0009793703
3996000,3996000,0.009752831,0.0027808244,0.0013207683
4004000,4004000,0.014528414,-0.0019225617,0.001019486
4008000,4008000,0.011807461,-0.001829395,0.00066382985
4012000,4012000,0.008022558,0.00046769177,5.5632765e-05
4016000,4016000,0.008190104,0.0028067925,-0.0003267005
4020000,4020000,0.011408836,0.0031871255,-9.764205e-05
4024000,4024000,0.0130207725,0.001599851,0.00022501952
4028000,4028000,0.01152003,0.00074638217,0.00038598498
4032000,4032000,0.010014115,0.0007780447,0.00011112797
4036000,4036000,0.010816614,0.00041709043,-0.00067082426
4040000,4040000,0.012057243,2.9818504e-05,-0.0009531211
4044000,4044000,0.011909582,0.00010584213,-0.0005262645
4048000,4048000,0.011119909,0.00069527933,0.00012312233
4052000,4052000,0.010429363,0.0021042302,0.00035065168
4056000,4056000,0.0096035525,0.0034311719,0.00025625457
4060000,4060000,0.009041838,0.0034438183,4.3521595e-05
4064000,4064000,0.009358183,0.0016395304,-0.00042863144
4068000,4068000,0.01072376,-0.00089068874,-0.001040799
4076000,4076000,0.011922283,0.0004992034,-0.00016504929
4080000,4080000,0.010745797,0.00090378226,9.9751705e-05
4084000,4084000,0.009798525,0.0006492768,9.934458e-05
4088000,4088000,0.009881419,0.0002493907,0.00045215475
4092000,4092000,0.009418433,0.0010339799,0.00069158996
4096000,4096000,0.008862322,0.0021342915,0.00033069184
4100000,4100000,0.009164267,0.0017194175,-0.00029196093
4104000,4104000,0.00980955,0.0012487442,-0.00068070064
4108000,4108000,0.010201494,0.0022722208,-0.0007806127
4112000,4112000,0.009663089,0.0029419062,-0.00038994904
4116000,4116000,0.008224082,0.001913616,-0.00033192622
4120000,4120000,0.0071759555,0.0010253126,-0.00028704118
4124000,4124000,0.008238441,0.00051180663,-7.027459e-05
4128000,4128000,0.00994354,-0.00093248754,-0.00025834443
4132000,4132000,0.011247615,-0.0017797318,-0.00016043715
4136000,4136000,0.011965246,-0.00024010811,0.0005769264
4140000,4140000,0.011628556,0.0018304447,0.0009951992
4144000,4144000,0.011377356,0.0028468214,0.0007202662
4148000,4148000,0.010388914,0.0029955765,-0.00042128688
4152000,4152000,0.009193859,0.0019279522,-0.0012400055
4156000,4156000,0.010081736,0.00033948635,-0.0009144457
4160000,4160000,0.010825336,-0.00025399734,-9.183288e-05
4164000,4164000,0.010036354,0.00044238698,0.00014754164
4168000,4168000,0.009170417,0.00086552656,5.2860745e-05
4172000,4172000,0.0089336615,0.0009910093,0.00015389532
4176000,4176000,0.010513521,0.0014152953,0.00045535914
4180000,4180000,0.012335053,0.001405082,0.00027229218
4184000,4184000,0.012124199,0.0011900666,5.860351e-05
4188000,4188000,0.010781606,0.001129455,9.515332e-05
4192000,4192000,0.009465171,0.0012739552,9.969536e-05
4196000,4196000,0.009200423,0.0011181387,-0.0001712588
4200000,4200000,0.010401996,0.00013330806,-0.0002510855
4204000,4204000,0.011888981,-0.0007328178,-0.00033208143
4212000,4212000,0.010200448,0.0008208973,-0.000740321
4216000,4216000,0.0101262,0.0013603006,-0.00015256555
4220000,4220000,0.009244373,0.002227757,0.00035431102
4224000,4224000,0.0069649993,0.0022985768,0.00048201228
4228000,4228000,0.0071504423,-2.12976e-06,0.0005349435
4232000,4232000,0.010357369,-0.00073784037,0.00071955466
4236000,4236000,0.012487742,0.0016491519,0.0007689718
4240000,4240000,0.01186223,0.0024200543,0.00041738673
4244000,4244000,0.0101026455,0.0016701291,0.00017757686
4248000,4248000,0.008360922,0.0019891176,0.00046181932
4252000,4252000,0.008189344,0.0020950756,0.00061301823
4256000,4256000,0.01004778,0.0013163916,0.0009280368
4260000,4260000,0.012718857,-5.6564517e-05,0.0012481794
4264000,4264000,0.01441398,-0.00080337323,0.0010866914
4268000,4268000,0.014028257,-0.00051017955,0.0009100237
4272000,4272000,0.012778476,7.658324e-05,0.0008774653
4276000,4276000,0.012029889,0.0006641834,0.0005252464
4280000,4280000,0.011751901,-7.669945e-05,0.00033419052
4284000,4284000,0.0105315745,-0.00062658393,0.0001246409
4288000,4288000,0.008427847,0.0012732685,-0.00032556054
4292000,4292000,0.00831722,0.0030569732,-0.00059205695
4296000,4296000,0.010798611,0.0024778862,-0.00021571347
4300000,4300000,0.012797575,0.000570884,0.0005708943
4304000,4304000,0.012552793,-0.00059109926,0.0012554064
4308000,4308000,0.011097539,-0.00036076168,0.0008926149
4312000,4312000,0.009091514,6.3048734e-05,-0.0001692596
4316000,4316000,0.0076985024,0.0007714098,-0.000902202
4320000,4320000,0.008311286,0.0012594592,-0.0009971389
4324000,4324000,0.010104605,0.0008467816,-0.00080707803
4328000,4328000,0.010692636,0.0012293364,-0.00051308086
4332000,4332000,0.00934576,0.0025867012,-0.00038073072
4336000,4336000,0.008421513,0.0035511106,-0.00044583002
4340000,4340000,0.010096396,0.0030103545,-0.000438774
4344000,4344000,0.012831288,0.00017600111,1.32657215e-05
4348000,4348000,0.012479898,-0.0023642336,0.00042431467
4352000,4352000,0.009882094,-0.0014221842,0.00042171768
4356000,4356000,0.008178309,0.0006257557,-8.4838946e-05
4360000,4360000,0.007968545,0.0006184683,-0.0006154783
4364000,4364000,0.009567184,-0.00018883441,-0.00071649154
4368000,4368000,0.011210576,0.0005099423,-0.0006291661
4372000,4372000,0.012443372,0.0026245408,-0.000716173
4376000,4376000,0.013715882,0.0033100424,-0.00069222157
4380000,4380000,0.012506718,0.0012372846,-0.00013923374
4384000,4384000,0.009786389,-0.0006172807,0.00045879395
4388000,4388000,0.008459146,-0.00041146562,2.7133776e-05
4392000,4392000,0.008619571,0.0004429542,-0.00071319763
4396000,4396000,0.01034717,0.00091310963,-0.0008430522
4400000,4400000,0.012357904,0.0007635616,-0.0006035956
4404000,4404000,0.011409543,0.0005885913,-0.00032386952
4408000,4408000,0.008764561,0.001119328,-3.5665686e-05
4412000,4412000,0.008046366,0.0016615122,0.00011137717
4416000,4416000,0.008884382,0.0013548883,-3.832847e-05
4420000,4420000,0.009518435,0.00087161956,-9.5325755e-05
4424000,4424000,0.009643474,0.00045294882,0.0003510351
4428000,4428000,0.00949447,0.000455685,0.0008735009
4432000,4432000,0.009971966,0.0009593295,0.0009109909
4436000,4436000,0.0114782415,0.00018642185,0.00047124107
4440000,4440000,0.011756048,-0.00059016165,0.00027939913
4444000,4444000,0.010565758,0.00027530635,0.00030528416
4448000,4448000,0.010867289,0.0016442344,0.00010914046
4452000,4452000,0.0118983425,0.0025732866,-4.813255e-05
4456000,4456000,0.011030602,0.002175277,3.3610206e-05
4460000,4460000,0.009066021,0.0010892734,2.596507e-05
4464000,4464000,0.00802344,0.0009338341,-2.2974136e-05
4468000,4468000,0.008465006,0.0012849626,-0.00031135642
4472000,4472000,0.008220488,0.0011091469,-0.0006725087
4476000,4476000,0.0070925406,0.00088440854,-0.000106930616
4480000,4480000,0.008373053,0.00061446714,0.0008387469
4484000,4484000,0.01081217,0.00029096275,0.0008978126
4488000,4488000,0.011818298,0.0005707183,0.00057859765
4492000,4492000,0.011428524,0.0012019925,0.00030861478
4496000,4496000,0.010040045,0.0019599362,-8.5256215e-05
4500000,4500000,0.009213428,0.0018118613,-0.00036574304
4508000,4508000,0.010114555,-0.00032600504,-0.0004362657
4512000,4512000,0.009524099,-0.00013372058,-0.00036062198
4516000,4516000,0.0080358405,0.00071804866,7.860294e-05
4520000,4520000,0.008349418,0.0016645937,0.00042722296
4524000,4524000,0.009020195,0.0026198355,0.00016589352
4528000,4528000,0.0088163745,0.0022985379,-0.00040405095
4532000,4532000,0.009769851,0.0007433953,-0.0004861341
4536000,4536000,0.011018529,0.00027000712,0.00017318306
4540000,4540000,0.0119068045,0.0010250176,0.0008503561
4548000,4548000,0.008397223,0.0011329097,0.00059377024
4552000,4552000,0.006861453,-0.00019251031,4.9225968e-05
4556000,4556000,0.0087193865,-0.00021581724,-0.00016097196
4560000,4560000,0.010515559,0.0001259229,3.1424956e-05
4564000,4564000,0.011798771,-8.024843e-05,0.0002373299
4568000,4568000,0.01365532,0.00039089768,0.00040035634
4572000,4572000,0.014150649,0.0013802405,0.00047289146
4576000,4576000,0.01253809,0.0014957135,0.0005618503
4580000,4580000,0.011014827,0.000312641,0.0006452722
4584000,4584000,0.01091762,-0.00020494082,0.00060760684
4588000,4588000,0.011046389,0.000669839,0.0003833557
4592000,4592000,0.0104281055,0.0011512928,0.00010739967
4596000,4596000,0.009496105,0.0013962501,-0.00029003804
4600000,4600000,0.009474092,0.0019947686,-0.00072056166
4604000,4604000,0.00950625,0.0024028553,-0.00082987867
4608000,4608000,0.009565834,0.0022743791,-0.000757366
4612000,4612000,0.010835309,0.001980295,-0.0006526847
4616000,4616000,0.010230999,0.0016733097,-0.00035068914
4620000,4620000,0.0077208923,0.00087145664,-0.00023356306
4628000,4628000,0.010795788,-0.00062135974,-0.0006245714
4632000,4632000,0.012160704,0.00036371566,-5.0018018e-05
4636000,4636000,0.01203531,0.0020179094,0.00030686968
4640000,4640000,0.012072009,0.002208929,1.0136224e-06
4644000,4644000,0.011659446,0.0008959015,-0.00022045025
4648000,4648000,0.009596266,-0.00046049687,0.0001288484
4652000,4652000,0.008078761,-0.00079210935,0.0007308211
4656000,4656000,0.008482913,0.00033496425,0.00092041737
4660000,4660000,0.00881225,0.0013539932,0.0006368731
4664000,4664000,0.009614146,0.0015276573,0.00038529548
4668000,4668000,0.011455012,0.0012471469,0.00017394967
4672000,4672000,0.011663338,0.0009189685,-0.00019619081
4676000,4676000,0.010180045,0.0012236822,-0.00062772766
4680000,4680000,0.009108673,0.0008810327,-0.00053466525
4684000,4684000,0.008231281,-0.00015611819,-0.0002125822
4688000,4688000,0.008128259,0.0001631545,-0.00023085515
4692000,4692000,0.009655021,0.0008294526,-0.00014856245
4696000,4696000,0.010605433,0.00015996426,0.00023110594
4700000,4700000,0.009655315,-9.557788e-05,0.0003060545
4708000,4708000,0.009611235,0.0022602314,-0.0002530617
4712000,4712000,0.011088583,0.0022844495,-0.00043760307
4716000,4716000,0.012004433,0.0020809404,-0.0006751492
4720000,4720000,0.010844679,0.0023848987,-0.0007250557
4724000,4724000,0.009455816,0.0021056873,-0.0006712374
4728000,4728000,0.00985117,0.0012743068,-0.0010843555
4732000,4732000,0.009421059,-0.0001929584,-0.0014755939
4736000,4736000,0.008695157,-0.0010288442,-0.0012323202
4740000,4740000,0.010336981,0.00014587946,-0.000650098
4744000,4744000,0.011446435,0.0017090307,-0.00051178783
4748000,4748000,0.010527465,0.002518793,-0.0010044726
4756000,4756000,0.009836236,0.0019122098,-0.0006136579
4760000,4760000,0.010692114,0.000672946,-0.0003063751
4764000,4764000,0.010676874,-0.000118769356,-0.00031132935
4768000,4768000,0.009983143,-4.04194e-05,-0.001010601
4772000,4772000,0.009235859,0.0017170301,-0.0017973261
4776000,4776000,0.009440727,0.0030587262,-0.001316815
4780000,4780000,0.010250816,0.0013510362,-0.00027941243
4784000,4784000,0.010736592,-0.0008340736,-5.3500637e-05
4788000,4788000,0.010682317,-0.00065600424,-0.0003524479
4792000,4792000,0.010016898,0.00081379944,-0.00026633652
4796000,4796000,0.009574555,0.0018783393,-3.622698e-06
4800000,4800000,0.009716753,0.0021026512,-7.008219e-05
4804000,4804000,0.010789585,0.0012780963,-0.0004942298
4812000,4812000,0.009382153,0.0002860019,-0.0016778922
4816000,4816000,0.008375172,0.0011288375,-0.0017072818
4820000,4820000,0.008347265,0.0027288818,-0.0016633229
4824000,4824000,0.008200895,0.0036164704,-0.0010535812
4828000,4828000,0.0097074285,0.0029364254,0.00013953472
4832000,4832000,0.010831389,0.0021263512,0.0008129213
4836000,4836000,0.010626224,0.0012392254,0.00077878934
4840000,4840000,0.0112361545,0.00040791155,2.962134e-06
4844000,4844000,0.012140375,0.00032525358,-0.0010515462
4848000,4848000,0.012027879,4.0884188e-05,-0.0010345493
4852000,4852000,0.011244721,4.3476117e-05,-0.00034284286
4860000,4860000,0.010652644,0.00043525142,-0.0005619441
4864000,4864000,0.010684508,-0.00038755307,-0.00029754717
4868000,4868000,0.009586869,0.0003029129,0.00080167735
4872000,4872000,0.008427074,0.0011754383,0.0017595871
4876000,4876000,0.009086198,0.001142167,0.0014123054
4880000,4880000,0.010004531,0.0012788385,0.00031690474
4884000,4884000,0.010397457,0.0012681724,-0.0004135441
4888000,4888000,0.010880818,0.0001423019,-0.00061155984
4892000,4892000,0.010700942,-0.0006531297,-0.00044354826
4896000,4896000,0.010835612,5.51822e-05,-0.00015444717
4900000,4900000,0.012144535,0.0010161978,-0.00018906254
4904000,4904000,0.012103262,0.0019770842,-0.0005939649
4908000,4908000,0.010149882,0.0026928,-0.00080190925
4912000,4912000,0.008666156,0.0013617207,-0.000867721
4916000,4916000,0.009021649,-0.00079310534,-0.001197939
4920000,4920000,0.010443398,-0.00065114745,-0.0013182862
4924000,4924000,0.010778805,0.00074950623,-0.0010835227
4928000,4928000,0.010158803,0.00043146245,-0.00086908555
4932000,4932000,0.009666676,-0.00069715455,-0.00059767114
4936000,4936000,0.009188775,-0.0011425824,-0.0002738594
4940000,4940000,0.009309881,-0.0014779267,-0.00044676542
4944000,4944000,0.009736564,-0.0008351613,-0.0009084639
4948000,4948000,0.009966805,0.001280264,-0.0003607035
4952000,4952000,0.010479011,0.002656526,0.0010164919
4956000,4956000,0.010270168,0.0027522035,0.0013600751
4960000,4960000,0.009148237,0.0026158448,0.0006433206
4964000,4964000,0.008443162,0.0017010833,0.00021945126
4968000,4968000,0.009848154,0.00022316264,0.0004334521
4972000,4972000,0.011730963,-0.001048653,0.00042460617
4976000,4976000,0.009866294,-0.001228213,0.00024080339
4980000,4980000,0.00711257,-0.00024481275,0.00028851707
4984000,4984000,0.0061028404,0.00063767866,0.00023895009
4988000,4988000,0.005437479,0.0015451276,-0.00011370969
4992000,4992000,0.0063613723,0.0024223635,-0.00022204964
4996000,4996000,0.008816894,0.0025834758,0.00011391714
5000000,5000000,0.009599653,0.0027440381,0.0009295769
5004000,5004000,0.008775027,0.0023169196,0.001571052
5008000,5008000,0.009404375,0.00036061037,0.0013190247
5012000,5012000,0.010443712,-0.0017048968,0.00032532215
5016000,5016000,0.011061308,-0.0017304844,3.2689247e-06
5020000,5020000,0.011148574,4.352737e-05,0.0002885329
5024000,5024000,0.009514921,0.0007933206,0.00034085236
5028000,5028000,0.0074121053,-0.00026176748,2.7275895e-05
5032000,5032000,0.0060822475,-0.00085825415,-0.0001733152
5036000,5036000,0.006984226,0.00041892135,0.00019562965
5040000,5040000,0.009019158,0.0016902762,0.0006503229
5044000,5044000,0.009881457,0.001405674,0.00026684735
5048000,5048000,0.00999701,0.0010132411,-0.0004948009
5052000,5052000,0.009537854,0.0009876414,-0.00040942366
5056000,5056000,0.008489472,0.0004629883,0.0004519567
5060000,5060000,0.0069157244,0.00012394408,0.0007962359
5068000,5068000,0.008904842,0.00051578594,-0.00016120919
5072000,5072000,0.011049734,0.0006923224,-0.00032835727
5076000,5076000,0.011867945,0.001195834,-0.00021177999
5080000,5080000,0.0117514795,0.0011117792,-0.00021556512
5084000,5084000,0.010600003,0.0006842007,-0.00031099323
5088000,5088000,0.008241009,0.00017308193,-0.00043708642
5092000,5092000,0.007886185,0.00026660622,-0.00031061604
5096000,5096000,0.008720734,0.0012636356,8.2477745e-05
5100000,5100000,0.0072118905,0.0015354934,0.000228666
5104000,5104000,0.006496757,0.0007891852,0.00013024533
5108000,5108000,0.008451085,0.00033450424,5.706706e-05
5112000,5112000,0.009080253,0.0004311966,-3.096285e-05
5116000,5116000,0.008123812,0.000974558,-3.8829145e-05
5120000,5120000,0.00900272,0.0009155509,0.00041154755
5124000,5124000,0.011533737,-0.00019133074,0.00081446255
5128000,5128000,0.0131899,-0.0016280077,0.00055636076
5132000,5132000,0.013085154,-0.0023184095,0.0003740031
5136000,5136000,0.011128136,-0.001080586,0.0005972972
5140000,5140000,0.008538235,0.0009678082,0.00092002517
5144000,5144000,0.0076886257,0.0016096863,0.00086285005
5148000,5148000,0.008004397,0.0005278799,8.09823e-05
5152000,5152000,0.007777334,0.00080821913,-0.0008355205
5156000,5156000,0.007896082,0.001551738,-0.0011551712
5160000,5160000,0.009195974,0.00047295922,-0.0011135677
5164000,5164000,0.010654479,0.00033928978,-0.0008668135
5168000,5168000,0.010760025,0.001135995,-0.00011080189
5172000,5172000,0.010474539,0.00076214585,0.00054636644
5176000,5176000,0.011046689,-0.00012505485,0.0003493525
5180000,5180000,0.0103312945,-0.00042628095,-0.00025632733
5184000,5184000,0.00871957,-0.0005114829,-0.0006200598
5188000,5188000,0.008091208,-0.0010271238,-0.00032930388
5192000,5192000,0.008235211,-0.0008050067,0.0007833936
5196000,5196000,0.009346701,0.0011463079,0.0019431083
5204000,5204000,0.01026873,0.0013425677,0.00045196648
5208000,5208000,0.00925191,-0.0006857098,-0.0007955722
5212000,5212000,0.0075772046,-0.0015446785,-0.0007521674
5216000,5216000,0.0063428236,-0.00041312946,8.077543e-05
5220000,5220000,0.0065453327,0.0012367466,0.0007086794
5224000,5224000,0.00797559,0.0007282121,0.00084715843
5228000,5228000,0.009914978,-0.0007244816,0.00025723275
5232000,5232000,0.011121573,-0.0008494229,-0.0004011333
5236000,5236000,0.010635329,-0.00057645515,-0.0003766961
5244000,5244000,0.008604779,0.00043999057,0.00046433508
5248000,5248000,0.0083927205,0.0010883118,0.00048924854
5252000,5252000,0.009651053,0.0010465744,0.00047781164
5256000,5256000,0.011591844,0.0005365578,0.0007770348
5260000,5260000,0.009974732,0.00035672425,0.0008611825
5268000,5268000,0.006332698,0.0010652698,0.00048111062
5272000,5272000,0.00938635,0.0014506242,0.00036010728
5276000,5276000,0.010139334,0.0016626448,0.00032850314
5284000,5284000,0.009375711,0.0009267386,2.1863329e-05
5288000,5288000,0.0112814875,7.116306e-05,0.00031622572
5292000,5292000,0.010838077,-0.0010498817,0.00038823797
5300000,5300000,0.008029097,-0.00054946,0.00027563368
5308000,5308000,0.009751334,5.417216e-06,-0.00025189755
5316000,5316000,0.011719401,0.0006910366,0.0004048868
5320000,5320000,0.011213,0.0014883913,9.66965e-05
5324000,5324000,0.010100523,0.0011117242,-0.00011241657
5328000,5328000,0.007855521,-0.0006002772,4.8592363e-05
5332000,5332000,0.006675864,-0.0011563648,0.00039549507
5336000,5336000,0.008998685,0.0005988182,0.00074501144
5344000,5344000,0.010663745,0.00081114867,0.00082156825
5348000,5348000,0.009904992,0.00080569705,0.00061050477
5352000,5352000,0.010317326,0.0006712639,7.430142e-05
5356000,5356000,0.010939471,0.0003567441,-0.00024808085
5360000,5360000,0.01015208,0.0009002747,-0.00028830903
5364000,5364000,0.008629858,0.0013443995,-0.0003618608
5368000,5368000,0.0078964615,0.0019645123,-0.0006172801
5372000,5372000,0.00788765,0.0022092485,-0.00077639427
5376000,5376000,0.008601972,0.0017113348,-0.0005668869
5380000,5380000,0.01050863,0.00089011295,2.0125319e-05
5388000,5388000,0.01006071,-0.00018203392,0.00090202916
5392000,5392000,0.0091829505,0.00034221154,0.0005636173
5396000,5396000,0.00968072,0.0003692882,0.000596198
5400000,5400000,0.009942423,0.00043918265,0.0007822377
5404000,5404000,0.008996949,0.0015684085,0.00048881164
5408000,5408000,0.007831203,0.0019444809,0.00024659664
5412000,5412000,0.007626426,0.0010680337,0.0003670381
5416000,5416000,0.008169881,0.00029220153,0.00052031496
5420000,5420000,0.010051425,-0.00036971847,0.00064621714
5424000,5424000,0.0118309045,-0.00024623322,0.00017627692
5428000,5428000,0.011302439,0.001337086,-0.0011178311
5432000,5432000,0.010654877,0.002582068,-0.0018041007
5436000,5436000,0.011267949,0.0011642098,-0.0015029985
5440000,5440000,0.010844749,-0.0015311707,-0.0010086693
5444000,5444000,0.009182177,-0.0018456004,-0.0008035539
5448000,5448000,0.007882149,0.00015591277,-0.0010792847
5452000,5452000,0.006562436,0.002199757,-0.00091504166
5456000,5456000,0.0060206866,0.0027408097,-0.0003264574
5460000,5460000,0.007164524,0.001901278,-5.909583e-05
5464000,5464000,0.008344407,0.0016263707,0.00043196484
5468000,5468000,0.008958251,0.0017476674,0.0012548257
5472000,5472000,0.009847288,0.00096101733,0.0018188332
5476000,5476000,0.0106301205,-0.00032291323,0.0016045014
5480000,5480000,0.010861803,-0.0006467558,0.00077822007
5484000,5484000,0.010918352,0.00016758838,0.0001894607
5488000,5488000,0.009960719,0.0009802978,-6.97741e-05
5492000,5492000,0.008116693,0.0010888324,-0.00017268017
5496000,5496000,0.00674894,0.00094919174,0.00023615081
5500000,5500000,0.006611132,0.00082518335,0.0008726205
5504000,5504000,0.007712249,0.00040978618,0.0013330238
5508000,5508000,0.009111093,0.0005557128,0.0010645052
5512000,5512000,0.009883298,0.0010280435,4.082925e-05
5516000,5516000,0.009110684,0.0009906421,-0.00094758574
5524000,5524000,0.008178913,-0.0015762189,-0.0008618518
5528000,5528000,0.0091940565,-0.0011912666,-0.0009503022
5532000,5532000,0.010493499,0.0012628867,-0.00158471
5536000,5536000,0.011887947,0.0039582523,-0.0018711158
5540000,5540000,0.011920518,0.0048641283,-0.0013964617
5544000,5544000,0.011315621,0.0030874887,-0.00092223566
5548000,5548000,0.010155017,0.00045448408,-0.0007534621
5552000,5552000,0.0078016752,-0.0007779076,-0.00056403526
5556000,5556000,0.007248644,-0.00019765325,-0.00029467623
5564000,5564000,0.006929516,0.00046436922,7.7011726e-05
5568000,5568000,0.005634503,-5.975872e-05,0.0005187485
5572000,5572000,0.007587731,0.0013357175,0.00068987324
5576000,5576000,0.009949211,0.0026131459,0.0006092409
5580000,5580000,0.01029814,0.0013322766,0.00034228805
5584000,5584000,0.010002184,-0.00013315887,-0.00014382099
5588000,5588000,0.009797252,0.00065920857,-0.00075942633
5592000,5592000,0.009050989,0.0016132207,-0.0011992052
5596000,5596000,0.007984605,0.0007190766,-0.0013425618
5600000,5600000,0.0071493885,-0.00032413547,-0.0009598415
5604000,5604000,0.0072476366,-2.2649998e-05,-9.842181e-05
5608000,5608000,0.008844051,0.0007404742,0.00038129662
5612000,5612000,0.010335639,0.0009453541,0.00023742873
5616000,5616000,0.009207266,0.00044245954,-3.883492e-05
5620000,5620000,0.0073429337,0.00024426158,-9.5439485e-05
5624000,5624000,0.007968747,0.0008685972,-8.092613e-05
5628000,5628000,0.009128019,0.0014907082,-4.630214e-05
5632000,5632000,0.009475993,0.0011455179,-5.9434376e-05
5636000,5636000,0.010206266,0.00056516833,-0.00039025024
5640000,5640000,0.0109637035,0.0004157868,-0.0008878273
5644000,5644000,0.011229258,0.00033963216,-0.0011728363
5648000,5648000,0.0102645,0.0009634283,-0.00087026594
5652000,5652000,0.009514824,0.0015592512,-0.00042862538
5656000,5656000,0.009993248,0.0016391512,-0.00027828335
5660000,5660000,0.010112623,0.0011573763,-3.7783117e-05
5664000,5664000,0.009590674,0.000113369024,0.00024151351
5668000,5668000,0.008546635,0.00034313955,0.00046279418
5676000,5676000,0.008964728,0.00023195843,9.165727e-05
5684000,5684000,0.009292764,0.00034903162,-0.00022097847
5688000,5688000,0.008277622,-0.00011879686,-1.1060736e-05
5696000,5696000,0.009331913,-0.00062001485,-0.00029385625
5700000,5700000,0.011245586,0.0005366319,-0.0009276894
5704000,5704000,0.010934377,0.0013547272,-0.000791907
5708000,5708000,0.0077260835,0.0007492192,-6.669833e-05
5712000,5712000,0.006271887,-9.018548e-05,0.00029014223
5720000,5720000,0.0087735355,0.001058162,3.676333e-05
5724000,5724000,0.008232186,0.00092540914,-0.00010749367
5728000,5728000,0.007990149,0.00018825677,-0.00050325954
5732000,5732000,0.007605753,-1.9845436e-05,-0.00095841306
5736000,5736000,0.00714973,0.0006545457,-0.0009416095
5740000,5740000,0.007058398,0.0013617623,-0.00050337444
5744000,5744000,0.007767495,0.0010361243,-6.0712493e-05
5748000,5748000,0.009342938,5.376397e-05,0.00010159604
5756000,5756000,0.009344539,-0.0021201964,0.0001098241
5760000,5760000,0.009425855,-0.0011644782,2.8849988e-06
5764000,5764000,0.010495297,0.0016166267,-0.00035830546
5768000,5768000,0.009558415,0.002816193,-0.0006029946
5772000,5772000,0.00839068,0.002470129,-0.00033676517
5780000,5780000,0.010245881,0.0009191411,7.601227e-05
5784000,5784000,0.009521223,-0.00020977546,-0.00029258008
5788000,5788000,0.008564544,5.3018128e-05,-0.00055049395
5792000,5792000,0.00806721,0.00050105597,-0.0003801295
5796000,5796000,0.0076243305,0.00043027778,0.00020615445
5800000,5800000,0.008108077,0.0007113813,0.0011462782
5804000,5804000,0.0100876875,0.0007871316,0.0015708285
5808000,5808000,0.011839243,-0.0003451978,0.0011623005
5812000,5812000,0.012051613,-0.0006057071,0.0006347936
5816000,5816000,0.010334283,-0.00017133166,0.00040611374
5820000,5820000,0.00830163,-0.0001686473,0.00015924757
5824000,5824000,0.008658527,0.00039721534,-0.00023350406
5828000,5828000,0.01064104,0.00045034575,-0.00025070374
5832000,5832000,0.010867345,0.00055121037,0.000108068474
5836000,5836000,0.008960654,0.001201808,0.0002480067
5840000,5840000,0.007196806,0.0005832509,0.00013219654
5844000,5844000,0.00810762,-0.00019498449,1.47206565e-05
5848000,5848000,0.010941491,0.00016386583,0.00018535944
5852000,5852000,0.012099006,0.00014923805,0.00023743171
5856000,5856000,0.011554468,-0.0004888623,-0.00014200062
5860000,5860000,0.010382738,-0.0007947144,-0.00047890312
5864000,5864000,0.00953597,-0.00063706253,-0.00042195324
5868000,5868000,0.009864878,-0.00011386144,0.00010887766
5872000,5872000,0.009984583,-8.13299e-05,0.00044986853
5876000,5876000,0.008679218,-0.0011200464,0.0003283925
5884000,5884000,0.009161577,-0.00065885443,-0.00024026849
5888000,5888000,0.009506762,9.576383e-06,-0.00010713358
5892000,5892000,0.009635103,0.0005013811,0.00057086186
5896000,5896000,0.00982581,0.0011486632,0.0009328538
5900000,5900000,0.011133746,0.0018298944,0.00087578036
5908000,5908000,0.011816217,0.0014157146,-0.00023756565
5912000,5912000,0.008893223,0.0005955214,-3.207124e-05
5916000,5916000,0.0070213964,7.641656e-05,0.00028058526
5920000,5920000,0.008051761,0.00015368423,0.0003147332
5924000,5924000,0.009485688,-0.00024793856,0.000284039
5928000,5928000,0.00991504,-0.00022797057,0.00047776825
5932000,5932000,0.010221115,0.00075007405,0.0007681451
5936000,5936000,0.010046743,0.00047458013,0.0007350663
5940000,5940000,0.009749081,-0.0008169582,0.0001950987
5948000,5948000,0.008793882,-0.000147463,-0.000992685
5952000,5952000,0.008911331,0.00068601425,-0.00048951426
5956000,5956000,0.010053407,0.0011909987,0.00026066363
5960000,5960000,0.010806581,0.0006393347,0.00050766696
5964000,5964000,0.010687288,4.3129403e-05,0.00026495717
5968000,5968000,0.009704677,0.00058585673,-0.00029756836
5972000,5972000,0.008715478,0.0013759639,-0.0010548427
5980000,5980000,0.011323854,0.000324702,-0.000105559295
5984000,5984000,0.011989692,-0.00021310692,0.00039495513
5988000,5988000,0.010735738,-0.00045372007,0.00043566918
5992000,5992000,0.00947585,-0.001737663,0.0006523728
5996000,5996000,0.009801436,-0.0027644474,0.00085463695
6000000,6000000,0.010658165,-0.0007240089,0.00046740766
6004000,6004000,0.010768704,0.0014717134,-0.00013207567
6008000,6008000,0.009180546,0.0017249698,-0.00012032725
6012000,6012000,0.007141021,0.0024982535,0.00022384139
6016000,6016000,0.006615365,0.0036695423,0.00042380995
6020000,6020000,0.007703341,0.0026464183,0.0005899695
6024000,6024000,0.0086567355,0.00052065396,0.0007209179
6028000,6028000,0.008025416,-0.00013356394,0.00060481665
6032000,6032000,0.0077305473,7.789355e-05,0.00022280018
6036000,6036000,0.008620183,0.0006678612,4.5207646e-05
6040000,6040000,0.009807695,0.0011400233,0.00025024076
6044000,6044000,0.009566548,0.0011793057,0.00058366725
6048000,6048000,0.008505565,0.0011550798,0.001040418
6052000,6052000,0.0095065795,0.00045098914,0.0008577394
6056000,6056000,0.010188995,-0.00035182288,-8.5029904e-05
6060000,6060000,0.0084039215,-0.000610356,-0.0007253055
6064000,6064000,0.0070355185,-0.00025065267,-0.00056409946
6068000,6068000,0.008439077,0.0007039944,-4.52283e-05
6072000,6072000,0.010571523,0.00039325812,0.00013931443
6076000,6076000,0.010810546,-0.0014639891,3.1073257e-06
6080000,6080000,0.009845867,-0.0019056172,2.5310363e-05
6084000,6084000,0.008896097,-0.001137543,0.00025659235
6088000,6088000,0.00791598,-0.00071147375,0.00072290417
6092000,6092000,0.0071773473,0.0006108823,0.000950717
6096000,6096000,0.008329459,0.0017686851,0.00023878308
6104000,6104000,0.010823783,-0.0006865478,-0.0005768138
6108000,6108000,0.009900735,0.00042292522,-0.00029691984
6112000,6112000,0.009147929,0.00085381395,-0.00027696957
6116000,6116000,0.007940201,-0.00013276943,-0.000118343
6120000,6120000,0.0073838066,0.00011586622,0.0002626704
6124000,6124000,0.009012317,0.0012905775,0.00048676637
6132000,6132000,0.012547886,-0.00052877364,-7.484898e-05
6136000,6136000,0.012247428,-6.461853e-05,-0.00022006039
6140000,6140000,0.011429494,0.0003591886,-0.00044413522
6148000,6148000,0.012052938,0.00079761154,-0.0005154017
6152000,6152000,0.011450724,0.00074565713,-0.00036767827
6156000,6156000,0.009808962,0.0004883568,-0.0005890279
6160000,6160000,0.0083895,0.00040806519,-0.00068779645
6164000,6164000,0.008191243,-0.00018257432,-0.0005995888
6168000,6168000,0.009287158,-0.0006243153,-0.00052033237
6172000,6172000,0.009753534,-0.00076645945,-0.00036043383
6176000,6176000,0.008768813,-0.000478863,-0.000122077
6180000,6180000,0.008042645,-7.547433e-05,3.1477393e-06
6184000,6184000,0.008458446,0.00023532077,-0.00016301646
6192000,6192000,0.009695981,0.002613985,-0.00034886383
6196000,6196000,0.0078016585,0.0022632335,-0.0006769072
6200000,6200000,0.0077991104,0.000565382,-0.00047389205
6204000,6204000,0.0109792305,-0.000922474,0.0002814533
6208000,6208000,0.011484691,-0.0012489285,0.00039601512
6212000,6212000,0.009166131,0.0005692343,-0.00021789722
6216000,6216000,0.008366948,0.0027445974,-0.0006290817
6220000,6220000,0.009836036,0.002155274,-0.00075269095
6224000,6224000,0.010558922,-0.00032298424,-0.00079166715
6228000,6228000,0.008931975,-0.0023248896,-0.0009391983
6232000,6232000,0.007453364,-0.0020774368,-0.0012540572
6236000,6236000,0.00713847,-0.00020582424,-0.0012345829
6240000,6240000,0.0077343555,0.0005005314,-0.0009666121
6244000,6244000,0.008999563,-0.00011937821,-0.0005897029
6248000,6248000,0.010391354,-0.00013391163,-0.000120529694
6252000,6252000,0.011028323,0.0007790857,0.000121562894
6256000,6256000,0.01010796,0.0012862304,6.311908e-05
6260000,6260000,0.009460377,0.0013520487,0.0001496017
6264000,6264000,0.010227274,0.0008278855,0.00034845356
6268000,6268000,0.0109959245,-0.00012753063,0.00046056695
6272000,6272000,0.010466813,0.00062544935,0.00070441706
6276000,6276000,0.009671575,0.0021119835,0.0008687686
6280000,6280000,0.008496267,0.0015034919,0.00070750853
6284000,6284000,0.006310237,-0.00060608843,0.0003293961
6292000,6292000,0.007972734,-0.0017253248,9.919237e-05
6296000,6296000,0.009360332,2.9326475e-06,0.00025147537
6300000,6300000,0.010038267,0.0017595175,0.00019149929
6304000,6304000,0.010844082,0.0010352071,-0.0001663066
6308000,6308000,0.010647941,-0.0017746505,-0.00042769357
6312000,6312000,0.008573366,-0.002279369,-0.00020239284
6316000,6316000,0.0068421415,0.00040127267,-7.1595394e-05
6320000,6320000,0.008729432,0.0022678426,-0.000355586
6324000,6324000,0.012073294,0.0012550114,-0.0003012349
6328000,6328000,0.012876598,-0.0008273597,8.726001e-05
6332000,6332000,0.011550251,-0.002278991,0.0005268633
6336000,6336000,0.009428715,-0.0022727635,0.00097331934
6340000,6340000,0.00743004,-0.00053863565,0.00121916
6344000,6344000,0.006431967,0.0013495416,0.001130122
6348000,6348000,0.0072828196,0.0023605644,0.00049405143
6352000,6352000,0.009987276,0.0020927966,-0.00020653095
6356000,6356000,0.011228451,0.00057601894,-0.00034721647
6360000,6360000,0.009622908,-0.0009724393,-0.00034721775
6364000,6364000,0.008628753,-0.0017815467,-0.00056435633
6368000,6368000,0.007955695,-0.000996903,-8.701061e-05
6372000,6372000,0.006958686,0.00082010066,0.001276753
6376000,6376000,0.0071102427,0.001361569,0.0021510525
6380000,6380000,0.007835476,0.00097254163,0.0018206768
6388000,6388000,0.008811618,0.0017598057,0.00032388346
6392000,6392000,0.009493741,0.0010816336,-0.00027968496
6396000,6396000,0.009671531,0.00080429926,-0.0010266906
6400000,6400000,0.008830959,0.0008346968,-0.0016593799
6404000,6404000,0.008490332,-0.000280287,-0.0014638188
6408000,6408000,0.008768385,-0.0013838712,-0.00068070006
6412000,6412000,0.008978868,-0.0010353698,0.00021370927
6420000,6420000,0.0061944425,-0.00050175836,0.00049945904
6424000,6424000,0.0064329742,-1.4256804e-05,-6.0948918e-05
6428000,6428000,0.00873352,1.12434045e-05,-0.0002499302
6432000,6432000,0.009399403,-0.00036616012,-0.0003809351
6436000,6436000,0.0078122495,-9.3131e-05,-0.00036486905
6440000,6440000,0.007284077,0.0010655292,-0.00038086547
6444000,6444000,0.008130063,0.00292585,-0.0006447159
6448000,6448000,0.008674919,0.0038772954,-0.0003869024
6456000,6456000,0.009064832,0.00054274173,-0.0009495223
6460000,6460000,0.0064731417,-0.0010527197,-0.0017027071
6464000,6464000,0.005395152,-0.001176412,-0.0011945366
6468000,6468000,0.007096952,-0.0013000385,-0.00018073221
6472000,6472000,0.00936722,-0.0015589916,0.0003028259
6476000,6476000,0.01001333,-0.00065178785,0.0002771511
6480000,6480000,0.009495464,0.000728757,0.00014431438
6484000,6484000,0.008632178,0.0010535467,-0.0002251782
6488000,6488000,0.008495678,0.0010512839,-0.0006201532
6496000,6496000,0.010555065,0.0012741646,-0.000733277
6500000,6500000,0.008736822,0.00072557374,-0.00063552556
6504000,6504000,0.0074470006,0.0009927015,-0.00024588066
6508000,6508000,0.008874927,0.0022732634,2.6754966e-05
6512000,6512000,0.010504908,0.0012913367,0.00020443481
6516000,6516000,0.00953098,-0.0006180829,0.0002515884
6520000,6520000,0.0075591425,-0.0009420528,2.8294811e-05
6524000,6524000,0.006485729,-0.00037255185,-0.00020442296
6528000,6528000,0.00722038,0.00050279044,-0.0002064973
6532000,6532000,0.009112605,-0.00022732075,-0.00024499948
6536000,6536000,0.00995189,-0.0014078545,-0.00045448611
6540000,6540000,0.009214757,-0.0013641012,-0.000558917
6544000,6544000,0.008182212,-0.00062356144,-0.00020311434
6548000,6548000,0.0070012487,0.0010164265,7.450173e-06
6552000,6552000,0.006634474,0.0019456088,-0.0005965842
6556000,6556000,0.007971298,0.0012702523,-0.0011870465
6560000,6560000,0.00948036,-0.00015760705,-0.0009664455
6564000,6564000,0.009722037,-0.0016179688,-0.0003475064
6568000,6568000,0.008248632,-0.001508462,0.00012886173
6572000,6572000,0.0072890734,0.00020809364,0.0005757064
6576000,6576000,0.008400929,0.001568774,0.0008212914
6580000,6580000,0.009199972,0.0024728542,0.000651401
6588000,6588000,0.008416557,0.0018338519,-0.0002003731
6592000,6592000,0.008601731,0.0014330876,-0.00013337449
6596000,6596000,0.0082775345,0.0007113526,0.00030001957
6600000,6600000,0.007983955,-0.0014604883,0.0003296167
6604000,6604000,0.008219027,-0.002279114,4.538166e-05
6608000,6608000,0.007652963,-0.0005712171,-2.5573941e-05
6612000,6612000,0.007161283,0.0009965432,0.00027817494
6616000,6616000,0.0070967874,0.00032372566,0.00068658905
6620000,6620000,0.0074351216,-0.0006199191,0.00070119085
6624000,6624000,0.0086340215,-0.00037182408,0.0005755191
6628000,6628000,0.009623165,1.8724986e-06,0.00063812785
6632000,6632000,0.009854139,0.00045907148,0.0006257586
6636000,6636000,0.009224171,-8.173694e-06,0.00028578346
6640000,6640000,0.008353722,-0.0012804652,-0.00024717246
6644000,6644000,0.008779842,-0.0013213365,-0.0010204536
6648000,6648000,0.009943921,-0.00035702405,-0.001658778
6652000,6652000,0.0093290685,-0.0004077787,-0.0014515751
6656000,6656000,0.0075372886,-0.0007617646,-0.00067066675
6660000,6660000,0.007493661,0.00059887674,0.00027322883
6664000,6664000,0.008514386,0.0011545836,0.0009669563
6668000,6668000,0.008429274,0.00018723754,0.00094369537
6672000,6672000,0.007900164,0.00039387355,0.00059991813
6676000,6676000,0.008347521,0.00089428463,0.0006477926
6680000,6680000,0.009285845,0.0006259094,0.00074881944
6684000,6684000,0.009040148,0.0003855944,0.00051860494
6688000,6688000,0.00808701,-0.0003100958,0.00039787023
6692000,6692000,0.0071616382,-0.00041846183,0.00046770563
6696000,6696000,0.006091142,0.0010494903,0.00048706154
6700000,6700000,0.0059797703,0.0015729216,0.00038425802
6704000,6704000,0.0068887714,0.0004434583,0.00028311345
6708000,6708000,0.008148213,-0.00041126285,0.00029913662
6712000,6712000,0.009066205,-0.00076859,0.00040089554
6716000,6716000,0.008673856,-0.00057395315,0.00037042607
6720000,6720000,0.00786676,-7.1282775e-05,0.00020223761
6724000,6724000,0.008436155,-0.00017646591,3.052381e-05
6728000,6728000,0.009618722,-0.00065494794,-0.000102033366
6732000,6732000,0.00923377,-0.0006521186,-0.00036459166
6740000,6740000,0.0043960987,0.00016242989,-0.0013381147
6744000,6744000,0.003997705,-0.0004907532,-0.00134902
6748000,6748000,0.004834935,-0.00022325417,-0.0007328074
6752000,6752000,0.0064534764,0.0009908748,0.00029562876
6756000,6756000,0.0078543965,0.0008340889,0.0010638514
6760000,6760000,0.008630337,-0.0015006736,0.00026530656
6764000,6764000,0.008747547,-0.0014797563,-0.001133243
6768000,6768000,0.007483789,0.0014087731,-0.0010937275
6772000,6772000,0.006505484,0.0014618622,-0.00023471443
6776000,6776000,0.007611424,-0.001157454,0.00013783058
6780000,6780000,0.009621649,-0.002032482,-0.00019878206
6784000,6784000,0.010288975,-0.00029138057,-0.00024291837
6788000,6788000,0.008455689,0.0009408747,0.00056014536
6792000,6792000,0.006767807,0.00030116364,0.0010228413
6796000,6796000,0.007473496,0.00017294586,0.0006605582
6800000,6800000,0.007195925,0.00075119984,-0.0001591625
6804000,6804000,0.0050463732,0.001175088,-0.0007861989
6812000,6812000,0.007286951,0.0011907569,-0.0013472334
6816000,6816000,0.008751623,0.0006576777,-0.0014802085
6820000,6820000,0.009165127,-0.00043230073,-0.0010345238
6824000,6824000,0.008896234,-0.00063542684,-0.00024680022
6828000,6828000,0.008611188,-0.00017051928,0.0005635687
6832000,6832000,0.0079227565,-0.00047382805,0.0006163118
6836000,6836000,0.0067228796,0.00019755555,7.52794e-05
6840000,6840000,0.0051471735,0.0014116996,-0.0002367788
6844000,6844000,0.004656245,0.0007381771,-3.3947763e-05
6848000,6848000,0.005621362,-0.00026687846,0.0004325248
6852000,6852000,0.006464601,-0.0006642529,0.00044764517
6860000,6860000,0.009521459,-0.0018066082,-0.00056258676
6864000,6864000,0.008837328,-4.0653424e-05,-0.0007684769
6868000,6868000,0.008175995,0.0018684117,-0.00069368817
6872000,6872000,0.008431683,0.0015358855,-0.0003794011
6876000,6876000,0.008520836,-0.0003094577,-0.00011737518
6880000,6880000,0.007964322,-0.00080767024,0.00019175271
6884000,6884000,0.007341867,0.00070799416,0.0006464822
6888000,6888000,0.0074517136,0.0018093444,0.00072346476
6892000,6892000,0.008159578,0.0007927151,9.307343e-05
6896000,6896000,0.008790052,-0.00052474346,-0.0003468398
6900000,6900000,0.008334187,-0.0004728054,0.00010327802
6904000,6904000,0.006089051,0.00012952491,0.00036545433
6908000,6908000,0.004048894,0.00031895452,-3.754399e-05
6912000,6912000,0.00409052,-0.00071929256,-3.7640228e-05
6916000,6916000,0.00490369,-0.0018272756,0.00019049886
6924000,6924000,0.009139081,0.00026611937,-0.00065902097
6928000,6928000,0.007964532,0.001179314,-0.00019983585
6932000,6932000,0.0060590175,0.0014840093,0.00062292157
6936000,6936000,0.0064414977,0.00074398785,0.0010890363
6940000,6940000,0.008690003,-0.0008257186,0.0011306307
6944000,6944000,0.010449601,-0.0015315831,0.00083178526
6948000,6948000,0.009596547,-0.0010974095,1.996871e-05
6952000,6952000,0.00722291,0.00014255618,-0.00087917905
6956000,6956000,0.0056505296,0.0005323149,-0.0010995241
6960000,6960000,0.006041268,-0.00053907826,-0.000712893
6964000,6964000,0.0075014634,-0.00054327433,-0.00022868696
6968000,6968000,0.007751466,0.00035217192,-4.284269e-05
6972000,6972000,0.007272115,0.0006722216,-0.00031329758
6976000,6976000,0.00734316,0.00026752413,-0.00064034737
6980000,6980000,0.006604556,-0.00035107357,-0.0004783766
6984000,6984000,0.0059535285,0.00016549035,5.0285566e-05
6988000,6988000,0.006720272,0.0011047262,0.0005913434
6992000,6992000,0.007975402,0.0008402034,0.0011593393
6996000,6996000,0.008998088,-0.00037951555,0.0014671759
7004000,7004000,0.007169449,0.00012860354,0.00064997014
7008000,7008000,0.007697785,0.0014273527,0.00014432172
7012000,7012000,0.007904468,0.00030792784,-0.0003163096
7016000,7016000,0.0075972537,-0.00047034945,-0.000406955
7020000,7020000,0.0069091236,0.0005784258,0.000114634684
7024000,7024000,0.0055956594,0.0009958324,0.00095327914
7032000,7032000,0.00620715,-0.00134106,0.00040585911
7036000,7036000,0.0071576945,-0.0011387351,1.5940957e-05
7040000,7040000,0.007637637,-0.00014656375,3.243681e-05
7044000,7044000,0.0083921235,0.00014555176,-4.4711283e-05
7048000,7048000,0.00894365,-0.0007905233,-0.00050217175
7052000,7052000,0.008240594,-0.0011002816,-0.00070446933
7056000,7056000,0.006977747,0.0001270761,-0.00056755857
7060000,7060000,0.0051176227,0.0008482924,-0.00041932348
7064000,7064000,0.0035949657,0.00033965343,-0.00048342958
7068000,7068000,0.005091831,0.0008886774,-0.000871976
7072000,7072000,0.008008376,0.0023739547,-0.0008743683
7076000,7076000,0.009744763,0.002295942,-0.00018099975
7080000,7080000,0.010192657,0.000100149104,0.0003456898
7084000,7084000,0.010282977,-0.0021688323,6.139527e-05
7088000,7088000,0.010691365,-0.001613552,-0.0005109582
7092000,7092000,0.0099305045,0.0006253208,-0.00064533285
7096000,7096000,0.007997556,0.0021473647,-0.00030670068
7100000,7100000,0.0060347607,0.002651003,0.00017559578
7104000,7104000,0.004926193,0.002825542,0.00025851923
7108000,7108000,0.0062065795,0.0027337554,-2.8310838e-05
7112000,7112000,0.0076064942,0.00057295314,-5.2841595e-05
7116000,7116000,0.0074612265,-0.0017800466,0.0004044855
7120000,7120000,0.007101176,-0.0014029193,0.00066251133
7124000,7124000,0.0073373523,-0.0005042894,0.00012443154
7128000,7128000,0.008306326,-0.00027745162,-0.0006082783
7132000,7132000,0.008804394,0.0006801295,-0.000850686
7136000,7136000,0.008088867,0.0010373499,-0.00032995117
7140000,7140000,0.0077453465,0.0005247741,0.00049307797
7144000,7144000,0.007894868,0.00025064358,0.00091281114
7148000,7148000,0.007370035,0.0003751343,0.0008279712
7152000,7152000,0.0072920853,0.00094464805,0.00023936639
7156000,7156000,0.008273236,0.0002834673,-0.00036566454
7160000,7160000,0.008307565,-0.0014511456,-0.00036940954
7164000,7164000,0.00712384,-0.0022699218,-6.4570344e-07
7168000,7168000,0.0068191444,-0.0010777309,0.00030937677
7172000,7172000,0.008037634,0.0012478114,0.00085762417
7176000,7176000,0.009034193,0.0017776047,0.0014958121
7180000,7180000,0.007875908,0.00086139515,0.0009763711
7188000,7188000,0.007223831,0.0002762936,-0.0004302505
7192000,7192000,0.0065177437,-0.00021588286,-0.00016620627
7196000,7196000,0.0048877145,0.00046092088,0.00015341518
7200000,7200000,0.0048152152,0.0016324916,0.0001763236
7204000,7204000,0.006297838,0.0020872885,-0.0001113778
7208000,7208000,0.0075476943,0.0013592688,-0.00033695422
7212000,7212000,0.0074509643,6.625056e-05,-0.0003873656
7216000,7216000,0.0068605505,-0.000834106,-0.00017926193
7220000,7220000,0.006999047,-0.0014410978,0.00034945802
7224000,7224000,0.0083108265,-0.001092156,0.00068390684
7228000,7228000,0.009632692,0.00021427798,0.00055630185
7236000,7236000,0.00921043,0.0015408117,0.00032327892
7240000,7240000,0.009927965,0.0009515439,-0.0001393144
7244000,7244000,0.009251282,7.4795564e-05,-5.598468e-05
7248000,7248000,0.006837809,-0.00082127587,0.00024545268
7252000,7252000,0.006780135,-8.1910955e-05,0.00045923554
7256000,7256000,0.008946416,0.0011177012,0.00074445055
7260000,7260000,0.009541064,0.0006279471,0.0008794895
7268000,7268000,0.009914376,0.00035447697,0.00020558188
7276000,7276000,0.0076070884,0.0012959109,0.0003794875
7280000,7280000,0.0060424,4.6326517e-05,0.00084298005
7284000,7284000,0.0055731637,-0.0015656063,0.0010000872
7288000,7288000,0.0057429792,-0.00093729165,0.0011717508
7292000,7292000,0.006233811,0.0008162831,0.0010346028
7296000,7296000,0.0066319155,0.0008791552,0.0005878704
7300000,7300000,0.0076751225,-0.00044674813,0.0007137419
7304000,7304000,0.009084938,-0.001365495,0.0010496224
7308000,7308000,0.008895149,-0.0018424727,0.0009557013
7312000,7312000,0.0069167754,-0.0016006734,0.00059899274
7316000,7316000,0.0052409056,0.00041302806,0.00012110694
7320000,7320000,0.005208737,0.0021208015,5.3852575e-05
7324000,7324000,0.006382241,0.0021639229,0.00065855705
7328000,7328000,0.007399225,0.0018948312,0.0011394409
7332000,7332000,0.007755154,0.0014151249,0.0011864161
7336000,7336000,0.0077479915,0.0006142733,0.0011345731
7340000,7340000,0.007870435,0.00070277555,0.00082809286
7344000,7344000,0.0087197125,0.0017613077,0.0002128901
7348000,7348000,0.008730649,0.0014257365,-0.000386637
7352000,7352000,0.008059225,-0.00012515421,-0.00059730385
7356000,7356000,0.009092231,-0.0010356307,-0.00061775785
7360000,7360000,0.010743803,-0.0014139643,-0.00058355345
7364000,7364000,0.010248865,-0.0015968784,-0.0008284583
7368000,7368000,0.008043436,-0.0020008965,-0.0012585751
7372000,7372000,0.0067080487,-0.0022503166,-0.000736348
7376000,7376000,0.0066148117,-0.0010716931,0.0002457057
7380000,7380000,0.006642753,0.0012121116,0.00085067836
7388000,7388000,0.0067277197,0.0022925152,0.0013253496
7392000,7392000,0.0067895995,0.0002929701,0.00074474537
7396000,7396000,0.008143991,-0.00080822635,0.00018803908
7400000,7400000,0.009674529,0.00034974114,-9.219564e-05
7404000,7404000,0.010330671,0.0009183709,-0.00027023887
7408000,7408000,0.010530928,3.2169846e-05,-0.0002875884
7412000,7412000,0.0094229225,-7.3359886e-05,-5.5430487e-06
7416000,7416000,0.0073452066,0.00094853353,0.00052907213
7420000,7420000,0.0060763927,0.0014052624,0.0010377979
7424000,7424000,0.0059471084,0.000720327,0.0010629363
7428000,7428000,0.005112977,-0.00021071744,0.0005999416
7432000,7432000,0.003500645,-0.0001962243,0.00035325627
7436000,7436000,0.0035188172,0.000797627,0.0003276895
7444000,7444000,0.006830341,-2.655512e-05,-2.2913891e-05
7448000,7448000,0.007837261,0.0013926728,4.874882e-05
7452000,7452000,0.0071601844,0.0018837191,0.00012791439
7456000,7456000,0.0056756972,0.0004477098,0.00016313963
7460000,7460000,0.005673582,-0.0003033159,0.00013479304
7464000,7464000,0.006795408,-0.00016137268,0.0001075961
7472000,7472000,0.00805379,-0.0006817882,0.0004581081
7476000,7476000,0.0072169215,-0.0018952687,0.000280646
7480000,7480000,0.006140612,-0.0019759955,-0.0003017691
7488000,7488000,0.0073823035,0.0006019358,-0.00035067456
7492000,7492000,0.00809721,0.00024651506,-0.00053632894
7496000,7496000,0.007929069,-0.0008262372,-0.00090256
7500000,7500000,0.007212441,-0.000680461,-0.00063311384
7504000,7504000,0.0052931397,0.0003622603,-0.00014578424
7508000,7508000,0.0049263914,0.00034071002,1.4467223e-07
7516000,7516000,0.008483918,0.001980598,-0.00024487588
7520000,7520000,0.009223846,0.0028318025,-0.0003515533
7528000,7528000,0.0070077945,0.0014979143,-0.00032765057
7532000,7532000,0.009079963,0.0003449463,-0.00026449526
7536000,7536000,0.011157921,0.00021380998,0.00014434909
7540000,7540000,0.010460768,-0.00048752787,0.000534306
7548000,7548000,0.0061310623,-6.7571076e-05,0.0002503502
7552000,7552000,0.0066740047,0.0019148748,-0.00027660208
7556000,7556000,0.007802033,0.0018062023,-0.0005075977
7560000,7560000,0.009047488,0.0011383558,-0.00049850624
7564000,7564000,0.010976697,0.0014674121,-0.00027269297
7568000,7568000,0.010103408,0.0012994115,0.00014671766
7572000,7572000,0.007459675,0.001096544,0.0005383051
7576000,7576000,0.007364859,0.00020258297,0.0005660875
7580000,7580000,0.008083614,-0.0013590788,8.396402e-05
7588000,7588000,0.006029174,0.0002690342,-0.00031061776
7596000,7596000,0.009634247,0.0013431294,-0.00041148998
7604000,7604000,0.008787994,0.0027609398,0.00021940672
7608000,7608000,0.0069761816,0.0023387694,0.00017142309
7612000,7612000,0.007534545,0.00070148974,-0.00044498118
7616000,7616000,0.00839211,-0.00016916485,-0.0006350129
7620000,7620000,0.008181246,-0.0012360978,4.292449e-05
7628000,7628000,0.0063147256,4.866626e-06,0.00070418435
7632000,7632000,0.00656905,0.002133724,0.000217853
7636000,7636000,0.008984385,0.0029498579,-1.1633218e-05
7644000,7644000,0.0080339145,0.0017567358,0.00067359995
7648000,7648000,0.004668244,0.0008523636,0.00090384384
7652000,7652000,0.0039531095,0.0009031441,0.00061716133
7656000,7656000,0.006212496,0.0004914014,0.0004313116
7660000,7660000,0.007890619,-0.00057223876,0.00015954277
7668000,7668000,0.0098485155,-0.00040062694,3.956289e-05
7672000,7672000,0.012947554,0.0010161432,0.00047161474
7676000,7676000,0.013045391,0.0023397664,0.00042991797
7680000,7680000,0.010692725,0.0021764226,0.00016407129
7684000,7684000,0.0093330275,0.0010628897,2.6203705e-05
7688000,7688000,0.008809164,-0.00017917738,9.442586e-05
7692000,7692000,0.009203686,-0.001132248,0.00039431252
7696000,7696000,0.010196433,-0.0009062417,0.000609688
7704000,7704000,0.007890683,0.00022061449,0.0010756343
7708000,7708000,0.007448915,-0.00057522516,0.0014334994
7712000,7712000,0.00762548,-0.00061561505,0.001399009
7716000,7716000,0.008181086,5.2671414e-05,0.0012085036
7724000,7724000,0.007591231,7.753404e-05,0.0005397518
7728000,7728000,0.0075533004,0.0013487621,0.00058490556
7732000,7732000,0.0074314303,0.0017938998,0.0008982547
7736000,7736000,0.007170993,0.0011134022,0.00097026257
7740000,7740000,0.0077238725,0.00076919177,0.00096578116
7744000,7744000,0.008013502,0.0005054843,0.00048998086
7748000,7748000,0.008054724,-0.0005298873,-0.00046318054
7752000,7752000,0.010027841,-0.0007426101,-0.00073270214
7756000,7756000,0.011113962,0.0010998026,-0.00029846648
7760000,7760000,0.0087458845,0.0023654073,0.00039914605
7764000,7764000,0.006340788,0.0012464826,0.001260997
7768000,7768000,0.006671559,-0.00012146571,0.0017916387
7772000,7772000,0.008384615,-0.0004727398,0.0018610655
7776000,7776000,0.00907948,-0.00048427313,0.0018502085
7780000,7780000,0.0086640725,3.2922544e-06,0.0014051694
7784000,7784000,0.008163243,0.0005349852,0.00038217692
7788000,7788000,0.007983042,0.00047381976,-0.00040399903
7792000,7792000,0.0085000815,0.00119245,-0.00038370604
7796000,7796000,0.00919505,0.0027710875,0.00010897475
7800000,7800000,0.009884758,0.0022646599,0.00077382376
7804000,7804000,0.010868255,0.00038432644,0.00091348187
7808000,7808000,0.010984607,-0.00082308956,0.0001914365
7812000,7812000,0.010584858,-0.0011777427,-0.0002508341
7816000,7816000,0.0105321,-7.085767e-05,0.00010752968
7820000,7820000,0.008893126,0.00044540036,0.00037466778
7824000,7824000,0.006067019,1.0434931e-05,0.000332354
7828000,7828000,0.00606521,-0.00019656,0.0003586013
7832000,7832000,0.008777987,-0.0006002315,0.0001449545
7836000,7836000,0.009245048,-0.00088398316,-0.00016698318
7844000,7844000,0.0061415667,-0.0004260977,-0.00038568486
7848000,7848000,0.009428547,0.0006929701,-0.0005069106
7852000,7852000,0.011910536,0.00074521336,-7.497674e-05
7856000,7856000,0.010550664,0.00021209968,0.00030912313
7860000,7860000,0.008152412,8.5169915e-05,0.00036710122
7864000,7864000,0.0079327375,8.504082e-05,0.00024719033
7868000,7868000,0.009256787,-0.00042738934,-3.7594495e-05
7872000,7872000,0.00991765,-0.00079504284,-0.00016541684
7876000,7876000,0.0099485,-0.00014580568,-0.00011886291
7880000,7880000,0.009858739,0.0014264903,-8.580142e-05
7884000,7884000,0.009465817,0.002788857,-0.0002919899
7892000,7892000,0.008275944,0.0014284306,-0.0018011561
7896000,7896000,0.00824499,0.0013236296,-0.00139746
7900000,7900000,0.008629788,0.001003123,-0.00030667608
7904000,7904000,0.0093869595,-0.00026277814,0.0005595785
7908000,7908000,0.00951208,-0.0010731759,0.00065823656
7912000,7912000,0.008622117,-0.0015901651,0.0003504108
7916000,7916000,0.008537057,-0.001989679,0.00035903475
7920000,7920000,0.0092036445,-0.00133937,0.00029750713
7924000,7924000,0.009387214,7.518273e-05,0.00027722624
7928000,7928000,0.009137737,0.0011799154,0.00053262874
7932000,7932000,0.008287803,0.0012325951,0.00020866061
7936000,7936000,0.008234124,0.00071335817,-0.0005690184
7940000,7940000,0.008649786,-0.00035135506,-0.00068011676
7944000,7944000,0.0080356,-0.0005378215,-7.262235e-05
7948000,7948000,0.00838013,0.00088762946,0.00031980345
7952000,7952000,0.010067565,0.0018450347,0.0001238257
7956000,7956000,0.011289998,0.0015600398,-0.00026568925
7960000,7960000,0.010539972,0.00039583663,-0.00029398853
7964000,7964000,0.0079249665,0.00012579659,-8.318597e-05
7968000,7968000,0.0066690026,0.0005364927,0.00024475082
7972000,7972000,0.008095276,0.00043352353,0.0006979788
7980000,7980000,0.0071596275,-0.0010158215,0.00029194084
7988000,7988000,0.007815568,-0.0017699485,0.00025704814
7992000,7992000,0.006402746,0.0003379169,0.0004795009
7996000,7996000,0.0057226494,0.0014722077,0.0008917912
8004000,8004000,0.010670209,-0.0022798306,-4.988685e-06
8008000,8008000,0.011345656,-0.0009092547,-0.0008509486
8012000,8012000,0.010058822,0.0012552164,-0.0009931478
8016000,8016000,0.008552872,0.00074299524,-0.0004168837
8020000,8020000,0.0071895346,-0.0009792034,8.400158e-05
8028000,8028000,0.0065711127,0.0017018655,0.00037592085
8032000,8032000,0.008750508,0.0022368168,0.0005562786
8036000,8036000,0.010685622,0.0005607654,0.00072787754
8040000,8040000,0.009718941,-0.0008540878,0.0009856763
8044000,8044000,0.0071103126,-0.00020060029,0.00067969685
8048000,8048000,0.0057807313,0.001335246,-0.00048703412
8052000,8052000,0.0072438093,0.0012130773,-0.0010223886
8056000,8056000,0.009552567,-0.0005040049,-0.00027931653
8060000,8060000,0.011059737,-0.0014919903,3.3214976e-05
8064000,8064000,0.011822367,-0.0011621831,-0.00039434736
8068000,8068000,0.010755286,-0.00025985154,-0.0003268521
8072000,8072000,0.009455173,0.00026631012,0.00023058825
8076000,8076000,0.009229353,0.00025564426,0.0010629864
8080000,8080000,0.008725806,9.9750076e-05,0.0016352512
8084000,8084000,0.0075260373,-0.0004516811,0.0010631797
8088000,8088000,0.007056319,-8.2009195e-05,0.00016690367
8092000,8092000,0.007820655,0.0012314668,0.00025278688
8096000,8096000,0.008249076,0.0018916811,0.0010444311
8100000,8100000,0.008564637,0.0012290135,0.0016499201
