timestamp,timestamp_sample,ref_timestamp,ref_lat,ref_lon,x,y,z,delta_xy[0],delta_xy[1],delta_z,vx,vy,vz,z_deriv,delta_vxy[0],delta_vxy[1],delta_vz,ax,ay,az,heading,delta_heading,ref_alt,dist_bottom,eph,epv,evh,evv,vxy_max,vz_max,hagl_min,hagl_max,xy_valid,z_valid,v_xy_valid,v_z_valid,xy_reset_counter,z_reset_counter,vxy_reset_counter,vz_reset_counter,heading_reset_counter,heading_good_for_control,xy_global,z_global,dist_bottom_valid,dist_bottom_sensor_bitfield,dead_reckoning
3988000,3988000,0,nan,nan,7.220717e-05,-0.0021821917,-0.008994848,-3.8265135e-08,3.9030333e-08,0.0,0.0018316027,-0.007396313,-0.028417863,-0.021996401,-6.3775224e-06,6.5050554e-06,0.0020451918,0.024692805,-0.051896688,-0.04151277,1.5721388,0.0014554263,nan,0.10857797,0.014144657,5.7735023,0.10209871,0.0263461,inf,inf,inf,inf,0,0,0,0,1,1,1,1,1,0,0,0,0,0,1
4484000,4484000,4284000,36.660767899999996,126.3420992,0.00065502827,-0.0015864949,-0.013491666,-3.8265135e-08,3.9030333e-08,0.0,0.0007478901,-0.0029595746,-0.025872251,-0.01814802,-6.3775224e-06,6.5050554e-06,0.0020451918,-0.000108659144,-0.025831737,-0.028112901,1.564548,0.0014554263,30.116634,0.11913156,0.022434102,1.4937886,0.07754608,0.06285764,inf,inf,inf,inf,0,1,0,1,1,1,1,1,1,0,1,1,0,0,1
4988000,4988000,4284000,36.660767899999996,126.3420992,0.0011575113,-0.00010769344,-0.0034821124,-3.8265135e-08,3.9030333e-08,0.0,0.0050320607,-0.0009691863,-0.027936198,-0.0061841514,-6.3775224e-06,6.5050554e-06,0.0020451918,-0.014299213,-0.08745139,-0.037706453,1.5627289,0.0014554263,30.116634,0.10157469,0.012800829,0.9533935,0.045563146,0.08915886,inf,inf,inf,inf,0,1,0,1,1,1,1,1,1,0,1,1,0,0,1
5484000,5484000,4284000,36.660767899999996,126.3420992,0.0013365608,0.00050730497,-0.007443637,-3.8265135e-08,3.9030333e-08,0.0,0.0003927329,0.00058597367,-0.026899556,-0.0075740055,-6.3775224e-06,6.5050554e-06,0.0020451918,-0.051658086,0.039180823,-0.06304494,1.5619042,0.0014554263,30.116634,0.09931584,0.015456884,0.7564444,0.051262528,0.091914676,inf,inf,inf,inf,0,1,0,1,1,1,1,1,1,0,1,1,0,0,1
5988000,5988000,4284000,36.660767899999996,126.3420992,-0.00035201103,0.0011528119,-0.013507673,-3.8265135e-08,3.9030333e-08,0.0,0.00012459842,0.00282639,-0.022685092,-0.007345317,-6.3775224e-06,6.5050554e-06,0.0020451918,0.05340767,0.0017230423,-0.03357138,1.5614387,0.0014554263,30.116634,0.10098315,0.019122547,0.63697785,0.05645297,0.09600487,inf,inf,inf,inf,0,1,0,1,1,1,1,1,1,0,1,1,0,0,1
6484000,6484000,4284000,36.660767899999996,126.3420992,0.00031869483,0.0010635752,-0.015440568,-3.8265135e-08,3.9030333e-08,0.0,0.0007686568,-0.0027965815,-0.016692935,-0.0021712494,-6.3775224e-06,6.5050554e-06,0.0020451918,0.019552745,0.05210579,0.018237157,1.5609015,0.0014554263,30.116634,0.103699364,0.013554536,0.5686552,0.044664793,0.087012224,inf,inf,inf,inf,0,1,0,1,1,1,1,1,1,0,1,1,0,0,1
6988000,6988000,4284000,36.660767899999996,126.3420992,-0.00022710153,-0.001946295,-0.014305661,-3.8265135e-08,3.9030333e-08,0.0,-0.0031059957,-0.005389779,-0.006346748,0.007187735,-6.3775224e-06,6.5050554e-06,0.0020451918,0.012635474,-0.07578635,0.028705223,1.560931,0.0014554263,30.116634,0.09934821,0.016632957,0.5203282,0.04912491,0.08691936,inf,inf,inf,inf,0,1,0,1,1,1,1,1,1,0,1,1,0,0,1
7484000,7484000,4284000,36.660767899999996,126.3420992,-0.0039188555,-0.0009988666,-0.010874196,-3.8265135e-08,3.9030333e-08,0.0,-0.013066348,0.00038841803,-0.0047621885,0.007977659,-6.3775224e-06,6.5050554e-06,0.0020451918,0.017407523,-0.00081902015,0.023810191,1.5602186,0.0014554263,30.116634,0.099566445,0.012088841,0.47937754,0.03984079,0.086010985,inf,inf,inf,inf,0,1,0,1,1,1,1,1,1,0,1,1,0,0,1
7988000,7988000,4284000,36.660767899999996,126.3420992,-0.0036320873,0.0011295896,-0.0082493285,-3.8265135e-08,3.9030333e-08,0.0,-0.006357663,0.00090984406,0.00089175906,0.010752463,-6.3775224e-06,6.5050554e-06,0.0020451918,-0.047862336,-0.04903673,0.03130268,1.5602163,0.0014554263,30.116634,0.096763946,0.014694404,0.45031965,0.043851934,0.07884746,inf,inf,inf,inf,0,1,0,1,1,1,1,1,1,0,1,1,0,0,1
8484000,8484000,4284000,36.660767899999996,126.3420992,-0.0005269972,-0.0008887457,-0.009588437,-3.8265135e-08,3.9030333e-08,0.0,-0.00013952493,-0.004614322,-0.0011336879,0.004202427,-6.3775224e-06,6.5050554e-06,0.0020451918,0.031061359,0.04309487,0.041593794,1.5599535,0.0014554263,30.116634,0.09693127,0.017513419,0.4280701,0.047678128,0.07878644,inf,inf,inf,inf,0,1,0,1,1,1,1,1,1,0,1,1,0,0,1
8988000,8988000,4284000,36.660767899999996,126.3420992,0.00017747025,0.0036514495,-0.03234746,-0.0001829405,0.0012795413,-0.013004914,-0.0025713937,0.011715538,-0.0156751,-0.014869946,-0.0013362077,0.015858341,-0.017971437,-0.07807011,0.030143913,-0.01752097,1.5601339,0.0014554263,30.116634,0.105347484,1.420095,0.8504893,0.42531574,0.44989768,inf,inf,inf,inf,1,1,1,1,2,2,2,2,1,0,1,1,0,0,0
9484000,9484000,4284000,36.660767899999996,126.3420992,0.0028947028,0.007464916,-0.03450773,-0.0001829405,0.0012795413,-0.013004914,-0.00014662993,0.010596258,-0.012481179,-0.008144584,-0.0013362077,0.015858341,-0.017971437,-0.050133422,-0.007650052,0.04375353,1.5600994,0.0014554263,30.116634,0.09996814,1.0179099,0.59538627,0.30337083,0.31680128,inf,inf,inf,inf,1,1,1,1,2,2,2,2,1,0,1,1,0,0,0
9988000,9988000,4284000,36.660767899999996,126.3420992,-0.0016071766,0.006424814,-0.034488935,-0.0001829405,0.0012795413,-0.013004914,-0.0050318083,0.009893257,-0.0076639224,0.00044511148,-0.0013362077,0.015858341,-0.017971437,-0.0018395839,0.010652485,-0.034953464,1.5600106,0.0014554263,30.116634,0.104986444,0.72398674,0.44480062,0.21739036,0.22121294,inf,inf,inf,inf,1,1,1,1,2,2,2,2,1,0,1,1,0,0,0
10484000,10484000,4284000,36.660767899999996,126.3420992,0.0028268592,0.0076027196,-0.028904906,-0.0001829405,0.0012795413,-0.013004914,-0.00030770132,0.004341728,-0.003198661,0.0071181296,-0.0013362077,0.015858341,-0.017971437,0.02410671,0.084721714,-0.103148624,1.559635,0.0014554263,30.116634,0.0998373,0.6612176,0.41060564,0.20319223,0.1962,inf,inf,inf,inf,1,1,1,1,2,2,2,2,1,0,1,1,0,0,0
10988000,10988000,4284000,36.660767899999996,126.3420992,0.008170522,0.013235808,-0.024894794,-0.0001829405,0.0012795413,-0.013004914,0.003814956,0.008124772,0.0038899088,0.013296024,-0.0013362077,0.015858341,-0.017971437,0.051365193,0.013943265,0.013221054,1.5596539,0.0014554263,30.116634,0.09946865,0.62094176,0.3955857,0.1997809,0.17816578,inf,inf,inf,inf,1,1,1,1,2,2,2,2,1,0,1,1,0,0,0
11484000,11484000,4284000,36.660767899999996,126.3420992,0.014388678,0.013709781,-0.013447604,-0.0001829405,0.0012795413,-0.013004914,0.011223753,0.0018602452,0.015613034,0.026252918,-0.0013362077,0.015858341,-0.017971437,0.05651068,9.174254e-05,0.0242535,1.559427,0.0014554263,30.116634,0.09872797,0.59497285,0.3854569,0.20418473,0.16428389,inf,inf,inf,inf,1,1,1,1,2,2,2,2,1,0,1,1,0,0,0
11988000,11988000,4284000,36.660767899999996,126.3420992,0.013625531,0.0060843765,-0.010226208,-0.0001829405,0.0012795413,-0.013004914,0.012154492,-0.008194535,0.019469721,0.019509336,-0.0013362077,0.015858341,-0.017971437,0.025174065,-0.020160498,0.008038244,1.559292,0.0014554263,30.116634,0.08680446,0.52911055,0.35164598,0.19088097,0.14288397,inf,inf,inf,inf,1,1,1,1,2,2,2,2,1,0,1,1,0,0,0
12484000,12484000,4284000,36.660767899999996,126.3420992,0.01250351,0.0026867955,-0.014759378,-0.0001829405,0.0012795413,-0.013004914,0.013421725,-0.011376222,0.015383286,0.006682642,-0.0013362077,0.015858341,-0.017971437,0.08783038,0.042164195,0.013024545,1.5591749,0.0014554263,30.116634,0.09484532,0.52294105,0.35208017,0.20196654,0.13690966,inf,inf,inf,inf,1,1,1,1,2,2,2,2,1,0,1,1,0,0,0
12988000,12988000,4284000,36.660767899999996,126.3420992,0.013946371,0.0036589755,-0.0127818845,-0.0001829405,0.0012795413,-0.013004914,0.007194942,-0.008267913,0.019860221,0.010362762,-0.0013362077,0.015858341,-0.017971437,0.033106398,0.023985887,0.0833366,1.5589865,0.0014554263,30.116634,0.09721157,0.52319866,0.35273588,0.21395032,0.13261777,inf,inf,inf,inf,1,1,1,1,2,2,2,2,1,0,1,1,0,0,0
13484000,13484000,4284000,36.660767899999996,126.3420992,0.0099027725,0.002142136,-0.014914615,-0.0001829405,0.0012795413,-0.013004914,0.0008229886,-0.0089987395,0.02040674,0.0062490487,-0.0013362077,0.015858341,-0.017971437,0.046142284,-0.007065841,0.053050924,1.5590023,0.0014554263,30.116634,0.09755419,0.5276413,0.35529825,0.22499743,0.13008241,inf,inf,inf,inf,1,1,1,1,2,2,2,2,1,0,1,1,0,0,0
13988000,13988000,4284000,36.660767899999996,126.3420992,0.0020787083,-0.00406894,-0.00851238,-0.0001829405,0.0012795413,-0.013004914,-0.00249989,-0.012074609,0.021008726,0.00852572,-0.0013362077,0.015858341,-0.017971437,0.011840271,-0.04935344,0.0058803703,1.5591341,0.0014554263,30.116634,0.091784224,0.48655188,0.33180907,0.2047762,0.12092365,inf,inf,inf,inf,1,1,1,1,2,2,2,2,1,0,1,1,0,0,0
14484000,14484000,4284000,36.660767899999996,126.3420992,0.0016596605,-0.0059261625,-0.007926306,-0.0001829405,0.0012795413,-0.013004914,0.0017677142,-0.009279054,0.024755776,0.009030416,-0.0013362077,0.015858341,-0.017971437,0.027265491,-0.04129678,0.016421078,1.5588189,0.0014554263,30.116634,0.097719975,0.49426243,0.33571324,0.2118889,0.12104997,inf,inf,inf,inf,1,1,1,1,2,2,2,2,1,0,1,1,0,0,0
14988000,14988000,4284000,36.660767899999996,126.3420992,0.005002431,-0.0050092996,-0.000109538014,-0.0001829405,0.0012795413,-0.013004914,0.0043157246,-0.0060686725,0.023309855,0.01079635,-0.0013362077,0.015858341,-0.017971437,0.0125413565,-0.0071837124,-0.013763084,1.5587189,0.0014554263,30.116634,0.09805452,0.5051489,0.34080276,0.2184369,0.12205966,inf,inf,inf,inf,1,1,1,1,2,2,2,2,1,0,1,1,0,0,0
15484000,15484000,4284000,36.660767899999996,126.3420992,0.0059045986,-0.0076131467,0.006740193,-0.0001829405,0.0012795413,-0.013004914,0.0048985085,-0.0070050927,0.028946962,0.016934168,-0.0013362077,0.015858341,-0.017971437,-0.034987647,0.01804765,0.04211347,1.558355,0.0014554263,30.116634,0.089264944,0.46751967,0.321552,0.19425991,0.115985975,inf,inf,inf,inf,1,1,1,1,2,2,2,2,1,0,1,1,0,0,0
15988000,15988000,4284000,36.660767899999996,126.3420992,0.005125444,-0.009217269,0.006511047,-0.0001829405,0.0012795413,-0.013004914,0.0048271017,-0.0077419565,0.027834702,0.009224317,-0.0013362077,0.015858341,-0.017971437,-0.008070266,-0.0065856106,-0.08919369,1.5583242,0.0014554263,30.116634,0.09386285,0.47818086,0.32594797,0.1989438,0.11768398,inf,inf,inf,inf,1,1,1,1,2,2,2,2,1,0,1,1,0,0,0
16484000,16484000,4284000,36.660767899999996,126.3420992,0.006563771,-0.007046277,0.0087313,-0.0001829405,0.0012795413,-0.013004914,0.006255517,-0.0026895022,0.030208398,0.009414519,-0.0013362077,0.015858341,-0.017971437,0.05041053,0.033299487,0.009841285,1.5577191,0.0014554263,30.116634,0.096793145,0.48925504,0.33160338,0.2028842,0.11964631,inf,inf,inf,inf,1,1,1,1,2,2,2,2,1,0,1,1,0,0,0
16988000,16988000,4284000,36.660767899999996,126.3420992,0.010543063,-0.008334609,0.017964235,-0.0001829405,0.0012795413,-0.013004914,0.010956512,-0.0059868004,0.042484164,0.023203209,-0.0013362077,0.015858341,-0.017971437,0.037168935,0.05584647,0.11128466,1.5577517,0.0014554263,30.116634,0.09677539,0.50203353,0.3367527,0.20668678,0.12154972,inf,inf,inf,inf,1,1,1,1,2,2,2,2,1,0,1,1,0,0,0
17484000,17484000,4284000,36.660767899999996,126.3420992,0.011334515,-0.011979465,0.026104182,-0.0001829405,0.0012795413,-0.013004914,0.012298486,-0.007181654,0.04469081,0.022869287,-0.0013362077,0.015858341,-0.017971437,-0.07720808,-0.0571496,0.06614066,1.5578581,0.0014554263,30.116634,0.09722007,0.51452327,0.3431062,0.20984061,0.12354719,inf,inf,inf,inf,1,1,1,1,2,2,2,2,1,0,1,1,0,0,0
17988000,17988000,4284000,36.660767899999996,126.3420992,0.009254606,-0.010108244,0.020903144,-0.0001829405,0.0012795413,-0.013004914,0.007885306,-0.0076598446,0.034628525,0.0031511448,-0.0013362077,0.015858341,-0.017971437,0.0028355133,0.003940902,0.022701917,1.5577363,0.0014554263,30.116634,0.09285413,0.47650638,0.32585764,0.18781172,0.11813334,inf,inf,inf,inf,1,1,1,1,2,2,2,2,1,0,1,1,0,0,0
18484000,18484000,4284000,36.660767899999996,126.3420992,0.011381932,-0.0049833544,0.02612556,-0.0001829405,0.0012795413,-0.013004914,0.016762473,0.0013776697,0.03819406,0.009546004,-0.0013362077,0.015858341,-0.017971437,-0.021875372,-0.0301156,0.022451391,1.5576458,0.0014554263,30.116634,0.09810036,0.487662,0.33232147,0.19099249,0.120062314,inf,inf,inf,inf,1,1,1,1,2,2,2,2,1,0,1,1,0,0,0
18988000,18988000,4284000,36.660767899999996,126.3420992,0.012895577,-0.008851916,0.038160954,-0.0001829405,0.0012795413,-0.013004914,0.021926772,-0.0020528217,0.044869438,0.020770714,-0.0013362077,0.015858341,-0.017971437,0.056834318,0.007202728,0.007943249,1.5576606,0.0014554263,30.116634,0.09835632,0.5004583,0.33825123,0.19470128,0.12186349,inf,inf,inf,inf,1,1,1,1,2,2,2,2,1,0,1,1,0,0,0
19484000,19484000,4284000,36.660767899999996,126.3420992,0.01332239,-0.013206757,0.04228352,-0.0001829405,0.0012795413,-0.013004914,0.021614118,-0.009434576,0.044074662,0.015724046,-0.0013362077,0.015858341,-0.017971437,0.058098905,0.00038555296,0.00938028,1.5567427,0.0014554263,30.116634,0.098204955,0.5125363,0.3450501,0.19788326,0.12364267,inf,inf,inf,inf,1,1,1,1,2,2,2,2,1,0,1,1,0,0,0
19988000,19988000,4284000,36.660767899999996,126.3420992,0.015044896,-0.013064526,0.041104387,-0.0001829405,0.0012795413,-0.013004914,0.02317167,-0.008415805,0.04002567,0.0066164946,-0.0013362077,0.015858341,-0.017971437,-0.0015822661,0.0416743,-0.04383828,1.5570291,0.0014554263,30.116634,0.093878224,0.47578776,0.32615936,0.1791967,0.11761606,inf,inf,inf,inf,1,1,1,1,2,2,2,2,1,0,1,1,0,0,0
20484000,20484000,4284000,36.660767899999996,126.3420992,0.014399514,-0.015949193,0.041583903,-0.0001829405,0.0012795413,-0.013004914,0.024326487,-0.011360865,0.037956048,0.0029408652,-0.0013362077,0.015858341,-0.017971437,0.040167354,0.010785566,-0.0048698853,1.5571351,0.0014554263,30.116634,0.09671607,0.48659348,0.3326423,0.18262929,0.119333856,inf,inf,inf,inf,1,1,1,1,2,2,2,2,1,0,1,1,0,0,0
20988000,20988000,4284000,36.660767899999996,126.3420992,0.014298629,-0.017349865,0.043986354,-0.0001829405,0.0012795413,-0.013004914,0.022728086,-0.018281464,0.03987714,0.0061454354,-0.0013362077,0.015858341,-0.017971437,-0.020815274,0.014272365,0.0601029,1.5569059,0.0014554263,30.116634,0.09994079,0.49876502,0.3399418,0.18650508,0.12121868,inf,inf,inf,inf,1,1,1,1,2,2,2,2,1,0,1,1,0,0,0
21484000,21484000,4284000,36.660767899999996,126.3420992,0.0102112265,-0.0153436,0.05170409,-0.0001829405,0.0012795413,-0.013004914,0.01645864,-0.02105861,0.0434295,0.013475743,-0.0013362077,0.015858341,-0.017971437,-0.013056349,0.043990765,-0.017160548,1.5568088,0.0014554263,30.116634,0.10075176,0.5105591,0.3467101,0.19022088,0.12293859,inf,inf,inf,inf,1,1,1,1,2,2,2,2,1,0,1,1,0,0,0
21988000,21988000,4284000,36.660767899999996,126.3420992,0.003759057,-0.010450405,0.0484236,-0.0001829405,0.0012795413,-0.013004914,0.014706868,-0.021650966,0.0387555,0.0022603944,-0.0013362077,0.015858341,-0.017971437,0.037950113,-0.044107005,-0.03372598,1.5566171,0.0014554263,30.116634,0.09107342,0.47472447,0.3272698,0.1736927,0.116816774,inf,inf,inf,inf,1,1,1,1,2,2,2,2,1,0,1,1,0,0,0
22484000,22484000,4284000,36.660767899999996,126.3420992,-0.004310646,-0.012362044,0.046317823,-0.0001829405,0.0012795413,-0.013004914,0.010901073,-0.028331503,0.040341876,0.0017561652,-0.0013362077,0.015858341,-0.017971437,0.08182339,-0.08115626,0.05572475,1.5564946,0.0014554263,30.116634,0.09723482,0.48535365,0.33369115,0.17756084,0.11858359,inf,inf,inf,inf,1,1,1,1,2,2,2,2,1,0,1,1,0,0,0
22988000,22988000,4284000,36.660767899999996,126.3420992,-0.0036122485,-0.013302314,0.05041262,-0.0001829405,0.0012795413,-0.013004914,0.013193939,-0.024210867,0.046471875,0.009827726,-0.0013362077,0.015858341,-0.017971437,0.041352976,-0.024635736,0.0115642315,1.5564008,0.0014554263,30.116634,0.09885052,0.49719468,0.3392358,0.18175575,0.120194264,inf,inf,inf,inf,1,1,1,1,2,2,2,2,1,0,1,1,0,0,0
23484000,23484000,4284000,36.660767899999996,126.3420992,-0.0011329474,-0.012554767,0.055329036,-0.0001829405,0.0012795413,-0.013004914,0.013063042,-0.022843376,0.050426506,0.013849894,-0.0013362077,0.015858341,-0.017971437,-0.048384357,-0.015112076,-0.015961004,1.5564578,0.0014554263,30.116634,0.08716191,0.46314153,0.32107863,0.16646191,0.1143476,inf,inf,inf,inf,1,1,1,1,2,2,2,2,1,0,1,1,0,0,0
23988000,23988000,4284000,36.660767899999996,126.3420992,0.0003680883,-0.0076369727,0.05929445,-0.0001829405,0.0012795413,-0.013004914,0.0119325975,-0.015692784,0.050987497,0.013140244,-0.0013362077,0.015858341,-0.017971437,-0.005974638,0.005276022,0.026172025,1.5561955,0.0014554263,30.116634,0.0943829,0.47384322,0.3278702,0.17070146,0.11632827,inf,inf,inf,inf,1,1,1,1,2,2,2,2,1,0,1,1,0,0,0
24484000,24484000,4284000,36.660767899999996,126.3420992,0.003981499,-0.007353816,0.065491654,-0.0001829405,0.0012795413,-0.013004914,0.016937252,-0.01996866,0.048271213,0.010700817,-0.0013362077,0.015858341,-0.017971437,-0.00836742,-0.021668946,0.060222108,1.5561912,0.0014554263,30.116634,0.09556148,0.4842803,0.33419982,0.17477874,0.11817575,inf,inf,inf,inf,1,1,1,1,2,2,2,2,1,0,1,1,0,0,0
24988000,24988000,4284000,36.660767899999996,126.3420992,0.0018685234,-0.0066831135,0.06634791,-0.0001829405,0.0012795413,-0.013004914,0.018626552,-0.020710742,0.0501148,0.008984014,-0.0013362077,0.015858341,-0.017971437,0.040391814,0.0009692848,-0.04845671,1.556091,0.0014554263,30.116634,0.09725328,0.49609277,0.3397697,0.17927104,0.119911395,inf,inf,inf,inf,1,1,1,1,2,2,2,2,1,0,1,1,0,0,0
25484000,25484000,4284000,36.660767899999996,126.3420992,-0.0011864937,-0.0138678355,0.07438481,-0.0001829405,0.0012795413,-0.013004914,0.015586907,-0.02565287,0.052900445,0.015160995,-0.0013362077,0.015858341,-0.017971437,-0.08027557,-0.11379939,0.1032045,1.5562599,0.0014554263,30.116634,0.08039045,0.46244875,0.32147968,0.1646551,0.11413601,inf,inf,inf,inf,1,1,1,1,2,2,2,2,1,0,1,1,0,0,0
25988000,25988000,4284000,36.660767899999996,126.3420992,-0.0056405794,-0.018239662,0.06912958,-0.0001829405,0.0012795413,-0.013004914,0.00891412,-0.029506143,0.049529128,0.0036830434,-0.0013362077,0.015858341,-0.017971437,-0.048796654,-0.031129558,0.04213396,1.5562255,0.0014554263,30.116634,0.08980008,0.47304288,0.32689455,0.1689998,0.11593309,inf,inf,inf,inf,1,1,1,1,2,2,2,2,1,0,1,1,0,0,0
26484000,26484000,4284000,36.660767899999996,126.3420992,-0.008709246,-0.018875653,0.06745308,-0.0001829405,0.0012795413,-0.013004914,0.0015020347,-0.030493442,0.05009307,0.0019519053,-0.0013362077,0.015858341,-0.017971437,0.043079358,-0.024646485,0.055848617,1.5561216,0.0014554263,30.116634,0.0960095,0.4832669,0.33312368,0.17304045,0.117797315,inf,inf,inf,inf,1,1,1,1,2,2,2,2,1,0,1,1,0,0,0
26988000,26988000,4284000,36.660767899999996,126.3420992,-0.0072677457,-0.02201657,0.07124855,-0.0001829405,0.0012795413,-0.013004914,-0.0012123433,-0.034098618,0.055633828,0.009200001,-0.0013362077,0.015858341,-0.017971437,-0.02488933,0.006609363,-0.039884817,1.5561379,0.0014554263,30.116634,0.09874795,0.49500874,0.33875754,0.17760584,0.11960499,inf,inf,inf,inf,1,1,1,1,2,2,2,2,1,0,1,1,0,0,0
27484000,27484000,4284000,36.660767899999996,126.3420992,-0.0066648535,-0.02417232,0.07586179,-0.0001829405,0.0012795413,-0.013004914,-0.0057138703,-0.035914235,0.060075752,0.013997901,-0.0013362077,0.015858341,-0.017971437,0.0025328952,-0.06928437,0.03255531,1.5559973,0.0014554263,30.116634,0.10063311,0.50633025,0.34531248,0.18187857,0.121499866,inf,inf,inf,inf,1,1,1,1,2,2,2,2,1,0,1,1,0,0,0
27988000,27988000,4284000,36.660767899999996,126.3420992,-0.0040870477,-0.023911098,0.07833648,-0.0001829405,0.0012795413,-0.013004914,-0.009805655,-0.03724272,0.07003832,0.018852577,-0.0013362077,0.015858341,-0.017971437,0.011556652,0.03517964,0.0033862886,1.556376,0.0014554263,30.116634,0.08570507,0.4723591,0.327487,0.16778776,0.11600103,inf,inf,inf,inf,1,1,1,1,2,2,2,2,1,0,1,1,0,0,0
28484000,28484000,4284000,36.660767899999996,126.3420992,-0.004824058,-0.02765882,0.080210164,-0.0001829405,0.0012795413,-0.013004914,-0.011885373,-0.036011517,0.07135347,0.014843782,-0.0013362077,0.015858341,-0.017971437,0.07685643,-0.08481084,0.02567563,1.5561022,0.0014554263,30.116634,0.091812655,0.48255214,0.33228585,0.17188613,0.11760897,inf,inf,inf,inf,1,1,1,1,2,2,2,2,1,0,1,1,0,0,0
28988000,28988000,4284000,36.660767899999996,126.3420992,-0.005995272,-0.032769132,0.08268321,-0.0001829405,0.0012795413,-0.013004914,-0.013964807,-0.04491828,0.07419175,0.014915664,-0.0013362077,0.015858341,-0.017971437,0.09430909,-0.006711525,0.101747915,1.555888,0.0014554263,30.116634,0.09640432,0.4941231,0.33933908,0.17639665,0.119672894,inf,inf,inf,inf,1,1,1,1,2,2,2,2,1,0,1,1,0,0,0
29484000,29484000,4284000,36.660767899999996,126.3420992,-0.010072551,-0.03459722,0.09062592,-0.0001829405,0.0012795413,-0.013004914,-0.012221173,-0.040217284,0.07767823,0.019808829,-0.0013362077,0.015858341,-0.017971437,0.016185608,0.017396253,0.044960525,1.5554467,0.0014554263,30.116634,0.09945653,0.5052833,0.3458142,0.18061239,0.1215389,inf,inf,inf,inf,1,1,1,1,2,2,2,2,1,0,1,1,0,0,0
29988000,29988000,4284000,36.660767899999996,126.3420992,-0.008886221,-0.02876871,0.096035734,-0.0001829405,0.0012795413,-0.013004914,-0.008741344,-0.04001446,0.07760359,0.016906003,-0.0013362077,0.015858341,-0.017971437,0.031716637,-0.008060365,0.011732801,1.5553527,0.0014554263,30.116634,0.087431446,0.4717201,0.32649624,0.16692106,0.11576992,inf,inf,inf,inf,1,1,1,1,2,2,2,2,1,0,1,1,0,0,0
30484000,30484000,4284000,36.660767899999996,126.3420992,-0.005314857,-0.026293214,0.10036947,-0.0001829405,0.0012795413,-0.013004914,-0.0036241265,-0.036748193,0.07546724,0.011995398,-0.0013362077,0.015858341,-0.017971437,-0.0034758812,-0.068356976,0.02954807,1.5554845,0.0014554263,30.116634,0.09321146,0.48191452,0.33278772,0.17106874,0.11767819,inf,inf,inf,inf,1,1,1,1,2,2,2,2,1,0,1,1,0,0,0
30988000,30988000,4284000,36.660767899999996,126.3420992,-0.00075150956,-0.024193441,0.103574604,-0.0001829405,0.0012795413,-0.013004914,0.0014556823,-0.03786508,0.07656869,0.010876575,-0.0013362077,0.015858341,-0.017971437,-0.04501146,-0.013830625,0.049092803,1.5553923,0.0014554263,30.116634,0.0970785,0.49348518,0.33993432,0.17560947,0.119775034,inf,inf,inf,inf,1,1,1,1,2,2,2,2,1,0,1,1,0,0,0
31484000,31484000,4284000,36.660767899999996,126.3420992,0.00112888,-0.021195129,0.10950325,-0.0001829405,0.0012795413,-0.013004914,0.0073772124,-0.037696578,0.08069411,0.017012563,-0.0013362077,0.015858341,-0.017971437,-0.006898157,-0.0011996526,0.03477372,1.5551921,0.0014554263,30.116634,0.101379,0.5046527,0.34483546,0.17985554,0.121340126,inf,inf,inf,inf,1,1,1,1,2,2,2,2,1,0,1,1,0,0,0
31988000,31988000,4284000,36.660767899999996,126.3420992,0.0020882105,-0.019747397,0.10669526,-0.0001829405,0.0012795413,-0.013004914,0.01202154,-0.03504651,0.07619436,0.006464077,-0.0013362077,0.015858341,-0.017971437,0.044068307,0.03943976,0.04277285,1.5550665,0.0014554263,30.116634,0.08875949,0.47133258,0.3271281,0.16637236,0.115890555,inf,inf,inf,inf,1,1,1,1,2,2,2,2,1,0,1,1,0,0,0
32484000,32484000,4284000,36.660767899999996,126.3420992,0.0015653897,-0.018509978,0.1080142,-0.0001829405,0.0012795413,-0.013004914,0.016839318,-0.03494238,0.07686581,0.0059607606,-0.0013362077,0.015858341,-0.017971437,-0.04384296,-0.025027107,-0.0152541315,1.5550654,0.0014554263,30.116634,0.093114875,0.48152798,0.33343905,0.17051575,0.117798924,inf,inf,inf,inf,1,1,1,1,2,2,2,2,1,0,1,1,0,0,0
32988000,32988000,4284000,36.660767899999996,126.3420992,0.004564145,-0.016101195,0.11177337,-0.0001829405,0.0012795413,-0.013004914,0.0236538,-0.030683897,0.077025175,0.008192139,-0.0013362077,0.015858341,-0.017971437,-0.0018994759,-0.05670455,0.017280689,1.5554594,0.0014554263,30.116634,0.099877745,0.4932317,0.33909672,0.17515902,0.11962327,inf,inf,inf,inf,1,1,1,1,2,2,2,2,1,0,1,1,0,0,0
33484000,33484000,4284000,36.660767899999996,126.3420992,0.0054903147,-0.018479131,0.11690256,-0.0001829405,0.0012795413,-0.013004914,0.028144686,-0.036073677,0.07334712,0.007100186,-0.0013362077,0.015858341,-0.017971437,0.021378055,0.029873721,0.04333723,1.5553058,0.0014554263,30.116634,0.08531658,0.4607491,0.3209714,0.16169634,0.113942884,inf,inf,inf,inf,1,1,1,1,2,2,2,2,1,0,1,1,0,0,0
33988000,33988000,4284000,36.660767899999996,126.3420992,0.0102261,-0.018019494,0.121388674,-0.0001829405,0.0012795413,-0.013004914,0.033368345,-0.034761816,0.07050705,0.006663574,-0.0013362077,0.015858341,-0.017971437,-0.0073220213,0.05959477,0.06636418,1.555527,0.0014554263,30.116634,0.09120539,0.47127587,0.32645607,0.16610941,0.11578815,inf,inf,inf,inf,1,1,1,1,2,2,2,2,1,0,1,1,0,0,0
34484000,34484000,4284000,36.660767899999996,126.3420992,0.01251709,-0.022942455,0.12214046,-0.0001829405,0.0012795413,-0.013004914,0.035692375,-0.040349033,0.06199978,-0.0027504938,-0.0013362077,0.015858341,-0.017971437,0.05180377,0.001393886,-0.08653569,1.5555445,0.0014554263,30.116634,0.09691607,0.48158312,0.33282954,0.1703417,0.11772544,inf,inf,inf,inf,1,1,1,1,2,2,2,2,1,0,1,1,0,0,0
34988000,34988000,4284000,36.660767899999996,126.3420992,0.014686789,-0.03398231,0.116038166,-0.0001829405,0.0012795413,-0.013004914,0.033529386,-0.04721917,0.05084982,-0.015441471,-0.0013362077,0.015858341,-0.017971437,-0.034002893,-0.09016349,0.015899537,1.5553211,0.0014554263,30.116634,0.10102125,0.4931268,0.33993992,0.17488287,0.11979875,inf,inf,inf,inf,1,1,1,1,2,2,2,2,1,0,1,1,0,0,0
35484000,35484000,4284000,36.660767899999996,126.3420992,0.014865783,-0.039745882,0.113755986,-0.0001829405,0.0012795413,-0.013004914,0.02903056,-0.05470068,0.047969397,-0.01136117,-0.0013362077,0.015858341,-0.017971437,-0.044003226,0.020670459,0.056586225,1.5553308,0.0014554263,30.116634,0.10657801,0.5044113,0.34488398,0.17922275,0.12137887,inf,inf,inf,inf,1,1,1,1,2,2,2,2,1,0,1,1,0,0,0
35988000,35988000,4284000,36.660767899999996,126.3420992,0.012362865,-0.036521062,0.09550916,-0.0001829405,0.0012795413,-0.013004914,0.025137592,-0.05300163,0.036479525,-0.028525278,-0.0013362077,0.015858341,-0.017971437,0.035743985,0.00032655586,0.0031581146,1.5558256,0.0014554263,30.116634,0.097064674,0.47119123,0.32712492,0.16584545,0.11590168,inf,inf,inf,inf,1,1,1,1,2,2,2,2,1,0,1,1,0,0,0
36484000,36484000,4284000,36.660767899999996,126.3420992,0.0122698555,-0.03368723,0.08743303,-0.0001829405,0.0012795413,-0.013004914,0.023826897,-0.05633317,0.032367557,-0.026818484,-0.0013362077,0.015858341,-0.017971437,0.039139148,-0.010296527,0.038241964,1.5554808,0.0014554263,30.116634,0.10291842,0.481356,0.33339885,0.16996804,0.11779375,inf,inf,inf,inf,1,1,1,1,2,2,2,2,1,0,1,1,0,0,0
36988000,36988000,4284000,36.660767899999996,126.3420992,0.014153103,-0.036320865,0.08233815,-0.0001829405,0.0012795413,-0.013004914,0.01884971,-0.062047932,0.02715527,-0.02385008,-0.0013362077,0.015858341,-0.017971437,-0.021268511,-0.005795471,-0.017785465,1.5556697,0.0014554263,30.116634,0.10723034,0.49288625,0.33892903,0.17451088,0.11956471,inf,inf,inf,inf,1,1,1,1,2,2,2,2,1,0,1,1,0,0,0
37484000,37484000,4284000,36.660767899999996,126.3420992,0.010386091,-0.03740708,0.07896765,-0.0001829405,0.0012795413,-0.013004914,0.016052809,-0.061441753,0.024631387,-0.019067064,-0.0013362077,0.015858341,-0.017971437,0.026488103,0.07339917,0.009098089,1.5556495,0.0014554263,30.116634,0.09700831,0.46064296,0.32087117,0.16125914,0.11391956,inf,inf,inf,inf,1,1,1,1,2,2,2,2,1,0,1,1,0,0,0
37988000,37988000,4284000,36.660767899999996,126.3420992,0.0048174104,-0.03318432,0.07589926,-0.0001829405,0.0012795413,-0.013004914,0.012987905,-0.056882318,0.030956982,-0.009025302,-0.0013362077,0.015858341,-0.017971437,-0.021834692,-0.036780726,0.0033164395,1.5560665,0.0014554263,30.116634,0.0991734,0.47125664,0.32639274,0.16570199,0.115790546,inf,inf,inf,inf,1,1,1,1,2,2,2,2,1,0,1,1,0,0,0
38484000,38484000,4284000,36.660767899999996,126.3420992,0.0041663675,-0.032228805,0.07366575,-0.0001829405,0.0012795413,-0.013004914,0.008144448,-0.051460754,0.036734812,-0.0035071522,-0.0013362077,0.015858341,-0.017971437,-0.017073777,0.10782696,0.033255663,1.5560545,0.0014554263,30.116634,0.09985919,0.48152325,0.3327375,0.1698549,0.11771616,inf,inf,inf,inf,1,1,1,1,2,2,2,2,1,0,1,1,0,0,0
38988000,38988000,4284000,36.660767899999996,126.3420992,0.008035261,-0.034266826,0.070038654,-0.0001829405,0.0012795413,-0.013004914,0.01455084,-0.053155873,0.041064832,-0.0015169978,-0.0013362077,0.015858341,-0.017971437,-0.031837888,0.031502604,0.01546461,1.556026,0.0014554263,30.116634,0.10176315,0.49301732,0.33981994,0.17433049,0.1197801,inf,inf,inf,inf,1,1,1,1,2,2,2,2,1,0,1,1,0,0,0
39484000,39484000,4284000,36.660767899999996,126.3420992,0.018309304,-0.037122082,0.074312136,-0.0001829405,0.0012795413,-0.013004914,0.023984212,-0.05273973,0.05217393,0.012034038,-0.0013362077,0.015858341,-0.017971437,0.02120838,-0.04202323,0.0043399627,1.5557511,0.0014554263,30.116634,0.10417648,0.50409925,0.3463194,0.17849384,0.121645115,inf,inf,inf,inf,1,1,1,1,2,2,2,2,1,0,1,1,0,0,0
39988000,39988000,4284000,36.660767899999996,126.3420992,0.021890286,-0.032338392,0.07644887,-0.0001829405,0.0012795413,-0.013004914,0.022477781,-0.049115393,0.06100466,0.01672818,-0.0013362077,0.015858341,-0.017971437,0.038997903,-0.08198641,-0.0069495286,1.5555124,0.0014554263,30.116634,0.09158921,0.47100943,0.32692245,0.16527547,0.11585028,inf,inf,inf,inf,1,1,1,1,2,2,2,2,1,0,1,1,0,0,0
40484000,40484000,4284000,36.660767899999996,126.3420992,0.022457514,-0.032351553,0.08379695,-0.0001829405,0.0012795413,-0.013004914,0.020765854,-0.046493284,0.06940072,0.022359041,-0.0013362077,0.015858341,-0.017971437,0.038783953,-0.017458411,0.044560988,1.5561862,0.0014554263,30.116634,0.095441,0.48126122,0.33326802,0.16946234,0.11778136,inf,inf,inf,inf,1,1,1,1,2,2,2,2,1,0,1,1,0,0,0
40988000,40988000,4284000,36.660767899999996,126.3420992,0.020660536,-0.033270333,0.10379426,-0.0001829405,0.0012795413,-0.013004914,0.019088423,-0.045940846,0.0845716,0.04171747,-0.0013362077,0.015858341,-0.017971437,-0.015126142,-0.054122616,-0.030325724,1.5557299,0.0014554263,30.116634,0.0996823,0.4927421,0.33877403,0.17394878,0.11954329,inf,inf,inf,inf,1,1,1,1,2,2,2,2,1,0,1,1,0,0,0
41484000,41484000,4284000,36.660767899999996,126.3420992,0.021691732,-0.04002281,0.11745044,-0.0001829405,0.0012795413,-0.013004914,0.016238201,-0.053105418,0.096442826,0.046923716,-0.0013362077,0.015858341,-0.017971437,0.0408714,-0.06898044,0.03875419,1.5556823,0.0014554263,30.116634,0.09670297,0.5038198,0.3452073,0.17816314,0.121400855,inf,inf,inf,inf,1,1,1,1,2,2,2,2,1,0,1,1,0,0,0
41988000,41988000,4284000,36.660767899999996,126.3420992,0.018782867,-0.037472684,0.12837218,-0.0001829405,0.0012795413,-0.013004914,0.008171819,-0.049381725,0.10117012,0.040994253,-0.0013362077,0.015858341,-0.017971437,-0.049402487,-0.015266582,0.060926188,1.5556625,0.0014554263,30.116634,0.08114143,0.4709507,0.32747218,0.16514261,0.11596211,inf,inf,inf,inf,1,1,1,1,2,2,2,2,1,0,1,1,0,0,0
42484000,42484000,4284000,36.660767899999996,126.3420992,0.017498957,-0.037092432,0.13601382,-0.0001829405,0.0012795413,-0.013004914,0.0051335143,-0.040891003,0.102307014,0.031944122,-0.0013362077,0.015858341,-0.017971437,-0.0061117676,-0.043074872,0.050995495,1.5555153,0.0014554263,30.116634,0.0882525,0.4811966,0.3323576,0.16935186,0.117616855,inf,inf,inf,inf,1,1,1,1,2,2,2,2,1,0,1,1,0,0,0
42988000,42988000,4284000,36.660767899999996,126.3420992,0.019083206,-0.03649444,0.14937298,-0.0001829405,0.0012795413,-0.013004914,-0.00193202,-0.03893809,0.103682525,0.03234764,-0.0013362077,0.015858341,-0.017971437,-0.06043011,-0.009614699,-0.008003785,1.5556957,0.0014554263,30.116634,0.09533335,0.49267513,0.33945286,0.17388293,0.1196951,inf,inf,inf,inf,1,1,1,1,2,2,2,2,1,0,1,1,0,0,0
43484000,43484000,4284000,36.660767899999996,126.3420992,0.018628405,-0.03809347,0.16216068,-0.0001829405,0.0012795413,-0.013004914,-0.003946016,-0.033995938,0.11059356,0.037482735,-0.0013362077,0.015858341,-0.017971437,0.055985544,0.032805778,0.047840174,1.5558691,0.0014554263,30.116634,0.09671779,0.50375277,0.34430295,0.17811368,0.12124207,inf,inf,inf,inf,1,1,1,1,2,2,2,2,1,0,1,1,0,0,0
43988000,43988000,4284000,36.660767899999996,126.3420992,0.013928337,-0.037659835,0.16232644,-0.0001829405,0.0012795413,-0.013004914,-0.009867659,-0.025544502,0.10857356,0.022706306,-0.0013362077,0.015858341,-0.017971437,0.025507381,0.014047978,-0.043230128,1.5560825,0.0014554263,30.116634,0.07964505,0.47079393,0.32671988,0.16503294,0.11582544,inf,inf,inf,inf,1,1,1,1,2,2,2,2,1,0,1,1,0,0,0
44484000,44484000,4284000,36.660767899999996,126.3420992,0.0063643074,-0.03489641,0.16261283,-0.0001829405,0.0012795413,-0.013004914,-0.01996125,-0.024590101,0.10887714,0.013851944,-0.0013362077,0.015858341,-0.017971437,0.025088752,0.007746103,0.03793649,1.5559231,0.0014554263,30.116634,0.08372122,0.48092175,0.33304724,0.16916433,0.11773836,inf,inf,inf,inf,1,1,1,1,2,2,2,2,1,0,1,1,0,0,0
44988000,44988000,4284000,36.660767899999996,126.3420992,0.0073550446,-0.03249279,0.16741316,-0.0001829405,0.0012795413,-0.013004914,-0.019914586,-0.02122218,0.106148355,0.012518616,-0.0013362077,0.015858341,-0.017971437,-0.00018156333,0.032855257,0.036262903,1.5562853,0.0014554263,30.116634,0.09720896,0.49254826,0.33870736,0.17382021,0.1195613,inf,inf,inf,inf,1,1,1,1,2,2,2,2,1,0,1,1,0,0,0
45484000,45484000,4284000,36.660767899999996,126.3420992,0.008338491,-0.035617396,0.17520049,-0.0001829405,0.0012795413,-0.013004914,-0.02047659,-0.01652638,0.10785626,0.018261729,-0.0013362077,0.015858341,-0.017971437,-0.019720402,0.00048805846,0.016456468,1.5562184,0.0014554263,30.116634,0.06860122,0.46035123,0.32064477,0.16067791,0.11389142,inf,inf,inf,inf,1,1,1,1,2,2,2,2,1,0,1,1,0,0,0
45988000,45988000,4284000,36.660767899999996,126.3420992,0.00033654977,-0.028943064,0.17308639,-0.0001829405,0.0012795413,-0.013004914,-0.02353348,-0.01544545,0.10228369,0.0071026175,-0.0013362077,0.015858341,-0.017971437,0.0048267352,0.04322104,0.08957832,1.5561135,0.0014554263,30.116634,0.085126325,0.47093752,0.32755956,0.1651649,0.11601908,inf,inf,inf,inf,1,1,1,1,2,2,2,2,1,0,1,1,0,0,0
46484000,46484000,4284000,36.660767899999996,126.3420992,-0.0019546219,-0.026922882,0.17316362,-0.0001829405,0.0012795413,-0.013004914,-0.019279413,-0.0120261125,0.09889529,0.00224965,-0.0013362077,0.015858341,-0.017971437,-0.0178149,0.013982794,0.07182638,1.556147,0.0014554263,30.116634,0.09008485,0.48106298,0.33235833,0.1692866,0.11762264,inf,inf,inf,inf,1,1,1,1,2,2,2,2,1,0,1,1,0,0,0
46988000,46988000,4284000,36.660767899999996,126.3420992,-0.0016369923,-0.026313068,0.16475278,-0.0001829405,0.0012795413,-0.013004914,-0.008528976,-0.011589484,0.09012677,-0.012261069,-0.0013362077,0.015858341,-0.017971437,0.0037580738,-0.097632006,-0.08149351,1.5562723,0.0014554263,30.116634,0.09695998,0.49254927,0.33940983,0.17380175,0.11968317,inf,inf,inf,inf,1,1,1,1,2,2,2,2,1,0,1,1,0,0,0
47484000,47484000,4284000,36.660767899999996,126.3420992,-0.001337014,-0.02546448,0.15950766,-0.0001829405,0.0012795413,-0.013004914,-0.009066119,-0.010200334,0.07969213,-0.016074616,-0.0013362077,0.015858341,-0.017971437,0.00943619,0.019651752,0.065200955,1.5563,0.0014554263,30.116634,0.07736969,0.46044672,0.3212688,0.16075337,0.11400958,inf,inf,inf,inf,1,1,1,1,2,2,2,2,1,0,1,1,0,0,0
47988000,47988000,4284000,36.660767899999996,126.3420992,-0.0026279418,-0.021976642,0.15154752,-0.0001829405,0.0012795413,-0.013004914,-0.012346573,-0.011287092,0.07602233,-0.01687205,-0.0013362077,0.015858341,-0.017971437,0.0009635766,-0.011849265,-7.45058e-05,1.5562658,0.0014554263,30.116634,0.091551095,0.4709157,0.32667348,0.16512336,0.11582549,inf,inf,inf,inf,1,1,1,1,2,2,2,2,1,0,1,1,0,0,0
48484000,48484000,4284000,36.660767899999996,126.3420992,-0.0035840373,-0.019901773,0.14631253,-0.0001829405,0.0012795413,-0.013004914,-0.01145661,-0.01179184,0.077282034,-0.013874009,-0.0013362077,0.015858341,-0.017971437,0.025880124,-0.0008063739,0.06857607,1.5563718,0.0014554263,30.116634,0.0969747,0.48116243,0.33301166,0.16930537,0.11775405,inf,inf,inf,inf,1,1,1,1,2,2,2,2,1,0,1,1,0,0,0
48988000,48988000,4284000,36.660767899999996,126.3420992,-0.0026486637,-0.020201089,0.14640494,-0.0001829405,0.0012795413,-0.013004914,-0.0101371985,-0.020916123,0.08138075,-0.0035745967,-0.0013362077,0.015858341,-0.017971437,0.016950687,-0.06712715,-0.022680497,1.5564955,0.0014554263,30.116634,0.10381593,0.4927727,0.34021908,0.1738813,0.119873375,inf,inf,inf,inf,1,1,1,1,2,2,2,2,1,0,1,1,0,0,0
49484000,49484000,4284000,36.660767899999996,126.3420992,-0.010282961,-0.017141184,0.14912163,-0.0001829405,0.0012795413,-0.013004914,-0.015845843,-0.017396243,0.08486318,0.0054025357,-0.0013362077,0.015858341,-0.017971437,-0.0029754033,-0.0004907476,-0.028024426,1.5565814,0.0014554263,30.116634,0.10757099,0.5038375,0.3450807,0.1780809,0.12141585,inf,inf,inf,inf,1,1,1,1,2,2,2,2,1,0,1,1,0,0,0
49988000,49988000,4284000,36.660767899999996,126.3420992,-0.009634107,-0.01593985,0.14646842,-0.0001829405,0.0012795413,-0.013004914,-0.025631491,-0.020299738,0.08529894,0.0019792728,-0.0013362077,0.015858341,-0.017971437,-0.007824894,0.0009441246,0.0033937392,1.5563961,0.0014554263,30.116634,0.08717252,0.470849,0.32729462,0.16495332,0.11593503,inf,inf,inf,inf,1,1,1,1,2,2,2,2,1,0,1,1,0,0,0
50484000,50484000,4284000,36.660767899999996,126.3420992,-0.0128313145,-0.016979737,0.14434588,-0.0001829405,0.0012795413,-0.013004914,-0.033549204,-0.016832426,0.08247697,-0.0028499644,-0.0013362077,0.015858341,-0.017971437,-0.038461663,-0.0062416564,-0.011371448,1.5560046,0.0014554263,30.116634,0.0967955,0.48108724,0.33366424,0.16916764,0.11787046,inf,inf,inf,inf,1,1,1,1,2,2,2,2,1,0,1,1,0,0,0
50988000,50988000,4284000,36.660767899999996,126.3420992,-0.017196326,-0.015412591,0.15081996,-0.0001829405,0.0012795413,-0.013004914,-0.041184455,-0.021204509,0.08501822,0.0062079853,-0.0013362077,0.015858341,-0.017971437,-0.017540747,0.008010821,0.10946672,1.555775,0.0014554263,30.116634,0.10407868,0.49255663,0.3392021,0.173685,0.119640425,inf,inf,inf,inf,1,1,1,1,2,2,2,2,1,0,1,1,0,0,0
51484000,51484000,4284000,36.660767899999996,126.3420992,-0.020939585,-0.018567583,0.16120686,-0.0001829405,0.0012795413,-0.013004914,-0.03899996,-0.022095572,0.08785108,0.015013307,-0.0013362077,0.015858341,-0.017971437,-0.0026515897,-0.036221422,0.04934333,1.55608,0.0014554263,30.116634,0.10666631,0.50362605,0.34565938,0.17791997,0.12150214,inf,inf,inf,inf,1,1,1,1,2,2,2,2,1,0,1,1,0,0,0
51988000,51988000,4284000,36.660767899999996,126.3420992,-0.018915558,-0.016944433,0.15759717,-0.0001829405,0.0012795413,-0.013004914,-0.03637423,-0.019180052,0.085807174,0.0049657254,-0.0013362077,0.015858341,-0.017971437,0.027010128,-0.06605466,-0.031729225,1.556103,0.0014554263,30.116634,0.08705537,0.47083133,0.32785392,0.1649601,0.116043694,inf,inf,inf,inf,1,1,1,1,2,2,2,2,1,0,1,1,0,0,0
52484000,52484000,4284000,36.660767899999996,126.3420992,-0.021076323,-0.017967105,0.15758511,-0.0001829405,0.0012795413,-0.013004914,-0.03568698,-0.019178672,0.08253998,-0.00021575973,-0.0013362077,0.015858341,-0.017971437,-0.04417535,0.014035312,-0.033264045,1.5563155,0.0014554263,30.116634,0.09627104,0.48107156,0.33273694,0.16916148,0.11769605,inf,inf,inf,inf,1,1,1,1,2,2,2,2,1,0,1,1,0,0,0
52988000,52988000,4284000,36.660767899999996,126.3420992,-0.022806367,-0.01771475,0.15990211,-0.0001829405,0.0012795413,-0.013004914,-0.036047176,-0.015664393,0.08673336,0.0055555142,-0.0013362077,0.015858341,-0.017971437,-0.081318915,0.008112916,-0.018100252,1.5565311,0.0014554263,30.116634,0.102415636,0.4926764,0.33987173,0.1737512,0.119796894,inf,inf,inf,inf,1,1,1,1,2,2,2,2,1,0,1,1,0,0,0
53484000,53484000,4284000,36.660767899999996,126.3420992,-0.02118998,-0.015834762,0.16373351,-0.0001829405,0.0012795413,-0.013004914,-0.03407651,-0.008309078,0.087769255,0.009038484,-0.0013362077,0.015858341,-0.017971437,-0.030064488,-0.013938486,-0.0031581146,1.5566298,0.0014554263,30.116634,0.104650855,0.50373924,0.34633404,0.17797261,0.121654145,inf,inf,inf,inf,1,1,1,1,2,2,2,2,1,0,1,1,0,0,0
53988000,53988000,4284000,36.660767899999996,126.3420992,-0.014385091,-0.013464995,0.15636322,-0.0001829405,0.0012795413,-0.013004914,-0.027676841,-0.009247187,0.08395492,-0.002173357,-0.0013362077,0.015858341,-0.017971437,0.03934225,-0.015351588,-0.0030705703,1.5564535,0.0014554263,30.116634,0.08306599,0.47078887,0.32690954,0.16489846,0.11585528,inf,inf,inf,inf,1,1,1,1,2,2,2,2,1,0,1,1,0,0,0
54484000,54484000,4284000,36.660767899999996,126.3420992,-0.0039543705,-0.011133727,0.14888304,-0.0001829405,0.0012795413,-0.013004914,-0.022559755,-0.0054237223,0.08175384,-0.008559607,-0.0013362077,0.015858341,-0.017971437,0.015968759,0.015355924,0.09928736,1.5566095,0.0014554263,30.116634,0.09458235,0.48102766,0.33323333,0.16911183,0.11778325,inf,inf,inf,inf,1,1,1,1,2,2,2,2,1,0,1,1,0,0,0
54988000,54988000,4284000,36.660767899999996,126.3420992,-0.0024501728,-0.012816869,0.14639474,-0.0001829405,0.0012795413,-0.013004914,-0.02466815,-0.0034975586,0.08153916,-0.006489722,-0.0013362077,0.015858341,-0.017971437,-0.019692462,-0.009381892,0.04116166,1.5565913,0.0014554263,30.116634,0.10218488,0.4924974,0.3403042,0.1736247,0.11985244,inf,inf,inf,inf,1,1,1,1,2,2,2,2,1,0,1,1,0,0,0
55484000,55484000,4284000,36.660767899999996,126.3420992,-0.010028191,-0.012868863,0.1540739,-0.0001829405,0.0012795413,-0.013004914,-0.032023188,-0.0029207012,0.082801804,0.0056510884,-0.0013362077,0.015858341,-0.017971437,0.0017566739,-0.015840355,0.039888542,1.5570416,0.0014554263,30.116634,0.10801786,0.503569,0.3451322,0.17786555,0.121395536,inf,inf,inf,inf,1,1,1,1,2,2,2,2,1,0,1,1,0,0,0
55988000,55988000,4284000,36.660767899999996,126.3420992,-0.016892083,-0.009498995,0.14942299,-0.0001829405,0.0012795413,-0.013004914,-0.03110937,0.001052292,0.08097922,-0.00013943505,-0.0013362077,0.015858341,-0.017971437,0.020705208,0.062804565,0.040461306,1.5573074,0.0014554263,30.116634,0.08961646,0.47079557,0.32740134,0.16492257,0.11595983,inf,inf,inf,inf,1,1,1,1,2,2,2,2,1,0,1,1,0,0,0
56484000,56484000,4284000,36.660767899999996,126.3420992,-0.019822812,-0.0060241725,0.146773,-0.0001829405,0.0012795413,-0.013004914,-0.029606255,-0.00361359,0.077629626,-0.005329136,-0.0013362077,0.015858341,-0.017971437,0.025611402,-0.05553242,0.0073797996,1.5568442,0.0014554263,30.116634,0.09602384,0.48103642,0.33374804,0.16912821,0.11789317,inf,inf,inf,inf,1,1,1,1,2,2,2,2,1,0,1,1,0,0,0
56988000,56988000,4284000,36.660767899999996,126.3420992,-0.022362003,-0.008966932,0.14833336,-0.0001829405,0.0012795413,-0.013004914,-0.031736802,-0.004037951,0.07763182,-0.0012946366,-0.0013362077,0.015858341,-0.017971437,-0.057193547,0.019383714,0.06469152,1.5570647,0.0014554263,30.116634,0.10381399,0.4925083,0.33926672,0.1736444,0.119660825,inf,inf,inf,inf,1,1,1,1,2,2,2,2,1,0,1,1,0,0,0
57484000,57484000,4284000,36.660767899999996,126.3420992,-0.023583155,-0.011075703,0.14622338,-0.0001829405,0.0012795413,-0.013004914,-0.02966852,-0.0032779656,0.07333379,-0.00405624,-0.0013362077,0.015858341,-0.017971437,0.009538191,0.015535271,0.106952146,1.5572704,0.0014554263,30.116634,0.10648857,0.5037246,0.3457982,0.17798223,0.12155902,inf,inf,inf,inf,1,1,1,1,2,2,2,2,1,0,1,1,0,0,0
57988000,57988000,4284000,36.660767899999996,126.3420992,-0.020357199,-0.010105153,0.139075,-0.0001829405,0.0012795413,-0.013004914,-0.02578554,0.00017604808,0.07120995,-0.007731975,-0.0013362077,0.015858341,-0.017971437,-0.07164196,-0.04183479,0.035976987,1.5571985,0.0014554263,30.116634,0.09328483,0.47077903,0.3278662,0.16490006,0.11604394,inf,inf,inf,inf,1,1,1,1,2,2,2,2,1,0,1,1,0,0,0
58484000,58484000,4284000,36.660767899999996,126.3420992,-0.01674951,-0.0066047,0.13864206,-0.0001829405,0.0012795413,-0.013004914,-0.02402637,0.0039980737,0.06683809,-0.008548384,-0.0013362077,0.015858341,-0.017971437,0.05892303,-0.015429424,0.03336742,1.557288,0.0014554263,30.116634,0.09974958,0.48101887,0.33274272,0.16912112,0.11769681,inf,inf,inf,inf,1,1,1,1,2,2,2,2,1,0,1,1,0,0,0
58988000,58988000,4284000,36.660767899999996,126.3420992,-0.015450299,0.0008169785,0.13831301,-0.0001829405,0.0012795413,-0.013004914,-0.025100023,0.0059100944,0.062287644,-0.008858625,-0.0013362077,0.015858341,-0.017971437,-0.022457128,0.009913813,-0.039727423,1.557706,0.0014554263,30.116634,0.10565327,0.4924931,0.33978692,0.17365731,0.11975912,inf,inf,inf,inf,1,1,1,1,2,2,2,2,1,0,1,1,0,0,0
59484000,59484000,4284000,36.660767899999996,126.3420992,-0.020371543,0.0054757833,0.13592872,-0.0001829405,0.0012795413,-0.013004914,-0.025361296,0.0075520608,0.055431325,-0.010891544,-0.0013362077,0.015858341,-0.017971437,-0.058705393,0.018291224,0.025983898,1.5577283,0.0014554263,30.116634,0.1082938,0.5035706,0.34625596,0.17792036,0.12162536,inf,inf,inf,inf,1,1,1,1,2,2,2,2,1,0,1,1,0,0,0
59988000,59988000,4284000,36.660767899999996,126.3420992,-0.0207565,0.007102763,0.12158227,-0.0001829405,0.0012795413,-0.013004914,-0.024581669,0.011554834,0.049392726,-0.020855982,-0.0013362077,0.015858341,-0.017971437,-0.036233608,-0.00072996767,0.007990747,1.5576034,0.0014554263,30.116634,0.09660363,0.4706809,0.32685596,0.164886,0.11583883,inf,inf,inf,inf,1,1,1,1,2,2,2,2,1,0,1,1,0,0,0
60484000,60484000,4284000,36.660767899999996,126.3420992,-0.023103366,0.0068156733,0.11934624,-0.0001829405,0.0012795413,-0.013004914,-0.016146354,0.011822333,0.043002777,-0.019243771,-0.0013362077,0.015858341,-0.017971437,0.04261695,0.032617223,0.030079855,1.5577708,0.0014554263,30.116634,0.104775555,0.4809303,0.33318615,0.16912764,0.11777267,inf,inf,inf,inf,1,1,1,1,2,2,2,2,1,0,1,1,0,0,0
60988000,60988000,4284000,36.660767899999996,126.3420992,-0.02307648,-4.7034817e-05,0.116099566,-0.0001829405,0.0012795413,-0.013004914,-0.008614433,0.0131997885,0.045981232,-0.012638828,-0.0013362077,0.015858341,-0.017971437,-0.017846534,0.008064514,0.08391588,1.5574894,0.0014554263,30.116634,0.11668423,0.49242133,0.33874267,0.17366457,0.11955836,inf,inf,inf,inf,1,1,1,1,2,2,2,2,1,0,1,1,0,0,0
61484000,61484000,4284000,36.660767899999996,126.3420992,-0.023618441,0.0013036624,0.113329396,-0.0001829405,0.0012795413,-0.013004914,-0.0010801285,0.01292526,0.04916635,-0.00663086,-0.0013362077,0.015858341,-0.017971437,-0.001718563,0.011476834,0.04573911,1.5581697,0.0014554263,30.116634,0.1194544,0.50351167,0.34523538,0.1779119,0.12143648,inf,inf,inf,inf,1,1,1,1,2,2,2,2,1,0,1,1,0,0,0
61988000,61988000,4284000,36.660767899999996,126.3420992,-0.020463979,0.0013093096,0.10609008,-0.0001829405,0.0012795413,-0.013004914,0.011171746,0.011317376,0.05218353,-0.0063602785,-0.0013362077,0.015858341,-0.017971437,0.05984126,0.055637818,0.006811693,1.5584731,0.0014554263,30.116634,0.12669371,0.47064802,0.32745576,0.16488786,0.11596825,inf,inf,inf,inf,1,1,1,1,2,2,2,2,1,0,1,1,0,0,0
62484000,62484000,4284000,36.660767899999996,126.3420992,-0.017559273,0.0020925885,0.09777346,-0.0001829405,0.0012795413,-0.013004914,0.019987402,-0.0040510288,-0.031576976,-0.088993214,-0.0013362077,0.015858341,-0.017971437,0.06119153,-0.09959531,-0.59146154,1.5584947,0.0014554263,30.116634,0.13501033,0.48078662,0.3322827,0.16919564,0.11759461,inf,inf,inf,inf,1,1,1,1,2,2,2,2,1,0,1,1,0,0,0
62988000,62988000,4284000,36.660767899999996,126.3420992,-0.024144653,-0.012077991,-0.072431095,-0.0001829405,0.0012795413,-0.013004914,0.001717996,-0.017673742,-0.53103644,-0.58153844,-0.0013362077,0.015858341,-0.017971437,0.0043731704,0.0666764,-0.6592115,1.5581288,0.0014554263,30.116634,0.30521488,0.49241722,0.33936286,0.17602423,0.11967279,inf,inf,inf,inf,1,1,1,1,2,2,2,2,1,0,1,1,0,0,0
63484000,63484000,4284000,36.660767899999996,126.3420992,-0.0288184,-0.009987428,-0.44091287,-0.0001829405,0.0012795413,-0.013004914,0.005044964,0.022483815,-0.87242717,-0.9177643,-0.0013362077,0.015858341,-0.017971437,0.067763574,0.014242591,-0.6218673,1.5580441,0.0014554263,30.116634,0.67369664,0.5037945,0.34586328,0.18184122,0.12155053,inf,inf,inf,inf,1,1,1,1,2,2,2,2,1,0,1,1,0,0,0
63988000,63988000,4284000,36.660767899999996,126.3420992,-0.041197237,-0.0072396426,-0.9863875,-0.0001829405,0.0012795413,-0.013004914,0.011983409,0.02133125,-1.1833318,-1.2325231,-0.0013362077,0.015858341,-0.017971437,0.08755087,-0.02355507,-0.54922885,1.5576955,0.0014554263,30.116634,1.2191713,0.4708856,0.32670155,0.16900308,0.11584749,inf,inf,inf,inf,1,1,1,1,2,2,2,2,1,0,1,1,0,0,0
64484000,64484000,4284000,36.660767899999996,126.3420992,-0.04253887,-0.0073262863,-1.6137066,-0.0001829405,0.0012795413,-0.013004914,0.026609782,0.016025966,-1.2200077,-1.2734027,-0.0013362077,0.015858341,-0.017971437,-0.002294028,-0.021860832,-0.09467918,1.5545584,-0.0035724666,30.116634,1.8464904,0.48119697,0.33301494,0.16977063,0.117754936,inf,inf,inf,inf,1,1,1,1,2,2,2,2,2,0,1,1,0,0,0
64988000,64988000,4284000,36.660767899999996,126.3420992,-0.040733226,-0.0075783655,-2.27357,-0.0001829405,0.0012795413,-0.013004914,0.02412554,0.017375143,-1.2831899,-1.3346958,-0.0013362077,0.015858341,-0.017971437,0.047092877,0.029163204,-0.05728751,1.5566901,-0.0035724666,30.116634,2.5063539,0.492155,0.33863246,0.23940042,0.11955369,inf,inf,inf,inf,1,1,1,1,2,2,2,2,2,0,1,1,0,0,0
65484000,65484000,4284000,36.660767899999996,126.3420992,-0.049724862,-0.0104961675,-2.9476306,-0.0001829405,0.0012795413,-0.013004914,0.016286705,0.011392592,-1.3334049,-1.383705,-0.0013362077,0.015858341,-0.017971437,0.001557526,0.022174658,-0.019946134,1.5568361,-0.0035724666,30.116634,3.1804144,0.50614876,0.34521532,0.32808656,0.121454194,inf,inf,inf,inf,1,1,1,1,2,2,2,2,2,1,1,1,0,0,0
65988000,65988000,4284000,36.660767899999996,126.3420992,-0.0665425,-0.011454892,-3.6611733,-0.0001829405,0.0012795413,-0.013004914,0.030561239,0.0125257475,-1.3772074,-1.4305433,-0.0013362077,0.015858341,-0.017971437,0.11759962,-0.06280033,-0.051271167,1.5569733,-0.0035724666,30.116634,3.8939571,0.4710241,0.32612124,0.2869146,0.115738034,inf,inf,inf,inf,1,1,1,1,2,2,2,2,2,1,1,1,0,0,0
66484000,66484000,4284000,36.660767899999996,126.3420992,-0.049267918,-0.01026839,-4.3794637,-0.0001829405,0.0012795413,-0.013004914,0.0583023,0.01627242,-1.4086193,-1.4636638,-0.0013362077,0.015858341,-0.017971437,0.047983337,0.109617524,0.0012675299,1.5570767,-0.0035724666,30.116634,4.6122475,0.48429233,0.3325411,0.29595003,0.11768967,inf,inf,inf,inf,1,1,1,1,2,2,2,2,2,1,1,1,0,0,0
66988000,66988000,4284000,36.660767899999996,126.3420992,-0.02848276,-0.003761824,-5.11991,-0.0001829405,0.0012795413,-0.013004914,0.024726598,0.012745908,-1.4344788,-1.4859065,-0.0013362077,0.015858341,-0.017971437,-0.09422935,-0.052512802,-0.080855556,1.5567503,-0.0035724666,30.116634,5.3526936,0.50067323,0.33969083,0.29544395,0.11977161,inf,inf,inf,inf,1,1,1,1,2,2,2,2,2,1,1,1,0,0,0
67484000,67484000,4284000,36.660767899999996,126.3420992,-0.026968244,0.0056108222,-5.860117,-0.0001829405,0.0012795413,-0.013004914,-0.0051286616,0.008279245,-1.4504665,-1.5004454,-0.0013362077,0.015858341,-0.017971437,-0.029936038,0.016038924,0.038580965,1.5575835,-0.0035724666,30.116634,6.0929008,0.5168617,0.34458244,0.28960907,0.12132009,inf,inf,inf,inf,1,1,1,1,2,2,2,2,2,1,1,1,0,0,0
67988000,67988000,4284000,36.660767899999996,126.3420992,-0.03270662,0.017796082,-6.6238213,-0.0001829405,0.0012795413,-0.013004914,0.008255239,-0.0006794851,-1.4658221,-1.5162859,-0.0013362077,0.015858341,-0.017971437,0.006037358,0.019344335,0.0010337679,1.5572728,-0.0035724666,30.116634,6.856605,0.4754064,0.32690904,0.23448229,0.11586594,inf,inf,inf,inf,1,1,1,1,2,2,2,2,2,1,1,1,0,0,0
68484000,68484000,4284000,36.660767899999996,126.3420992,-0.018648958,0.027433787,-7.36911,-0.0001829405,0.0012795413,-0.013004914,0.019684533,-0.004408495,-1.4771305,-1.5199562,-0.0013362077,0.015858341,-0.017971437,-0.023291416,-0.07218952,0.009231268,1.5575782,-0.0035724666,30.116634,7.601894,0.48829672,0.33320594,0.23158519,0.1177649,inf,inf,inf,inf,1,1,1,1,2,2,2,2,2,1,1,1,0,0,0
68988000,68988000,4284000,36.660767899999996,126.3420992,-0.0033364797,0.03260732,-8.137868,-0.0001829405,0.0012795413,-0.013004914,0.002415581,-0.019678082,-1.5150181,-1.5529095,-0.0013362077,0.015858341,-0.017971437,-0.060821988,-0.06484901,-0.022272578,1.5573533,-0.0035724666,30.116634,8.370651,0.502686,0.33875006,0.2289663,0.11953912,inf,inf,inf,inf,1,1,1,1,2,2,2,2,2,1,1,1,0,0,0
69484000,69484000,4284000,36.660767899999996,126.3420992,-0.009222084,0.019970968,-8.902048,-0.0001829405,0.0012795413,-0.013004914,-0.02014352,-0.026962822,-1.5148929,-1.5479735,-0.0013362077,0.015858341,-0.017971437,0.042209577,0.041888565,0.056897286,1.5569277,-0.0035724666,30.116634,9.134832,0.51631856,0.34533852,0.22584717,0.12145611,inf,inf,inf,inf,1,1,1,1,2,2,2,2,2,1,1,1,0,0,0
69988000,69988000,4284000,36.660767899999996,126.3420992,-0.028656652,0.0111489985,-9.671039,-0.0001829405,0.0012795413,-0.013004914,-0.0088176755,-0.012792798,-1.5183018,-1.5428605,-0.0013362077,0.015858341,-0.017971437,0.12455747,-0.016272755,-0.062282193,1.5570754,-0.0035724666,30.116634,9.903822,0.47699228,0.3261621,0.19471975,0.115722366,inf,inf,inf,inf,1,1,1,1,2,2,2,2,2,1,1,1,0,0,0
70484000,70484000,4284000,36.660767899999996,126.3420992,-0.025599366,0.0075361114,-10.460161,-0.0001829405,0.0012795413,-0.013004914,0.017977344,0.0022615355,-1.815414,-1.835617,-0.0013362077,0.015858341,-0.017971437,0.041379508,0.043744776,-1.7097833,1.5571454,-0.0035724666,30.116634,10.6929455,0.48842612,0.33250672,0.19418414,0.11764375,inf,inf,inf,inf,1,1,1,1,2,2,2,2,2,1,1,1,0,0,0
70988000,70988000,4284000,36.660767899999996,126.3420992,-0.019368738,0.0035008274,-11.637468,-0.0001829405,0.0012795413,-0.013004914,0.010004927,0.0034646709,-2.835149,-2.8404446,-0.0013362077,0.015858341,-0.017971437,0.027899563,0.00967265,-0.7345704,1.5574232,-0.0035724666,30.116634,11.870253,0.5011142,0.33967382,0.19713826,0.11974278,inf,inf,inf,inf,1,1,1,1,2,2,2,2,2,1,1,1,0,0,0
71484000,71484000,4284000,36.660767899999996,126.3420992,-0.021222558,-0.00043422548,-13.053939,-0.0001829405,0.0012795413,-0.013004914,0.0018879238,0.0030272033,-2.8372862,-2.8315914,-0.0013362077,0.015858341,-0.017971437,-0.04583234,-0.015023047,0.22640078,1.5570207,-0.0035724666,30.116634,13.286722,0.4650737,0.3201586,0.17442581,0.11380125,inf,inf,inf,inf,1,1,1,1,2,2,2,2,2,1,1,1,0,0,0
71988000,71988000,4284000,36.660767899999996,126.3420992,-0.026261888,-0.0048426795,-14.4879,-0.0001829405,0.0012795413,-0.013004914,0.0036806897,0.0047873915,-2.8873737,-2.879904,-0.0013362077,0.015858341,-0.017971437,0.037130475,0.10219717,-0.09861774,1.5571915,-0.0035724666,30.116634,14.720684,0.47612643,0.32699883,0.17527153,0.11589561,inf,inf,inf,inf,1,1,1,1,2,2,2,2,2,1,1,1,0,0,0
72484000,72484000,4284000,36.660767899999996,126.3420992,-0.019717295,-0.011521934,-15.916797,-0.0001829405,0.0012795413,-0.013004914,0.013599051,0.005509963,-2.9138558,-2.9013648,-0.0013362077,0.015858341,-0.017971437,-0.096598536,-0.012127387,-0.067820765,1.5570581,-0.0035724666,30.116634,16.14958,0.48645067,0.3333039,0.17639193,0.11779614,inf,inf,inf,inf,1,1,1,1,2,2,2,2,2,1,1,1,0,0,0
72988000,72988000,4284000,36.660767899999996,126.3420992,-0.018482117,-0.013720359,-17.350807,-0.0001829405,0.0012795413,-0.013004914,-0.0012591062,0.0072386838,-2.8473356,-2.835087,-0.0013362077,0.015858341,-0.017971437,0.027339954,-0.0037631125,-0.039476898,1.5566156,-0.0035724666,30.116634,17.583591,0.49783677,0.33886153,0.1781884,0.11957316,inf,inf,inf,inf,1,1,1,1,2,2,2,2,2,1,1,1,0,0,0
73484000,73484000,4284000,36.660767899999996,126.3420992,-0.016463367,-0.013069322,-18.766985,-0.0001829405,0.0012795413,-0.013004914,0.0050776065,0.009051094,-2.8785424,-2.8683364,-0.0013362077,0.015858341,-0.017971437,0.0043791095,0.019619728,-0.036834735,1.5566337,-0.0035724666,30.116634,18.99977,0.46370533,0.32076305,0.16251682,0.11389963,inf,inf,inf,inf,1,1,1,1,2,2,2,2,2,1,1,1,0,0,0
73988000,73988000,4284000,36.660767899999996,126.3420992,-0.0032835426,-0.008449321,-20.209616,-0.0001829405,0.0012795413,-0.013004914,-0.00080891856,0.016522165,-2.904398,-2.8872201,-0.0013362077,0.015858341,-0.017971437,-0.0038841316,0.014026847,-0.03622565,1.5560374,-0.0035724666,30.116634,20.4424,0.47689828,0.32965967,0.16813341,0.116953604,inf,inf,inf,inf,1,1,1,1,2,2,2,2,2,1,1,1,0,0,0
74484000,74484000,4284000,36.660767899999996,126.3420992,-0.0046973014,0.001049387,-21.64785,-0.0001829405,0.0012795413,-0.013004914,-0.015642677,0.006960297,-2.9267364,-2.9112487,-0.0013362077,0.015858341,-0.017971437,0.021506798,-0.03410886,0.021545215,1.5559437,-0.0035724666,30.116634,21.880634,0.48972288,0.3363867,0.17355682,0.119343415,inf,inf,inf,inf,1,1,1,1,2,2,2,2,2,1,1,1,0,0,0
74988000,74988000,4284000,36.660767899999996,126.3420992,-0.016751869,0.0077957055,-23.109877,-0.0001829405,0.0012795413,-0.013004914,-0.0066148895,-0.0056988327,-2.937577,-2.91598,-0.0013362077,0.015858341,-0.017971437,0.07641555,-0.009512052,-0.014199874,1.5559151,-0.0035724666,30.116634,23.34266,0.4615779,0.32149112,0.16269186,0.11482522,inf,inf,inf,inf,1,1,1,1,2,2,2,2,2,1,1,1,0,0,0
75484000,75484000,4284000,36.660767899999996,126.3420992,-0.024362708,0.014228826,-24.552824,-0.0001829405,0.0012795413,-0.013004914,0.0034102267,-0.0062479526,-2.9493663,-2.923406,-0.0013362077,0.015858341,-0.017971437,0.009513393,0.039814062,-0.059156675,1.5559278,-0.0035724666,30.116634,24.785608,0.4727642,0.32886055,0.16780764,0.11710021,inf,inf,inf,inf,1,1,1,1,2,2,2,2,2,1,1,1,0,0,0
75988000,75988000,4284000,36.660767899999996,126.3420992,-0.03325971,0.018377466,-26.030994,-0.0001829405,0.0012795413,-0.013004914,0.0083677145,-0.01201419,-2.9597201,-2.936383,-0.0013362077,0.015858341,-0.017971437,0.038958978,-0.013012464,-0.063475214,1.5556713,-0.0035724666,30.116634,26.263779,0.4852511,0.33540872,0.1734023,0.11915966,inf,inf,inf,inf,1,1,1,1,2,2,2,2,2,1,1,1,0,0,0
76484000,76484000,4284000,36.660767899999996,126.3420992,-0.038532812,0.020188516,-27.521275,-0.0001829405,0.0012795413,-0.013004914,0.018811656,-0.007837108,-3.0693064,-3.0514047,-0.0013362077,0.015858341,-0.017971437,-0.061870135,0.029600162,0.075722106,1.5558611,-0.0035724666,30.116634,27.754059,0.49749175,0.3427804,0.1792301,0.12125248,inf,inf,inf,inf,1,1,1,1,2,2,2,2,2,1,1,1,0,0,0
76988000,76988000,4284000,36.660767899999996,126.3420992,-0.033409137,0.023174847,-29.021776,-0.0001829405,0.0012795413,-0.013004914,0.022468671,-0.02599737,-2.9950035,-2.98024,-0.0013362077,0.015858341,-0.017971437,0.057716507,-0.048400555,-0.8913399,1.5559816,-0.0035724666,30.116634,29.25456,0.4666809,0.32594562,0.166538,0.115919,inf,inf,inf,inf,1,1,1,1,2,2,2,2,2,1,1,1,0,0,0
77484000,77484000,4284000,36.660767899999996,126.3420992,-0.022132356,0.02006011,-30.535496,-0.0001829405,0.0012795413,-0.013004914,0.012934212,-0.015485564,-3.0604029,-3.0501325,-0.0013362077,0.015858341,-0.017971437,-0.057845492,-0.07971382,0.06381887,1.5559024,-0.0035724666,30.116634,30.76828,0.47746396,0.3312211,0.17181478,0.117582306,inf,inf,inf,inf,1,1,1,1,2,2,2,2,2,1,1,1,0,0,0
77988000,77988000,4284000,36.660767899999996,126.3420992,-0.016956616,0.016172431,-32.080364,-0.0001829405,0.0012795413,-0.013004914,-0.005294799,-0.015080957,-3.046309,-3.0452037,-0.0013362077,0.015858341,-0.017971437,-0.022223253,-0.033530053,0.037948597,1.5557289,-0.0035724666,30.116634,32.31315,0.48975962,0.3387285,0.1771505,0.119709864,inf,inf,inf,inf,1,1,1,1,2,2,2,2,2,1,1,1,0,0,0
78484000,78484000,4284000,36.660767899999996,126.3420992,-0.022895226,0.01260735,-33.591114,-0.0001829405,0.0012795413,-0.013004914,-0.0040148664,-0.015262052,-3.0347779,-3.0355887,-0.0013362077,0.015858341,-0.017971437,0.07134308,0.058863033,-0.008874572,1.5555693,-0.0035724666,30.116634,33.8239,0.50152355,0.34547895,0.18203326,0.121574655,inf,inf,inf,inf,1,1,1,1,2,2,2,2,2,1,1,1,0,0,0
78988000,78988000,4284000,36.660767899999996,126.3420992,-0.020652432,0.0077992138,-35.117332,-0.0001829405,0.0012795413,-0.013004914,0.008367076,-0.011228624,-3.026243,-3.0258176,-0.0013362077,0.015858341,-0.017971437,0.0055581033,-0.016882464,0.10688975,1.5558391,-0.0035724666,30.116634,35.350117,0.4692795,0.3263653,0.1686844,0.115776815,inf,inf,inf,inf,1,1,1,1,2,2,2,2,2,1,1,1,0,0,0
