timestamp,timestamp_sample,device_id,magnetometer_ga[0],magnetometer_ga[1],magnetometer_ga[2],calibration_count
3544000,3544000,197388,-0.042981375,-0.30092776,0.4042762,0
3676000,3616000,197388,-0.040321022,-0.2991786,0.40610808,0
3688000,3688000,197388,-0.042594574,-0.29600498,0.4121864,0
3820000,3759636,197388,-0.039291363,-0.30018455,0.4057181,0
3832000,3832000,197388,-0.04074255,-0.29675332,0.4141182,0
3964000,3904000,197388,-0.040442955,-0.3012492,0.40764615,0
3976000,3976000,197388,-0.036077287,-0.29891044,0.40691498,0
4108000,4047636,197388,-0.0374538,-0.29987466,0.40743867,0
4120000,4120000,197388,-0.03784096,-0.29344034,0.40711862,0
4252000,4191636,197388,-0.03771499,-0.30020863,0.40678185,0
4264000,4264000,197388,-0.040405434,-0.2949607,0.40492195,0
4396000,4336000,197388,-0.040439684,-0.30092075,0.4064658,0
4408000,4408000,197388,-0.038002923,-0.30550313,0.4073903,0
4540000,4479636,197388,-0.039349444,-0.299833,0.40703058,0
4552000,4552000,197388,-0.038316306,-0.29611474,0.4084606,0
4680000,4622181,197388,-0.04033087,-0.30049586,0.4052736,0
4696000,4696000,197388,-0.04025187,-0.29920107,0.40138087,0
4824000,4767272,197388,-0.038645275,-0.30040395,0.40897167,0
4840000,4840000,197388,-0.03221136,-0.29565904,0.40526104,0
4968000,4910545,197388,-0.039678503,-0.29992738,0.4071617,0
4984000,4984000,197388,-0.048418544,-0.29758504,0.41811433,0
5116000,5054909,197388,-0.041678082,-0.3005622,0.40423808,0
5124000,5124000,197388,-0.039661236,-0.29561156,0.4080959,0
5248000,5193200,197388,-0.038649615,-0.301222,0.40744382,0
5260000,5260000,197388,-0.038934175,-0.30087534,0.40815026,0
5392000,5331636,197388,-0.03949916,-0.2997505,0.40568027,0
5400000,5400000,197388,-0.037547376,-0.30293345,0.41204295,0
5524000,5469200,197388,-0.03780089,-0.29915503,0.40793833,0
5536000,5536000,197388,-0.042367265,-0.30311134,0.4010388,0
5664000,5607272,197388,-0.038878728,-0.299507,0.40754128,0
5680000,5680000,197388,-0.04069295,-0.29378128,0.41305912,0
5812000,5750909,197388,-0.041745793,-0.2988361,0.40838298,0
5824000,5824000,197388,-0.039159976,-0.30067283,0.40349793,0
5956000,5895636,197388,-0.03968059,-0.30078477,0.40607288,0
5964000,5964000,197388,-0.036117136,-0.2954815,0.4026786,0
6084000,6032800,197388,-0.040627267,-0.3002607,0.40584517,0
6112000,6104000,197388,-0.040799472,-0.29930496,0.40594912,0
6220000,6171111,197388,-0.040190987,-0.29828808,0.40679154,0
6244000,6238000,197388,-0.03875253,-0.30282134,0.40580922,0
6364000,6308800,197388,-0.040434025,-0.29693022,0.40774208,0
6376000,6376000,197388,-0.03581585,-0.30136883,0.4036186,0
6504000,6446181,197388,-0.040112734,-0.29964352,0.40593734,0
6520000,6520000,197388,-0.045758627,-0.3038109,0.40608934,0
6652000,6592000,197388,-0.038647965,-0.30047637,0.40714678,0
6664000,6664000,197388,-0.041875307,-0.30187553,0.40702558,0
6796000,6735272,197388,-0.039472237,-0.2991995,0.40595797,0
6808000,6808000,197388,-0.04614582,-0.30195737,0.40294358,0
6940000,6879272,197388,-0.040125165,-0.30109197,0.40944967,0
6952000,6952000,197388,-0.035998184,-0.30130887,0.40534925,0
7084000,7022909,197388,-0.040420067,-0.30037192,0.4069696,0
7096000,7096000,197388,-0.040588014,-0.29979292,0.40711775,0
7224000,7167272,197388,-0.03839727,-0.29813844,0.4054835,0
7240000,7240000,197388,-0.04238382,-0.3026569,0.41380528,0
7368000,7310909,197388,-0.039610136,-0.2989025,0.40770593,0
7384000,7384000,197388,-0.04167917,-0.30299357,0.40844166,0
7512000,7454909,197388,-0.040873166,-0.29743013,0.4103412,0
7528000,7528000,197388,-0.040466078,-0.29843092,0.41276675,0
7660000,7598909,197388,-0.039181523,-0.30080736,0.4089727,0
7672000,7672000,197388,-0.042094953,-0.2962972,0.4098177,0
7800000,7742909,197388,-0.03885031,-0.29856429,0.4071544,0
7816000,7816000,197388,-0.038743533,-0.30401048,0.39940277,0
7948000,7887636,197388,-0.039203078,-0.29977563,0.40490136,0
7960000,7960000,197388,-0.0412186,-0.29660684,0.41009685,0
8092000,8032000,197388,-0.039340742,-0.29933867,0.4076842,0
8104000,8104000,197388,-0.040415622,-0.30136395,0.40537,0
8236000,8176000,197388,-0.0386367,-0.3014101,0.40583694,0
8248000,8248000,197388,-0.04244955,-0.30066282,0.40234146,0
8376000,8319272,197388,-0.040941026,-0.30051303,0.40764418,0
8392000,8392000,197388,-0.044938616,-0.2996675,0.40804106,0
8524000,8463636,197388,-0.04158852,-0.3000291,0.40686622,0
8536000,8536000,197388,-0.04098944,-0.29934385,0.40626588,0
8664000,8607636,197388,-0.039947286,-0.29815003,0.40589073,0
8680000,8680000,197388,-0.040347997,-0.299842,0.41058636,0
8808000,8751272,197388,-0.040739007,-0.30049932,0.40662524,0
8824000,8824000,197388,-0.039182566,-0.303162,0.40594432,0
8956000,8896000,197388,-0.03992288,-0.30041248,0.40595564,0
8968000,8968000,197388,-0.040553436,-0.29567322,0.41108307,0
9100000,9038181,197388,-0.04118802,-0.29969597,0.40530434,0
9112000,9112000,197388,-0.045418303,-0.30118123,0.40238327,0
9244000,9183636,197388,-0.04047035,-0.29897937,0.40735802,0
9256000,9256000,197388,-0.040602297,-0.30412146,0.4055087,0
9388000,9327272,197388,-0.04096377,-0.30085328,0.4063863,0
9400000,9400000,197388,-0.044626992,-0.3057007,0.4123428,0
9532000,9472000,197388,-0.03991148,-0.29860213,0.40713406,0
9544000,9544000,197388,-0.04218461,-0.30630845,0.4074646,0
9672000,9615272,197388,-0.04161578,-0.3006333,0.40937373,0
9688000,9688000,197388,-0.041373346,-0.29951367,0.4020878,0
9820000,9759636,197388,-0.040964503,-0.298613,0.4055996,0
9832000,9832000,197388,-0.03520979,-0.29954693,0.41105896,0
9964000,9903272,197388,-0.040246516,-0.3014616,0.40583387,0
9972000,9972000,197388,-0.036811754,-0.2991688,0.40095887,0
10096000,10041200,197388,-0.041115694,-0.30047438,0.40598994,0
10120000,10112000,197388,-0.041874684,-0.3007246,0.41010338,0
10228000,10180000,197388,-0.040447798,-0.30154774,0.4072444,0
10264000,10250666,197388,-0.04150699,-0.3005973,0.40875143,0
10360000,10318000,197388,-0.03941886,-0.2984072,0.4055829,0
10408000,10390000,197388,-0.04137338,-0.30033433,0.407424,0
10504000,10462000,197388,-0.039874792,-0.29990742,0.40829673,0
10552000,10533000,197388,-0.03952295,-0.29757416,0.4056067,0
10648000,10605500,197388,-0.03925741,-0.29877123,0.4077105,0
10696000,10678000,197388,-0.04211101,-0.29927975,0.4085303,0
10792000,10749500,197388,-0.04075142,-0.30077952,0.40630105,0
10840000,10822000,197388,-0.041474897,-0.2982603,0.40725446,0
10936000,10892500,197388,-0.039475515,-0.2983397,0.4094382,0
10972000,10960000,197388,-0.040226523,-0.29784924,0.40140292,0
11080000,11031555,197388,-0.041633356,-0.30080053,0.40785557,0
11116000,11104000,197388,-0.03924176,-0.29978973,0.4049437,0
11224000,11176000,197388,-0.041003857,-0.29903057,0.40712896,0
11256000,11246666,197388,-0.03936199,-0.30436432,0.40929568,0
11368000,11319111,197388,-0.040951945,-0.30032006,0.4079844,0
11392000,11386000,197388,-0.039902657,-0.30305475,0.41150722,0
11512000,11457600,197388,-0.039836872,-0.30014884,0.40747508,0
11536000,11530000,197388,-0.04023224,-0.30249047,0.40644324,0
11656000,11601600,197388,-0.040587295,-0.29899323,0.40814406,0
11680000,11672000,197388,-0.042055145,-0.3000724,0.40791595,0
11784000,11738666,197388,-0.040113553,-0.30086762,0.40570766,0
11812000,11806000,197388,-0.046136692,-0.30210578,0.4091248,0
11932000,11877200,197388,-0.04070469,-0.29889873,0.40608484,0
11944000,11944000,197388,-0.040421233,-0.29709652,0.4083179,0
12076000,12015636,197388,-0.04071824,-0.29905763,0.40712675,0
12088000,12088000,197388,-0.03748999,-0.29919463,0.40658486,0
12216000,12159636,197388,-0.041203227,-0.2975607,0.40598094,0
12232000,12232000,197388,-0.038543634,-0.30606532,0.4009235,0
12364000,12303636,197388,-0.040898014,-0.30020627,0.40590048,0
12376000,12376000,197388,-0.03593112,-0.30141088,0.41063666,0
12504000,12446909,197388,-0.040507324,-0.30176744,0.40648413,0
12520000,12520000,197388,-0.03983778,-0.30360332,0.41238308,0
12652000,12591636,197388,-0.040018052,-0.30200508,0.40593183,0
12664000,12664000,197388,-0.043256965,-0.30302987,0.4111389,0
12796000,12735272,197388,-0.03892743,-0.29974198,0.40494773,0
12808000,12808000,197388,-0.03897405,-0.30141628,0.40251386,0
12940000,12879636,197388,-0.039846867,-0.30009112,0.4066122,0
12952000,12952000,197388,-0.03914442,-0.29541713,0.4045228,0
13084000,13023272,197388,-0.04152233,-0.30071712,0.4052271,0
13096000,13096000,197388,-0.04507762,-0.29732686,0.40874577,0
13228000,13167636,197388,-0.040715773,-0.29905143,0.40777817,0
13240000,13240000,197388,-0.03879351,-0.29712477,0.40748152,0
13372000,13311272,197388,-0.039253328,-0.30007276,0.40533292,0
13384000,13384000,197388,-0.042159785,-0.30254558,0.40728658,0
13516000,13455636,197388,-0.041658446,-0.30143097,0.40735337,0
13528000,13528000,197388,-0.04242468,-0.30047286,0.41528028,0
13660000,13599636,197388,-0.039425842,-0.30060917,0.40874022,0
13672000,13672000,197388,-0.050106242,-0.3055153,0.41085306,0
13804000,13743272,197388,-0.04090831,-0.30045676,0.40784365,0
13816000,13816000,197388,-0.04674986,-0.30318314,0.41269276,0
13948000,13888000,197388,-0.03929358,-0.3000999,0.40622067,0
13960000,13960000,197388,-0.036880143,-0.3060498,0.40648544,0
14092000,14030545,197388,-0.040007547,-0.29957348,0.40720144,0
14104000,14104000,197388,-0.040888976,-0.2995069,0.41116527,0
14232000,14175636,197388,-0.038797654,-0.3019179,0.40637863,0
14248000,14248000,197388,-0.035420924,-0.29990155,0.4036953,0
14380000,14319636,197388,-0.04029238,-0.300056,0.40786648,0
14392000,14392000,197388,-0.035868045,-0.2985251,0.40094185,0
14520000,14463272,197388,-0.040569562,-0.299478,0.4048496,0
14536000,14536000,197388,-0.04137703,-0.30052504,0.4046781,0
14664000,14607636,197388,-0.0402081,-0.2991036,0.4076058,0
14680000,14680000,197388,-0.036509626,-0.2972373,0.40887198,0
14812000,14752000,197388,-0.04009587,-0.29966247,0.40810448,0
14824000,14824000,197388,-0.042407434,-0.30117387,0.4014177,0
14956000,14895272,197388,-0.040023047,-0.3003789,0.40641284,0
14968000,14968000,197388,-0.034649048,-0.29897344,0.40636453,0
15100000,15040000,197388,-0.03972014,-0.2998468,0.40859285,0
15112000,15112000,197388,-0.042615555,-0.30350617,0.4082986,0
15244000,15182909,197388,-0.04132089,-0.2981512,0.40797225,0
15256000,15256000,197388,-0.04004716,-0.30339772,0.40262982,0
15388000,15326909,197388,-0.03943468,-0.30059394,0.4089918,0
15400000,15400000,197388,-0.03935763,-0.30038583,0.41055563,0
15532000,15470909,197388,-0.03925232,-0.29789725,0.40773055,0
15544000,15544000,197388,-0.037759997,-0.29650587,0.41445065,0
15676000,15616000,197388,-0.038586136,-0.30048332,0.40820304,0
15688000,15688000,197388,-0.039419174,-0.30590355,0.40640604,0
15816000,15759636,197388,-0.038701348,-0.2984595,0.40754166,0
15832000,15832000,197388,-0.039879493,-0.29870686,0.40993184,0
15964000,15902909,197388,-0.040109176,-0.300518,0.40722007,0
15976000,15976000,197388,-0.036039986,-0.29852647,0.40923998,0
16108000,16046909,197388,-0.039406687,-0.30091444,0.40699002,0
16120000,16120000,197388,-0.038680237,-0.29804096,0.4060365,0
16252000,16192000,197388,-0.03906712,-0.3010634,0.40838918,0
16264000,16264000,197388,-0.036360674,-0.29995382,0.4026926,0
16396000,16336000,197388,-0.0390485,-0.2996718,0.40918726,0
16408000,16408000,197388,-0.03781948,-0.30131453,0.4044829,0
16540000,16479272,197388,-0.040459882,-0.29917285,0.4071459,0
16552000,16552000,197388,-0.04263136,-0.30434063,0.41137496,0
16684000,16623636,197388,-0.040102392,-0.30199614,0.40555352,0
16696000,16696000,197388,-0.03896751,-0.29917905,0.40827778,0
16824000,16767272,197388,-0.041096818,-0.30180922,0.4056694,0
16836000,16836000,197388,-0.045047183,-0.30006105,0.40396136,0
16960000,16905600,197388,-0.039397985,-0.30051923,0.40852934,0
16984000,16978000,197388,-0.040222943,-0.30189043,0.40519392,0
17104000,17049600,197388,-0.039229196,-0.29900476,0.40755913,0
17128000,17122000,197388,-0.043532964,-0.30054596,0.410778,0
17248000,17193600,197388,-0.03995253,-0.29821625,0.4051821,0
17272000,17266000,197388,-0.04342681,-0.30049515,0.40900204,0
17392000,17337200,197388,-0.039091635,-0.29826015,0.407809,0
17404000,17404000,197388,-0.042057037,-0.3000439,0.40703964,0
17536000,17475272,197388,-0.04120183,-0.30086806,0.4082632,0
17548000,17548000,197388,-0.03884093,-0.29605117,0.40540978,0
17680000,17619636,197388,-0.040227164,-0.3005298,0.4073712,0
17692000,17692000,197388,-0.043681543,-0.29392257,0.40891758,0
17824000,17763272,197388,-0.04011828,-0.3018693,0.4081473,0
17836000,17836000,197388,-0.042166583,-0.30565864,0.40127683,0
17968000,17908000,197388,-0.04031185,-0.29953605,0.40664595,0
17980000,17980000,197388,-0.042066406,-0.29931805,0.40329933,0
18112000,18051636,197388,-0.04073847,-0.30209282,0.4071013,0
18120000,18120000,197388,-0.041013036,-0.30343458,0.40903962,0
18244000,18189600,197388,-0.041248757,-0.29945484,0.4085662,0
18268000,18260000,197388,-0.04100927,-0.29998457,0.4099299,0
18376000,18328000,197388,-0.040127996,-0.29905263,0.40719822,0
18412000,18400000,197388,-0.039915845,-0.30061328,0.40710682,0
18520000,18472000,197388,-0.039660532,-0.29836273,0.41018477,0
18552000,18542666,197388,-0.03907032,-0.30139554,0.40397987,0
18652000,18610000,197388,-0.040886506,-0.3007949,0.4075278,0
18700000,18682000,197388,-0.040457327,-0.29984772,0.4055941,0
18792000,18753000,197388,-0.04000818,-0.30014715,0.40569562,0
18832000,18820000,197388,-0.037569936,-0.29853952,0.41039562,0
18940000,18892000,197388,-0.04117063,-0.2987854,0.40658972,0
18976000,18962666,197388,-0.038738098,-0.3004846,0.40660453,0
19072000,19029500,197388,-0.04034584,-0.2992874,0.4074279,0
19120000,19102000,197388,-0.039137274,-0.29943067,0.40567,0
19216000,19173500,197388,-0.039692942,-0.30221224,0.40823942,0
19264000,19245000,197388,-0.03970512,-0.29876003,0.40523475,0
19360000,19317000,197388,-0.03861495,-0.3024724,0.4054904,0
19396000,19384000,197388,-0.041585706,-0.29688323,0.4090693,0
19504000,19455555,197388,-0.03960352,-0.2986804,0.405322,0
19540000,19528000,197388,-0.041070253,-0.30082753,0.40782255,0
19648000,19599555,197388,-0.040828224,-0.29914886,0.4072904,0
19684000,19672000,197388,-0.042106256,-0.2989766,0.40525955,0
19792000,19743111,197388,-0.03964146,-0.29960144,0.40665996,0
19816000,19810000,197388,-0.038381413,-0.30061996,0.40698382,0
19936000,19881600,197388,-0.040159177,-0.30010375,0.40745345,0
19960000,19954000,197388,-0.041225463,-0.30112746,0.40939984,0
20080000,20025600,197388,-0.041307405,-0.2988817,0.40588498,0
20104000,20096000,197388,-0.04118529,-0.30186248,0.40692514,0
20212000,20163555,197388,-0.042099647,-0.30045962,0.40866545,0
20248000,20236000,197388,-0.041867025,-0.29722288,0.40520406,0
20356000,20307555,197388,-0.038838968,-0.30054688,0.4080079,0
20392000,20380000,197388,-0.039792545,-0.3010541,0.4102883,0
20496000,20451111,197388,-0.040698543,-0.29997417,0.40616962,0
20524000,20518000,197388,-0.03636563,-0.30088437,0.40725815,0
20644000,20589200,197388,-0.04170992,-0.29725653,0.40639248,0
20656000,20656000,197388,-0.03656664,-0.30172879,0.4082403,0
20788000,20728000,197388,-0.041737657,-0.30017716,0.40730608,0
20800000,20800000,197388,-0.042234734,-0.30025685,0.40490243,0
20932000,20870909,197388,-0.04014963,-0.3004874,0.40825287,0
20944000,20944000,197388,-0.042563133,-0.29663953,0.40076825,0
21076000,21015636,197388,-0.039768018,-0.29779786,0.40575925,0
21088000,21088000,197388,-0.038449973,-0.30052894,0.40853748,0
21220000,21160000,197388,-0.03926209,-0.2974535,0.40793362,0
21232000,21232000,197388,-0.03917992,-0.29950705,0.40664035,0
21364000,21303272,197388,-0.040003117,-0.29848325,0.4073104,0
21376000,21376000,197388,-0.04886463,-0.2985688,0.4053196,0
21504000,21446909,197388,-0.03963722,-0.29984853,0.40498644,0
21520000,21520000,197388,-0.046817336,-0.30324838,0.41101205,0
21652000,21591272,197388,-0.040713925,-0.3004874,0.40651378,0
21664000,21664000,197388,-0.035977334,-0.29613307,0.40618998,0
21792000,21735272,197388,-0.040457167,-0.29971677,0.4082071,0
21808000,21808000,197388,-0.041100387,-0.29796055,0.4003056,0
21940000,21878909,197388,-0.040956467,-0.29945084,0.4061272,0
21952000,21952000,197388,-0.043056358,-0.29847297,0.4110316,0
22084000,22023636,197388,-0.041654836,-0.29858157,0.4083561,0
22096000,22096000,197388,-0.04762882,-0.30085218,0.40772977,0
22224000,22166909,197388,-0.038899988,-0.2987047,0.4060692,0
22240000,22240000,197388,-0.033889834,-0.30074897,0.4099652,0
22372000,22312000,197388,-0.04197013,-0.29886872,0.40709293,0
22384000,22384000,197388,-0.04156813,-0.30063173,0.40690777,0
22516000,22455272,197388,-0.039511465,-0.29950368,0.40707207,0
22528000,22528000,197388,-0.03877306,-0.29726294,0.41261443,0
22660000,22599636,197388,-0.03910835,-0.29947248,0.40677008,0
22672000,22672000,197388,-0.043958608,-0.30675533,0.40233707,0
22800000,22743272,197388,-0.039376486,-0.29831064,0.40680024,0
22816000,22816000,197388,-0.04027154,-0.2971473,0.40283188,0
22948000,22887272,197388,-0.041226853,-0.29995012,0.40615544,0
22960000,22960000,197388,-0.041944634,-0.3032118,0.40923488,0
23092000,23031636,197388,-0.040865183,-0.2997566,0.4081881,0
23100000,23100000,197388,-0.042614117,-0.30082166,0.411059,0
23224000,23169200,197388,-0.041154698,-0.29925904,0.4061657,0
23236000,23236000,197388,-0.042115342,-0.30228806,0.40694883,0
23368000,23307272,197388,-0.042042308,-0.29975095,0.4051102,0
23380000,23380000,197388,-0.032491643,-0.2940551,0.40949583,0
23512000,23452000,197388,-0.04165459,-0.29995695,0.4083641,0
23520000,23520000,197388,-0.035004165,-0.2920669,0.41291952,0
23644000,23589200,197388,-0.04301494,-0.30016702,0.4077373,0
23656000,23656000,197388,-0.039114945,-0.29796377,0.41165584,0
23788000,23727272,197388,-0.041399192,-0.29926577,0.4073163,0
23800000,23800000,197388,-0.04568333,-0.29521486,0.40582484,0
23928000,23870909,197388,-0.041025463,-0.30227152,0.4082565,0
23944000,23944000,197388,-0.044351112,-0.30191728,0.4069471,0
24076000,24015636,197388,-0.039042465,-0.2979676,0.40486068,0
24088000,24088000,197388,-0.037484676,-0.2998229,0.40647003,0
24220000,24159636,197388,-0.04206813,-0.30149737,0.40639982,0
24232000,24232000,197388,-0.044542436,-0.3020802,0.40456423,0
24360000,24302545,197388,-0.040487308,-0.2995392,0.4055886,0
24376000,24376000,197388,-0.040206246,-0.29848593,0.40918562,0
24508000,24446909,197388,-0.039453767,-0.29958144,0.40615535,0
24520000,24520000,197388,-0.03588606,-0.2991994,0.4128855,0
24652000,24592000,197388,-0.04013343,-0.29879606,0.40708825,0
24664000,24664000,197388,-0.035267357,-0.2990546,0.4104954,0
24796000,24734909,197388,-0.04117269,-0.30034247,0.40663323,0
24808000,24808000,197388,-0.035142254,-0.30104604,0.40937647,0
24940000,24878181,197388,-0.038942803,-0.29879996,0.40720758,0
24952000,24952000,197388,-0.04303959,-0.30061167,0.40718335,0
25084000,25023636,197388,-0.040765412,-0.299568,0.4079751,0
25096000,25096000,197388,-0.046829302,-0.2940292,0.40527067,0
25228000,25166909,197388,-0.03879554,-0.2991438,0.40610176,0
25240000,25240000,197388,-0.041230712,-0.29945934,0.40523517,0
25372000,25311636,197388,-0.039123174,-0.29982013,0.40812758,0
25384000,25384000,197388,-0.04273105,-0.29628685,0.40687868,0
25516000,25455272,197388,-0.040597975,-0.3002262,0.40821242,0
25528000,25528000,197388,-0.03925609,-0.29895955,0.40756392,0
25656000,25599272,197388,-0.041478325,-0.29949483,0.40678516,0
25672000,25672000,197388,-0.04165553,-0.29737616,0.40090385,0
25804000,25743636,197388,-0.039675336,-0.29861584,0.40567806,0
25816000,25816000,197388,-0.041289497,-0.29338905,0.41260618,0
25944000,25887272,197388,-0.041027967,-0.30091015,0.40756145,0
25960000,25960000,197388,-0.042049587,-0.29541123,0.4101019,0
26088000,26031272,197388,-0.041203815,-0.30027413,0.40651694,0
26104000,26104000,197388,-0.041748084,-0.30486912,0.4131147,0
26236000,26175636,197388,-0.03964332,-0.29979596,0.40669486,0
26248000,26248000,197388,-0.04337202,-0.29729977,0.40671182,0
26380000,26319636,197388,-0.040695567,-0.29878446,0.40630203,0
26392000,26392000,197388,-0.041526884,-0.29826844,0.40431502,0
26520000,26462909,197388,-0.040098667,-0.29800463,0.40434256,0
26536000,26536000,197388,-0.042055666,-0.29300284,0.40800565,0
26668000,26607272,197388,-0.03901098,-0.30082023,0.4053184,0
26680000,26680000,197388,-0.04198472,-0.29433653,0.40541926,0
26808000,26751636,197388,-0.040551357,-0.29874542,0.407596,0
26824000,26824000,197388,-0.04407264,-0.29444194,0.40243545,0
26956000,26896000,197388,-0.040872663,-0.29868203,0.40502137,0
26968000,26968000,197388,-0.04666512,-0.30382213,0.40725812,0
27096000,27039272,197388,-0.040851437,-0.29754123,0.40628615,0
27112000,27112000,197388,-0.03932046,-0.2942353,0.4007858,0
27244000,27184000,197388,-0.041766435,-0.30086145,0.40732273,0
27256000,27256000,197388,-0.04055613,-0.29471865,0.40595928,0
27384000,27327636,197388,-0.039297182,-0.3008099,0.40743932,0
27400000,27400000,197388,-0.04021897,-0.29181576,0.40578988,0
27532000,27471636,197388,-0.041354597,-0.2996812,0.40421543,0
27544000,27544000,197388,-0.03993587,-0.29625124,0.40701103,0
27676000,27616000,197388,-0.041268338,-0.3014616,0.4061446,0
27688000,27688000,197388,-0.048567746,-0.30636162,0.40314463,0
27820000,27758545,197388,-0.040514525,-0.30049595,0.40691918,0
27832000,27832000,197388,-0.041175056,-0.3001097,0.40218183,0
27964000,27903272,197388,-0.037322808,-0.30052647,0.40778437,0
27976000,27976000,197388,-0.044402447,-0.30445763,0.40404144,0
28108000,28046909,197388,-0.040937327,-0.29950643,0.4091247,0
28120000,28120000,197388,-0.04353869,-0.30187455,0.41396886,0
28252000,28191636,197388,-0.038376175,-0.30105972,0.40651232,0
28264000,28264000,197388,-0.036965005,-0.30091608,0.40601698,0
28396000,28336000,197388,-0.03939003,-0.2988064,0.40803242,0
28408000,28408000,197388,-0.04232916,-0.29994982,0.40729663,0
28540000,28478909,197388,-0.041373383,-0.29962987,0.40683937,0
28552000,28552000,197388,-0.035344582,-0.30130512,0.40660805,0
28684000,28623272,197388,-0.038235214,-0.29955542,0.40707436,0
28696000,28696000,197388,-0.041655257,-0.30244726,0.41127676,0
28828000,28766909,197388,-0.04075177,-0.3023818,0.40669915,0
28840000,28840000,197388,-0.035876527,-0.29727632,0.40417084,0
28972000,28911636,197388,-0.039572015,-0.29991788,0.40651384,0
28984000,28984000,197388,-0.038567103,-0.29591396,0.40731546,0
29116000,29055636,197388,-0.040617865,-0.29999965,0.40694752,0
29128000,29128000,197388,-0.038511198,-0.30269212,0.4052123,0
29260000,29200000,197388,-0.040699404,-0.30041614,0.40775776,0
29272000,29272000,197388,-0.03663879,-0.29680327,0.40598807,0
29404000,29344000,197388,-0.039198097,-0.30126286,0.40800342,0
29416000,29416000,197388,-0.034906458,-0.29688856,0.41562074,0
29544000,29486909,197388,-0.039419312,-0.30036187,0.40776053,0
29560000,29560000,197388,-0.043493047,-0.29571003,0.41630673,0
29692000,29631272,197388,-0.040785708,-0.29969096,0.40865245,0
29704000,29704000,197388,-0.0363857,-0.30036375,0.39829418,0
29836000,29775636,197388,-0.041085787,-0.29900572,0.40685564,0
29848000,29848000,197388,-0.032861087,-0.30171636,0.40905932,0
29980000,29919636,197388,-0.041492533,-0.29864493,0.4074072,0
29992000,29992000,197388,-0.038276784,-0.3091563,0.40874386,0
30120000,30062909,197388,-0.04093411,-0.30088428,0.40951353,0
30136000,30136000,197388,-0.038347337,-0.2976083,0.40663213,0
30268000,30207636,197388,-0.04089763,-0.29917163,0.40594852,0
30280000,30280000,197388,-0.034458958,-0.30539298,0.40087727,0
30408000,30351636,197388,-0.041494522,-0.29980275,0.40665412,0
30424000,30424000,197388,-0.043138187,-0.3042042,0.40672466,0
30556000,30495636,197388,-0.039468817,-0.3009799,0.40702,0
30568000,30568000,197388,-0.039323356,-0.30466488,0.40554786,0
30700000,30640000,197388,-0.04208311,-0.29938132,0.40529925,0
30712000,30712000,197388,-0.03937496,-0.29859474,0.40926087,0
30844000,30783636,197388,-0.039355896,-0.29949006,0.40829426,0
30856000,30856000,197388,-0.039052542,-0.29947254,0.40641442,0
30984000,30927636,197388,-0.040537298,-0.29970634,0.40872827,0
31000000,31000000,197388,-0.03755537,-0.3052201,0.40329134,0
31128000,31071272,197388,-0.039251216,-0.3000115,0.40734205,0
31144000,31144000,197388,-0.041249286,-0.29563245,0.40675783,0
31276000,31216000,197388,-0.040924754,-0.30004722,0.4048555,0
31288000,31288000,197388,-0.039539468,-0.30076525,0.4044016,0
31416000,31359272,197388,-0.039874095,-0.29981112,0.4056491,0
31432000,31432000,197388,-0.046022717,-0.2998248,0.4096275,0
31564000,31503272,197388,-0.041247644,-0.2997466,0.40748593,0
31576000,31576000,197388,-0.041043933,-0.30020344,0.41623935,0
31708000,31648000,197388,-0.03954627,-0.29870617,0.40730357,0
31720000,31720000,197388,-0.042492352,-0.2908658,0.40850517,0
31852000,31791636,197388,-0.038960375,-0.29893735,0.40667114,0
31864000,31864000,197388,-0.040205948,-0.30410063,0.40288198,0
31992000,31935272,197388,-0.04076952,-0.3,0.40631995,0
32008000,32008000,197388,-0.0440295,-0.29780608,0.41716048,0
32140000,32080000,197388,-0.039566197,-0.30032802,0.40765205,0
32152000,32152000,197388,-0.042536967,-0.30065772,0.4120779,0
32284000,32223636,197388,-0.039674386,-0.30060852,0.40602756,0
32296000,32296000,197388,-0.039615866,-0.2963341,0.40530753,0
32428000,32367636,197388,-0.039483137,-0.30000132,0.40564036,0
32440000,32440000,197388,-0.03604671,-0.30035794,0.4066762,0
32572000,32511272,197388,-0.039245386,-0.29998472,0.40696707,0
32584000,32584000,197388,-0.044824053,-0.30236152,0.4043097,0
32712000,32655636,197388,-0.04198823,-0.29953048,0.40670538,0
32728000,32728000,197388,-0.032771423,-0.29802924,0.40801504,0
32860000,32799272,197388,-0.039808262,-0.29871923,0.4073626,0
32872000,32872000,197388,-0.044169664,-0.298574,0.40426004,0
33004000,32943272,197388,-0.04219243,-0.30038863,0.40803096,0
33016000,33016000,197388,-0.040510323,-0.3053258,0.40533435,0
33148000,33086545,197388,-0.041246507,-0.29940405,0.40884024,0
33160000,33160000,197388,-0.03876355,-0.29564103,0.40558,0
33292000,33231272,197388,-0.040194094,-0.30163446,0.40578085,0
33304000,33304000,197388,-0.041231282,-0.3034984,0.41055483,0
33436000,33375636,197388,-0.040971916,-0.29968324,0.4091371,0
33448000,33448000,197388,-0.04068972,-0.29294226,0.40938693,0
33576000,33518909,197388,-0.040395774,-0.2994987,0.40664393,0
33592000,33592000,197388,-0.041759953,-0.3020232,0.40711558,0
33724000,33663272,197388,-0.03911231,-0.29994872,0.40628412,0
33736000,33736000,197388,-0.03895342,-0.29974875,0.41179377,0
33868000,33807636,197388,-0.041301638,-0.29930973,0.40734002,0
33880000,33880000,197388,-0.041086204,-0.303315,0.40370673,0
34008000,33950545,197388,-0.0411649,-0.30071986,0.40789992,0
34024000,34024000,197388,-0.03378877,-0.29493177,0.40638012,0
34152000,34094909,197388,-0.040987223,-0.29640585,0.40864533,0
34168000,34168000,197388,-0.03925783,-0.3055389,0.406289,0
34300000,34239272,197388,-0.039212674,-0.29791307,0.40738446,0
34312000,34312000,197388,-0.028212097,-0.3047245,0.40793583,0
34444000,34384000,197388,-0.03894475,-0.29876974,0.40662155,0
34456000,34456000,197388,-0.041839566,-0.30611527,0.40901503,0
34588000,34527272,197388,-0.039443124,-0.30091685,0.40826377,0
34600000,34600000,197388,-0.040202007,-0.3040131,0.40694323,0
34732000,34672000,197388,-0.040530086,-0.30075827,0.4066018,0
34744000,34744000,197388,-0.035636183,-0.30296504,0.41322753,0
34876000,34815272,197388,-0.040542055,-0.30008268,0.40582103,0
34888000,34888000,197388,-0.04726924,-0.29744855,0.4029387,0
35016000,34958545,197388,-0.042532083,-0.3002145,0.40659893,0
35032000,35032000,197388,-0.035422686,-0.29548404,0.40592465,0
35164000,35104000,197388,-0.04032836,-0.3006404,0.40671873,0
35176000,35176000,197388,-0.044232562,-0.29872647,0.41204002,0
35308000,35246545,197388,-0.03987067,-0.29886994,0.40687424,0
35320000,35320000,197388,-0.03971109,-0.30216485,0.4084664,0
35452000,35391272,197388,-0.039243653,-0.29942703,0.40542752,0
35464000,35464000,197388,-0.04179468,-0.29707438,0.4128933,0
35592000,35535272,197388,-0.040678483,-0.29931992,0.4054939,0
35608000,35608000,197388,-0.04314932,-0.29946944,0.40591958,0
35736000,35678909,197388,-0.040386416,-0.2977017,0.4079578,0
35752000,35752000,197388,-0.037456512,-0.30280104,0.41022995,0
35884000,35823272,197388,-0.039565694,-0.30095333,0.4052752,0
35896000,35896000,197388,-0.03694325,-0.30481192,0.4059418,0
36028000,35967636,197388,-0.04125741,-0.29937926,0.40697265,0
36040000,36040000,197388,-0.03779284,-0.30110228,0.407921,0
36172000,36111636,197388,-0.04122041,-0.29945397,0.40655848,0
36184000,36184000,197388,-0.041834604,-0.29545796,0.40773442,0
36316000,36255636,197388,-0.039033715,-0.29912356,0.4090953,0
36328000,36328000,197388,-0.04564735,-0.3045666,0.40485615,0
36456000,36399272,197388,-0.04008923,-0.29920688,0.40673614,0
36472000,36472000,197388,-0.03920734,-0.30149552,0.4125283,0
36604000,36543272,197388,-0.040951647,-0.30108985,0.4078361,0
36616000,36616000,197388,-0.05240118,-0.30006203,0.40279666,0
36748000,36687272,197388,-0.040449955,-0.29852408,0.40742043,0
36760000,36760000,197388,-0.043578025,-0.301718,0.40390256,0
36892000,36831272,197388,-0.0389385,-0.29990155,0.40495887,0
36904000,36904000,197388,-0.040159166,-0.29875633,0.4071441,0
37036000,36975636,197388,-0.039925586,-0.29786557,0.40607363,0
37048000,37048000,197388,-0.03875898,-0.29613268,0.40815705,0
37176000,37118909,197388,-0.041494157,-0.29932505,0.40679643,0
37192000,37192000,197388,-0.04094974,-0.2966761,0.4031663,0
37320000,37263272,197388,-0.040682405,-0.30008233,0.40675488,0
37336000,37336000,197388,-0.04061476,-0.29920763,0.41263443,0
37468000,37407636,197388,-0.039189674,-0.29944235,0.40471116,0
37480000,37480000,197388,-0.039576788,-0.29582608,0.40780243,0
37608000,37551272,197388,-0.040090445,-0.29655808,0.4078749,0
37624000,37624000,197388,-0.03762997,-0.30615786,0.40498453,0
37752000,37694545,197388,-0.03837647,-0.30124217,0.40669888,0
37768000,37768000,197388,-0.047619533,-0.3018922,0.40493283,0
37900000,37839636,197388,-0.04146251,-0.30103803,0.40668425,0
37912000,37912000,197388,-0.034932163,-0.29686356,0.4106593,0
38044000,37983636,197388,-0.03944362,-0.3015575,0.40766218,0
38056000,38056000,197388,-0.040585406,-0.29800862,0.40721762,0
38188000,38128000,197388,-0.040107243,-0.29838085,0.40751752,0
38200000,38200000,197388,-0.040645905,-0.30059287,0.40648007,0
38332000,38271636,197388,-0.039029546,-0.2986949,0.40783507,0
38344000,38344000,197388,-0.03917745,-0.299819,0.4070397,0
38476000,38416000,197388,-0.039420098,-0.29998085,0.40589434,0
38488000,38488000,197388,-0.042116065,-0.2994832,0.41185978,0
38620000,38559636,197388,-0.038007498,-0.301196,0.4064822,0
38632000,38632000,197388,-0.03699705,-0.29570335,0.4055014,0
38764000,38703636,197388,-0.040231854,-0.30039832,0.4078984,0
38776000,38776000,197388,-0.044875547,-0.30189738,0.40668905,0
38908000,38847636,197388,-0.039539546,-0.29947844,0.40661803,0
38920000,38920000,197388,-0.035903838,-0.30595306,0.40852335,0
39048000,38991636,197388,-0.04074252,-0.29965374,0.4072461,0
39064000,39064000,197388,-0.041467223,-0.29837966,0.4067398,0
39196000,39135272,197388,-0.039776642,-0.30054218,0.4060881,0
39208000,39208000,197388,-0.03901892,-0.303049,0.4046903,0
39340000,39279636,197388,-0.040376138,-0.29959062,0.40605992,0
39352000,39352000,197388,-0.041440245,-0.300284,0.41143212,0
39484000,39424000,197388,-0.03960377,-0.29910514,0.40514365,0
39496000,39496000,197388,-0.03366692,-0.30357677,0.40227273,0
39628000,39567636,197388,-0.038139593,-0.29990745,0.4073069,0
39640000,39640000,197388,-0.04400385,-0.29091698,0.408386,0
39768000,39711636,197388,-0.039102703,-0.29955772,0.40635392,0
39784000,39784000,197388,-0.03706902,-0.30165938,0.41052526,0
39912000,39855272,197388,-0.039671034,-0.30055204,0.40477648,0
39928000,39928000,197388,-0.043024845,-0.30346575,0.40724087,0
40060000,39999272,197388,-0.040615868,-0.29902005,0.4082984,0
40072000,40072000,197388,-0.041935746,-0.30069387,0.40946797,0
40204000,40142181,197388,-0.0389739,-0.30032638,0.40771475,0
40216000,40216000,197388,-0.045848273,-0.3042594,0.4039349,0
40348000,40288000,197388,-0.039750006,-0.3021728,0.40591744,0
40360000,40360000,197388,-0.04021879,-0.29911405,0.40900642,0
40492000,40432000,197388,-0.039983694,-0.29952297,0.408292,0
40504000,40504000,197388,-0.04019184,-0.30023193,0.40883097,0
40632000,40575272,197388,-0.042611014,-0.2992908,0.40727317,0
40648000,40648000,197388,-0.035228863,-0.29622057,0.40845257,0
40780000,40719636,197388,-0.039102957,-0.2982463,0.4070282,0
40792000,40792000,197388,-0.037110534,-0.2906037,0.40764648,0
40924000,40864000,197388,-0.040932674,-0.30208567,0.4066001,0
40936000,40936000,197388,-0.03423776,-0.29777735,0.4076147,0
41064000,41007636,197388,-0.040363364,-0.30041674,0.40672746,0
41080000,41080000,197388,-0.03500497,-0.30004814,0.40369716,0
41212000,41151636,197388,-0.038821775,-0.29979444,0.40772724,0
41224000,41224000,197388,-0.03312392,-0.3009717,0.40591127,0
41356000,41296000,197388,-0.038549434,-0.29981852,0.4071535,0
41368000,41368000,197388,-0.039077252,-0.29745683,0.40629384,0
41500000,41438909,197388,-0.041958887,-0.30097717,0.40772238,0
41512000,41512000,197388,-0.041507293,-0.30743375,0.40607715,0
41640000,41582909,197388,-0.04105045,-0.30030918,0.40736985,0
41656000,41656000,197388,-0.042052776,-0.2995031,0.406653,0
41784000,41726909,197388,-0.040793378,-0.299861,0.40902972,0
41800000,41800000,197388,-0.04761832,-0.29746735,0.40962696,0
41932000,41871272,197388,-0.039768208,-0.30249605,0.40854967,0
41944000,41944000,197388,-0.03970436,-0.30524853,0.40834185,0
42076000,42015272,197388,-0.0386566,-0.29774025,0.40873003,0
42088000,42088000,197388,-0.034848973,-0.30081844,0.4048882,0
42220000,42159272,197388,-0.041526567,-0.3005063,0.40695652,0
42232000,42232000,197388,-0.03638503,-0.29681146,0.41039726,0
42364000,42303636,197388,-0.038317904,-0.30152488,0.40813947,0
42376000,42376000,197388,-0.040317178,-0.29756606,0.4114517,0
42508000,42448000,197388,-0.041439258,-0.29982924,0.40639606,0
42520000,42520000,197388,-0.038894463,-0.29950154,0.40756413,0
42652000,42591636,197388,-0.03823375,-0.3001105,0.40800324,0
42664000,42664000,197388,-0.04307478,-0.30320114,0.40873134,0
42796000,42736000,197388,-0.03775856,-0.29922292,0.4083513,0
42808000,42808000,197388,-0.042955242,-0.302672,0.41043088,0
42940000,42880000,197388,-0.038876876,-0.3013553,0.40652362,0
42952000,42952000,197388,-0.04167117,-0.30094525,0.40676266,0
43080000,43022909,197388,-0.037783545,-0.30065542,0.40608603,0
43096000,43096000,197388,-0.042387318,-0.2965365,0.40278488,0
43228000,43168000,197388,-0.040302157,-0.299237,0.40493545,0
43240000,43240000,197388,-0.039937094,-0.30028892,0.4063578,0
43372000,43311636,197388,-0.040367275,-0.29839745,0.40643832,0
43384000,43384000,197388,-0.03818925,-0.29901603,0.40262455,0
43512000,43454909,197388,-0.0413885,-0.2976092,0.40863705,0
43528000,43528000,197388,-0.042058382,-0.30568334,0.4006686,0
43660000,43599272,197388,-0.04037508,-0.2986747,0.40732002,0
43672000,43672000,197388,-0.04006668,-0.30081266,0.40285766,0
43804000,43743272,197388,-0.039190028,-0.29857507,0.4068591,0
43816000,43816000,197388,-0.03802334,-0.29553285,0.40442517,0
43948000,43887636,197388,-0.039886117,-0.2966197,0.40801916,0
43960000,43960000,197388,-0.041836467,-0.30298847,0.4076866,0
44092000,44031272,197388,-0.04084831,-0.29924968,0.40733147,0
44104000,44104000,197388,-0.044103686,-0.29903987,0.4029906,0
44236000,44175636,197388,-0.041809976,-0.29975984,0.40537506,0
44248000,44248000,197388,-0.03521809,-0.30258152,0.40738463,0
44380000,44320000,197388,-0.04096015,-0.30201906,0.4089213,0
44392000,44392000,197388,-0.04534411,-0.29936016,0.4032067,0
44524000,44463272,197388,-0.03827086,-0.29859367,0.4078987,0
44536000,44536000,197388,-0.041578118,-0.2930516,0.40424967,0
44668000,44607272,197388,-0.039744418,-0.3000876,0.40916675,0
44680000,44680000,197388,-0.04698114,-0.299771,0.41134775,0
44812000,44752000,197388,-0.039722092,-0.29974833,0.40864456,0
44824000,44824000,197388,-0.039934825,-0.30285648,0.41581947,0
44956000,44895272,197388,-0.041328672,-0.29838014,0.40801445,0
44968000,44968000,197388,-0.037154596,-0.29968253,0.40421277,0
45100000,45039636,197388,-0.038115725,-0.3013289,0.40671214,0
45112000,45112000,197388,-0.034954958,-0.29852754,0.40854436,0
45244000,45183636,197388,-0.042241756,-0.3006081,0.40650496,0
45256000,45256000,197388,-0.04269994,-0.29816255,0.40336275,0
45384000,45327272,197388,-0.041391008,-0.29949775,0.40475243,0
45400000,45400000,197388,-0.0323896,-0.29967302,0.40373033,0
45528000,45471272,197388,-0.041762017,-0.29912767,0.40779814,0
45544000,45544000,197388,-0.037210483,-0.30112833,0.40787044,0
45672000,45615636,197388,-0.040490363,-0.30013305,0.40653434,0
45688000,45688000,197388,-0.04329623,-0.30186185,0.41308308,0
45816000,45759272,197388,-0.03983482,-0.30036533,0.40731063,0
45832000,45832000,197388,-0.035972025,-0.3032659,0.40873024,0
45960000,45902909,197388,-0.040321697,-0.3005875,0.40760207,0
45976000,45976000,197388,-0.044004574,-0.30523747,0.40582335,0
46108000,46047272,197388,-0.03858738,-0.2998216,0.40749222,0
46120000,46120000,197388,-0.047894962,-0.2989758,0.40815416,0
46248000,46190909,197388,-0.03902781,-0.2994528,0.40749422,0
46264000,46264000,197388,-0.04334587,-0.3062858,0.40876198,0
46396000,46334909,197388,-0.03815079,-0.29932114,0.4070995,0
46408000,46408000,197388,-0.038184125,-0.30029562,0.40526494,0
46540000,46479636,197388,-0.040430065,-0.3001613,0.4080757,0
46552000,46552000,197388,-0.036825463,-0.30032206,0.40563738,0
46684000,46624000,197388,-0.04014528,-0.2973963,0.4082606,0
46696000,46696000,197388,-0.038115174,-0.29435626,0.41287184,0
46824000,46767272,197388,-0.040170196,-0.29966393,0.4074183,0
46840000,46840000,197388,-0.04306125,-0.29714054,0.40518087,0
46968000,46911636,197388,-0.041804846,-0.29909816,0.40630728,0
46984000,46984000,197388,-0.03979537,-0.29275167,0.4067528,0
47112000,47054909,197388,-0.040867563,-0.3005984,0.40747786,0
47128000,47128000,197388,-0.03701351,-0.30232602,0.40949556,0
47260000,47199636,197388,-0.04158969,-0.29861873,0.40664873,0
47272000,47272000,197388,-0.038705193,-0.3010855,0.40656337,0
47404000,47343636,197388,-0.040384214,-0.3005704,0.40901887,0
47416000,47416000,197388,-0.038471565,-0.2967874,0.40580595,0
47548000,47487636,197388,-0.03985326,-0.30044013,0.40775737,0
47560000,47560000,197388,-0.040216614,-0.2999312,0.40964276,0
47688000,47631272,197388,-0.040119078,-0.2998807,0.40866962,0
47704000,47704000,197388,-0.042983018,-0.29855266,0.40407893,0
47836000,47775636,197388,-0.040686537,-0.30236158,0.40892,0
47848000,47848000,197388,-0.04222233,-0.29905397,0.408714,0
47976000,47918545,197388,-0.041172057,-0.30109528,0.40735468,0
47992000,47992000,197388,-0.040054895,-0.2976634,0.41222945,0
48120000,48063272,197388,-0.04063168,-0.29883558,0.40828332,0
48136000,48136000,197388,-0.04545451,-0.30382454,0.40767813,0
48268000,48206909,197388,-0.03925974,-0.29986867,0.4083716,0
48280000,48280000,197388,-0.04601802,-0.30189788,0.4108857,0
48408000,48350909,197388,-0.0409549,-0.3012618,0.40537247,0
48424000,48424000,197388,-0.035659418,-0.29856575,0.40581983,0
48556000,48496000,197388,-0.039806113,-0.3001812,0.40649974,0
48568000,48568000,197388,-0.042880893,-0.3024475,0.40588295,0
48700000,48640000,197388,-0.040603667,-0.29886863,0.408117,0
48712000,48712000,197388,-0.04167286,-0.30027685,0.40346095,0
48844000,48783272,197388,-0.03811372,-0.29984456,0.4077791,0
48856000,48856000,197388,-0.039827134,-0.30272138,0.4086452,0
48988000,48928000,197388,-0.040219586,-0.29885086,0.40684107,0
49000000,49000000,197388,-0.038624696,-0.29936758,0.3980212,0
49128000,49070909,197388,-0.040245876,-0.2990577,0.40654483,0
49144000,49144000,197388,-0.0398299,-0.29814008,0.40945792,0
49276000,49215272,197388,-0.038659267,-0.30091053,0.4077882,0
49288000,49288000,197388,-0.039297417,-0.30412433,0.39527032,0
49420000,49359272,197388,-0.03928566,-0.29948732,0.40938824,0
49432000,49432000,197388,-0.03911346,-0.2970123,0.40484113,0
49564000,49503272,197388,-0.03802259,-0.29988813,0.40677544,0
49576000,49576000,197388,-0.04918271,-0.30078843,0.40456954,0
49708000,49647272,197388,-0.04051369,-0.2987019,0.40808246,0
49720000,49720000,197388,-0.041465256,-0.29800126,0.40060237,0
49852000,49792000,197388,-0.040431816,-0.30067742,0.40674692,0
49864000,49864000,197388,-0.034815893,-0.30038634,0.40572664,0
49996000,49935636,197388,-0.039323557,-0.30034232,0.4058073,0
50008000,50008000,197388,-0.045361582,-0.30720928,0.41033262,0
50140000,50079272,197388,-0.039613795,-0.29879308,0.40840498,0
50152000,50152000,197388,-0.039221156,-0.2938076,0.4080647,0
50284000,50222909,197388,-0.03967423,-0.30316544,0.4060581,0
50296000,50296000,197388,-0.036356445,-0.30897853,0.40636802,0
50428000,50367636,197388,-0.03904438,-0.2992259,0.40682486,0
50440000,50440000,197388,-0.04312516,-0.30108416,0.40795213,0
50572000,50510545,197388,-0.039518535,-0.30078563,0.408254,0
50584000,50584000,197388,-0.03845046,-0.29933882,0.40771547,0
50716000,50656000,197388,-0.03907002,-0.2992159,0.40655154,0
50728000,50728000,197388,-0.035016447,-0.30247286,0.4021612,0
50856000,50799272,197388,-0.03966417,-0.30117714,0.40711018,0
50872000,50872000,197388,-0.043401487,-0.2991521,0.4095553,0
51004000,50944000,197388,-0.039602973,-0.29786998,0.40657568,0
51016000,51016000,197388,-0.042691216,-0.3005145,0.4088437,0
51148000,51088000,197388,-0.04031809,-0.29775244,0.40787226,0
51160000,51160000,197388,-0.038650148,-0.3059153,0.40346536,0
51288000,51231636,197388,-0.039850436,-0.29934183,0.40564668,0
51304000,51304000,197388,-0.04359915,-0.29700956,0.40694416,0
51436000,51375636,197388,-0.039983183,-0.3003695,0.40760756,0
51448000,51448000,197388,-0.040885802,-0.30643842,0.40804306,0
51580000,51519636,197388,-0.039740615,-0.29914546,0.40492907,0
51592000,51592000,197388,-0.04459838,-0.30548167,0.41668892,0
51720000,51662909,197388,-0.03992937,-0.2992165,0.40831974,0
51736000,51736000,197388,-0.041941203,-0.30077782,0.40381998,0
51868000,51807272,197388,-0.038908683,-0.29982644,0.40659943,0
51880000,51880000,197388,-0.035351247,-0.2979178,0.4085273,0
52012000,51951636,197388,-0.039990414,-0.3016223,0.40838698,0
52024000,52024000,197388,-0.04056353,-0.2955876,0.40864864,0
52156000,52095636,197388,-0.040277854,-0.2996138,0.40792203,0
52168000,52168000,197388,-0.03811393,-0.29908103,0.41026747,0
52300000,52240000,197388,-0.040108114,-0.29991442,0.40696684,0
52312000,52312000,197388,-0.039101593,-0.30112877,0.40567034,0
52444000,52383272,197388,-0.041124277,-0.301142,0.40787306,0
52456000,52456000,197388,-0.042576794,-0.2970358,0.40395853,0
52588000,52528000,197388,-0.038212817,-0.29851034,0.40838572,0
52600000,52600000,197388,-0.046213903,-0.29690242,0.40344286,0
52732000,52671636,197388,-0.040129118,-0.2983759,0.4061872,0
52744000,52744000,197388,-0.040198356,-0.30036482,0.40602627,0
52876000,52815636,197388,-0.0398057,-0.30044758,0.40619648,0
52888000,52888000,197388,-0.04247349,-0.29834944,0.40453312,0
53020000,52959272,197388,-0.0384683,-0.299911,0.4060329,0
53032000,53032000,197388,-0.035343517,-0.29884142,0.4096918,0
53164000,53104000,197388,-0.040081155,-0.30010808,0.406558,0
53176000,53176000,197388,-0.04078781,-0.29925552,0.40557358,0
53308000,53247636,197388,-0.041913062,-0.3010872,0.40751636,0
53320000,53320000,197388,-0.039645907,-0.30135396,0.4019347,0
53452000,53391636,197388,-0.038685348,-0.29890722,0.40751198,0
53464000,53464000,197388,-0.03731861,-0.2990424,0.41299516,0
53596000,53534909,197388,-0.041725893,-0.29965678,0.4074287,0
53608000,53608000,197388,-0.041256115,-0.30190933,0.40643504,0
53740000,53679636,197388,-0.04027648,-0.30118823,0.4058217,0
53752000,53752000,197388,-0.039992593,-0.3004903,0.4104544,0
53880000,53823272,197388,-0.040705297,-0.30095345,0.4075963,0
53896000,53896000,197388,-0.03782497,-0.30830133,0.40657943,0
54028000,53967272,197388,-0.040875386,-0.30113488,0.40794092,0
54040000,54040000,197388,-0.041295826,-0.30428198,0.41363493,0
54172000,54111636,197388,-0.039932635,-0.29695243,0.4088559,0
54184000,54184000,197388,-0.038403854,-0.29959327,0.40925726,0
54316000,54256000,197388,-0.040639885,-0.29945484,0.4089693,0
54328000,54328000,197388,-0.03608742,-0.29757857,0.40778813,0
54460000,54398909,197388,-0.04127861,-0.29867387,0.4065604,0
54472000,54472000,197388,-0.034389522,-0.30180916,0.4078727,0
54604000,54543636,197388,-0.040952504,-0.3002224,0.4073075,0
54616000,54616000,197388,-0.03829186,-0.29120922,0.40277916,0
54748000,54688000,197388,-0.038720727,-0.29980847,0.40705508,0
54760000,54760000,197388,-0.037602365,-0.30127588,0.40502608,0
54892000,54831272,197388,-0.038816042,-0.29891402,0.4078664,0
54904000,54904000,197388,-0.03923526,-0.30255538,0.40982813,0
55032000,54975636,197388,-0.039898306,-0.300006,0.40601286,0
55048000,55048000,197388,-0.041302726,-0.2959168,0.4050506,0
55180000,55119272,197388,-0.041641474,-0.30115342,0.40696007,0
55192000,55192000,197388,-0.043847896,-0.30291244,0.40765297,0
55324000,55263272,197388,-0.040677205,-0.2998665,0.40692306,0
55336000,55336000,197388,-0.043271624,-0.2926438,0.40457144,0
55468000,55407636,197388,-0.04068261,-0.29872537,0.40669447,0
55480000,55480000,197388,-0.031989824,-0.31082234,0.40619597,0
55612000,55552000,197388,-0.04011776,-0.30020738,0.4057899,0
55624000,55624000,197388,-0.04465035,-0.29731888,0.41324407,0
55752000,55695272,197388,-0.040281743,-0.30045563,0.4046347,0
55768000,55768000,197388,-0.036056828,-0.29969636,0.41097683,0
55896000,55839272,197388,-0.039544262,-0.30087844,0.40577018,0
55912000,55912000,197388,-0.042110026,-0.299777,0.41577944,0
56044000,55984000,197388,-0.039739363,-0.2994255,0.40694797,0
56056000,56056000,197388,-0.03124464,-0.29978746,0.4122066,0
56184000,56127272,197388,-0.03805816,-0.30064398,0.40655372,0
56200000,56200000,197388,-0.03665276,-0.29767957,0.40396792,0
56332000,56271636,197388,-0.041018736,-0.29886118,0.40960175,0
56340000,56340000,197388,-0.034913905,-0.30940396,0.40900138,0
56464000,56410000,197388,-0.038720082,-0.30024275,0.40654626,0
56484000,56480000,197388,-0.041407462,-0.30012858,0.40925983,0
56596000,56547111,197388,-0.039414484,-0.29929534,0.40724623,0
56620000,56614000,197388,-0.03968174,-0.30131024,0.40487775,0
56740000,56685600,197388,-0.040030804,-0.29966447,0.40700683,0
56764000,56758000,197388,-0.035370253,-0.3008293,0.39996955,0
56884000,56829600,197388,-0.039610498,-0.30100012,0.40759492,0
56904000,56900000,197388,-0.03930305,-0.30217,0.40851903,0
57016000,56967111,197388,-0.041276947,-0.3014517,0.40956205,0
57040000,57034000,197388,-0.040854126,-0.3028862,0.40164983,0
57160000,57105200,197388,-0.04025802,-0.29979897,0.40590826,0
57172000,57172000,197388,-0.03858373,-0.30681986,0.4030066,0
57304000,57243636,197388,-0.04204935,-0.30087873,0.40784678,0
57316000,57316000,197388,-0.04199191,-0.30355725,0.40384895,0
57448000,57387272,197388,-0.039679047,-0.30090553,0.4073212,0
57460000,57460000,197388,-0.034679614,-0.2984861,0.40675402,0
57592000,57531636,197388,-0.039582476,-0.29986382,0.40458426,0
57600000,57600000,197388,-0.04187524,-0.30009007,0.41286924,0
57724000,57669600,197388,-0.040116694,-0.29795703,0.4082933,0
57748000,57742000,197388,-0.03925899,-0.30401146,0.4090948,0
57868000,57813600,197388,-0.039259184,-0.29919073,0.4080555,0
57892000,57886000,197388,-0.03676276,-0.2962724,0.40871033,0
58012000,57958000,197388,-0.0399808,-0.30136472,0.40701708,0
58036000,58030000,197388,-0.0449189,-0.29741,0.4101873,0
58156000,58101600,197388,-0.04107509,-0.2990608,0.40887934,0
58180000,58174000,197388,-0.046099767,-0.29952788,0.40380728,0
58300000,58245600,197388,-0.04065569,-0.29957166,0.40653464,0
58324000,58318000,197388,-0.04082705,-0.3002658,0.4111278,0
58444000,58389600,197388,-0.04016615,-0.30033657,0.4066754,0
58468000,58462000,197388,-0.04000506,-0.30084962,0.40430516,0
58584000,58533600,197388,-0.03932387,-0.30154434,0.40721235,0
58608000,58604000,197388,-0.040922403,-0.3058124,0.40633148,0
58720000,58671555,197388,-0.0392555,-0.29811233,0.408114,0
58752000,58742666,197388,-0.035930492,-0.29818687,0.40887094,0
58852000,58810000,197388,-0.03988166,-0.29847676,0.40540022,0
58896000,58880000,197388,-0.041728687,-0.29990754,0.40644896,0
58984000,58947428,197388,-0.039251104,-0.29923755,0.40750465,0
59040000,59018400,197388,-0.04199573,-0.30252898,0.40785328,0
59116000,59086000,197388,-0.040174175,-0.30065858,0.40590054,0
59188000,59158000,197388,-0.037594356,-0.30010244,0.40599513,0
59260000,59229333,197388,-0.041467782,-0.30147755,0.40424967,0
59328000,59300666,197388,-0.04057501,-0.29750326,0.40944764,0
59400000,59372666,197388,-0.039193813,-0.30090672,0.40674102,0
59476000,59445333,197388,-0.04082512,-0.29960427,0.4063437,0
59548000,59517333,197388,-0.038814962,-0.30111307,0.41070843,0
59620000,59589333,197388,-0.041474737,-0.2979619,0.40654033,0
59692000,59661333,197388,-0.039266147,-0.29929718,0.4073368,0
59752000,59728000,197388,-0.038995486,-0.29849133,0.4058368,0
59836000,59798285,197388,-0.040189132,-0.2977251,0.40859184,0
59896000,59870400,197388,-0.04256575,-0.30176473,0.4081164,0
59968000,59938000,197388,-0.04247775,-0.30041623,0.40885276,0
60040000,60010000,197388,-0.03864123,-0.29854566,0.40852326,0
60112000,60081333,197388,-0.04372322,-0.29876968,0.40839285,0
60184000,60153333,197388,-0.039505538,-0.29938182,0.4059835,0
60244000,60220000,197388,-0.041261356,-0.30001992,0.4058515,0
60328000,60290857,197388,-0.040787864,-0.30154702,0.40746644,0
60376000,60358000,197388,-0.039066996,-0.29978186,0.40819874,0
60472000,60429500,197388,-0.041539386,-0.3010403,0.40850863,0
60520000,60501000,197388,-0.04081075,-0.29848695,0.40710682,0
60604000,60568000,197388,-0.03995986,-0.30031416,0.40781054,0
60664000,60640000,197388,-0.04301199,-0.29894385,0.4065299,0
60748000,60711428,197388,-0.040406212,-0.3008402,0.40702543,0
60808000,60783200,197388,-0.037858337,-0.29764557,0.40934893,0
60880000,60850000,197388,-0.03614233,-0.30057412,0.408262,0
60952000,60920666,197388,-0.04012696,-0.3018286,0.4102105,0
61012000,60988000,197388,-0.04071776,-0.30235824,0.41087374,0
61096000,61060000,197388,-0.03955771,-0.30081353,0.4078718,0
61156000,61131200,197388,-0.0427815,-0.3043024,0.40940896,0
61228000,61198000,197388,-0.041124634,-0.29874325,0.40668225,0
61300000,61268666,197388,-0.040963423,-0.30026668,0.40625942,0
61360000,61336000,197388,-0.039998665,-0.299257,0.40542984,0
61440000,61406857,197388,-0.04054786,-0.2988755,0.40686813,0
61504000,61478400,197388,-0.042670745,-0.29995504,0.40490898,0
61576000,61546000,197388,-0.04121005,-0.300517,0.40616685,0
61648000,61617333,197388,-0.038777687,-0.30024454,0.4077297,0
61720000,61689333,197388,-0.042361356,-0.30031717,0.40563378,0
61780000,61756000,197388,-0.04117049,-0.3013215,0.40367007,0
61864000,61827428,197388,-0.04211177,-0.30253717,0.4068932,0
61924000,61899200,197388,-0.038108606,-0.29893956,0.40528393,0
61996000,61966000,197388,-0.039723866,-0.3010859,0.40697312,0
62064000,62037333,197388,-0.038089227,-0.29939392,0.4074936,0
62128000,62104000,197388,-0.036986884,-0.30108654,0.40778634,0
62212000,62176000,197388,-0.042599943,-0.30145246,0.40627187,0
62272000,62247200,197388,-0.040891953,-0.29960033,0.4085798,0
62344000,62314000,197388,-0.04161681,-0.2984228,0.40898824,0
62416000,62386000,197388,-0.042375755,-0.2992344,0.40780663,0
62488000,62458000,197388,-0.045560714,-0.29874963,0.40898228,0
62560000,62530000,197388,-0.044078395,-0.29953462,0.40961987,0
62632000,62601333,197388,-0.043439757,-0.29825544,0.40659565,0
62692000,62668000,197388,-0.041735247,-0.29722598,0.4115843,0
62776000,62740000,197388,-0.042056266,-0.29707533,0.40628734,0
62836000,62812000,197388,-0.037035394,-0.29629892,0.40882197,0
62920000,62884000,197388,-0.03541109,-0.29686067,0.41135463,0
62980000,62956000,197388,-0.036469463,-0.2974374,0.40698597,0
63064000,63028000,197388,-0.03520172,-0.29941544,0.4123603,0
63124000,63100000,197388,-0.037625987,-0.2974298,0.4055221,0
63208000,63172000,197388,-0.036206704,-0.2972942,0.4092327,0
63264000,63242400,197388,-0.038284406,-0.29719993,0.40530673,0
63340000,63309333,197388,-0.037462413,-0.30037957,0.40815306,0
63408000,63380666,197388,-0.035895742,-0.302571,0.40892577,0
63472000,63448000,197388,-0.037833806,-0.3003497,0.4092128,0
63556000,63519428,197388,-0.035984438,-0.2998019,0.40894195,0
63616000,63592000,197388,-0.038982093,-0.2988312,0.4049096,0
63700000,63664000,197388,-0.036403786,-0.30079824,0.40672895,0
63760000,63736000,197388,-0.03931127,-0.30145368,0.4050191,0
63844000,63808000,197388,-0.03950947,-0.30286583,0.4045222,0
63904000,63880000,197388,-0.041893885,-0.30151886,0.40876266,0
63984000,63951428,197388,-0.039133385,-0.30103725,0.406272,0
64048000,64024000,197388,-0.03853103,-0.29982895,0.40601978,0
64132000,64095428,197388,-0.039475136,-0.3006743,0.40444902,0
64192000,64168000,197388,-0.039600316,-0.3034844,0.40681496,0
64272000,64238285,197388,-0.03985857,-0.29759237,0.40528157,0
64324000,64306000,197388,-0.03915899,-0.29951468,0.40502065,0
64420000,64378000,197388,-0.039502215,-0.30077523,0.40854573,0
64468000,64450000,197388,-0.04156801,-0.2984109,0.40813643,0
64560000,64521000,197388,-0.03965355,-0.29961956,0.40789127,0
64600000,64588000,197388,-0.041130733,-0.29733086,0.40472302,0
64708000,64658666,197388,-0.039633315,-0.2989657,0.40760788,0
64732000,64726000,197388,-0.04133437,-0.29876518,0.40876937,0
64852000,64798000,197388,-0.041079383,-0.29796782,0.40810165,0
64876000,64870000,197388,-0.03837768,-0.29768428,0.4055553,0
64992000,64941200,197388,-0.040228672,-0.29832423,0.41052338,0
65008000,65008000,197388,-0.040552743,-0.30090514,0.40482092,0
65136000,65079636,197388,-0.038582165,-0.29676285,0.40865636,0
65152000,65152000,197388,-0.040848866,-0.30209568,0.40595046,0
65284000,65223636,197388,-0.040214013,-0.30035615,0.40645263,0
65296000,65296000,197388,-0.03972697,-0.30009517,0.40391803,0
65428000,65368000,197388,-0.03913483,-0.3009651,0.40660152,0
65440000,65440000,197388,-0.041948643,-0.29949358,0.41166547,0
65572000,65511272,197388,-0.040510803,-0.30140105,0.4068389,0
65584000,65584000,197388,-0.044141557,-0.30356038,0.4050946,0
65716000,65655636,197388,-0.038969874,-0.30140293,0.4046539,0
65728000,65728000,197388,-0.028898751,-0.30239055,0.40250248,0
65860000,65798909,197388,-0.037690468,-0.30373764,0.40541115,0
65872000,65872000,197388,-0.033245176,-0.30241892,0.40446776,0
66004000,65942545,197388,-0.037226737,-0.3037063,0.40292212,0
66016000,66016000,197388,-0.044534918,-0.30798987,0.4070998,0
66148000,66087272,197388,-0.0397921,-0.30397207,0.40554604,0
66160000,66160000,197388,-0.042090464,-0.30503604,0.40244657,0
66288000,66231272,197388,-0.039459534,-0.30467,0.40519243,0
66304000,66304000,197388,-0.038002394,-0.29721147,0.40146887,0
66436000,66375272,197388,-0.038518663,-0.3026411,0.40785244,0
66448000,66448000,197388,-0.0356692,-0.30028164,0.40788856,0
66580000,66519636,197388,-0.037593495,-0.2984355,0.40923065,0
66592000,66592000,197388,-0.033361312,-0.30502793,0.4083307,0
66724000,66663636,197388,-0.03949783,-0.29839346,0.40771347,0
66736000,66736000,197388,-0.040633176,-0.29092926,0.40847838,0
66864000,66806909,197388,-0.03963396,-0.29787365,0.4096402,0
66880000,66880000,197388,-0.041571364,-0.30109563,0.40830895,0
67012000,66951272,197388,-0.03841657,-0.29626185,0.40827927,0
67024000,67024000,197388,-0.045994736,-0.2965872,0.41201645,0
67156000,67095636,197388,-0.04076524,-0.2959611,0.40936717,0
67168000,67168000,197388,-0.043968346,-0.29742453,0.4020878,0
67300000,67239272,197388,-0.039796244,-0.29718995,0.40768114,0
67312000,67312000,197388,-0.03582623,-0.29328,0.40248495,0
67444000,67382909,197388,-0.03745562,-0.30163795,0.4092239,0
67456000,67456000,197388,-0.037961952,-0.29861405,0.40171158,0
67588000,67527636,197388,-0.03948309,-0.29907408,0.40575457,0
67600000,67600000,197388,-0.043555707,-0.2997146,0.40618688,0
67732000,67671636,197388,-0.040797338,-0.29952884,0.404751,0
67744000,67744000,197388,-0.042194508,-0.30257928,0.4103977,0
67876000,67816000,197388,-0.040735386,-0.30108032,0.40441743,0
67888000,67888000,197388,-0.043425463,-0.30489856,0.40464738,0
68020000,67959636,197388,-0.040464807,-0.3024869,0.4058065,0
68032000,68032000,197388,-0.04208938,-0.3007795,0.40701094,0
68164000,68102909,197388,-0.04102035,-0.30167058,0.40446967,0
68176000,68176000,197388,-0.040900495,-0.2972081,0.40830684,0
68304000,68246181,197388,-0.04201888,-0.29815635,0.4077957,0
68320000,68320000,197388,-0.038748503,-0.2944616,0.40583044,0
68452000,68390909,197388,-0.042164546,-0.29856864,0.40785298,0
68464000,68464000,197388,-0.0376164,-0.3054266,0.4057281,0
68596000,68535272,197388,-0.041749667,-0.2976072,0.40841883,0
68608000,68608000,197388,-0.042502325,-0.2979106,0.4052556,0
68740000,68679636,197388,-0.04202525,-0.29780364,0.4094443,0
68752000,68752000,197388,-0.044575654,-0.29648396,0.40573618,0
68884000,68823272,197388,-0.04203065,-0.29878497,0.4082915,0
68896000,68896000,197388,-0.03664831,-0.29893786,0.4066829,0
69028000,68967636,197388,-0.04141229,-0.29636592,0.40930384,0
69040000,69040000,197388,-0.0418891,-0.2987332,0.4136087,0
69172000,69111636,197388,-0.041873086,-0.29754263,0.40932912,0
69184000,69184000,197388,-0.036558203,-0.3030836,0.4098169,0
69316000,69255636,197388,-0.042055756,-0.29818386,0.4098601,0
69328000,69328000,197388,-0.040543143,-0.29979825,0.40571162,0
69456000,69399272,197388,-0.04150981,-0.29766703,0.40783793,0
69472000,69472000,197388,-0.04722952,-0.29988533,0.4108096,0
69600000,69543636,197388,-0.039532956,-0.30002195,0.40817812,0
69616000,69616000,197388,-0.03771546,-0.29735386,0.40783128,0
69748000,69688000,197388,-0.038508076,-0.30063188,0.4077148,0
69760000,69760000,197388,-0.035317734,-0.30644804,0.40650123,0
69892000,69831636,197388,-0.036921393,-0.30511352,0.40711626,0
69904000,69904000,197388,-0.036358718,-0.30075586,0.399873,0
70036000,69975272,197388,-0.038979974,-0.30376753,0.4056108,0
70048000,70048000,197388,-0.038375784,-0.30196443,0.40369073,0
70180000,70120000,197388,-0.040516794,-0.30259222,0.4044702,0
70192000,70192000,197388,-0.046891224,-0.3039915,0.41079667,0
70324000,70263636,197388,-0.037473854,-0.30355152,0.40712366,0
70336000,70336000,197388,-0.040202994,-0.30291072,0.40552428,0
70468000,70407272,197388,-0.038309522,-0.30440965,0.40884814,0
70480000,70480000,197388,-0.043337956,-0.29978576,0.40448347,0
70612000,70551272,197388,-0.038600862,-0.3016072,0.4086965,0
70624000,70624000,197388,-0.041269198,-0.3005982,0.40577278,0
70756000,70696000,197388,-0.039295375,-0.2985133,0.40742406,0
70768000,70768000,197388,-0.045393106,-0.29563016,0.39603466,0
70900000,70839272,197388,-0.039259963,-0.29799527,0.40761316,0
70912000,70912000,197388,-0.04670959,-0.29804355,0.4114604,0
71044000,70983636,197388,-0.037497967,-0.29950586,0.40867013,0
71056000,71056000,197388,-0.043007445,-0.29775852,0.4076846,0
71184000,71127636,197388,-0.03818941,-0.30082175,0.40754104,0
71200000,71200000,197388,-0.039668687,-0.2970739,0.41229758,0
71332000,71272000,197388,-0.03800093,-0.3003086,0.40728322,0
71344000,71344000,197388,-0.040340036,-0.29675257,0.40524247,0
71476000,71416000,197388,-0.039306574,-0.2992832,0.40721273,0
71488000,71488000,197388,-0.040994674,-0.29816768,0.4120351,0
71620000,71560000,197388,-0.039095927,-0.29943863,0.4070754,0
71632000,71632000,197388,-0.03802768,-0.29855412,0.40935922,0
71764000,71703272,197388,-0.04024015,-0.29878706,0.4046749,0
