timestamp,timestamp_sample,lat,lon,alt,alt_ellipsoid,delta_alt,eph,epv,terrain_alt,lat_lon_reset_counter,alt_reset_counter,terrain_alt_valid,dead_reckoning
8684000,8684000,36.660767902848306,126.34209919398393,30.140911,30.145002,0.013004914,1.7320508,1.4142135,nan,2,2,0,0
8692000,8692000,36.66076790308751,126.34209919500752,30.14111,30.1452,0.013004914,1.7320541,1.4142181,nan,2,2,0,0
9684000,9684000,36.66076790377788,126.34209927010109,30.15219,30.155449,0.013004914,1.3003325,1.1195803,nan,2,2,0,0
10684000,10684000,36.660767959118076,126.34209928987012,30.14497,30.147066,0.013004914,1.205685,1.0848773,nan,2,2,0,0
11684000,11684000,36.66076801932817,126.3420993182898,30.127718,30.129892,0.013004914,1.1437509,1.0643797,nan,2,2,0,0
12684000,12684000,36.66076801305242,126.34209923392017,30.131008,30.134785,0.013004914,1.1375043,1.0637946,nan,2,2,0,0
13684000,13684000,36.66076795049675,126.34209918604381,30.126852,30.13162,0.013004914,1.1182297,1.0565654,nan,2,2,0,0
14684000,14684000,36.6607679194242,126.34209912801123,30.120728,30.126673,0.013004914,1.1267161,1.0587966,nan,2,2,0,0
15684000,15684000,36.66076794739553,126.34209910369655,30.111399,30.120071,0.013004914,1.1137352,1.053695,nan,2,2,0,0
16684000,16684000,36.6607679741777,126.34209912514083,30.104786,30.115328,0.013004914,1.1250284,1.057592,nan,2,2,0,0
17684000,17684000,36.66076798497991,126.34209907203427,30.094969,30.109884,0.013004914,1.1128002,1.0534936,nan,2,2,0,0
18684000,18684000,36.66076801624225,126.34209915649772,30.085238,30.103983,0.013004914,1.1026895,1.0498124,nan,2,2,0,0
19684000,19684000,36.66076802441923,126.34209906898049,30.076248,30.09874,0.013004914,1.1122901,1.0540358,nan,2,2,0,0
20684000,20684000,36.66076804246995,126.34209900878244,30.072468,30.098913,0.013004914,1.1231419,1.0581067,nan,2,2,0,0
21684000,21684000,36.66076796905312,126.3420990726957,30.0675,30.099663,0.013004914,1.111766,1.0540037,nan,2,2,0,0
22684000,22684000,36.660767863917016,126.34209903100952,30.067076,30.102884,0.013004914,1.12226,1.0584539,nan,2,2,0,0
23684000,23684000,36.66076788647967,126.34209909991974,30.061598,30.10265,0.013004914,1.1112864,1.054227,nan,2,2,0,0
24684000,24684000,36.66076795446131,126.34209909520841,30.048054,30.095366,0.013004914,1.1018742,1.0502728,nan,2,2,0,0
25684000,25684000,36.66076786039134,126.34209902854218,30.046724,30.097874,0.013004914,1.1108584,1.0538937,nan,2,2,0,0
26684000,26684000,36.660767815522846,126.34209896934613,30.046154,30.10252,0.013004914,1.1015743,1.0499941,nan,2,2,0,0
27684000,27684000,36.6607678565477,126.34209895527034,30.042276,30.10185,0.013004914,1.1104953,1.0540836,nan,2,2,0,0
28684000,28684000,36.66076784810133,126.34209884571327,30.031607,30.094734,0.013004914,1.120568,1.0579306,nan,2,2,0,0
29684000,29684000,36.66076781603085,126.34209885846008,30.026497,30.095201,0.013004914,1.1101582,1.0537527,nan,2,2,0,0
30684000,30684000,36.66076787187178,126.34209887685815,30.010103,30.083261,0.013004914,1.1202197,1.0581214,nan,2,2,0,0
31684000,31684000,36.66076791651849,126.34209899515174,30.012104,30.092325,0.013004914,1.1099539,1.0539554,nan,2,2,0,0
32684000,32684000,36.66076793170754,126.34209898802025,30.003952,30.091162,0.013004914,1.1010389,1.050082,nan,2,2,0,0
33684000,33684000,36.66076796280432,126.3420990131386,29.999933,30.090736,0.013004914,1.1099241,1.0537277,nan,2,2,0,0
34684000,34684000,36.66076804299863,126.34209887552818,29.990814,30.085629,0.013004914,1.1200268,1.0581329,nan,2,2,0,0
35684000,35684000,36.66076801186485,126.34209878976766,30.01464,30.114853,0.013004914,1.1098796,1.053963,nan,2,2,0,0
36684000,36684000,36.660768022525126,126.34209877340248,30.02823,30.130327,0.013004914,1.1198964,1.0577898,nan,2,2,0,0
37684000,37684000,36.660767958156825,126.34209882987483,30.040718,30.14324,0.013004914,1.1098533,1.0541558,nan,2,2,0,0
38684000,38684000,36.66076794459019,126.34209879678966,30.04087,30.143595,0.013004914,1.1199713,1.0580964,nan,2,2,0,0
39684000,39684000,36.66076807990302,126.34209884373885,30.043821,30.146416,0.013004914,1.1097847,1.0538957,nan,2,2,0,0
40684000,40684000,36.66076812396338,126.342098797679,30.023705,30.126945,0.013004914,1.1198229,1.0582865,nan,2,2,0,0
41684000,41684000,36.66076807552408,126.3420987933723,29.996973,30.103762,0.013004914,1.1096942,1.0540524,nan,2,2,0,0
42684000,42684000,36.66076805428438,126.34209875140131,29.971052,30.082897,0.013004914,1.1197858,1.0579623,nan,2,2,0,0
43684000,43684000,36.66076805437139,126.34209878271996,29.958687,30.078623,0.013004914,1.1096725,1.0538101,nan,2,2,0,0
44684000,44684000,36.6607679359426,126.34209880021413,29.949024,30.076874,0.013004914,1.1008612,1.0499772,nan,2,2,0,0
45684000,45684000,36.66076794229297,126.34209884856797,29.946205,30.079319,0.013004914,1.1096872,1.0540789,nan,2,2,0,0
46684000,46684000,36.660767870852474,126.34209888374104,29.938046,30.076817,0.013004914,1.1197171,1.0579569,nan,2,2,0,0
47684000,47684000,36.660767888320116,126.3420989429739,29.964586,30.109612,0.013004914,1.1097357,1.0538187,nan,2,2,0,0
48684000,48684000,36.6607678597994,126.34209897018604,29.966345,30.115522,0.013004914,1.1009386,1.0503714,nan,2,2,0,0
49684000,49684000,36.66076782159648,126.34209903250459,29.972107,30.123072,0.013004914,1.1097014,1.0540189,nan,2,2,0,0
50684000,50684000,36.6607677492952,126.34209899366726,29.966135,30.119461,0.013004914,1.1197227,1.0578861,nan,2,2,0,0
51684000,51684000,36.66076773341173,126.34209900783348,29.960112,30.116909,0.013004914,1.109632,1.0541795,nan,2,2,0,0
52684000,52684000,36.66076768043728,126.34209897921623,29.953648,30.115017,0.013004914,1.1009105,1.0502918,nan,2,2,0,0
53684000,53684000,36.66076773804518,126.34209904211816,29.959036,30.123316,0.013004914,1.1096699,1.0538955,nan,2,2,0,0
54684000,54684000,36.66076786803572,126.34209907172996,29.9629,30.129171,0.013004914,1.1196904,1.0582703,nan,2,2,0,0
55684000,55684000,36.6607677828875,126.34209906914471,29.968395,30.13595,0.013004914,1.1096134,1.0540311,nan,2,2,0,0
56684000,56684000,36.66076769049456,126.3420991292893,29.964703,30.133968,0.013004914,1.1196961,1.0579127,nan,2,2,0,0
57684000,57684000,36.66076771349114,126.34209908616579,29.978136,30.147945,0.013004914,1.1096647,1.0542154,nan,2,2,0,0
58684000,58684000,36.660767746118985,126.34209915819429,29.972958,30.14267,0.013004914,1.1196871,1.0580932,nan,2,2,0,0
59684000,59684000,36.660767732432696,126.34209926798769,29.991022,30.160303,0.013004914,1.1096131,1.0538753,nan,2,2,0,0
60684000,60684000,36.66076768775733,126.3420992833442,29.993229,30.161287,0.013004914,1.1196455,1.0577143,nan,2,2,0,0
61684000,61684000,36.66076769636267,126.34209920973719,30.01026,30.176287,0.013004914,1.1095937,1.0540656,nan,2,2,0,0
62684000,62684000,36.66076774602975,126.34209918675516,30.049583,30.2129,0.013004914,1.1195875,1.0579343,nan,2,2,0,0
63684000,63684000,36.660767579522734,126.34209909412792,30.757595,30.910133,0.013004914,1.1096522,1.0537786,nan,2,2,0,0
64684000,64684000,36.66076754447014,126.34209912425771,31.98557,32.12862,0.013004914,1.1196259,1.057663,nan,2,2,0,0
65684000,65684000,36.66076735518785,126.34209906878388,33.347984,33.475674,0.013004914,1.1098324,1.0536032,nan,2,2,0,0
66684000,66684000,36.660767570565845,126.34209912882156,34.78698,34.90498,0.013004914,1.124877,1.0580375,nan,2,2,0,0
67684000,67684000,36.660767615027645,126.34209933160564,36.28301,36.386383,0.013004914,1.1124091,1.0538824,nan,2,2,0,0
68684000,68684000,36.66076778851175,126.34209954583937,37.78602,37.878685,0.013004914,1.1257071,1.0577241,nan,2,2,0,0
69684000,69684000,36.660767720397295,126.34209937895892,39.32331,39.400284,0.013004914,1.1130716,1.054098,nan,2,2,0,0
70684000,70684000,36.66076770555286,126.3420992914861,40.979103,41.044807,0.013004914,1.1245128,1.0580255,nan,2,2,0,0
71684000,71684000,36.6607676727545,126.3420991701482,43.734398,43.76963,0.013004914,1.1125023,1.0539126,nan,2,2,0,0
72684000,72684000,36.66076774680331,126.34209904762288,46.60756,46.62038,0.013004914,1.1226887,1.0577608,nan,2,2,0,0
73684000,73684000,36.66076781570907,126.34209907093661,49.455574,49.433586,0.013004914,1.0951874,1.0473261,nan,2,2,0,0
74684000,74684000,36.660767807908314,126.34209925611806,52.343918,52.303944,0.013004914,1.1048905,1.0517945,nan,2,2,0,0
75684000,75684000,36.66076766644109,126.3420993775348,55.25592,55.198093,0.013004914,1.1157463,1.0563515,nan,2,2,0,0
76684000,76684000,36.660767556135184,126.34209946056097,58.24164,58.160484,0.013004914,1.1075076,1.0534487,nan,2,2,0,0
77684000,77684000,36.66076773214203,126.34209940136515,61.264473,61.16191,0.013004914,1.0996875,1.0499176,nan,2,2,0,0
78684000,78684000,36.66076769013736,126.34209931791311,64.31333,64.197655,0.013004914,1.1088636,1.0536786,nan,2,2,0,0
79684000,79684000,36.660767832176035,126.34209927129206,67.33635,67.20819,0.013004914,1.1193031,1.0581095,nan,2,2,0,0
80684000,80684000,36.66076790468478,126.34209902890642,70.35577,70.21286,0.013004914,1.1095608,1.0539641,nan,2,2,0,0
81684000,81684000,36.66076797437831,126.34209890329214,73.35289,73.197556,0.013004914,1.1008638,1.0500687,nan,2,2,0,0
82684000,82684000,36.660767614454855,126.34209885249183,75.885056,75.72814,0.013004914,1.1098627,1.054149,nan,2,2,0,0
83684000,83684000,36.660767557207365,126.34209885636082,77.53453,77.38779,0.013004914,1.1010666,1.0502537,nan,2,2,0,0
84684000,84684000,36.660767569846755,126.3420989013532,78.56375,78.427444,0.013004914,1.1098665,1.0538646,nan,2,2,0,0
85684000,85684000,36.66076749100646,126.34209886569111,79.171776,79.05328,0.013004914,1.1009713,1.0503682,nan,2,2,0,0
86684000,86684000,36.660770066693836,126.34209470793624,79.584564,79.47847,0.013004914,1.1097976,1.0540013,nan,2,2,0,0
87684000,87684000,36.66078608277882,126.3420614561954,79.77426,79.68105,0.013004914,1.1219242,1.0578489,nan,2,2,0,0
88684000,88684000,36.66081038423431,126.34201281577155,79.87448,79.80123,0.013004914,1.1109635,1.0541928,nan,2,2,0,0
89684000,89684000,36.66082797248814,126.34197298975326,80.00776,79.94654,0.013004914,1.1210749,1.0580485,nan,2,2,0,0
90684000,90684000,36.66083794181939,126.34195372938008,80.1059,80.06064,0.013004914,1.1102407,1.0539391,nan,2,2,0,0
91684000,91684000,36.660836027103905,126.34196624880671,80.116776,80.083046,0.013004914,1.1216089,1.0589659,nan,2,2,0,0
92684000,92684000,36.66082159488965,126.34200470292873,80.07237,80.05298,0.013004914,1.1110636,1.05528,nan,2,2,0,0
93684000,93684000,36.660805407935506,126.34204714617525,80.06746,80.05564,0.013004914,1.1219487,1.0596772,nan,2,2,0,0
94684000,94684000,36.66079940101812,126.34205741555027,79.93869,79.93364,0.013004914,1.1104603,1.054713,nan,2,2,0,0
95684000,95684000,36.660802426591786,126.342047335776,79.9283,79.927574,0.013004914,1.1011198,1.050715,nan,2,2,0,0
96684000,96684000,36.66080303411648,126.34204540471467,79.93541,79.93663,0.013004914,1.1100062,1.05413,nan,2,2,0,0
97684000,97684000,36.66080694204423,126.34205691169586,79.853,79.85635,0.013004914,1.1010404,1.0500628,nan,2,2,0,0
98684000,98684000,36.660822547105,126.34210750546886,79.5953,79.59915,0.013004914,1.1096781,1.0537755,nan,2,2,0,0
99684000,99684000,36.660854589204554,126.34222551368849,78.485886,78.49407,0.013004914,1.1008799,1.0508001,nan,2,2,0,0
100684000,100684000,36.660896316935904,126.34240436218934,77.6707,77.67595,0.013004914,1.110684,1.0558068,nan,2,2,0,0
101684000,101684000,36.660936548805545,126.34259121882202,78.05365,78.04392,0.013004914,1.1017438,1.0515014,nan,2,2,0,0
102684000,102684000,36.66097452062144,126.34276732719145,78.76064,78.74292,0.013004914,1.1105174,1.0548294,nan,2,2,0,0
103684000,103684000,36.66101099013189,126.34293251836873,79.18003,79.15743,0.013004914,1.1200848,1.0575655,nan,2,2,0,0
104684000,104684000,36.66104709328443,126.34309296198995,79.19576,79.17292,0.013004914,1.1098536,1.0530387,nan,2,2,0,0
105684000,105684000,36.66108311306721,126.34325297758336,79.01668,78.99543,0.013004914,1.1200016,1.0565624,nan,2,2,0,0
106684000,106684000,36.66112472251341,126.34341205085036,78.75044,78.73211,0.013004914,1.1099231,1.0532104,nan,2,2,0,0
107684000,107684000,36.66121343402724,126.34353945175395,77.840256,77.82732,0.013004914,1.121601,1.0571034,nan,2,2,0,0
108684000,108684000,36.66134999114211,126.34356863305831,77.06372,77.05112,0.013004914,1.1111752,1.0544374,nan,2,2,0,0
109684000,109684000,36.66147607243678,126.3434879267617,76.76823,76.7446,0.013004914,1.1017249,1.0519222,nan,2,2,0,0
110684000,110684000,36.66156003602867,126.34334559334322,77.27429,77.241936,0.013004914,1.1113635,1.0573106,nan,2,2,0,0
111684000,111684000,36.661616783344044,126.34319040809312,78.26844,78.22977,0.013004914,1.101938,1.0518867,nan,2,2,0,0
112684000,112684000,36.66166889288785,126.34303924433912,79.08713,79.052246,0.013004914,1.1114142,1.0549774,nan,2,2,0,0
113684000,113684000,36.661727707588454,126.34289461512182,79.49545,79.466576,0.013004914,1.1229303,1.0579,nan,2,2,0,0
114684000,114684000,36.6617965683645,126.3427563702499,79.69441,79.67808,0.013004914,1.1115955,1.0537171,nan,2,2,0,0
115684000,115684000,36.66187406017297,126.34262335009716,79.83151,79.82851,0.013004914,1.1021321,1.0498348,nan,2,2,0,0
116684000,116684000,36.66195715844673,126.34249415943545,79.99115,79.99675,0.013004914,1.1114041,1.0535029,nan,2,2,0,0
117684000,117684000,36.66204266186658,126.34236698507014,80.17389,80.18724,0.013004914,1.1217942,1.0575027,nan,2,2,0,0
118684000,118684000,36.66212862622846,126.34224041834486,80.33745,80.36018,0.013004914,1.110848,1.053984,nan,2,2,0,0
119684000,119684000,36.66221411181361,126.34211364650953,80.46709,80.49502,0.013004914,1.1208,1.0579209,nan,2,2,0,0
120684000,120684000,36.66229891854605,126.34198620391304,80.55518,80.588326,0.013004914,1.1102855,1.053798,nan,2,2,0,0
121684000,121684000,36.662382460468486,126.3418571676496,80.59463,80.62955,0.013004914,1.1202743,1.0581677,nan,2,2,0,0
122684000,122684000,36.662461297183945,126.34172361585868,80.62778,80.66402,0.013004914,1.1099815,1.0539924,nan,2,2,0,0
123684000,123684000,36.6625332610537,126.34158363511852,80.644424,80.67839,0.013004914,1.1011078,1.0501469,nan,2,2,0,0
124684000,124684000,36.6625982752157,126.34143846116545,80.65752,80.6885,0.013004914,1.110085,1.0538512,nan,2,2,0,0
125684000,125684000,36.66265807474536,126.34129016518297,80.65147,80.67833,0.013004914,1.120371,1.0577382,nan,2,2,0,0
126684000,126684000,36.66271504764317,126.34114029422803,80.63574,80.65641,0.013004914,1.1101252,1.0540985,nan,2,2,0,0
127684000,127684000,36.66277106209731,126.34098938587196,80.59851,80.61529,0.013004914,1.1203816,1.0579958,nan,2,2,0,0
128684000,128684000,36.66282707608538,126.3408383580609,80.54819,80.55852,0.013004914,1.1101576,1.0538334,nan,2,2,0,0
129684000,129684000,36.662883516658106,126.34068764881027,80.50356,80.510315,0.013004914,1.1202219,1.0581516,nan,2,2,0,0
130684000,130684000,36.66294040494329,126.34053678724861,80.454,80.454155,0.013004914,1.1100124,1.0539494,nan,2,2,0,0
131684000,131684000,36.66301478206842,126.34039840359216,80.064224,80.062775,0.013004914,1.120081,1.0576614,nan,2,2,0,0
132684000,132684000,36.663134825611245,126.34032096195597,79.37941,79.38192,0.013004914,1.1101197,1.0538384,nan,2,2,0,0
133684000,133684000,36.66327207938662,126.34033409596533,79.14365,79.14504,0.013004914,1.1011752,1.0501074,nan,2,2,0,0
134684000,134684000,36.66339470451042,126.34041473928929,79.29144,79.291595,0.013004914,1.1107466,1.0541587,nan,2,2,0,0
135684000,135684000,36.66349613662526,126.34052850691424,79.804504,79.80565,0.013004914,1.1016117,1.0507445,nan,2,2,0,0
136684000,136684000,36.663586858830485,126.34065106450369,80.296616,80.30123,0.013004914,1.1106093,1.0544317,nan,2,2,0,0
137684000,137684000,36.66367431027764,126.34077381472252,80.44608,80.45529,0.013004914,1.1207132,1.0580305,nan,2,2,0,0
138684000,138684000,36.66373495423536,126.34091701089866,79.31642,79.34392,0.013004914,1.1101435,1.0541908,nan,2,2,0,0
139684000,139684000,36.66371852683596,126.3410826586382,78.05354,78.09506,0.013004914,1.1011461,1.0504014,nan,2,2,0,0
140684000,140684000,36.66362981757126,126.34121336384739,77.050476,77.09897,0.013004914,1.1102874,1.0545558,nan,2,2,0,0
141684000,141684000,36.663508155280205,126.34128985541982,76.136375,76.19112,0.013004914,1.1207926,1.0590689,nan,2,2,0,0
142684000,142684000,36.66337905590637,126.34132965721625,75.29602,75.360374,0.013004914,1.1099066,1.0550796,nan,2,2,0,0
143684000,143684000,36.66325126091804,126.34135844672606,74.14425,74.22619,0.013004914,1.1009313,1.0507663,nan,2,2,0,0
144684000,144684000,36.66312495318974,126.3413899359544,72.64559,72.74225,0.013004914,1.1093125,1.0541283,nan,2,2,0,0
145684000,145684000,36.66299995367544,126.341430448358,70.91971,71.030945,0.013004914,1.1191258,1.0581715,nan,2,2,0,0
146684000,146684000,36.66287567778885,126.34148072818039,69.1206,69.25062,0.013004914,1.1093578,1.0538688,nan,2,2,0,0
147684000,147684000,36.66275229676037,126.34153761461354,67.33061,67.47329,0.013004914,1.1007475,1.049998,nan,2,2,0,0
148684000,148684000,36.66262952417912,126.34159831488579,65.55216,65.699905,0.013004914,1.1097708,1.0541077,nan,2,2,0,0
149684000,149684000,36.66250701175122,126.34166022685638,63.74995,63.901062,0.013004914,1.1010203,1.0502506,nan,2,2,0,0
150684000,150684000,36.66238428192575,126.34172206845011,61.898598,62.050533,0.013004914,1.1099603,1.053894,nan,2,2,0,0
151684000,151684000,36.66226127692841,126.3417829282801,60.01574,60.16649,0.013004914,1.1202455,1.058299,nan,2,2,0,0
152684000,152684000,36.66213751043389,126.34184312026154,58.074417,58.21837,0.013004914,1.110109,1.0541121,nan,2,2,0,0
153684000,153684000,36.66201338424001,126.34190281283234,56.106712,56.246548,0.013004914,1.1204178,1.0579607,nan,2,2,0,0
154684000,154684000,36.66188894013328,126.34196251321927,54.10804,54.2418,0.013004914,1.1101668,1.054242,nan,2,2,0,0
155684000,155684000,36.661765414792576,126.34202523848712,52.062065,52.193512,0.013004914,1.120448,1.0580876,nan,2,2,0,0
156684000,156684000,36.661664320378044,126.34213208005964,49.424862,49.55999,0.013004914,1.1100357,1.0537095,nan,2,2,0,0
157684000,157684000,36.66160812676665,126.34228849798498,46.848602,46.986465,0.013004914,1.120899,1.0574192,nan,2,2,0,0
158684000,158684000,36.661529322193935,126.34243064778751,44.640564,44.776573,0.013004914,1.1102015,1.0535074,nan,2,2,0,0
159684000,159684000,36.66140073982178,126.34250032715363,43.2705,43.401165,0.013004914,1.1204228,1.0566373,nan,2,2,0,0
160684000,160684000,36.66126015944648,126.34251049804388,42.79988,42.914856,0.013004914,1.1102235,1.0528218,nan,2,2,0,0
161684000,161684000,36.661123675478706,126.3425053197997,42.81993,42.921314,0.013004914,1.1206248,1.0567297,nan,2,2,0,0
162684000,162684000,36.66099056684568,126.34251105928006,42.70806,42.792168,0.013004914,1.1100655,1.0533363,nan,2,2,0,0
163684000,163684000,36.66085966867815,126.34253554581282,42.393005,42.46782,0.013004914,1.1196606,1.0571524,nan,2,2,0,0
164684000,164684000,36.66073071884966,126.34258014029399,42.035324,42.0952,0.013004914,1.1095208,1.0532752,nan,2,2,0,0
165684000,165684000,36.660604160076126,126.3426398031125,41.778954,41.823013,0.013004914,1.1007515,1.0500569,nan,2,2,0,0
166684000,166684000,36.66048005766091,126.34270821992136,41.615253,41.647003,0.013004914,1.1095275,1.0538301,nan,2,2,0,0
167684000,167684000,36.66035752635091,126.34278016185151,41.49387,41.51427,0.013004914,1.119555,1.0578319,nan,2,2,0,0
168684000,168684000,36.66023550602085,126.34285288001554,41.39611,41.40192,0.013004914,1.1095561,1.0537629,nan,2,2,0,0
169684000,169684000,36.660115243269,126.34293506974748,42.092327,42.078476,0.013004914,1.1007715,1.0503306,nan,2,2,0,0
170684000,170684000,36.66000484507461,126.3430373848329,43.53292,43.501465,0.013004914,1.1097553,1.0539587,nan,2,2,0,0
171684000,171684000,36.65991134339957,126.34316080867674,45.355865,45.306667,0.013004914,1.1201396,1.0577562,nan,2,2,0,0
172684000,172684000,36.659838954319525,126.34330315499612,47.393982,47.321205,0.013004914,1.1100155,1.0540875,nan,2,2,0,0
173684000,173684000,36.65979116273065,126.3434599174418,49.606117,49.518467,0.013004914,1.1205322,1.0579935,nan,2,2,0,0
174684000,174684000,36.65976974373499,126.3436250593728,51.960655,51.85467,0.013004914,1.1102316,1.0538806,nan,2,2,0,0
175684000,175684000,36.659775850150325,126.34379230930817,54.45311,54.332584,0.013004914,1.1013006,1.0500791,nan,2,2,0,0
176684000,176684000,36.6598086563302,126.34395411379207,57.05716,56.92713,0.013004914,1.110405,1.053815,nan,2,2,0,0
177684000,177684000,36.65986684751056,126.34410395494446,59.721725,59.577484,0.013004914,1.1013091,1.0504023,nan,2,2,0,0
178684000,178684000,36.659947983618835,126.34423643954393,62.44731,62.295216,0.013004914,1.1103308,1.0541571,nan,2,2,0,0
179684000,179684000,36.66004830160225,126.34434649329523,65.19815,65.0356,0.013004914,1.1012487,1.0502266,nan,2,2,0,0
180684000,180684000,36.66016451368212,126.34442978442344,67.987625,67.82278,0.013004914,1.1102359,1.0543933,nan,2,2,0,0
181684000,181684000,36.66029133449559,126.34448306060162,70.82889,70.66182,0.013004914,1.1012138,1.0504123,nan,2,2,0,0
182684000,182684000,36.66042325267508,126.34450543387968,73.221405,73.05715,0.013004914,1.1100181,1.0540617,nan,2,2,0,0
183684000,183684000,36.660555517016135,126.34449734461697,74.70206,74.54629,0.013004914,1.1198771,1.0584716,nan,2,2,0,0
184684000,184684000,36.66068445890486,126.344455834494,75.72174,75.58252,0.013004914,1.1095936,1.0542297,nan,2,2,0,0
185684000,185684000,36.66080515604229,126.34438132898293,76.50388,76.382645,0.013004914,1.1007735,1.050337,nan,2,2,0,0
186684000,186684000,36.66091208150875,126.34427683050296,77.17647,77.06667,0.013004914,1.109483,1.0540656,nan,2,2,0,0
187684000,187684000,36.66100016704954,126.34414722447707,77.7614,77.6623,0.013004914,1.1195118,1.0585896,nan,2,2,0,0
188684000,188684000,36.66106603210882,126.34399840403748,78.26818,78.18345,0.013004914,1.1094388,1.0543116,nan,2,2,0,0
189684000,189684000,36.66110691304334,126.34383646546587,78.6694,78.59396,0.013004914,1.1193359,1.0582213,nan,2,2,0,0
190684000,190684000,36.66112108862037,126.34366744628296,78.992874,78.931305,0.013004914,1.1093391,1.0544633,nan,2,2,0,0
191684000,191684000,36.66110784886392,126.34349803189119,79.24495,79.19604,0.013004914,1.1006345,1.0504875,nan,2,2,0,0
192684000,192684000,36.66106761450341,126.34333513326803,79.44516,79.403595,0.013004914,1.1093674,1.0542153,nan,2,2,0,0
193684000,193684000,36.66100193445516,126.34318551571793,79.59885,79.563416,0.013004914,1.1193718,1.058701,nan,2,2,0,0
194684000,194684000,36.660913213940695,126.34305542574363,79.715485,79.68794,0.013004914,1.1093771,1.054396,nan,2,2,0,0
195684000,195684000,36.66080506871711,126.34295020647575,79.79216,79.77195,0.013004914,1.1006756,1.0504204,nan,2,2,0,0
196684000,196684000,36.66068193460393,126.34287432768153,79.86528,79.851265,0.013004914,1.1094198,1.0545615,nan,2,2,0,0
197684000,197684000,36.66054912329708,126.34283095400527,79.921265,79.91598,0.013004914,1.1007026,1.0505593,nan,2,2,0,0
198684000,198684000,36.66041179210162,126.34282189220725,79.97537,79.976204,0.013004914,1.1095148,1.0542703,nan,2,2,0,0
199684000,199684000,36.66027617574081,126.34284721315753,80.02544,80.03307,0.013004914,1.1195443,1.0587186,nan,2,2,0,0
200684000,200684000,36.66014726107899,126.34290610973653,80.09677,80.11306,0.013004914,1.1095036,1.0544058,nan,2,2,0,0
201684000,201684000,36.66003081739071,126.3429962670312,80.151115,80.17241,0.013004914,1.1007212,1.0504032,nan,2,2,0,0
202684000,202684000,36.65993150114157,126.34311460715448,80.16984,80.19362,0.013004914,1.1095881,1.0541246,nan,2,2,0,0
203684000,203684000,36.6598536970736,126.3432553013486,80.18625,80.21204,0.013004914,1.1196524,1.0580766,nan,2,2,0,0
204684000,204684000,36.65980023476019,126.34341283593426,80.199936,80.226006,0.013004914,1.1095611,1.0543733,nan,2,2,0,0
205684000,205684000,36.65977353336633,126.343580633287,80.20409,80.22992,0.013004914,1.1008236,1.0504329,nan,2,2,0,0
206684000,206684000,36.65977409320311,126.34375158250862,80.20108,80.22508,0.013004914,1.1095299,1.0541232,nan,2,2,0,0
207684000,207684000,36.65980199731998,126.34391846245693,80.192444,80.215515,0.013004914,1.1194417,1.0580246,nan,2,2,0,0
208684000,208684000,36.6598563791199,126.34407506011078,80.18945,80.21173,0.013004914,1.1093625,1.0543146,nan,2,2,0,0
209684000,209684000,36.6599349103137,126.3442149293794,80.186356,80.20781,0.013004914,1.1192497,1.0582522,nan,2,2,0,0
210684000,210684000,36.66003475400117,126.34433210545787,80.188225,80.210754,0.013004914,1.109241,1.0540136,nan,2,2,0,0
211684000,211684000,36.66015148427415,126.34442148009525,80.17963,80.203514,0.013004914,1.1190956,1.0584404,nan,2,2,0,0
212684000,212684000,36.66028030776844,126.34447958629752,80.18107,80.20962,0.013004914,1.1091367,1.0541751,nan,2,2,0,0
213684000,213684000,36.66041577256876,126.3445041352697,80.19188,80.228546,0.013004914,1.1005124,1.0502539,nan,2,2,0,0
214684000,214684000,36.660552775856544,126.34449441283064,80.219406,80.26211,0.013004914,1.1092082,1.0544212,nan,2,2,0,0
215684000,215684000,36.66068500499844,126.34445038319355,80.23155,80.28058,0.013004914,1.119017,1.0583501,nan,2,2,0,0
216684000,216684000,36.66080726170764,126.3443744157987,80.24434,80.30357,0.013004914,1.1090558,1.0540649,nan,2,2,0,0
217684000,217684000,36.66090928881572,126.34426158817713,80.11963,80.187164,0.013004914,1.1188878,1.0585071,nan,2,2,0,0
218684000,218684000,36.66097651687447,126.34411167339988,79.957306,80.03734,0.013004914,1.1090405,1.0542612,nan,2,2,0,0
219684000,219684000,36.66101535717983,126.34394626787447,80.059265,80.14625,0.013004914,1.1188879,1.0582099,nan,2,2,0,0
220684000,220684000,36.66103974181903,126.34377779380773,80.29375,80.38984,0.013004914,1.1088945,1.0543578,nan,2,2,0,0
221684000,221684000,36.661055549708266,126.34360926421186,80.46309,80.56655,0.013004914,1.1003155,1.050317,nan,2,2,0,0
222684000,222684000,36.661060963868515,126.34343995670193,80.50877,80.61624,0.013004914,1.1088492,1.0539137,nan,2,2,0,0
223684000,223684000,36.66105410841503,126.34327065924538,80.50223,80.61382,0.013004914,1.1187031,1.058277,nan,2,2,0,0
224684000,224684000,36.66103695065837,126.34310220016211,80.49929,80.61547,0.013004914,1.1089358,1.0540054,nan,2,2,0,0
225684000,225684000,36.66101239087841,126.34293509266122,80.50171,80.61938,0.013004914,1.1189455,1.0578469,nan,2,2,0,0
226684000,226684000,36.66098379092181,126.34276883910438,80.50241,80.62033,0.013004914,1.1091486,1.0541254,nan,2,2,0,0
227684000,227684000,36.66095467355945,126.34260800343242,80.46701,80.58525,0.013004914,1.1193023,1.0579593,nan,2,2,0,0
228684000,228684000,36.66092953737372,126.34246498703426,80.80661,80.92029,0.013004914,1.1095284,1.053795,nan,2,2,0,0
229684000,229684000,36.66090963005703,126.34234439695797,81.51357,81.621796,0.013004914,1.1201748,1.0582315,nan,2,2,0,0
230684000,230684000,36.66089491624624,126.34224708686197,82.18561,82.286316,0.013004914,1.1099647,1.0540404,nan,2,2,0,0
231684000,231684000,36.66088437877109,126.34217230482237,82.523254,82.620834,0.013004914,1.1202778,1.0579363,nan,2,2,0,0
232684000,232684000,36.66087641936484,126.34211806568327,82.346275,82.44211,0.013004914,1.1099397,1.0542364,nan,2,2,0,0
233684000,233684000,36.660869720274945,126.34206785018141,81.68115,81.77483,0.013004914,1.1010276,1.0502906,nan,2,2,0,0
234684000,234684000,36.66086366354909,126.34201453988173,81.03529,81.12512,0.013004914,1.1099048,1.053881,nan,2,2,0,0
235684000,235684000,36.66085819463394,126.34197158525978,80.48585,80.56854,0.013004914,1.1202012,1.0582377,nan,2,2,0,0
236684000,236684000,36.66085580680051,126.34195203680756,80.08498,80.156166,0.013004914,1.1100291,1.0540296,nan,2,2,0,0
237684000,237684000,36.66085430259476,126.34193951840015,79.951065,80.0083,0.013004914,1.1011221,1.0501368,nan,2,2,0,0
238684000,238684000,36.6608537155191,126.34193403647296,78.96778,79.02377,0.013004914,1.109987,1.0541998,nan,2,2,0,0
239684000,239684000,36.66085397304107,126.34193476263276,77.578094,77.63014,0.013004914,1.1009864,1.050269,nan,2,2,0,0
240684000,240684000,36.660854143020124,126.34193435087886,76.1304,76.17706,0.013004914,1.1098382,1.053899,nan,2,2,0,0
241684000,241684000,36.660854251702354,126.34193404281191,74.6416,74.68119,0.013004914,1.1201063,1.0583009,nan,2,2,0,0
242684000,242684000,36.660854215971604,126.34193357551578,73.12561,73.150505,0.013004914,1.1100444,1.0541036,nan,2,2,0,0
243684000,243684000,36.6608541276748,126.34193306305863,71.620636,71.63068,0.013004914,1.1011188,1.0501696,nan,2,2,0,0
244684000,244684000,36.66085413230525,126.34193240388092,70.128555,70.129425,0.013004914,1.1100801,1.0542303,nan,2,2,0,0
245684000,245684000,36.66085419327586,126.3419320885224,68.643036,68.63035,0.013004914,1.1012125,1.0503283,nan,2,2,0,0
246684000,246684000,36.66085421663769,126.3419315023146,67.14412,67.12732,0.013004914,1.1116015,1.0546293,nan,2,2,0,0
247684000,247684000,36.66085439988497,126.3419312577019,65.65953,65.637115,0.013004914,1.105229,1.0524704,nan,2,2,0,0
248684000,248684000,36.660854213832366,126.34193095012738,64.173645,64.14862,0.013004914,1.0984445,1.0494274,nan,2,2,0,0
249684000,249684000,36.66085426081465,126.34193072279255,62.6749,62.649017,0.013004914,1.1080567,1.0534079,nan,2,2,0,0
250684000,250684000,36.66085416177218,126.34193078636481,61.16404,61.137943,0.013004914,1.1187547,1.0580127,nan,2,2,0,0
251684000,251684000,36.660854163418726,126.34193067181539,59.686134,59.6605,0.013004914,1.1092103,1.0539567,nan,2,2,0,0
252684000,252684000,36.66085414526215,126.3419307266097,58.20286,58.17782,0.013004914,1.1195245,1.0578607,nan,2,2,0,0
253684000,253684000,36.66085403002684,126.34193064193278,56.707993,56.68545,0.013004914,1.1096325,1.054209,nan,2,2,0,0
254684000,254684000,36.66085404544757,126.34193064588862,55.211544,55.192974,0.013004914,1.1197525,1.0580932,nan,2,2,0,0
255684000,255684000,36.66085412056992,126.34193059250546,53.713978,53.704304,0.013004914,1.1096876,1.0539268,nan,2,2,0,0
256684000,256684000,36.66085417954294,126.34193081646154,52.237995,52.237286,0.013004914,1.1198101,1.0578041,nan,2,2,0,0
257684000,257684000,36.660854180409345,126.34193093926484,50.775627,50.790485,0.013004914,1.1097081,1.054124,nan,2,2,0,0
258684000,258684000,36.660854219441454,126.34193094532685,49.27993,49.306435,0.013004914,1.1197859,1.0580212,nan,2,2,0,0
259684000,259684000,36.660854052198154,126.34193121603764,47.78656,47.831482,0.013004914,1.1096908,1.0538672,nan,2,2,0,0
260684000,260684000,36.6608540262627,126.34193133942902,46.28351,46.340195,0.013004914,1.1197103,1.0577098,nan,2,2,0,0
261684000,261684000,36.66085402997659,126.34193150682684,44.778152,44.850304,0.013004914,1.1096485,1.0540506,nan,2,2,0,0
262684000,262684000,36.66085412834149,126.34193142566697,43.267296,43.346104,0.013004914,1.1197352,1.0579307,nan,2,2,0,0
263684000,263684000,36.660854217804136,126.34193153096798,41.738026,41.82034,0.013004914,1.1097668,1.0538033,nan,2,2,0,0
264684000,264684000,36.66085435222513,126.34193148980518,40.220894,40.300663,0.013004914,1.100968,1.0503464,nan,2,2,0,0
265684000,265684000,36.660854276871305,126.34193161330359,38.780006,38.854286,0.013004914,1.1098434,1.0539851,nan,2,2,0,0
266684000,266684000,36.660854355347126,126.34193156884791,37.567818,37.62709,0.013004914,1.1010182,1.0500866,nan,2,2,0,0
267684000,267684000,36.66085438436173,126.3419315473257,36.511387,36.556793,0.013004914,1.1099749,1.0541754,nan,2,2,0,0
268684000,268684000,36.66085437925853,126.34193145946246,35.62557,35.655403,0.013004914,1.120094,1.0580198,nan,2,2,0,0
269684000,269684000,36.66085424988042,126.3419313820665,34.86486,34.868446,0.013004914,1.1099764,1.0538483,nan,2,2,0,0
270684000,270684000,36.66085416146419,126.3419313293466,34.15938,34.145077,0.013004914,1.1199702,1.0581678,nan,2,2,0,0
271684000,271684000,36.66085409789435,126.34193127506568,33.44809,33.40892,0.013004914,1.1098833,1.0539862,nan,2,2,0,0
272684000,272684000,36.660854134181854,126.34193120668235,32.74859,32.694405,0.013004914,1.1199036,1.0578165,nan,2,2,0,0
273684000,273684000,36.66085407830545,126.34193130700142,32.056854,31.986658,0.013004914,1.10974,1.0541046,nan,2,2,0,0
274684000,274684000,36.66085401613362,126.34193125846186,31.391912,31.313879,0.013004914,1.1197003,1.057939,nan,2,2,0,0
275684000,275684000,36.66085400000957,126.34193123239584,30.685917,30.598423,0.013004914,1.1096725,1.053842,nan,2,2,0,0
276684000,276684000,36.660854037360906,126.34193141368193,30.351843,30.25215,0.013004914,1.1008565,1.0499601,nan,2,2,0,0
277684000,277684000,36.660853974297275,126.34193148442813,30.346546,30.238905,0.013004914,1.1098418,1.0525057,nan,2,2,0,0
