timestamp,data_rate,rate_multiplier,tx_rate_avg,tx_error_rate_avg,tx_message_count,tx_buffer_overruns,rx_rate_avg,rx_message_count,rx_message_lost_count,rx_buffer_overruns,rx_parse_errors,rx_packet_drop_count,rx_message_lost_rate,type,mode,flow_control,forwarding,mavlink_v2,ftp,streams,heartbeat_type_antenna_tracker,heartbeat_type_gcs,heartbeat_type_onboard_controller,heartbeat_type_gimbal,heartbeat_type_adsb,heartbeat_type_camera,heartbeat_type_parachute,heartbeat_type_open_drone_id,heartbeat_component_telemetry_radio,heartbeat_component_log,heartbeat_component_osd,heartbeat_component_obstacle_avoidance,heartbeat_component_vio,heartbeat_component_pairing_manager,heartbeat_component_udp_bridge,heartbeat_component_uart_bridge,avoidance_system_healthy,open_drone_id_system_healthy,parachute_system_healthy
3560000,4000.0,0.14036506,0.0,0.0,2,0,0.0,0,0,0,0,0,0.0,0,2,0,1,1,1,59,0,0,0,0,0,0,0,0,0,0,0,0,0,0,0,0,0,0,0
4816000,4000.0,0.12838675,3156.3745,0.0,72,0,0.0,0,0,0,0,0,0.0,0,2,0,1,1,1,59,0,0,0,0,0,0,0,0,0,0,0,0,0,0,0,0,0,0,0
6076000,4000.0,0.12838675,3471.1157,0.0,158,0,0.0,0,0,0,0,0,0.0,0,2,0,1,1,1,59,0,0,0,0,0,0,0,0,0,0,0,0,0,0,0,0,0,0,0
7332000,4000.0,0.12838675,2889.4424,0.0,228,0,0.0,0,0,0,0,0,0.0,0,2,0,1,1,1,59,0,0,0,0,0,0,0,0,0,0,0,0,0,0,0,0,0,0,0
8332000,4000.0,0.12838675,3815.737,0.0,299,0,0.0,0,0,0,0,0,0.0,0,2,0,1,1,1,59,0,0,0,0,0,0,0,0,0,0,0,0,0,0,0,0,0,0,0
8584000,4000.0,0.12838675,3238.0479,0.0,311,0,0.0,0,0,0,0,0,0.0,0,2,0,1,1,1,59,0,0,0,0,0,0,0,0,0,0,0,0,0,0,0,0,0,0,0
9844000,4000.0,0.12838675,3739.044,0.0,408,0,0.0,0,0,0,0,0,0.0,0,2,0,1,1,1,59,0,0,0,0,0,0,0,0,0,0,0,0,0,0,0,0,0,0,0
11104000,4000.0,0.12838675,4007.9683,0.0,490,0,0.0,0,0,0,0,0,0.0,0,2,0,1,1,1,59,0,0,0,0,0,0,0,0,0,0,0,0,0,0,0,0,0,0,0
12364000,4000.0,0.12838675,4088.6455,0.0,589,0,0.0,0,0,0,0,0,0.0,0,2,0,1,1,1,59,0,0,0,0,0,0,0,0,0,0,0,0,0,0,0,0,0,0,0
13364000,4000.0,0.12838675,3489.044,0.0,657,0,0.0,0,0,0,0,0,0.0,0,2,0,1,1,1,59,0,0,0,0,0,0,0,0,0,0,0,0,0,0,0,0,0,0,0
13624000,4000.0,0.12838675,3330.6775,0.0,683,0,0.0,0,0,0,0,0,0.0,0,2,0,1,1,1,59,0,0,0,0,0,0,0,0,0,0,0,0,0,0,0,0,0,0,0
14884000,4000.0,0.12838675,4068.7253,0.0,762,0,0.0,0,0,0,0,0,0.0,0,2,0,1,1,1,59,0,0,0,0,0,0,0,0,0,0,0,0,0,0,0,0,0,0,0
16144000,4000.0,0.12838675,3600.5977,0.0,853,0,0.0,0,0,0,0,0,0.0,0,2,0,1,1,1,59,0,0,0,0,0,0,0,0,0,0,0,0,0,0,0,0,0,0,0
17404000,4000.0,0.12838675,3575.6973,0.0,931,0,0.0,0,0,0,0,0,0.0,0,2,0,1,1,1,59,0,0,0,0,0,0,0,0,0,0,0,0,0,0,0,0,0,0,0
18404000,4000.0,0.12838675,4146.4146,0.0,1010,0,0.0,0,0,0,0,0,0.0,0,2,0,1,1,1,59,0,0,0,0,0,0,0,0,0,0,0,0,0,0,0,0,0,0,0
18656000,4000.0,0.12838675,3522.9084,0.0,1024,0,0.0,0,0,0,0,0,0.0,0,2,0,1,1,1,59,0,0,0,0,0,0,0,0,0,0,0,0,0,0,0,0,0,0,0
19912000,4000.0,0.12838675,4001.9922,0.0,1127,0,0.0,0,0,0,0,0,0.0,0,2,0,1,1,1,59,0,0,0,0,0,0,0,0,0,0,0,0,0,0,0,0,0,0,0
21176000,4000.0,0.12838675,4059.761,0.0,1209,0,0.0,0,0,0,0,0,0.0,0,2,0,1,1,1,59,0,0,0,0,0,0,0,0,0,0,0,0,0,0,0,0,0,0,0
22436000,4000.0,0.12838675,3326.6934,0.0,1300,0,0.0,0,0,0,0,0,0.0,0,2,0,1,1,1,59,0,0,0,0,0,0,0,0,0,0,0,0,0,0,0,0,0,0,0
23436000,4000.0,0.12838675,3558.7651,0.0,1362,0,0.0,0,0,0,0,0,0.0,0,2,0,1,1,1,59,0,0,0,0,0,0,0,0,0,0,0,0,0,0,0,0,0,0,0
23696000,4000.0,0.12838675,3564.7412,0.0,1379,0,0.0,0,0,0,0,0,0.0,0,2,0,1,1,1,59,0,0,0,0,0,0,0,0,0,0,0,0,0,0,0,0,0,0,0
24956000,4000.0,0.12838675,4104.582,0.0,1470,0,0.0,0,0,0,0,0,0.0,0,2,0,1,1,1,59,0,0,0,0,0,0,0,0,0,0,0,0,0,0,0,0,0,0,0
26208000,4000.0,0.12838675,3630.4783,0.0,1560,0,0.0,0,0,0,0,0,0.0,0,2,0,1,1,1,59,0,0,0,0,0,0,0,0,0,0,0,0,0,0,0,0,0,0,0
27468000,4000.0,0.12838675,3532.8687,0.0,1648,0,0.0,0,0,0,0,0,0.0,0,2,0,1,1,1,59,0,0,0,0,0,0,0,0,0,0,0,0,0,0,0,0,0,0,0
28468000,4000.0,0.12838675,4409.363,0.0,1725,0,0.0,0,0,0,0,0,0.0,0,2,0,1,1,1,59,0,0,0,0,0,0,0,0,0,0,0,0,0,0,0,0,0,0,0
28728000,4000.0,0.12838675,3232.0718,0.0,1744,0,0.0,0,0,0,0,0,0.0,0,2,0,1,1,1,59,0,0,0,0,0,0,0,0,0,0,0,0,0,0,0,0,0,0,0
29988000,4000.0,0.12838675,3608.566,0.0,1832,0,0.0,0,0,0,0,0,0.0,0,2,0,1,1,1,59,0,0,0,0,0,0,0,0,0,0,0,0,0,0,0,0,0,0,0
31248000,4000.0,0.12838675,3567.7292,0.0,1911,0,0.0,0,0,0,0,0,0.0,0,2,0,1,1,1,59,0,0,0,0,0,0,0,0,0,0,0,0,0,0,0,0,0,0,0
32508000,4000.0,0.12838675,4106.5737,0.0,2001,0,0.0,0,0,0,0,0,0.0,0,2,0,1,1,1,59,0,0,0,0,0,0,0,0,0,0,0,0,0,0,0,0,0,0,0
33508000,4000.0,0.12838675,3509.9602,0.0,2069,0,0.0,0,0,0,0,0,0.0,0,2,0,1,1,1,59,0,0,0,0,0,0,0,0,0,0,0,0,0,0,0,0,0,0,0
33768000,4000.0,0.12838675,3666.3347,0.0,2086,0,0.0,0,0,0,0,0,0.0,0,2,0,1,1,1,59,0,0,0,0,0,0,0,0,0,0,0,0,0,0,0,0,0,0,0
35024000,4000.0,0.12838675,4002.9883,0.0,2186,0,0.0,0,0,0,0,0,0.0,0,2,0,1,1,1,59,0,0,0,0,0,0,0,0,0,0,0,0,0,0,0,0,0,0,0
36284000,4000.0,0.12838675,4085.6575,0.0,2279,0,0.0,0,0,0,0,0,0.0,0,2,0,1,1,1,59,0,0,0,0,0,0,0,0,0,0,0,0,0,0,0,0,0,0,0
37284000,4000.0,0.12838675,3318.725,0.0,2343,0,0.0,0,0,0,0,0,0.0,0,2,0,1,1,1,59,0,0,0,0,0,0,0,0,0,0,0,0,0,0,0,0,0,0,0
37544000,4000.0,0.12838675,3318.725,0.0,2360,0,0.0,0,0,0,0,0,0.0,0,2,0,1,1,1,59,0,0,0,0,0,0,0,0,0,0,0,0,0,0,0,0,0,0,0
38796000,4000.0,0.12838675,4257.9683,0.0,2450,0,0.0,0,0,0,0,0,0.0,0,2,0,1,1,1,59,0,0,0,0,0,0,0,0,0,0,0,0,0,0,0,0,0,0,0
40056000,4000.0,0.12838675,3438.247,0.0,2517,0,0.0,0,0,0,0,0,0.0,0,2,0,1,1,1,59,0,0,0,0,0,0,0,0,0,0,0,0,0,0,0,0,0,0,0
41316000,4000.0,0.12838675,3418.327,0.0,2595,0,0.0,0,0,0,0,0,0.0,0,2,0,1,1,1,59,0,0,0,0,0,0,0,0,0,0,0,0,0,0,0,0,0,0,0
42316000,4000.0,0.12838675,3952.1914,0.0,2651,0,0.0,0,0,0,0,0,0.0,0,2,0,1,1,1,59,0,0,0,0,0,0,0,0,0,0,0,0,0,0,0,0,0,0,0
42568000,4000.0,0.12838675,3952.1914,0.0,2682,0,0.0,0,0,0,0,0,0.0,0,2,0,1,1,1,59,0,0,0,0,0,0,0,0,0,0,0,0,0,0,0,0,0,0,0
43824000,4000.0,0.12838675,3110.5579,0.0,2750,0,0.0,0,0,0,0,0,0.0,0,2,0,1,1,1,59,0,0,0,0,0,0,0,0,0,0,0,0,0,0,0,0,0,0,0
45088000,4000.0,0.12838675,3523.9045,0.0,2831,0,0.0,0,0,0,0,0,0.0,0,2,0,1,1,1,59,0,0,0,0,0,0,0,0,0,0,0,0,0,0,0,0,0,0,0
46344000,4000.0,0.12838675,3965.1396,0.0,2910,0,0.0,0,0,0,0,0,0.0,0,2,0,1,1,1,59,0,0,0,0,0,0,0,0,0,0,0,0,0,0,0,0,0,0,0
47344000,4000.0,0.12838675,3458.1675,0.0,2966,0,0.0,0,0,0,0,0,0.0,0,2,0,1,1,1,59,0,0,0,0,0,0,0,0,0,0,0,0,0,0,0,0,0,0,0
47604000,4000.0,0.12838675,3458.1675,0.0,2978,0,0.0,0,0,0,0,0,0.0,0,2,0,1,1,1,59,0,0,0,0,0,0,0,0,0,0,0,0,0,0,0,0,0,0,0
48864000,4000.0,0.12838675,3986.056,0.0,3058,0,0.0,0,0,0,0,0,0.0,0,2,0,1,1,1,59,0,0,0,0,0,0,0,0,0,0,0,0,0,0,0,0,0,0,0
50124000,4000.0,0.12838675,3363.546,0.0,3124,0,0.0,0,0,0,0,0,0.0,0,2,0,1,1,1,59,0,0,0,0,0,0,0,0,0,0,0,0,0,0,0,0,0,0,0
51380000,4000.0,0.12838675,4099.6016,0.0,3227,0,0.0,0,0,0,0,0,0.0,0,2,0,1,1,1,59,0,0,0,0,0,0,0,0,0,0,0,0,0,0,0,0,0,0,0
52380000,4000.0,0.12838675,3262.9482,0.0,3295,0,0.0,0,0,0,0,0,0.0,0,2,0,1,1,1,59,0,0,0,0,0,0,0,0,0,0,0,0,0,0,0,0,0,0,0
52632000,4000.0,0.12838675,3262.9482,0.0,3319,0,0.0,0,0,0,0,0,0.0,0,2,0,1,1,1,59,0,0,0,0,0,0,0,0,0,0,0,0,0,0,0,0,0,0,0
53884000,4000.0,0.12838675,3598.6057,0.0,3400,0,0.0,0,0,0,0,0,0.0,0,2,0,1,1,1,59,0,0,0,0,0,0,0,0,0,0,0,0,0,0,0,0,0,0,0
55136000,4000.0,0.12838675,3590.6375,0.0,3492,0,0.0,0,0,0,0,0,0.0,0,2,0,1,1,1,59,0,0,0,0,0,0,0,0,0,0,0,0,0,0,0,0,0,0,0
56392000,4000.0,0.12838675,4078.6853,0.0,3570,0,0.0,0,0,0,0,0,0.0,0,2,0,1,1,1,59,0,0,0,0,0,0,0,0,0,0,0,0,0,0,0,0,0,0,0
57392000,4000.0,0.12838675,3603.5857,0.0,3647,0,0.0,0,0,0,0,0,0.0,0,2,0,1,1,1,59,0,0,0,0,0,0,0,0,0,0,0,0,0,0,0,0,0,0,0
57644000,4000.0,0.12838675,3603.5857,0.0,3663,0,0.0,0,0,0,0,0,0.0,0,2,0,1,1,1,59,0,0,0,0,0,0,0,0,0,0,0,0,0,0,0,0,0,0,0
58900000,4000.0,0.12838675,3721.1157,0.0,3764,0,0.0,0,0,0,0,0,0.0,0,2,0,1,1,1,59,0,0,0,0,0,0,0,0,0,0,0,0,0,0,0,0,0,0,0
60160000,4000.0,0.12838675,4163.3467,0.0,3846,0,0.0,0,0,0,0,0,0.0,0,2,0,1,1,1,59,0,0,0,0,0,0,0,0,0,0,0,0,0,0,0,0,0,0,0
61420000,4000.0,0.12838675,3706.1753,0.0,3939,0,0.0,0,0,0,0,0,0.0,0,2,0,1,1,1,59,0,0,0,0,0,0,0,0,0,0,0,0,0,0,0,0,0,0,0
62420000,4000.0,0.12838675,3732.0718,0.0,4006,0,0.0,0,0,0,0,0,0.0,0,2,0,1,1,1,59,0,0,0,0,0,0,0,0,0,0,0,0,0,0,0,0,0,0,0
62676000,4000.0,0.12838675,3732.0718,0.0,4032,0,0.0,0,0,0,0,0,0.0,0,2,0,1,1,1,59,0,0,0,0,0,0,0,0,0,0,0,0,0,0,0,0,0,0,0
63936000,4000.0,0.12838675,3616.534,0.0,4115,0,0.0,0,0,0,0,0,0.0,0,2,0,1,1,1,59,0,0,0,0,0,0,0,0,0,0,0,0,0,0,0,0,0,0,0
65188000,4000.0,0.12838675,3721.1157,0.0,4207,0,0.0,0,0,0,0,0,0.0,0,2,0,1,1,1,59,0,0,0,0,0,0,0,0,0,0,0,0,0,0,0,0,0,0,0
66448000,4000.0,0.12838675,4137.45,0.0,4299,0,0.0,0,0,0,0,0,0.0,0,2,0,1,1,1,59,0,0,0,0,0,0,0,0,0,0,0,0,0,0,0,0,0,0,0
67448000,4000.0,0.12838675,3841.6335,0.0,4379,0,0.0,0,0,0,0,0,0.0,0,2,0,1,1,1,59,0,0,0,0,0,0,0,0,0,0,0,0,0,0,0,0,0,0,0
67708000,4000.0,0.12838675,3841.6335,0.0,4394,0,0.0,0,0,0,0,0,0.0,0,2,0,1,1,1,59,0,0,0,0,0,0,0,0,0,0,0,0,0,0,0,0,0,0,0
68968000,4000.0,0.12838675,3721.1157,0.0,4484,0,0.0,0,0,0,0,0,0.0,0,2,0,1,1,1,59,0,0,0,0,0,0,0,0,0,0,0,0,0,0,0,0,0,0,0
70228000,4000.0,0.12838675,4190.2393,0.0,4567,0,0.0,0,0,0,0,0,0.0,0,2,0,1,1,1,59,0,0,0,0,0,0,0,0,0,0,0,0,0,0,0,0,0,0,0
71488000,4000.0,0.12838675,3724.1038,0.0,4660,0,0.0,0,0,0,0,0,0.0,0,2,0,1,1,1,59,0,0,0,0,0,0,0,0,0,0,0,0,0,0,0,0,0,0,0
72488000,4000.0,0.12838675,3663.3467,0.0,4727,0,0.0,0,0,0,0,0,0.0,0,2,0,1,1,1,59,0,0,0,0,0,0,0,0,0,0,0,0,0,0,0,0,0,0,0
72744000,4000.0,0.12838675,3663.3467,0.0,4746,0,0.0,0,0,0,0,0,0.0,0,2,0,1,1,1,59,0,0,0,0,0,0,0,0,0,0,0,0,0,0,0,0,0,0,0
73996000,4000.0,0.12838675,3725.0996,0.0,4844,0,0.0,0,0,0,0,0,0.0,0,2,0,1,1,1,59,0,0,0,0,0,0,0,0,0,0,0,0,0,0,0,0,0,0,0
75256000,4000.0,0.12838675,3550.7969,0.0,4936,0,0.0,0,0,0,0,0,0.0,0,2,0,1,1,1,59,0,0,0,0,0,0,0,0,0,0,0,0,0,0,0,0,0,0,0
76516000,4000.0,0.12838675,3765.9363,0.0,5018,0,0.0,0,0,0,0,0,0.0,0,2,0,1,1,1,59,0,0,0,0,0,0,0,0,0,0,0,0,0,0,0,0,0,0,0
77516000,4000.0,0.12838675,4137.45,0.0,5096,0,0.0,0,0,0,0,0,0.0,0,2,0,1,1,1,59,0,0,0,0,0,0,0,0,0,0,0,0,0,0,0,0,0,0,0
77776000,4000.0,0.12838675,4137.45,0.0,5112,0,0.0,0,0,0,0,0,0.0,0,2,0,1,1,1,59,0,0,0,0,0,0,0,0,0,0,0,0,0,0,0,0,0,0,0
79036000,4000.0,0.12838675,3742.032,0.0,5206,0,0.0,0,0,0,0,0,0.0,0,2,0,1,1,1,59,0,0,0,0,0,0,0,0,0,0,0,0,0,0,0,0,0,0,0
80296000,4000.0,0.12838675,4169.3228,0.0,5286,0,0.0,0,0,0,0,0,0.0,0,2,0,1,1,1,59,0,0,0,0,0,0,0,0,0,0,0,0,0,0,0,0,0,0,0
81296000,4000.0,0.12838675,3666.3347,0.0,5353,0,0.0,0,0,0,0,0,0.0,0,2,0,1,1,1,59,0,0,0,0,0,0,0,0,0,0,0,0,0,0,0,0,0,0,0
81556000,4000.0,0.12838675,3666.3347,0.0,5390,0,0.0,0,0,0,0,0,0.0,0,2,0,1,1,1,59,0,0,0,0,0,0,0,0,0,0,0,0,0,0,0,0,0,0,0
82808000,4000.0,0.12838675,3888.4463,0.0,5472,0,0.0,0,0,0,0,0,0.0,0,2,0,1,1,1,59,0,0,0,0,0,0,0,0,0,0,0,0,0,0,0,0,0,0,0
84064000,4000.0,0.12838675,4195.219,0.0,5563,0,0.0,0,0,0,0,0,0.0,0,2,0,1,1,1,59,0,0,0,0,0,0,0,0,0,0,0,0,0,0,0,0,0,0,0
85316000,4000.0,0.12838675,3648.4065,0.0,5657,0,0.0,0,0,0,0,0,0.0,0,2,0,1,1,1,59,0,0,0,0,0,0,0,0,0,0,0,0,0,0,0,0,0,0,0
86316000,4000.0,0.12838675,3678.2869,0.0,5725,0,0.0,0,0,0,0,0,0.0,0,2,0,1,1,1,59,0,0,0,0,0,0,0,0,0,0,0,0,0,0,0,0,0,0,0
86576000,4000.0,0.12838675,3678.2869,0.0,5740,0,0.0,0,0,0,0,0,0.0,0,2,0,1,1,1,59,0,0,0,0,0,0,0,0,0,0,0,0,0,0,0,0,0,0,0
87828000,4000.0,0.12838675,4180.279,0.0,5833,0,0.0,0,0,0,0,0,0.0,0,2,0,1,1,1,59,0,0,0,0,0,0,0,0,0,0,0,0,0,0,0,0,0,0,0
89084000,4000.0,0.12838675,3375.498,0.0,5913,0,0.0,0,0,0,0,0,0.0,0,2,0,1,1,1,59,0,0,0,0,0,0,0,0,0,0,0,0,0,0,0,0,0,0,0
90336000,4000.0,0.12838675,4028.8845,0.0,6016,0,0.0,0,0,0,0,0,0.0,0,2,0,1,1,1,59,0,0,0,0,0,0,0,0,0,0,0,0,0,0,0,0,0,0,0
91336000,4000.0,0.12838675,4364.542,0.0,6092,0,0.0,0,0,0,0,0,0.0,0,2,0,1,1,1,59,0,0,0,0,0,0,0,0,0,0,0,0,0,0,0,0,0,0,0
91588000,4000.0,0.12838675,4364.542,0.0,6118,0,0.0,0,0,0,0,0,0.0,0,2,0,1,1,1,59,0,0,0,0,0,0,0,0,0,0,0,0,0,0,0,0,0,0,0
92836000,4000.0,0.12838675,3600.5977,0.0,6205,0,0.0,0,0,0,0,0,0.0,0,2,0,1,1,1,59,0,0,0,0,0,0,0,0,0,0,0,0,0,0,0,0,0,0,0
94100000,4000.0,0.12838675,4268.9243,0.0,6308,0,0.0,0,0,0,0,0,0.0,0,2,0,1,1,1,59,0,0,0,0,0,0,0,0,0,0,0,0,0,0,0,0,0,0,0
95352000,4000.0,0.12838675,3718.1277,0.0,6387,0,0.0,0,0,0,0,0,0.0,0,2,0,1,1,1,59,0,0,0,0,0,0,0,0,0,0,0,0,0,0,0,0,0,0,0
96352000,4000.0,0.12838675,3708.1675,0.0,6475,0,0.0,0,0,0,0,0,0.0,0,2,0,1,1,1,59,0,0,0,0,0,0,0,0,0,0,0,0,0,0,0,0,0,0,0
96612000,4000.0,0.12838675,3708.1675,0.0,6494,0,0.0,0,0,0,0,0,0.0,0,2,0,1,1,1,59,0,0,0,0,0,0,0,0,0,0,0,0,0,0,0,0,0,0,0
97872000,4000.0,0.12838675,3726.0957,0.0,6608,0,0.0,0,0,0,0,0,0.0,0,2,0,1,1,1,59,0,0,0,0,0,0,0,0,0,0,0,0,0,0,0,0,0,0,0
99132000,4000.0,0.12838675,3815.737,0.0,6693,0,0.0,0,0,0,0,0,0.0,0,2,0,1,1,1,59,0,0,0,0,0,0,0,0,0,0,0,0,0,0,0,0,0,0,0
100392000,4000.0,0.12838675,3759.9602,0.0,6789,0,0.0,0,0,0,0,0,0.0,0,2,0,1,1,1,59,0,0,0,0,0,0,0,0,0,0,0,0,0,0,0,0,0,0,0
101392000,4000.0,0.12838675,4345.6177,0.0,6857,0,0.0,0,0,0,0,0,0.0,0,2,0,1,1,1,59,0,0,0,0,0,0,0,0,0,0,0,0,0,0,0,0,0,0,0
101652000,4000.0,0.12838675,4345.6177,0.0,6885,0,0.0,0,0,0,0,0,0.0,0,2,0,1,1,1,59,0,0,0,0,0,0,0,0,0,0,0,0,0,0,0,0,0,0,0
102900000,4000.0,0.12838675,3708.1675,0.0,6970,0,0.0,0,0,0,0,0,0.0,0,2,0,1,1,1,59,0,0,0,0,0,0,0,0,0,0,0,0,0,0,0,0,0,0,0
104160000,4000.0,0.12838675,3498.008,0.0,7065,0,0.0,0,0,0,0,0,0.0,0,2,0,1,1,1,59,0,0,0,0,0,0,0,0,0,0,0,0,0,0,0,0,0,0,0
105412000,4000.0,0.12838675,4609.562,0.0,7157,0,0.0,0,0,0,0,0,0.0,0,2,0,1,1,1,59,0,0,0,0,0,0,0,0,0,0,0,0,0,0,0,0,0,0,0
106412000,4000.0,0.12838675,3744.024,0.0,7246,0,0.0,0,0,0,0,0,0.0,0,2,0,1,1,1,59,0,0,0,0,0,0,0,0,0,0,0,0,0,0,0,0,0,0,0
106672000,4000.0,0.12838675,3744.024,0.0,7264,0,0.0,0,0,0,0,0,0.0,0,2,0,1,1,1,59,0,0,0,0,0,0,0,0,0,0,0,0,0,0,0,0,0,0,0
107924000,4000.0,0.12838675,4000.0,0.0,7363,0,0.0,0,0,0,0,0,0.0,0,2,0,1,1,1,59,0,0,0,0,0,0,0,0,0,0,0,0,0,0,0,0,0,0,0
109176000,4000.0,0.12838675,3738.0479,0.0,7445,0,0.0,0,0,0,0,0,0.0,0,2,0,1,1,1,59,0,0,0,0,0,0,0,0,0,0,0,0,0,0,0,0,0,0,0
110428000,4000.0,0.12838675,3802.789,0.0,7538,0,0.0,0,0,0,0,0,0.0,0,2,0,1,1,1,59,0,0,0,0,0,0,0,0,0,0,0,0,0,0,0,0,0,0,0
111428000,4000.0,0.12838675,4257.9683,0.0,7610,0,0.0,0,0,0,0,0,0.0,0,2,0,1,1,1,59,0,0,0,0,0,0,0,0,0,0,0,0,0,0,0,0,0,0,0
111684000,4000.0,0.12838675,4257.9683,0.0,7628,0,0.0,0,0,0,0,0,0.0,0,2,0,1,1,1,59,0,0,0,0,0,0,0,0,0,0,0,0,0,0,0,0,0,0,0
112936000,4000.0,0.12838675,3482.0718,0.0,7734,0,0.0,0,0,0,0,0,0.0,0,2,0,1,1,1,59,0,0,0,0,0,0,0,0,0,0,0,0,0,0,0,0,0,0,0
114196000,4000.0,0.12838675,3733.0679,0.0,7830,0,0.0,0,0,0,0,0,0.0,0,2,0,1,1,1,59,0,0,0,0,0,0,0,0,0,0,0,0,0,0,0,0,0,0,0
115456000,4000.0,0.12838675,4373.5063,0.0,7914,0,0.0,0,0,0,0,0,0.0,0,2,0,1,1,1,59,0,0,0,0,0,0,0,0,0,0,0,0,0,0,0,0,0,0,0
116456000,4000.0,0.12838675,3736.056,0.0,7995,0,0.0,0,0,0,0,0,0.0,0,2,0,1,1,1,59,0,0,0,0,0,0,0,0,0,0,0,0,0,0,0,0,0,0,0
116716000,4000.0,0.12838675,3736.056,0.0,8011,0,0.0,0,0,0,0,0,0.0,0,2,0,1,1,1,59,0,0,0,0,0,0,0,0,0,0,0,0,0,0,0,0,0,0,0
117968000,4000.0,0.12838675,3854.5818,0.0,8095,0,0.0,0,0,0,0,0,0.0,0,2,0,1,1,1,59,0,0,0,0,0,0,0,0,0,0,0,0,0,0,0,0,0,0,0
119228000,4000.0,0.12838675,3567.7292,0.0,8191,0,0.0,0,0,0,0,0,0.0,0,2,0,1,1,1,59,0,0,0,0,0,0,0,0,0,0,0,0,0,0,0,0,0,0,0
120488000,4000.0,0.12838675,3674.303,0.0,8295,0,0.0,0,0,0,0,0,0.0,0,2,0,1,1,1,59,0,0,0,0,0,0,0,0,0,0,0,0,0,0,0,0,0,0,0
121488000,4000.0,0.12838675,4197.2114,0.0,8372,0,0.0,0,0,0,0,0,0.0,0,2,0,1,1,1,59,0,0,0,0,0,0,0,0,0,0,0,0,0,0,0,0,0,0,0
121740000,4000.0,0.12838675,4197.2114,0.0,8394,0,0.0,0,0,0,0,0,0.0,0,2,0,1,1,1,59,0,0,0,0,0,0,0,0,0,0,0,0,0,0,0,0,0,0,0
123000000,4000.0,0.12838675,4330.6772,0.0,8488,0,0.0,0,0,0,0,0,0.0,0,2,0,1,1,1,59,0,0,0,0,0,0,0,0,0,0,0,0,0,0,0,0,0,0,0
124260000,4000.0,0.12838675,3878.486,0.0,8585,0,0.0,0,0,0,0,0,0.0,0,2,0,1,1,1,59,0,0,0,0,0,0,0,0,0,0,0,0,0,0,0,0,0,0,0
125260000,4000.0,0.12838675,4271.9126,0.0,8655,0,0.0,0,0,0,0,0,0.0,0,2,0,1,1,1,59,0,0,0,0,0,0,0,0,0,0,0,0,0,0,0,0,0,0,0
125520000,4000.0,0.12838675,4271.9126,0.0,8669,0,0.0,0,0,0,0,0,0.0,0,2,0,1,1,1,59,0,0,0,0,0,0,0,0,0,0,0,0,0,0,0,0,0,0,0
126780000,4000.0,0.12838675,3758.9644,0.0,8767,0,0.0,0,0,0,0,0,0.0,0,2,0,1,1,1,59,0,0,0,0,0,0,0,0,0,0,0,0,0,0,0,0,0,0,0
128040000,4000.0,0.12838675,3564.7412,0.0,8852,0,0.0,0,0,0,0,0,0.0,0,2,0,1,1,1,59,0,0,0,0,0,0,0,0,0,0,0,0,0,0,0,0,0,0,0
129300000,4000.0,0.12838675,4771.9126,0.0,8957,0,0.0,0,0,0,0,0,0.0,0,2,0,1,1,1,59,0,0,0,0,0,0,0,0,0,0,0,0,0,0,0,0,0,0,0
130300000,4000.0,0.12838675,3688.247,0.0,9029,0,0.0,0,0,0,0,0,0.0,0,2,0,1,1,1,59,0,0,0,0,0,0,0,0,0,0,0,0,0,0,0,0,0,0,0
130560000,4000.0,0.12838675,3688.247,0.0,9059,0,0.0,0,0,0,0,0,0.0,0,2,0,1,1,1,59,0,0,0,0,0,0,0,0,0,0,0,0,0,0,0,0,0,0,0
131820000,4000.0,0.12838675,3892.4304,0.0,9153,0,0.0,0,0,0,0,0,0.0,0,2,0,1,1,1,59,0,0,0,0,0,0,0,0,0,0,0,0,0,0,0,0,0,0,0
133080000,4000.0,0.12838675,3825.6973,0.0,9248,0,0.0,0,0,0,0,0,0.0,0,2,0,1,1,1,59,0,0,0,0,0,0,0,0,0,0,0,0,0,0,0,0,0,0,0
134332000,4000.0,0.12838675,3430.279,0.0,9332,0,0.0,0,0,0,0,0,0.0,0,2,0,1,1,1,59,0,0,0,0,0,0,0,0,0,0,0,0,0,0,0,0,0,0,0
135332000,4000.0,0.12838675,3875.498,0.0,9410,0,0.0,0,0,0,0,0,0.0,0,2,0,1,1,1,59,0,0,0,0,0,0,0,0,0,0,0,0,0,0,0,0,0,0,0
135592000,4000.0,0.12838675,3875.498,0.0,9428,0,0.0,0,0,0,0,0,0.0,0,2,0,1,1,1,59,0,0,0,0,0,0,0,0,0,0,0,0,0,0,0,0,0,0,0
136852000,4000.0,0.12838675,4567.729,0.0,9532,0,0.0,0,0,0,0,0,0.0,0,2,0,1,1,1,59,0,0,0,0,0,0,0,0,0,0,0,0,0,0,0,0,0,0,0
138104000,4000.0,0.12838675,3959.1636,0.0,9628,0,0.0,0,0,0,0,0,0.0,0,2,0,1,1,1,59,0,0,0,0,0,0,0,0,0,0,0,0,0,0,0,0,0,0,0
139360000,4000.0,0.12838675,4289.841,0.0,9723,0,0.0,0,0,0,0,0,0.0,0,2,0,1,1,1,59,0,0,0,0,0,0,0,0,0,0,0,0,0,0,0,0,0,0,0
140360000,4000.0,0.12838675,3695.2192,0.0,9794,0,0.0,0,0,0,0,0,0.0,0,2,0,1,1,1,59,0,0,0,0,0,0,0,0,0,0,0,0,0,0,0,0,0,0,0
140612000,4000.0,0.12838675,3695.2192,0.0,9819,0,0.0,0,0,0,0,0,0.0,0,2,0,1,1,1,59,0,0,0,0,0,0,0,0,0,0,0,0,0,0,0,0,0,0,0
141864000,4000.0,0.12838675,3791.8328,0.0,9905,0,0.0,0,0,0,0,0,0.0,0,2,0,1,1,1,59,0,0,0,0,0,0,0,0,0,0,0,0,0,0,0,0,0,0,0
143124000,4000.0,0.12838675,4293.8247,0.0,9998,0,0.0,0,0,0,0,0,0.0,0,2,0,1,1,1,59,0,0,0,0,0,0,0,0,0,0,0,0,0,0,0,0,0,0,0
144384000,4000.0,0.12838675,4234.064,0.0,10094,0,0.0,0,0,0,0,0,0.0,0,2,0,1,1,1,59,0,0,0,0,0,0,0,0,0,0,0,0,0,0,0,0,0,0,0
145384000,4000.0,0.12838675,3801.793,0.0,10177,0,0.0,0,0,0,0,0,0.0,0,2,0,1,1,1,59,0,0,0,0,0,0,0,0,0,0,0,0,0,0,0,0,0,0,0
145636000,4000.0,0.12838675,3801.793,0.0,10191,0,0.0,0,0,0,0,0,0.0,0,2,0,1,1,1,59,0,0,0,0,0,0,0,0,0,0,0,0,0,0,0,0,0,0,0
146896000,4000.0,0.12838675,4345.6177,0.0,10291,0,0.0,0,0,0,0,0,0.0,0,2,0,1,1,1,59,0,0,0,0,0,0,0,0,0,0,0,0,0,0,0,0,0,0,0
148152000,4000.0,0.12838675,3720.1196,0.0,10375,0,0.0,0,0,0,0,0,0.0,0,2,0,1,1,1,59,0,0,0,0,0,0,0,0,0,0,0,0,0,0,0,0,0,0,0
149416000,4000.0,0.12838675,3485.0598,0.0,10469,0,0.0,0,0,0,0,0,0.0,0,2,0,1,1,1,59,0,0,0,0,0,0,0,0,0,0,0,0,0,0,0,0,0,0,0
150416000,4000.0,0.12838675,4348.6055,0.0,10538,0,0.0,0,0,0,0,0,0.0,0,2,0,1,1,1,59,0,0,0,0,0,0,0,0,0,0,0,0,0,0,0,0,0,0,0
150672000,4000.0,0.12838675,4348.6055,0.0,10554,0,0.0,0,0,0,0,0,0.0,0,2,0,1,1,1,59,0,0,0,0,0,0,0,0,0,0,0,0,0,0,0,0,0,0,0
151924000,4000.0,0.12838675,3736.056,0.0,10658,0,0.0,0,0,0,0,0,0.0,0,2,0,1,1,1,59,0,0,0,0,0,0,0,0,0,0,0,0,0,0,0,0,0,0,0
153184000,4000.0,0.12838675,4303.785,0.0,10754,0,0.0,0,0,0,0,0,0.0,0,2,0,1,1,1,59,0,0,0,0,0,0,0,0,0,0,0,0,0,0,0,0,0,0,0
154444000,4000.0,0.12838675,3737.052,0.0,10839,0,0.0,0,0,0,0,0,0.0,0,2,0,1,1,1,59,0,0,0,0,0,0,0,0,0,0,0,0,0,0,0,0,0,0,0
155444000,4000.0,0.1276038,3837.6494,0.0,10921,0,0.0,0,0,0,0,0,0.0,0,2,0,1,1,1,59,0,0,0,0,0,0,0,0,0,0,0,0,0,0,0,0,0,0,0
155700000,4000.0,0.1276038,3837.6494,0.0,10938,0,0.0,0,0,0,0,0,0.0,0,2,0,1,1,1,59,0,0,0,0,0,0,0,0,0,0,0,0,0,0,0,0,0,0,0
156952000,4000.0,0.1276038,4255.976,0.0,11041,0,0.0,0,0,0,0,0,0.0,0,2,0,1,1,1,59,0,0,0,0,0,0,0,0,0,0,0,0,0,0,0,0,0,0,0
158212000,4000.0,0.1276038,3798.805,0.0,11129,0,0.0,0,0,0,0,0,0.0,0,2,0,1,1,1,59,0,0,0,0,0,0,0,0,0,0,0,0,0,0,0,0,0,0,0
159464000,4000.0,0.1276038,3788.8447,0.0,11234,0,0.0,0,0,0,0,0,0.0,0,2,0,1,1,1,59,0,0,0,0,0,0,0,0,0,0,0,0,0,0,0,0,0,0,0
160464000,4000.0,0.1276038,4805.777,0.0,11301,0,0.0,0,0,0,0,0,0.0,0,2,0,1,1,1,59,0,0,0,0,0,0,0,0,0,0,0,0,0,0,0,0,0,0,0
160720000,4000.0,0.1276038,4805.777,0.0,11321,0,0.0,0,0,0,0,0,0.0,0,2,0,1,1,1,59,0,0,0,0,0,0,0,0,0,0,0,0,0,0,0,0,0,0,0
161972000,4000.0,0.1276038,3735.0598,0.0,11415,0,0.0,0,0,0,0,0,0.0,0,2,0,1,1,1,59,0,0,0,0,0,0,0,0,0,0,0,0,0,0,0,0,0,0,0
163232000,4000.0,0.1276038,3498.008,0.0,11511,0,0.0,0,0,0,0,0,0.0,0,2,0,1,1,1,59,0,0,0,0,0,0,0,0,0,0,0,0,0,0,0,0,0,0,0
164492000,4000.0,0.1276038,4348.6055,0.0,11595,0,0.0,0,0,0,0,0,0.0,0,2,0,1,1,1,59,0,0,0,0,0,0,0,0,0,0,0,0,0,0,0,0,0,0,0
165492000,4000.0,0.1276038,3679.283,0.0,11664,0,0.0,0,0,0,0,0,0.0,0,2,0,1,1,1,59,0,0,0,0,0,0,0,0,0,0,0,0,0,0,0,0,0,0,0
165748000,4000.0,0.1276038,3679.283,0.0,11693,0,0.0,0,0,0,0,0,0.0,0,2,0,1,1,1,59,0,0,0,0,0,0,0,0,0,0,0,0,0,0,0,0,0,0,0
167000000,4000.0,0.1276038,3922.3108,0.0,11781,0,0.0,0,0,0,0,0,0.0,0,2,0,1,1,1,59,0,0,0,0,0,0,0,0,0,0,0,0,0,0,0,0,0,0,0
168252000,4000.0,0.1276038,4058.7651,0.0,11892,0,0.0,0,0,0,0,0,0.0,0,2,0,1,1,1,59,0,0,0,0,0,0,0,0,0,0,0,0,0,0,0,0,0,0,0
169504000,4000.0,0.1276038,3700.1992,0.0,11996,0,0.0,0,0,0,0,0,0.0,0,2,0,1,1,1,59,0,0,0,0,0,0,0,0,0,0,0,0,0,0,0,0,0,0,0
170504000,4000.0,0.1276038,3832.6694,0.0,12068,0,0.0,0,0,0,0,0,0.0,0,2,0,1,1,1,59,0,0,0,0,0,0,0,0,0,0,0,0,0,0,0,0,0,0,0
170764000,4000.0,0.1276038,3832.6694,0.0,12083,0,0.0,0,0,0,0,0,0.0,0,2,0,1,1,1,59,0,0,0,0,0,0,0,0,0,0,0,0,0,0,0,0,0,0,0
172024000,4000.0,0.1276038,4293.8247,0.0,12180,0,0.0,0,0,0,0,0,0.0,0,2,0,1,1,1,59,0,0,0,0,0,0,0,0,0,0,0,0,0,0,0,0,0,0,0
173280000,4000.0,0.1276038,3794.8208,0.0,12264,0,0.0,0,0,0,0,0,0.0,0,2,0,1,1,1,59,0,0,0,0,0,0,0,0,0,0,0,0,0,0,0,0,0,0,0
174280000,4000.0,0.1276038,4335.6577,0.0,12347,0,0.0,0,0,0,0,0,0.0,0,2,0,1,1,1,59,0,0,0,0,0,0,0,0,0,0,0,0,0,0,0,0,0,0,0
174540000,4000.0,0.1276038,4335.6577,0.0,12360,0,0.0,0,0,0,0,0,0.0,0,2,0,1,1,1,59,0,0,0,0,0,0,0,0,0,0,0,0,0,0,0,0,0,0,0
175792000,4000.0,0.1276038,4241.036,0.0,12470,0,0.0,0,0,0,0,0,0.0,0,2,0,1,1,1,59,0,0,0,0,0,0,0,0,0,0,0,0,0,0,0,0,0,0,0
177044000,4000.0,0.1276038,3520.9165,0.0,12553,0,0.0,0,0,0,0,0,0.0,0,2,0,1,1,1,59,0,0,0,0,0,0,0,0,0,0,0,0,0,0,0,0,0,0,0
178304000,4000.0,0.1276038,4367.53,0.0,12650,0,0.0,0,0,0,0,0,0.0,0,2,0,1,1,1,59,0,0,0,0,0,0,0,0,0,0,0,0,0,0,0,0,0,0,0
179304000,4000.0,0.1276038,3705.1794,0.0,12721,0,0.0,0,0,0,0,0,0.0,0,2,0,1,1,1,59,0,0,0,0,0,0,0,0,0,0,0,0,0,0,0,0,0,0,0
179564000,4000.0,0.1276038,3705.1794,0.0,12736,0,0.0,0,0,0,0,0,0.0,0,2,0,1,1,1,59,0,0,0,0,0,0,0,0,0,0,0,0,0,0,0,0,0,0,0
180816000,4000.0,0.1276038,3919.3228,0.0,12833,0,0.0,0,0,0,0,0,0.0,0,2,0,1,1,1,59,0,0,0,0,0,0,0,0,0,0,0,0,0,0,0,0,0,0,0
182076000,4000.0,0.1276038,4227.092,0.0,12929,0,0.0,0,0,0,0,0,0.0,0,2,0,1,1,1,59,0,0,0,0,0,0,0,0,0,0,0,0,0,0,0,0,0,0,0
183328000,4000.0,0.1276038,4046.813,0.0,13022,0,0.0,0,0,0,0,0,0.0,0,2,0,1,1,1,59,0,0,0,0,0,0,0,0,0,0,0,0,0,0,0,0,0,0,0
184328000,4000.0,0.1276038,3775.8965,0.0,13091,0,0.0,0,0,0,0,0,0.0,0,2,0,1,1,1,59,0,0,0,0,0,0,0,0,0,0,0,0,0,0,0,0,0,0,0
184584000,4000.0,0.1276038,3775.8965,0.0,13119,0,0.0,0,0,0,0,0,0.0,0,2,0,1,1,1,59,0,0,0,0,0,0,0,0,0,0,0,0,0,0,0,0,0,0,0
185836000,4000.0,0.1276038,4292.8286,0.0,13204,0,0.0,0,0,0,0,0,0.0,0,2,0,1,1,1,59,0,0,0,0,0,0,0,0,0,0,0,0,0,0,0,0,0,0,0
187088000,4000.0,0.1276038,3839.6416,0.0,13300,0,0.0,0,0,0,0,0,0.0,0,2,0,1,1,1,59,0,0,0,0,0,0,0,0,0,0,0,0,0,0,0,0,0,0,0
188348000,4000.0,0.1276038,4336.6533,0.0,13396,0,0.0,0,0,0,0,0,0.0,0,2,0,1,1,1,59,0,0,0,0,0,0,0,0,0,0,0,0,0,0,0,0,0,0,0
189348000,4000.0,0.1276038,3519.9204,0.0,13468,0,0.0,0,0,0,0,0,0.0,0,2,0,1,1,1,59,0,0,0,0,0,0,0,0,0,0,0,0,0,0,0,0,0,0,0
189604000,4000.0,0.1276038,3519.9204,0.0,13484,0,0.0,0,0,0,0,0,0.0,0,2,0,1,1,1,59,0,0,0,0,0,0,0,0,0,0,0,0,0,0,0,0,0,0,0
190856000,4000.0,0.1276038,3729.0837,0.0,13588,0,0.0,0,0,0,0,0,0.0,0,2,0,1,1,1,59,0,0,0,0,0,0,0,0,0,0,0,0,0,0,0,0,0,0,0
192108000,4000.0,0.1276038,4344.6216,0.0,13673,0,0.0,0,0,0,0,0,0.0,0,2,0,1,1,1,59,0,0,0,0,0,0,0,0,0,0,0,0,0,0,0,0,0,0,0
193368000,4000.0,0.1276038,3746.016,0.0,13770,0,0.0,0,0,0,0,0,0.0,0,2,0,1,1,1,59,0,0,0,0,0,0,0,0,0,0,0,0,0,0,0,0,0,0,0
194368000,4000.0,0.1276038,3745.02,0.0,13842,0,0.0,0,0,0,0,0,0.0,0,2,0,1,1,1,59,0,0,0,0,0,0,0,0,0,0,0,0,0,0,0,0,0,0,0
194628000,4000.0,0.1276038,3745.02,0.0,13868,0,0.0,0,0,0,0,0,0.0,0,2,0,1,1,1,59,0,0,0,0,0,0,0,0,0,0,0,0,0,0,0,0,0,0,0
195888000,4000.0,0.1276038,3522.9084,0.0,13955,0,0.0,0,0,0,0,0,0.0,0,2,0,1,1,1,59,0,0,0,0,0,0,0,0,0,0,0,0,0,0,0,0,0,0,0
197148000,4000.0,0.1276038,4293.8247,0.0,14051,0,0.0,0,0,0,0,0,0.0,0,2,0,1,1,1,59,0,0,0,0,0,0,0,0,0,0,0,0,0,0,0,0,0,0,0
198400000,4000.0,0.1276038,3811.7532,0.0,14133,0,0.0,0,0,0,0,0,0.0,0,2,0,1,1,1,59,0,0,0,0,0,0,0,0,0,0,0,0,0,0,0,0,0,0,0
199400000,4000.0,0.1276038,4561.753,0.0,14222,0,0.0,0,0,0,0,0,0.0,0,2,0,1,1,1,59,0,0,0,0,0,0,0,0,0,0,0,0,0,0,0,0,0,0,0
199652000,4000.0,0.1276038,4561.753,0.0,14238,0,0.0,0,0,0,0,0,0.0,0,2,0,1,1,1,59,0,0,0,0,0,0,0,0,0,0,0,0,0,0,0,0,0,0,0
200912000,4000.0,0.1276038,3741.036,0.0,14338,0,0.0,0,0,0,0,0,0.0,0,2,0,1,1,1,59,0,0,0,0,0,0,0,0,0,0,0,0,0,0,0,0,0,0,0
202164000,4000.0,0.1276038,3533.8647,0.0,14424,0,0.0,0,0,0,0,0,0.0,0,2,0,1,1,1,59,0,0,0,0,0,0,0,0,0,0,0,0,0,0,0,0,0,0,0
203424000,4000.0,0.1276038,4384.4624,0.0,14518,0,0.0,0,0,0,0,0,0.0,0,2,0,1,1,1,59,0,0,0,0,0,0,0,0,0,0,0,0,0,0,0,0,0,0,0
204424000,4000.0,0.1276038,3631.474,0.0,14586,0,0.0,0,0,0,0,0,0.0,0,2,0,1,1,1,59,0,0,0,0,0,0,0,0,0,0,0,0,0,0,0,0,0,0,0
204676000,4000.0,0.1276038,3631.474,0.0,14604,0,0.0,0,0,0,0,0,0.0,0,2,0,1,1,1,59,0,0,0,0,0,0,0,0,0,0,0,0,0,0,0,0,0,0,0
205936000,4000.0,0.1276038,3892.4304,0.0,14701,0,0.0,0,0,0,0,0,0.0,0,2,0,1,1,1,59,0,0,0,0,0,0,0,0,0,0,0,0,0,0,0,0,0,0,0
207196000,4000.0,0.1276038,4263.9443,0.0,14807,0,0.0,0,0,0,0,0,0.0,0,2,0,1,1,1,59,0,0,0,0,0,0,0,0,0,0,0,0,0,0,0,0,0,0,0
208456000,4000.0,0.1276038,3557.769,0.0,14894,0,0.0,0,0,0,0,0,0.0,0,2,0,1,1,1,59,0,0,0,0,0,0,0,0,0,0,0,0,0,0,0,0,0,0,0
209456000,4000.0,0.1276038,3749.0042,0.0,14973,0,0.0,0,0,0,0,0,0.0,0,2,0,1,1,1,59,0,0,0,0,0,0,0,0,0,0,0,0,0,0,0,0,0,0,0
209708000,4000.0,0.1276038,3749.0042,0.0,14992,0,0.0,0,0,0,0,0,0.0,0,2,0,1,1,1,59,0,0,0,0,0,0,0,0,0,0,0,0,0,0,0,0,0,0,0
210964000,4000.0,0.1276038,4263.9443,0.0,15075,0,0.0,0,0,0,0,0,0.0,0,2,0,1,1,1,59,0,0,0,0,0,0,0,0,0,0,0,0,0,0,0,0,0,0,0
212216000,4000.0,0.1276038,3838.6455,0.0,15170,0,0.0,0,0,0,0,0,0.0,0,2,0,1,1,1,59,0,0,0,0,0,0,0,0,0,0,0,0,0,0,0,0,0,0,0
213468000,4000.0,0.1276038,4298.8047,0.0,15266,0,0.0,0,0,0,0,0,0.0,0,2,0,1,1,1,59,0,0,0,0,0,0,0,0,0,0,0,0,0,0,0,0,0,0,0
214468000,4000.0,0.1276038,3790.8367,0.0,15345,0,0.0,0,0,0,0,0,0.0,0,2,0,1,1,1,59,0,0,0,0,0,0,0,0,0,0,0,0,0,0,0,0,0,0,0
214728000,4000.0,0.1276038,3790.8367,0.0,15363,0,0.0,0,0,0,0,0,0.0,0,2,0,1,1,1,59,0,0,0,0,0,0,0,0,0,0,0,0,0,0,0,0,0,0,0
215980000,4000.0,0.1276038,3735.0598,0.0,15458,0,0.0,0,0,0,0,0,0.0,0,2,0,1,1,1,59,0,0,0,0,0,0,0,0,0,0,0,0,0,0,0,0,0,0,0
217240000,4000.0,0.1276038,3811.7532,0.0,15550,0,0.0,0,0,0,0,0,0.0,0,2,0,1,1,1,59,0,0,0,0,0,0,0,0,0,0,0,0,0,0,0,0,0,0,0
218500000,4000.0,0.1276038,3709.1636,0.0,15648,0,0.0,0,0,0,0,0,0.0,0,2,0,1,1,1,59,0,0,0,0,0,0,0,0,0,0,0,0,0,0,0,0,0,0,0
219500000,4000.0,0.1276038,3857.5698,0.0,15719,0,0.0,0,0,0,0,0,0.0,0,2,0,1,1,1,59,0,0,0,0,0,0,0,0,0,0,0,0,0,0,0,0,0,0,0
219752000,4000.0,0.1276038,3857.5698,0.0,15747,0,0.0,0,0,0,0,0,0.0,0,2,0,1,1,1,59,0,0,0,0,0,0,0,0,0,0,0,0,0,0,0,0,0,0,0
221012000,4000.0,0.1276038,3706.1753,0.0,15833,0,0.0,0,0,0,0,0,0.0,0,2,0,1,1,1,59,0,0,0,0,0,0,0,0,0,0,0,0,0,0,0,0,0,0,0
222264000,4000.0,0.1276038,3994.024,0.0,15937,0,0.0,0,0,0,0,0,0.0,0,2,0,1,1,1,59,0,0,0,0,0,0,0,0,0,0,0,0,0,0,0,0,0,0,0
223264000,4000.0,0.1276038,4180.279,0.0,16004,0,0.0,0,0,0,0,0,0.0,0,2,0,1,1,1,59,0,0,0,0,0,0,0,0,0,0,0,0,0,0,0,0,0,0,0
223520000,4000.0,0.1276038,3857.5698,0.0,16019,0,0.0,0,0,0,0,0,0.0,0,2,0,1,1,1,59,0,0,0,0,0,0,0,0,0,0,0,0,0,0,0,0,0,0,0
224772000,4000.0,0.1276038,4292.8286,0.0,16115,0,0.0,0,0,0,0,0,0.0,0,2,0,1,1,1,59,0,0,0,0,0,0,0,0,0,0,0,0,0,0,0,0,0,0,0
226032000,4000.0,0.1276038,3763.9443,0.0,16213,0,0.0,0,0,0,0,0,0.0,0,2,0,1,1,1,59,0,0,0,0,0,0,0,0,0,0,0,0,0,0,0,0,0,0,0
227284000,4000.0,0.1276038,3693.2273,0.0,16304,0,0.0,0,0,0,0,0,0.0,0,2,0,1,1,1,59,0,0,0,0,0,0,0,0,0,0,0,0,0,0,0,0,0,0,0
228284000,4000.0,0.1276038,3700.1992,0.0,16391,0,0.0,0,0,0,0,0,0.0,0,2,0,1,1,1,59,0,0,0,0,0,0,0,0,0,0,0,0,0,0,0,0,0,0,0
228544000,4000.0,0.1276038,4426.295,0.0,16409,0,0.0,0,0,0,0,0,0.0,0,2,0,1,1,1,59,0,0,0,0,0,0,0,0,0,0,0,0,0,0,0,0,0,0,0
229804000,4000.0,0.1276038,3806.773,0.0,16493,0,0.0,0,0,0,0,0,0.0,0,2,0,1,1,1,59,0,0,0,0,0,0,0,0,0,0,0,0,0,0,0,0,0,0,0
231064000,4000.0,0.1276038,4077.6895,0.0,16595,0,0.0,0,0,0,0,0,0.0,0,2,0,1,1,1,59,0,0,0,0,0,0,0,0,0,0,0,0,0,0,0,0,0,0,0
232316000,4000.0,0.1276038,4318.725,0.0,16691,0,0.0,0,0,0,0,0,0.0,0,2,0,1,1,1,59,0,0,0,0,0,0,0,0,0,0,0,0,0,0,0,0,0,0,0
233316000,4000.0,0.1276038,3667.3308,0.0,16761,0,0.0,0,0,0,0,0,0.0,0,2,0,1,1,1,59,0,0,0,0,0,0,0,0,0,0,0,0,0,0,0,0,0,0,0
233576000,4000.0,0.1276038,3515.9363,0.0,16778,0,0.0,0,0,0,0,0,0.0,0,2,0,1,1,1,59,0,0,0,0,0,0,0,0,0,0,0,0,0,0,0,0,0,0,0
234828000,4000.0,0.1276038,3720.1196,0.0,16870,0,0.0,0,0,0,0,0,0.0,0,2,0,1,1,1,59,0,0,0,0,0,0,0,0,0,0,0,0,0,0,0,0,0,0,0
236088000,4000.0,0.1276038,4291.833,0.0,16972,0,0.0,0,0,0,0,0,0.0,0,2,0,1,1,1,59,0,0,0,0,0,0,0,0,0,0,0,0,0,0,0,0,0,0,0
237348000,4000.0,0.1276038,3768.9243,0.0,17057,0,0.0,0,0,0,0,0,0.0,0,2,0,1,1,1,59,0,0,0,0,0,0,0,0,0,0,0,0,0,0,0,0,0,0,0
238348000,4000.0,0.1276038,3765.9363,0.0,17136,0,0.0,0,0,0,0,0,0.0,0,2,0,1,1,1,59,0,0,0,0,0,0,0,0,0,0,0,0,0,0,0,0,0,0,0
238600000,4000.0,0.1276038,4627.49,0.0,17162,0,0.0,0,0,0,0,0,0.0,0,2,0,1,1,1,59,0,0,0,0,0,0,0,0,0,0,0,0,0,0,0,0,0,0,0
239860000,4000.0,0.1276038,3721.1157,0.0,17246,0,0.0,0,0,0,0,0,0.0,0,2,0,1,1,1,59,0,0,0,0,0,0,0,0,0,0,0,0,0,0,0,0,0,0,0
241116000,4000.0,0.1276038,3375.498,0.0,17338,0,0.0,0,0,0,0,0,0.0,0,2,0,1,1,1,59,0,0,0,0,0,0,0,0,0,0,0,0,0,0,0,0,0,0,0
242380000,4000.0,0.1276038,3658.3667,0.0,17428,0,0.0,0,0,0,0,0,0.0,0,2,0,1,1,1,59,0,0,0,0,0,0,0,0,0,0,0,0,0,0,0,0,0,0,0
243380000,4000.0,0.1276038,4205.179,0.0,17493,0,0.0,0,0,0,0,0,0.0,0,2,0,1,1,1,59,0,0,0,0,0,0,0,0,0,0,0,0,0,0,0,0,0,0,0
243640000,4000.0,0.1276038,3590.6375,0.0,17509,0,0.0,0,0,0,0,0,0.0,0,2,0,1,1,1,59,0,0,0,0,0,0,0,0,0,0,0,0,0,0,0,0,0,0,0
244892000,4000.0,0.1276038,3809.761,0.0,17604,0,0.0,0,0,0,0,0,0.0,0,2,0,1,1,1,59,0,0,0,0,0,0,0,0,0,0,0,0,0,0,0,0,0,0,0
246148000,4000.0,0.1276038,4114.542,0.0,17693,0,0.0,0,0,0,0,0,0.0,0,2,0,1,1,1,59,0,0,0,0,0,0,0,0,0,0,0,0,0,0,0,0,0,0,0
247408000,4000.0,0.1276038,3628.486,0.0,17785,0,0.0,0,0,0,0,0,0.0,0,2,0,1,1,1,59,0,0,0,0,0,0,0,0,0,0,0,0,0,0,0,0,0,0,0
248408000,4000.0,0.1276038,3707.1714,0.0,17852,0,0.0,0,0,0,0,0,0.0,0,2,0,1,1,1,59,0,0,0,0,0,0,0,0,0,0,0,0,0,0,0,0,0,0,0
248660000,4000.0,0.1276038,3653.3865,0.0,17877,0,0.0,0,0,0,0,0,0.0,0,2,0,1,1,1,59,0,0,0,0,0,0,0,0,0,0,0,0,0,0,0,0,0,0,0
249920000,4000.0,0.1276038,4245.02,0.0,17959,0,0.0,0,0,0,0,0,0.0,0,2,0,1,1,1,59,0,0,0,0,0,0,0,0,0,0,0,0,0,0,0,0,0,0,0
251176000,4000.0,0.1276038,3669.3228,0.0,18051,0,0.0,0,0,0,0,0,0.0,0,2,0,1,1,1,59,0,0,0,0,0,0,0,0,0,0,0,0,0,0,0,0,0,0,0
252428000,4000.0,0.1276038,3668.327,0.0,18133,0,0.0,0,0,0,0,0,0.0,0,2,0,1,1,1,59,0,0,0,0,0,0,0,0,0,0,0,0,0,0,0,0,0,0,0
253428000,4000.0,0.1276038,3618.5261,0.0,18219,0,0.0,0,0,0,0,0,0.0,0,2,0,1,1,1,59,0,0,0,0,0,0,0,0,0,0,0,0,0,0,0,0,0,0,0
253688000,4000.0,0.1276038,4428.287,0.0,18238,0,0.0,0,0,0,0,0,0.0,0,2,0,1,1,1,59,0,0,0,0,0,0,0,0,0,0,0,0,0,0,0,0,0,0,0
254948000,4000.0,0.1276038,3613.546,0.0,18328,0,0.0,0,0,0,0,0,0.0,0,2,0,1,1,1,59,0,0,0,0,0,0,0,0,0,0,0,0,0,0,0,0,0,0,0
256200000,4000.0,0.1276038,3773.9045,0.0,18409,0,0.0,0,0,0,0,0,0.0,0,2,0,1,1,1,59,0,0,0,0,0,0,0,0,0,0,0,0,0,0,0,0,0,0,0
257460000,4000.0,0.1276038,4203.1875,0.0,18499,0,0.0,0,0,0,0,0,0.0,0,2,0,1,1,1,59,0,0,0,0,0,0,0,0,0,0,0,0,0,0,0,0,0,0,0
258460000,4000.0,0.1276038,3605.578,0.0,18569,0,0.0,0,0,0,0,0,0.0,0,2,0,1,1,1,59,0,0,0,0,0,0,0,0,0,0,0,0,0,0,0,0,0,0,0
258720000,4000.0,0.1276038,3595.6177,0.0,18585,0,0.0,0,0,0,0,0,0.0,0,2,0,1,1,1,59,0,0,0,0,0,0,0,0,0,0,0,0,0,0,0,0,0,0,0
259980000,4000.0,0.1276038,3448.2073,0.0,18678,0,0.0,0,0,0,0,0,0.0,0,2,0,1,1,1,59,0,0,0,0,0,0,0,0,0,0,0,0,0,0,0,0,0,0,0
261232000,4000.0,0.1276038,4181.275,0.0,18770,0,0.0,0,0,0,0,0,0.0,0,2,0,1,1,1,59,0,0,0,0,0,0,0,0,0,0,0,0,0,0,0,0,0,0,0
262488000,4000.0,0.1276038,3996.016,0.0,18857,0,0.0,0,0,0,0,0,0.0,0,2,0,1,1,1,59,0,0,0,0,0,0,0,0,0,0,0,0,0,0,0,0,0,0,0
263488000,4000.0,0.1276038,3640.4385,0.0,18925,0,0.0,0,0,0,0,0,0.0,0,2,0,1,1,1,59,0,0,0,0,0,0,0,0,0,0,0,0,0,0,0,0,0,0,0
263740000,4000.0,0.1276038,4202.1914,0.0,18950,0,0.0,0,0,0,0,0,0.0,0,2,0,1,1,1,59,0,0,0,0,0,0,0,0,0,0,0,0,0,0,0,0,0,0,0
264992000,4000.0,0.1276038,3627.4902,0.0,19032,0,0.0,0,0,0,0,0,0.0,0,2,0,1,1,1,59,0,0,0,0,0,0,0,0,0,0,0,0,0,0,0,0,0,0,0
266252000,4000.0,0.1276038,3389.4424,0.0,19124,0,0.0,0,0,0,0,0,0.0,0,2,0,1,1,1,59,0,0,0,0,0,0,0,0,0,0,0,0,0,0,0,0,0,0,0
267512000,4000.0,0.1276038,3730.0798,0.0,19217,0,0.0,0,0,0,0,0,0.0,0,2,0,1,1,1,59,0,0,0,0,0,0,0,0,0,0,0,0,0,0,0,0,0,0,0
268512000,4000.0,0.1276038,4236.0557,0.0,19283,0,0.0,0,0,0,0,0,0.0,0,2,0,1,1,1,59,0,0,0,0,0,0,0,0,0,0,0,0,0,0,0,0,0,0,0
268764000,4000.0,0.1276038,3530.8767,0.0,19300,0,0.0,0,0,0,0,0,0.0,0,2,0,1,1,1,59,0,0,0,0,0,0,0,0,0,0,0,0,0,0,0,0,0,0,0
270024000,4000.0,0.1276038,4192.231,0.0,19400,0,0.0,0,0,0,0,0,0.0,0,2,0,1,1,1,59,0,0,0,0,0,0,0,0,0,0,0,0,0,0,0,0,0,0,0
271276000,4000.0,0.1276038,4102.59,0.0,19483,0,0.0,0,0,0,0,0,0.0,0,2,0,1,1,1,59,0,0,0,0,0,0,0,0,0,0,0,0,0,0,0,0,0,0,0
272276000,4000.0,0.1276038,3748.008,0.0,19560,0,0.0,0,0,0,0,0,0.0,0,2,0,1,1,1,59,0,0,0,0,0,0,0,0,0,0,0,0,0,0,0,0,0,0,0
272536000,4000.0,0.1276038,3748.008,0.0,19575,0,0.0,0,0,0,0,0,0.0,0,2,0,1,1,1,59,0,0,0,0,0,0,0,0,0,0,0,0,0,0,0,0,0,0,0
273796000,4000.0,0.1276038,3648.4065,0.0,19671,0,0.0,0,0,0,0,0,0.0,0,2,0,1,1,1,59,0,0,0,0,0,0,0,0,0,0,0,0,0,0,0,0,0,0,0
275056000,4000.0,0.1276038,4151.3945,0.0,19751,0,0.0,0,0,0,0,0,0.0,0,2,0,1,1,1,59,0,0,0,0,0,0,0,0,0,0,0,0,0,0,0,0,0,0,0
276308000,4000.0,0.1276038,3725.0996,0.0,19841,0,0.0,0,0,0,0,0,0.0,0,2,0,1,1,1,59,0,0,0,0,0,0,0,0,0,0,0,0,0,0,0,0,0,0,0
277308000,4000.0,0.1276038,3664.3428,0.0,19916,0,0.0,0,0,0,0,0,0.0,0,2,0,1,1,1,59,0,0,0,0,0,0,0,0,0,0,0,0,0,0,0,0,0,0,0
