timestamp,accel_device_id,gyro_device_id,accel_clipping[0],accel_clipping[1],accel_clipping[2],gyro_clipping[0],gyro_clipping[1],gyro_clipping[2],accel_error_count,gyro_error_count,accel_rate_hz,gyro_rate_hz,accel_raw_rate_hz,gyro_raw_rate_hz,accel_vibration_metric,gyro_vibration_metric,delta_angle_coning_metric,mean_accel[0],mean_accel[1],mean_accel[2],mean_gyro[0],mean_gyro[1],mean_gyro[2],var_accel[0],var_accel[1],var_accel[2],var_gyro[0],var_gyro[1],var_gyro[2],temperature_accel,temperature_gyro
4220000,1310988,1310988,0,0,0,0,0,0,0,0,250.0,250.0,250.0,250.0,0.056429952,0.0034584373,3.0263358e-11,-0.23453599,0.20140043,-9.913623,-0.0014913703,-0.005901565,0.00021305284,0.0007162769,0.001773314,0.001922056,7.565256e-06,9.312829e-06,1.2364466e-05,14.809476,14.809476
5220000,1310988,1310988,0,0,0,0,0,0,0,0,250.0,250.0,250.0,250.0,0.049950145,0.0042282725,3.2807587e-11,-0.20992361,0.18157643,-9.928755,-0.001043959,-0.0034088462,-0.0006178534,0.0010985383,0.0015580507,0.0013064609,1.30614135e-05,1.30973485e-05,2.4721365e-05,14.809476,14.809476
6220000,1310988,1310988,0,0,0,0,0,0,0,0,250.0,250.0,250.0,250.0,0.05007023,0.0038979708,3.1038738e-11,-0.21519084,0.19306861,-9.94494,-0.0027696874,-0.00624245,0.0018961707,0.0012426076,0.0017516082,0.0023369482,1.543785e-05,1.1454743e-05,5.6285508e-06,14.809476,14.809476
7220000,1310988,1310988,0,0,0,0,0,0,0,0,250.0,250.0,250.0,250.0,0.05092472,0.004165438,2.498065e-11,-0.19029115,0.2026454,-9.926265,-0.00046871635,-0.0052197957,-0.00036219007,0.0019117462,0.0013632514,0.001012915,7.454614e-06,1.0378585e-05,1.3799972e-05,14.809476,14.809476
8220000,1310988,1310988,0,0,0,0,0,0,0,0,250.0,250.0,250.0,250.0,0.049624298,0.0040944116,1.9266906e-11,-0.23013067,0.17305307,-9.938235,-0.0014061491,-0.004623248,-0.00055393757,0.0015937048,0.0014672143,0.0015923537,6.025726e-06,9.828213e-06,8.3804125e-06,14.809476,14.809476
9220000,1310988,1310988,0,0,0,0,0,0,0,0,250.0,250.0,250.0,250.0,0.049694836,0.0038681985,1.9130973e-11,-0.1931642,0.18023568,-9.925307,-0.0012144014,-0.0045380266,0.00034088452,0.0010321403,0.0019898,0.0013810212,1.37243205e-05,1.1634416e-05,5.9784434e-06,14.809476,14.809476
10220000,1310988,1310988,0,0,0,0,0,0,0,0,250.0,250.0,250.0,250.0,0.052872103,0.0042042197,3.8357144e-11,-0.19661184,0.19919777,-9.914868,-0.0011504856,-0.00700944,0.00036218972,0.001101691,0.0024108686,0.0037412,1.0607435e-05,1.9402045e-05,1.3847255e-05,14.809476,14.809476
11220000,1310988,1310988,0,0,0,0,0,0,0,0,250.0,250.0,250.0,250.0,0.052373324,0.0039778426,3.0188314e-11,-0.21557392,0.16644508,-9.916975,-0.00046871632,-0.005752428,-0.0015552862,0.0022983646,0.0020927885,0.0023358152,1.0646207e-05,2.1111793e-05,7.4215163e-06,14.809476,14.809476
12220000,1310988,1310988,0,0,0,0,0,0,0,0,250.0,250.0,250.0,250.0,0.047972135,0.0039504496,2.3573374e-11,-0.18732233,0.16740276,-9.9182205,0.0005539375,-0.0036645096,-0.0012357068,0.0029512625,0.0011163082,0.0011306705,8.545902e-06,1.0858979e-05,1.3658124e-05,14.809476,14.809476
13220000,1310988,1310988,0,0,0,0,0,0,0,0,250.0,250.0,250.0,250.0,0.052307293,0.004344203,2.921735e-11,-0.18962078,0.16529587,-9.929999,-0.0016618125,-0.00515588,-0.0013848438,0.002126647,0.0039014705,0.002291509,9.936964e-06,1.7535316e-05,7.447049e-06,14.809476,14.809476
14220000,1310988,1310988,0,0,0,0,0,0,0,0,250.0,250.0,250.0,250.0,0.050940625,0.004060987,3.0889603e-11,-0.18607736,0.17458537,-9.907973,0.0002769688,-0.005305017,0.0017683388,0.0031410174,0.0010790487,0.0020926117,1.5700742e-05,1.7009532e-05,6.6366206e-06,14.809476,14.809476
15220000,1310988,1310988,0,0,0,0,0,0,0,0,250.0,250.0,250.0,250.0,0.053733896,0.003924454,3.2054963e-11,-0.1799482,0.17314884,-9.909026,-0.0012144014,-0.006327671,0.00017044219,0.0028067152,0.0020233337,0.0019008319,1.1265612e-05,1.152094e-05,1.3327144e-05,14.809476,14.809476
16220000,1310988,1310988,0,0,0,0,0,0,0,0,250.0,250.0,250.0,250.0,0.04890424,0.0038651363,1.8203222e-11,-0.1703714,0.17008427,-9.907494,-0.0011930963,-0.003323625,-0.0010013486,0.001579069,0.0011538349,0.002141127,1.0763468e-05,1.0006943e-05,1.0953545e-05,14.809476,14.809476
17220000,1310988,1310988,0,0,0,0,0,0,0,0,250.0,250.0,250.0,250.0,0.0523724,0.0039896388,2.4411766e-11,-0.15954961,0.15437831,-9.916783,-0.001257012,-0.005603291,-0.00040480058,0.0019398154,0.0016815033,0.002535542,6.4512715e-06,1.9577938e-05,8.943078e-06,14.809476,14.809476
18220000,1310988,1310988,0,0,0,0,0,0,0,0,250.0,250.0,250.0,250.0,0.052637488,0.003953515,3.168172e-11,-0.15083471,0.1546656,-9.908165,-0.00294013,-0.0065194187,0.00040480038,0.002085566,0.0011263776,0.0036690873,1.0381423e-05,8.730306e-06,8.659381e-06,14.809476,14.809476
19220000,1310988,1310988,0,0,0,0,0,0,0,0,250.0,250.0,250.0,250.0,0.051984265,0.0039356393,3.3659436e-11,-0.16462532,0.16232705,-9.92435,-0.0015552861,-0.006881608,0.00012783158,0.002588223,0.0014091664,0.0027169017,7.279668e-06,1.5743299e-05,1.0550695e-05,14.809476,14.809476
20220000,1310988,1310988,0,0,0,0,0,0,0,0,250.0,250.0,250.0,250.0,0.04974083,0.0042386493,3.7032034e-11,-0.15303737,0.15581483,-9.907207,-0.0006391587,-0.004346279,0.0005752428,0.0013374754,0.0012682115,0.002745729,1.3381045e-05,1.6399583e-05,2.0471582e-05,14.809476,14.809476
21220000,1310988,1310988,0,0,0,0,0,0,0,0,250.0,250.0,250.0,250.0,0.05104317,0.0038537853,3.333909e-11,-0.17803283,0.1628059,-9.925211,-0.001470065,-0.0047723847,0.0010013485,0.0017477864,0.0015739672,0.0018324427,1.2867555e-05,2.0011994e-05,2.0126417e-05,14.809476,14.809476
22220000,1310988,1310988,0,0,0,0,0,0,0,0,250.0,250.0,250.0,250.0,0.051655304,0.0037375658,2.0107664e-11,-0.18942924,0.15093066,-9.909026,-0.001257012,-0.005475459,-0.0020240024,0.0017226797,0.0015722857,0.0016295069,6.5694785e-06,1.0674576e-05,1.02840195e-05,14.809476,14.809476
23220000,1310988,1310988,0,0,0,0,0,0,0,0,250.0,250.0,250.0,250.0,0.051298697,0.0039829365,2.2997153e-11,-0.13723564,0.16050746,-9.934501,-0.0014913703,-0.0059441756,-0.00034088476,0.0014601448,0.001900454,0.002119954,8.46363e-06,1.9756666e-05,9.0281865e-06,14.809476,14.809476
24220000,1310988,1310988,0,0,0,0,0,0,0,0,250.0,250.0,250.0,250.0,0.053168237,0.0040757507,2.9927786e-11,-0.15418659,0.1535164,-9.93881,-0.00061785337,-0.0026418557,-0.00036218998,0.0024548154,0.0033104995,0.0014874972,1.4082723e-05,1.514186e-05,1.744075e-05,14.809476,14.809476
25220000,1310988,1310988,0,0,0,0,0,0,0,0,250.0,250.0,250.0,250.0,0.05053539,0.0037910626,2.9086344e-11,-0.1544739,0.16184822,-9.899833,-0.0016831178,-0.007286409,-0.0002982742,0.0015711584,0.0021185265,0.002169122,1.0560152e-05,1.2925239e-05,9.742158e-06,14.809476,14.809476
26220000,1310988,1310988,0,0,0,0,0,0,0,0,250.0,250.0,250.0,250.0,0.051132876,0.0039629075,3.1202357e-11,-0.1913446,0.18808867,-9.881924,-0.001022654,-0.005837649,-0.0008948222,0.0010628075,0.0021004123,0.0025900425,9.501961e-06,1.2163042e-05,1.6022266e-05,14.809476,14.809476
27220000,1310988,1310988,0,0,0,0,0,0,0,0,250.0,250.0,250.0,250.0,0.054233454,0.0037863306,3.1340517e-11,-0.17879899,0.18866327,-9.891405,-0.0015765914,-0.0066685556,-0.0013635386,0.0015317972,0.0020048376,0.0019446495,8.640468e-06,1.1090665e-05,1.5368818e-05,14.809476,14.809476
28220000,1310988,1310988,0,0,0,0,0,0,0,0,250.0,250.0,250.0,250.0,0.04967323,0.004089037,2.7039662e-11,-0.16481684,0.1694139,-9.883073,-0.0015126755,-0.003685815,-0.00010652652,0.00087305263,0.0020713694,0.002256062,1.2546031e-05,1.2197084e-05,7.8253115e-06,14.809476,14.809476
29220000,1310988,1310988,0,0,0,0,0,0,0,0,250.0,250.0,250.0,250.0,0.04849333,0.0041331025,2.55733e-11,-0.16807295,0.18981248,-9.889681,-0.0015339808,-0.0037071202,0.00044741103,0.0022403356,0.002407773,0.0024006984,1.0835338e-05,8.002149e-06,1.4886532e-05,14.809476,14.809476
30220000,1310988,1310988,0,0,0,0,0,0,0,0,250.0,250.0,250.0,250.0,0.04963712,0.004095417,2.8573446e-11,-0.17927782,0.17362769,-9.884031,-0.0010865697,-0.00551807,0.00080960087,0.0009526538,0.0018529914,0.002034319,1.6371214e-05,1.6948066e-05,9.861311e-06,14.809476,14.809476
31220000,1310988,1310988,0,0,0,0,0,0,0,0,250.0,250.0,250.0,250.0,0.04661161,0.0040404536,2.8425758e-11,-0.17362751,0.17583035,-9.875316,-0.0016618125,-0.0043036686,0.0006604639,0.0019117467,0.0014784685,0.0014276634,1.2230182e-05,1.6074278e-05,8.328401e-06,14.809476,14.809476
32220000,1310988,1310988,0,0,0,0,0,0,0,0,250.0,250.0,250.0,250.0,0.048395906,0.00393459,2.4286182e-11,-0.19306843,0.17535152,-9.879722,-0.0004474111,-0.0055606803,0.00019174749,0.0033241424,0.0017508436,0.00041898288,8.952535e-06,2.1255531e-05,1.0304824e-05,14.809476,14.809476
33220000,1310988,1310988,0,0,0,0,0,0,0,0,250.0,250.0,250.0,250.0,0.049794998,0.004087325,2.7501468e-11,-0.18789695,0.1633805,-9.896577,-0.002130529,-0.005454154,0.0014913701,0.0011995204,0.0011069264,0.0015376987,1.0425868e-05,1.6390128e-05,8.439989e-06,14.809476,14.809476
34220000,1310988,1310988,0,0,0,0,0,0,0,0,250.0,250.0,250.0,250.0,0.051877443,0.004074011,2.2462206e-11,-0.19258958,0.15389946,-9.876753,-0.0014913703,-0.0044101947,-0.0017257285,0.0015291031,0.0014796341,0.002481807,1.2388106e-05,5.8044425e-06,1.012515e-05,14.809476,14.809476
35220000,1310988,1310988,0,0,0,0,0,0,0,0,250.0,250.0,250.0,250.0,0.047674235,0.004038409,3.0601136e-11,-0.1937388,0.16529587,-9.871676,-0.00044741106,-0.005432849,0.0007030744,0.00094195356,0.0010262935,0.001278138,9.21259e-06,2.1821033e-05,1.2428769e-05,14.809476,14.809476
36220000,1310988,1310988,0,0,0,0,0,0,0,0,250.0,250.0,250.0,250.0,0.050168037,0.0037791256,2.3539289e-11,-0.18760964,0.14633378,-9.883553,-0.0017044231,-0.0039414787,0.00044741103,0.0019689542,0.0017479969,0.0025552753,1.2222616e-05,6.359543e-06,9.188949e-06,14.809476,14.809476
37220000,1310988,1310988,0,0,0,0,0,0,0,0,250.0,250.0,250.0,250.0,0.051642206,0.0038461108,1.8105581e-11,-0.20523097,0.17113772,-9.877327,-0.0007882957,-0.0040480047,-6.391591e-05,0.004662917,0.0018396163,0.0019886466,8.561033e-06,1.078049e-05,6.0361285e-06,14.809476,14.809476
38220000,1310988,1310988,0,0,0,0,0,0,0,0,250.0,250.0,250.0,250.0,0.052909393,0.004063482,3.169877e-11,-0.18559851,0.17142501,-9.85147,0.00017044219,-0.005368933,-0.0003195794,0.002016837,0.0023688327,0.0020113038,1.8220919e-05,1.2197084e-05,8.487272e-06,14.809476,14.809476
39220000,1310988,1310988,0,0,0,0,0,0,0,0,250.0,250.0,250.0,250.0,0.04943391,0.0040249163,2.1605813e-11,-0.20130448,0.14374804,-9.829251,-0.0013422332,-0.005070659,-0.0013848438,0.0019546428,0.00047361362,0.001831964,6.6933603e-06,2.0901854e-05,9.527494e-06,14.809476,14.809476
40220000,1310988,1310988,0,0,0,0,0,0,0,0,250.0,250.0,250.0,250.0,0.049802583,0.004258138,3.1552264e-11,-0.20408176,0.15571906,-9.85214,-0.00076699036,-0.0055393754,-0.00063915877,0.0011265115,0.0020423264,0.0019341502,1.2460923e-05,1.0402227e-05,1.2671803e-05,14.809476,14.809476
41220000,1310988,1310988,0,0,0,0,0,0,0,0,250.0,250.0,250.0,250.0,0.05019303,0.0038661277,2.699849e-11,-0.1937388,0.13886388,-9.83969,-0.0018109495,-0.0042823628,-0.00012783174,0.001409606,0.0016618608,0.0013250958,7.919877e-06,1.1453797e-05,1.7264858e-05,14.809476,14.809476
42220000,1310988,1310988,0,0,0,0,0,0,0,0,250.0,250.0,250.0,250.0,0.0521676,0.004298612,4.0667046e-11,-0.18013974,0.16041169,-9.845819,-0.002812298,-0.007755125,0.00038349512,0.0019968508,0.0018123311,0.0028106372,2.0438483e-05,1.591257e-05,7.719398e-06,14.809476,14.809476
43220000,1310988,1310988,0,0,0,0,0,0,0,0,250.0,250.0,250.0,250.0,0.048799798,0.003834727,3.005233e-11,-0.19258958,0.15993284,-9.809906,-0.0014274544,-0.0065833344,-0.00066046405,0.0019805138,0.0024887307,0.0013847561,1.0253759e-05,9.430091e-06,9.2977e-06,14.809476,14.809476
44220000,1310988,1310988,0,0,0,0,0,0,0,0,250.0,250.0,250.0,250.0,0.04971188,0.0040539647,2.9518138e-11,-0.20762517,0.16931811,-9.815748,-0.000809601,-0.005603291,0.0009800432,0.0024665282,0.0016109974,0.0021223635,2.1185555e-05,6.102324e-06,8.172368e-06,14.809476,14.809476
45220000,1310988,1310988,0,0,0,0,0,0,0,0,250.0,250.0,250.0,250.0,0.049356613,0.004076824,1.9556457e-11,-0.18109742,0.15610214,-9.844192,-0.0011504856,-0.003089267,6.39158e-05,0.0011435171,0.0023186756,0.00220916,1.1765864e-05,9.007383e-06,8.187499e-06,14.809476,14.809476
46220000,1310988,1310988,0,0,0,0,0,0,0,0,250.0,250.0,250.0,250.0,0.051601984,0.0037907118,1.7895841e-11,-0.18713081,0.13397971,-9.841126,-0.001107875,-0.004133226,-0.0002343582,0.002445109,0.0018407437,0.0014516807,4.2772067e-06,4.593056e-06,1.5534308e-05,14.809476,14.809476
47220000,1310988,1310988,0,0,0,0,0,0,0,0,250.0,250.0,250.0,250.0,0.05120294,0.0037193352,2.6516397e-11,-0.2066675,0.13895965,-9.849267,-0.0005539376,-0.005390238,0.00093743263,0.0016464413,0.0017337427,0.0043813316,1.0697272e-05,1.5941885e-05,7.7610075e-06,14.809476,14.809476
48220000,1310988,1310988,0,0,0,0,0,0,0,0,250.0,250.0,250.0,250.0,0.049509387,0.0040965406,2.9091198e-11,-0.19507955,0.13101089,-9.837008,0.00023435825,-0.0060080914,-0.001022654,0.0015606493,0.0020657517,0.002183371,2.6456646e-05,9.681637e-06,7.303309e-06,14.809476,14.809476
49220000,1310988,1310988,0,0,0,0,0,0,0,0,250.0,250.0,250.0,250.0,0.051884945,0.0039137467,2.5545111e-11,-0.18368316,0.123732515,-9.807321,2.1305343e-05,-0.0061359233,0.0021518343,0.0011844258,0.0015279758,0.002276423,1.0200802e-05,1.1752624e-05,5.4961583e-06,14.809476,14.809476
50220000,1310988,1310988,0,0,0,0,0,0,0,0,250.0,250.0,250.0,250.0,0.050344747,0.0040135863,3.49225e-11,-0.18349162,0.14681262,-9.810098,-0.0002343581,-0.004708469,-0.0007243799,0.0005163185,0.0013426346,0.0025656861,3.5913217e-05,1.2498748e-05,1.006841e-05,14.809476,14.809476
51220000,1310988,1310988,0,0,0,0,0,0,0,0,250.0,250.0,250.0,250.0,0.05009574,0.0037948582,2.983225e-11,-0.20197485,0.15715556,-9.816993,-0.00080960104,-0.0061359233,-2.1305377e-05,0.0016302764,0.0009815822,0.0023710993,9.648538e-06,1.2863772e-05,9.775256e-06,14.809476,14.809476
52220000,1310988,1310988,0,0,0,0,0,0,0,0,250.0,250.0,250.0,250.0,0.049456097,0.003915218,2.3330879e-11,-0.21356279,0.13503313,-9.804352,0.00063915865,-0.0047297743,-0.0009800434,0.002223139,0.0019962392,0.001960659,1.2057127e-05,1.2088333e-05,8.3615e-06,14.809476,14.809476
53220000,1310988,1310988,0,0,0,0,0,0,0,0,250.0,250.0,250.0,250.0,0.05294642,0.0040396526,2.796544e-11,-0.18540698,0.13330932,-9.802724,-0.0016831178,-0.0047510797,0.001043959,0.003378216,0.0019426048,0.0020554268,1.3822668e-05,1.162969e-05,7.647528e-06,14.809476,14.809476
54220000,1310988,1310988,0,0,0,0,0,0,0,0,250.0,250.0,250.0,250.0,0.054854695,0.0041506514,3.3537617e-11,-0.20417751,0.123732515,-9.796595,0.0010013486,-0.0051345746,0.0016405071,0.001541733,0.0018757293,0.0026994133,1.19228425e-05,6.120292e-06,2.1819142e-05,14.809476,14.809476
55220000,1310988,1310988,0,0,0,0,0,0,0,0,250.0,250.0,250.0,250.0,0.051319443,0.0040861852,3.069255e-11,-0.19364303,0.13876809,-9.775621,-0.0009374327,-0.006263755,-0.0009374329,0.0017967203,0.0020041114,0.0011796379,6.957199e-06,1.8636063e-05,2.0480094e-05,14.809476,14.809476
56220000,1310988,1310988,0,0,0,0,0,0,0,0,250.0,250.0,250.0,250.0,0.048696984,0.0038080947,1.9350228e-11,-0.22936451,0.14106654,-9.803586,-0.000809601,-0.0050067427,-0.0019174761,0.0008469328,0.001863405,0.0015135645,6.1496075e-06,9.243797e-06,1.014217e-05,14.809476,14.809476
57220000,1310988,1310988,0,0,0,0,0,0,0,0,250.0,250.0,250.0,250.0,0.051228456,0.004119615,1.9813316e-11,-0.22064963,0.13589506,-9.768726,-0.0004261058,-0.0041332263,0.00093743263,0.0009900851,0.0026517548,0.0018499258,7.13971e-06,1.5137131e-05,8.422967e-06,14.809476,14.809476
58220000,1310988,1310988,0,0,0,0,0,0,0,0,250.0,250.0,250.0,250.0,0.050759763,0.003923271,2.4956478e-11,-0.18358739,0.14288612,-9.812301,-0.00031957933,-0.0051345746,0.0003195793,0.0011673246,0.0030455764,0.0024433155,1.6170734e-05,8.862698e-06,1.4184854e-05,14.809476,14.809476
59220000,1310988,1310988,0,0,0,0,0,0,0,0,250.0,250.0,250.0,250.0,0.050015632,0.004207,3.8749167e-11,-0.22246923,0.14116229,-9.784623,-0.00010652651,-0.0055606803,0.00078829564,0.0029252954,0.0038173979,0.0015214309,1.4846813e-05,1.7662038e-05,1.6126289e-05,14.809476,14.809476
60220000,1310988,1310988,0,0,0,0,0,0,0,0,250.0,250.0,250.0,250.0,0.04876788,0.0038608126,3.4266975e-11,-0.19469649,0.101418555,-9.812301,-0.00078829564,-0.007414241,0.0004900215,0.0014405595,0.0027289484,0.0012347585,6.125966e-06,1.2859044e-05,1.2409857e-05,14.809476,14.809476
61220000,1310988,1310988,0,0,0,0,0,0,0,0,250.0,250.0,250.0,250.0,0.050506607,0.004154289,2.9388617e-11,-0.23501484,0.11750759,-9.750434,-0.0013848437,-0.004218447,0.0016831178,0.0023194784,0.0031560166,0.0009840888,1.1678864e-05,1.1464199e-05,1.3657179e-05,14.809476,14.809476
62220000,1310988,1310988,0,0,0,0,0,0,0,0,250.0,250.0,250.0,250.0,0.04916628,0.0040243175,2.6931459e-11,-0.19900605,0.08916024,-9.781559,-0.0008522116,-0.0050493535,0.0015978966,0.00088004593,0.0015163012,0.0019619158,9.456569e-06,1.4731444e-05,1.394844e-05,14.809476,14.809476
63220000,1310988,1310988,0,0,0,0,0,0,0,0,250.0,250.0,250.0,250.0,0.054972157,0.0043218844,6.858421e-11,-0.19814414,0.094044425,-10.459214,-0.012825784,0.0028975194,0.0011930962,0.00324456,0.0014495401,0.0026387558,2.4797966e-05,1.5959853e-05,1.4238757e-05,14.807504,14.807504
64220000,1310988,1310988,0,0,0,0,0,0,0,0,250.0,250.0,250.0,250.0,0.05334175,0.0040892316,3.6903577e-11,-0.21241358,0.09442748,-9.535148,-0.0012783173,-0.0075633777,0.0020453075,0.0018202224,0.0011694075,0.0059342487,3.702247e-05,1.7636503e-05,6.1628466e-06,14.800755,14.800755
65220000,1310988,1310988,0,0,0,0,0,0,0,0,250.0,250.0,250.0,250.0,0.054531068,0.0041715493,8.3125444e-11,-0.20973207,0.1108996,-9.841414,-0.00990696,-0.013805827,-0.0013635387,0.0015863869,0.0028334847,0.0023034448,1.6974544e-05,5.553181e-05,7.732637e-06,14.792212,14.792212
66220000,1310988,1310988,0,0,0,0,0,0,0,0,250.0,250.0,250.0,250.0,0.04979212,0.004031318,9.999489e-11,-0.21768081,0.08485068,-9.855492,0.011909656,-0.018919097,0.0008309059,0.0009448197,0.001272587,0.00085744564,1.3189077e-05,1.49442185e-05,1.5487025e-05,14.783087,14.783087
67220000,1310988,1310988,0,0,0,0,0,0,0,0,250.0,250.0,250.0,250.0,0.053160254,0.0043620337,7.161118e-11,-0.21815966,0.12220023,-9.809236,-0.01804558,-0.003600594,-0.00076699053,0.0012449961,0.0023509096,0.002632971,1.4665248e-05,8.021063e-06,1.14207e-05,14.773586,14.773586
68220000,1310988,1310988,0,0,0,0,0,0,0,0,250.0,250.0,250.0,250.0,0.05065931,0.0041932664,8.634207e-11,-0.20072988,0.112719186,-9.761735,0.0128897,-0.0080960095,-0.0016618127,0.00095425866,0.0014540304,0.0026207063,8.156293e-06,3.0946623e-05,1.2490238e-05,14.763921,14.763921
69220000,1310988,1310988,0,0,0,0,0,0,0,0,250.0,250.0,250.0,250.0,0.05191077,0.0040932214,7.4831245e-11,-0.19364303,0.08312686,-9.762501,-0.009629991,-0.016980316,-0.0016618129,0.0012908537,0.0018316868,0.0029550013,1.4726716e-05,1.40269285e-05,9.582342e-06,14.754116,14.754116
70220000,1310988,1310988,0,0,0,0,0,0,0,0,250.0,250.0,250.0,250.0,0.051275305,0.004178972,4.03708e-11,-0.18962078,0.093565576,-9.784144,0.004218447,-0.00700944,-0.0019174762,0.0026062415,0.0017353859,0.004068927,8.65087e-06,2.3161032e-05,8.676403e-06,14.744314,14.744314
71220000,1310988,1310988,0,0,0,0,0,0,0,0,250.0,250.0,250.0,250.0,0.0558096,0.004013774,2.7376486e-11,-0.17209522,0.09806667,-9.925977,-0.0012357067,0.0006178534,-0.00019174759,0.0018516541,0.0018034846,0.0059613376,2.0041309e-05,1.450827e-05,1.5860558e-05,14.730086,14.730086
72220000,1310988,1310988,0,0,0,0,0,0,0,0,250.0,250.0,250.0,250.0,0.050514955,0.004044808,5.3488245e-11,-0.20178331,0.08801103,-9.82973,0.006711166,-0.005432849,0.00040480038,0.0005252225,0.0016763251,0.0021715201,1.5225078e-05,3.0450155e-05,1.4687945e-05,14.71157,14.71157
73220000,1310988,1310988,0,0,0,0,0,0,0,0,250.0,250.0,250.0,250.0,0.05613854,0.0043698507,3.8203763e-11,-0.19996372,0.087436415,-9.86526,-0.0054967646,-0.0039201733,-4.261071e-05,0.0014116124,0.0024104482,0.0016256146,1.6873359e-05,1.9785035e-05,9.738375e-06,14.693045,14.693045
74220000,1310988,1310988,0,0,0,0,0,0,0,0,250.0,250.0,250.0,250.0,0.052821927,0.0040070834,3.7725115e-11,-0.19096152,0.090022154,-9.851087,-0.006562029,-0.0037710362,0.0009587379,0.0013424244,0.0013566212,0.0031976588,1.1861375e-05,1.463215e-05,1.06386415e-05,14.674422,14.674422
75220000,1310988,1310988,0,0,0,0,0,0,0,0,250.0,250.0,250.0,250.0,0.050847985,0.0040358147,1.7899088e-11,-0.17899051,0.09730053,-9.786156,-0.0008522116,-0.002130529,0.0014487597,0.0021525756,0.0010565785,0.0016456725,9.574776e-06,1.0425868e-05,1.0343596e-05,14.655545,14.655545
76220000,1310988,1310988,0,0,0,0,0,0,0,0,250.0,250.0,250.0,250.0,0.061348904,0.0041046264,9.147623e-11,-0.21701044,0.0902137,-10.27735,-0.0040053944,-0.020921795,0.0006604636,0.0020439506,0.0014224078,0.17223488,4.9153357e-05,0.0001815548,1.1401786e-05,14.636471,14.636471
77220000,1310988,1310988,0,0,0,0,0,0,0,0,250.0,250.0,250.0,250.0,0.05989424,0.0041491087,6.5199644e-11,-0.18579005,0.10362122,-9.845915,0.006029397,-0.013038836,0.0020240021,0.0022967022,0.0014848888,0.0067735757,1.1010285e-05,4.6009052e-05,1.24590315e-05,14.6168995,14.6168995
78220000,1310988,1310988,0,0,0,0,0,0,0,0,250.0,250.0,250.0,250.0,0.05149892,0.0042928597,5.368749e-11,-0.19546263,0.106781565,-9.744401,-0.0074994615,-0.0049854377,-0.00017044239,0.0029954962,0.0018185409,0.001977135,1.8391136e-05,2.1132597e-05,1.4012745e-05,14.597042,14.597042
79220000,1310988,1310988,0,0,0,0,0,0,0,0,250.0,250.0,250.0,250.0,0.052866206,0.0041808095,5.2708574e-11,-0.17199945,0.10639849,-9.764417,0.007882957,-0.008926916,6.391568e-05,0.00105505,0.0032525852,0.0029997919,1.3759309e-05,1.6673825e-05,8.447554e-06,14.577331,14.577331
80220000,1310988,1310988,0,0,0,0,0,0,0,0,250.0,250.0,250.0,250.0,0.048987713,0.004214211,8.851082e-11,-0.17592594,0.09145868,-9.7761,-0.005901565,-0.016405072,0.00070307427,0.0010925194,0.0017530986,0.0026197617,2.6429221e-05,1.5461494e-05,1.2736108e-05,14.557645,14.557645
81220000,1310988,1310988,0,0,0,0,0,0,0,0,250.0,250.0,250.0,250.0,0.04997721,0.0042520324,6.3517976e-11,-0.18061858,0.08274378,-9.779739,-0.0026205506,-0.013848438,-0.00012783195,0.0009076369,0.0017669895,0.0011642601,2.5152585e-05,1.8109333e-05,1.2891195e-05,14.538006,14.538006
82220000,1310988,1310988,0,0,0,0,0,0,0,0,250.0,250.0,250.0,250.0,0.060503673,0.0039674775,8.609898e-11,-0.18119319,0.080158025,-8.637513,-0.013592775,0.0127831735,0.0002343584,0.0013450229,0.0007901459,0.007161272,1.2698283e-05,6.981313e-05,6.8579043e-06,14.519226,14.519226
83220000,1310988,1310988,0,0,0,0,0,0,0,0,250.0,250.0,250.0,250.0,0.051819425,0.004297537,6.427878e-11,-0.19009961,0.07766806,-8.929319,0.009864349,0.0069455244,0.0011504857,0.0016365437,0.0014440753,0.0057675913,1.5204274e-05,1.8664432e-05,1.833818e-05,14.50561,14.50561
84220000,1310988,1310988,0,0,0,0,0,0,0,0,250.0,250.0,250.0,250.0,0.05089749,0.004163337,6.6065514e-11,-0.18780118,0.075848475,-9.269583,-0.006199839,-0.011355719,0.002066613,0.0010662277,0.0012757588,0.0028564248,1.5600504e-05,1.3138011e-05,2.0055493e-05,14.497167,14.497167
85220000,1310988,1310988,0,0,0,0,0,0,0,0,250.0,250.0,250.0,250.0,0.053208843,0.0041802586,8.830183e-11,-0.21136013,0.09184174,-9.465716,-0.0073290193,-0.0161068,0.0007882954,0.0020872473,0.0026935998,0.0026286747,1.6177353e-05,2.345891e-05,2.1540174e-05,14.49198,14.49198
86220000,1310988,1310988,0,0,0,0,0,0,0,0,250.0,250.0,250.0,250.0,0.048059225,0.0075037316,6.1997643e-09,-0.1685518,0.093278274,-10.145764,-0.401626,0.58118695,-0.053795844,0.0016890889,0.002641819,0.002904238,0.0034717785,3.436707e-05,9.1681446e-05,14.488894,14.488894
87220000,1310988,1310988,0,0,0,0,0,0,0,0,250.0,250.0,250.0,250.0,0.050038435,0.0058632283,6.371774e-10,-0.015418658,0.21068993,-10.13456,0.054967646,-0.038072553,-0.088928275,0.0011235499,0.0011526503,0.0019410416,1.8322107e-05,0.0002591365,5.8405676e-05,14.486734,14.486734
88220000,1310988,1310988,0,0,0,0,0,0,0,0,250.0,250.0,250.0,250.0,0.049471583,0.009819259,4.5862127e-09,0.06655881,0.3037765,-10.046645,0.3319151,-0.036410738,-0.011611383,0.0018452912,0.0015798521,0.007968353,0.011872102,0.006910716,1.3333768e-05,14.486024,14.486024
89220000,1310988,1310988,0,0,0,0,0,0,0,0,250.0,250.0,250.0,250.0,0.04786999,0.006680052,4.862792e-10,0.9915826,0.2689169,-9.82791,-0.08792693,-0.0077125146,-0.009416938,0.0044633206,0.0025702815,0.0019725177,1.7871029e-05,2.0499952e-05,2.2098115e-05,14.48518,14.48518
90220000,1310988,1310988,0,0,0,0,0,0,0,0,250.0,250.0,250.0,250.0,0.054066345,0.005905927,1.4933009e-09,2.4602816,0.17458537,-9.955953,0.21925274,0.018642128,0.02871953,0.00846263,0.0026964853,0.0028708135,0.00053493166,2.5107196e-05,9.137222e-05,14.484417,14.484417
91220000,1310988,1310988,0,0,0,0,0,0,0,0,250.0,250.0,250.0,250.0,0.05275612,0.004478673,8.013539e-10,2.3856783,-0.00028713376,-9.803011,-0.07177752,0.02132659,0.17306286,0.0026602573,0.0019175744,0.0025829263,1.8234157e-05,1.667855e-05,1.0731298e-05,14.4839735,14.4839735
92220000,1310988,1310988,0,0,0,0,0,0,0,0,250.0,250.0,250.0,250.0,0.054007377,0.004236125,6.917855e-10,1.414686,-0.1437477,-9.666924,0.07761517,0.010311758,0.09678993,0.010838318,0.003174436,0.0017773972,2.842929e-05,1.6002406e-05,8.144937e-06,14.484127,14.484127
93220000,1310988,1310988,0,0,0,0,0,0,0,0,250.0,250.0,250.0,250.0,0.052519303,0.015324728,4.9892317e-09,-0.53007627,-0.09433137,-10.101041,0.016895095,0.6061355,0.05126054,0.0014626675,0.0013136296,0.05380124,0.001224638,0.040237445,1.896702e-05,14.484817,14.484817
94220000,1310988,1310988,0,0,0,0,0,0,0,0,250.0,250.0,250.0,250.0,0.050617542,0.007745092,9.88435e-10,-0.23587675,0.0062251166,-11.004996,-0.08690427,-0.17476729,-0.045912903,0.002684161,0.001211883,0.003239227,0.00017616834,0.0010241306,2.6312913e-05,14.485045,14.485045
95220000,1310988,1310988,0,0,0,0,0,0,0,0,250.0,250.0,250.0,250.0,0.05390098,0.012000626,2.4310227e-09,0.37598544,0.082648024,-10.135038,0.42318696,0.11728562,-0.06775082,0.0025935727,0.001977667,0.002358635,0.0042506596,0.0013310359,6.0900307e-05,14.485806,14.485806
96220000,1310988,1310988,0,0,0,0,0,0,0,0,250.0,250.0,250.0,250.0,0.05525858,0.00850356,8.723102e-09,0.16117766,0.037828546,-9.16395,-0.21452296,0.03564376,-0.69868565,0.006569447,0.0022675635,0.0054332106,0.003240631,0.00026007742,0.00045444185,14.48544,14.48544
97220000,1310988,1310988,0,0,0,0,0,0,0,0,250.0,250.0,250.0,250.0,0.05134053,0.0054502483,2.7180125e-10,2.0181205,0.061770573,-9.838158,-0.009566075,-0.008522115,-0.05743906,0.010005043,0.0015911637,0.0015804998,2.1997874e-05,7.848954e-06,4.576225e-05,14.486093,14.486093
98220000,1310988,1310988,0,0,0,0,0,0,0,0,250.0,250.0,250.0,250.0,0.05194922,0.0045134346,3.0526562e-10,5.032899,0.06962356,-9.89514,0.034685012,-0.0063063665,0.04906608,0.0055159684,0.0007914833,0.002686723,3.111968e-05,1.0891132e-05,1.4830739e-05,14.486569,14.486569
99220000,1310988,1310988,0,0,0,0,0,0,0,0,250.0,250.0,250.0,250.0,0.06220715,0.0040740753,3.1296835e-10,6.4280486,0.03955238,-9.632448,0.021283984,-0.03722034,0.055116784,0.0013196839,0.0028317652,0.007108051,2.0413896e-05,3.1923493e-05,4.5656316e-06,14.491654,14.491654
100220000,1310988,1310988,0,0,0,0,0,0,0,0,250.0,250.0,250.0,250.0,0.06273944,0.0044315965,6.0092975e-10,1.9737799,0.064547874,-11.219708,-0.040266998,0.08931177,0.038093857,0.017929368,0.0032656738,0.02445788,3.5202083e-05,0.00016983337,1.6670043e-05,14.499668,14.499668
101220000,1310988,1310988,0,0,0,0,0,0,0,0,250.0,250.0,250.0,250.0,0.051499594,0.0040729316,2.0249073e-10,-0.68704015,0.07805115,-10.4482,-0.034152377,0.041545313,0.0015978974,0.0020948718,0.0014545461,0.0013802614,7.951085e-06,2.2861252e-05,1.4657684e-05,14.500317,14.500317
102220000,1310988,1310988,0,0,0,0,0,0,0,0,250.0,250.0,250.0,250.0,0.053779535,0.004022155,4.5005024e-11,-0.7780198,0.06636744,-9.713084,-0.007286409,-0.0028975192,-0.0028975194,0.0013721364,0.003277635,0.00181898,9.804571e-06,1.1089719e-05,1.7472905e-05,14.495953,14.495953
103220000,1310988,1310988,0,0,0,0,0,0,0,0,250.0,250.0,250.0,250.0,0.050150093,0.0040426655,1.4518341e-10,-0.45777136,0.078913055,-9.32963,0.0046019424,-0.029145636,-0.007627294,0.0023005235,0.0011323392,0.00074246037,2.3236684e-05,1.2471326e-05,1.4958403e-05,14.491859,14.491859
104220000,1310988,1310988,0,0,0,0,0,0,0,0,250.0,250.0,250.0,250.0,0.04926112,0.004300129,8.700118e-11,-0.11645397,0.04328733,-9.461981,0.0037284256,-0.020069582,-0.0020666136,0.001242875,0.001272033,0.0011662464,1.5839756e-05,1.2074146e-05,1.2821218e-05,14.490537,14.490537
105220000,1310988,1310988,0,0,0,0,0,0,0,0,250.0,250.0,250.0,250.0,0.050374955,0.004126784,4.2118527e-11,0.014460979,0.07144315,-9.716533,0.0012357067,-0.0075846827,-0.0014700651,0.0022348326,0.0011940558,0.0022679847,1.1341264e-05,1.6461052e-05,1.4238757e-05,14.491288,14.491288
106220000,1310988,1310988,0,0,0,0,0,0,0,0,250.0,250.0,250.0,250.0,0.051383544,0.007972959,4.3225477e-09,0.056598928,0.14777032,-9.868804,-0.9991754,0.026993804,-0.07642207,0.0015791643,0.001246047,0.0026093381,0.0020970644,3.2973167e-05,0.000108918866,14.492589,14.492589
107220000,1310988,1310988,0,0,0,0,0,0,0,0,250.0,250.0,250.0,250.0,0.053239685,0.0064761466,3.80287e-09,0.4471411,0.20973231,-13.326701,-0.122015394,0.4635605,-0.5762442,0.0017369911,0.0047176024,0.023343094,9.1490445e-05,0.00013203066,6.492686e-05,14.496354,14.496354
108220000,1310988,1310988,0,0,0,0,0,0,0,0,250.0,250.0,250.0,250.0,0.052940033,0.004786425,3.7167656e-09,0.5077623,0.0081405565,-15.501498,0.03879693,0.5433701,-0.390739,0.0023482547,0.0012419771,0.0039599836,4.7913607e-05,7.5030315e-05,5.3145908e-05,14.502986,14.502986
109220000,1310988,1310988,0,0,0,0,0,0,0,0,250.0,250.0,250.0,250.0,0.053331006,0.0043056053,2.4117972e-09,0.24928428,0.13455437,-13.739941,0.20124976,0.3753992,-0.44487575,0.0014050198,0.0023707433,0.0029462182,3.2877684e-05,6.1018494e-05,2.085837e-05,14.50673,14.50673
110220000,1310988,1310988,0,0,0,0,0,0,0,0,250.0,250.0,250.0,250.0,0.05299403,0.00452143,2.0449116e-09,0.0773806,0.02269724,-11.948694,0.36924195,0.18094581,-0.24136762,0.002279372,0.0015979087,0.010404261,1.0456118e-05,9.141001e-05,0.00013467755,14.506031,14.506031
111220000,1310988,1310988,0,0,0,0,0,0,0,0,250.0,250.0,250.0,250.0,0.05077149,0.0045153084,1.4142066e-09,0.085042045,0.082073405,-9.898779,0.26729617,0.006412894,-0.094680704,0.0014560367,0.0009455839,0.0014593732,6.465183e-05,1.514186e-05,1.4002337e-05,14.499866,14.499866
112220000,1310988,1310988,0,0,0,0,0,0,0,0,250.0,250.0,250.0,250.0,0.04713202,0.004286799,5.644416e-10,0.2300349,0.056790628,-9.316126,0.11136275,-0.025204157,0.052027516,0.001585871,0.0011189831,0.0019385995,1.9904186e-05,1.2074149e-05,3.985282e-05,14.49318,14.49318
113220000,1310988,1310988,0,0,0,0,0,0,0,0,250.0,250.0,250.0,250.0,0.049856152,0.0042709038,4.033593e-10,0.32053572,0.11291072,-9.448478,0.017108148,-0.016042884,0.089929625,0.0033907504,0.00063994306,0.0033199068,1.055164e-05,2.0315547e-05,1.0512871e-05,14.489113,14.489113
114220000,1310988,1310988,0,0,0,0,0,0,0,0,250.0,250.0,250.0,250.0,0.05540701,0.0041602748,3.8717712e-10,0.33691207,0.093565576,-9.657826,-0.028144287,-0.0042184484,0.07889348,0.0024908902,0.001977094,0.0035829651,2.6494474e-05,1.54596e-05,1.3932359e-05,14.487253,14.487253
115220000,1310988,1310988,0,0,0,0,0,0,0,0,250.0,250.0,250.0,250.0,0.052006233,0.0040234835,3.3026543e-10,0.29132646,0.12172139,-9.802724,-0.045742456,0.0011078739,0.067303404,0.0028578462,0.0024866674,0.0015199435,9.676906e-06,3.0211848e-05,1.6498869e-05,14.486224,14.486224
116220000,1310988,1310988,0,0,0,0,0,0,0,0,250.0,250.0,250.0,250.0,0.04954144,0.00399986,1.6146111e-10,0.21576546,0.098449744,-9.755319,-0.039180428,-0.0042823637,0.02550243,0.0018922574,0.0016443394,0.0015171582,1.6125345e-05,8.805959e-06,8.352988e-06,14.485202,14.485202
117220000,1310988,1310988,0,0,0,0,0,0,0,0,250.0,250.0,250.0,250.0,0.049248125,0.004481391,2.1508953e-10,0.18990807,0.112623416,-9.74239,-0.02808037,-0.0058376496,0.015169366,0.0018112422,0.0013998419,0.0024995531,1.45517715e-05,2.4149243e-05,2.113827e-05,14.484079,14.484079
118220000,1310988,1310988,0,0,0,0,0,0,0,0,250.0,250.0,250.0,250.0,0.05093024,0.004481157,8.544647e-11,0.15456966,0.11492185,-9.6889515,-0.013528858,-0.0071372716,-0.0056459014,0.0020325815,0.0013910144,0.0026223226,1.3239197e-05,1.4019364e-05,1.2246258e-05,14.482989,14.482989
119220000,1310988,1310988,0,0,0,0,0,0,0,0,250.0,250.0,250.0,250.0,0.051589668,0.004153415,3.3311295e-11,0.12277466,0.10295084,-9.719789,-0.0029827405,-0.0069881347,-0.0044101947,0.0027163567,0.0016914773,0.0016406165,1.0142171e-05,1.78332e-05,1.1052838e-05,14.482122,14.482122
120220000,1310988,1310988,0,0,0,0,0,0,0,0,250.0,250.0,250.0,250.0,0.052428428,0.0037182926,3.3573474e-11,0.13541605,0.09720476,-9.735782,0.0030892668,-0.0072651035,-0.007286409,0.001376722,0.0023416043,0.0021753847,6.5013915e-06,4.394468e-06,1.2334203e-05,14.481525,14.481525
121220000,1310988,1310988,0,0,0,0,0,0,0,0,250.0,250.0,250.0,250.0,0.049819574,0.004498746,3.356318e-10,0.10687716,0.118465275,-9.738846,-0.0664512,-0.007691209,-0.017022926,0.0025942419,0.0014966396,0.0023027742,1.1165377e-05,2.0499006e-05,1.7860626e-05,14.481223,14.481223
122220000,1310988,1310988,0,0,0,0,0,0,0,0,250.0,250.0,250.0,250.0,0.048036247,0.004266167,3.628241e-10,0.09682152,0.123636745,-9.776771,-0.029443908,2.1306525e-05,-0.07109575,0.0018644369,0.002124679,0.0011125902,2.2046104e-05,1.9255467e-05,1.246187e-05,14.481137,14.481137
123220000,1310988,1310988,0,0,0,0,0,0,0,0,250.0,250.0,250.0,250.0,0.050780818,0.0042173844,2.8488933e-10,0.065218054,0.10572812,-9.814312,0.012974921,0.0033449316,-0.06576943,0.0017154951,0.0016640965,0.002343054,1.9761395e-05,1.4078941e-05,1.9388806e-05,14.481168,14.481168
124220000,1310988,1310988,0,0,0,0,0,0,0,0,250.0,250.0,250.0,250.0,0.048633784,0.0039781285,2.3031073e-10,0.076614454,0.10247201,-9.811343,0.028740834,-0.0017896433,-0.052858423,0.0020287219,0.0014239745,0.0013506504,1.3912506e-05,9.028187e-06,1.1685486e-05,14.481198,14.481198
125220000,1310988,1310988,0,0,0,0,0,0,0,0,250.0,250.0,250.0,250.0,0.05191338,0.0042675184,1.9270979e-10,0.051714756,0.118082196,-9.78357,0.033065807,-0.0037710357,-0.032852754,0.003163698,0.0019349619,0.0009099335,2.4443345e-05,1.3875625e-05,1.4130957e-05,14.481259,14.481259
126220000,1310988,1310988,0,0,0,0,0,0,0,0,250.0,250.0,250.0,250.0,0.052957375,0.004007839,9.303173e-11,0.079679035,0.112240344,-9.76183,0.02098571,-0.007989483,-0.011419635,0.003033061,0.0019911376,0.0021455311,1.4161214e-05,2.7329486e-05,1.3193807e-05,14.4814205,14.4814205
127220000,1310988,1310988,0,0,0,0,0,0,0,0,250.0,250.0,250.0,250.0,0.052554153,0.0044199955,5.2193864e-11,0.056886233,0.110420756,-9.75436,0.010823087,-0.0040906155,-0.0057737334,0.0019099123,0.0020938395,0.0011873734,2.2570941e-05,1.2854316e-05,1.533572e-05,14.481663,14.481663
128220000,1310988,1310988,0,0,0,0,0,0,0,0,250.0,250.0,250.0,250.0,0.049577396,0.0041259183,3.946541e-11,0.057556607,0.07862575,-9.752924,0.004282363,-0.006476808,0.0024074977,0.002049969,0.0019946534,0.001081989,1.3155979e-05,2.2877335e-05,9.861311e-06,14.481973,14.481973
129220000,1310988,1310988,0,0,0,0,0,0,0,0,250.0,250.0,250.0,250.0,0.049526423,0.0041894945,2.7299177e-11,0.09691729,0.11367687,-9.8111515,-0.0022370552,-0.0017257285,0.003025351,0.0020736814,0.0017493343,0.0023083405,9.196514e-06,2.6059468e-05,9.851855e-06,14.482321,14.482321
130220000,1310988,1310988,0,0,0,0,0,0,0,0,250.0,250.0,250.0,250.0,0.05066925,0.00412267,3.781074e-11,0.10515334,0.14116229,-9.771025,-0.0032170985,-0.006050702,0.0026631611,0.0026052478,0.0018909005,0.001125105,2.0342972e-05,1.3094514e-05,8.605478e-06,14.482631,14.482631
131220000,1310988,1310988,0,0,0,0,0,0,0,0,250.0,250.0,250.0,250.0,0.053169664,0.008741125,5.466229e-09,0.22744916,-0.05382147,-10.559866,0.508749,0.22183067,0.27575436,0.0027022555,0.0025785929,0.01342719,0.0021654058,0.0001771244,0.00027200693,14.483335,14.483335
132220000,1310988,1310988,0,0,0,0,0,0,0,0,250.0,250.0,250.0,250.0,0.050754137,0.0048615295,2.8238443e-09,0.4402458,0.17669232,-13.798742,-0.033214945,0.42959985,0.54354054,0.0020666115,0.0009138087,0.0019021332,4.2835425e-05,1.5345155e-05,0.00010605827,14.487658,14.487658
133220000,1310988,1310988,0,0,0,0,0,0,0,0,250.0,250.0,250.0,250.0,0.048800737,0.004425382,1.6982932e-09,0.27571627,0.09155449,-12.65757,-0.16558471,0.28515,0.28647092,0.0009017135,0.0024076586,0.0038693734,1.8495157e-05,3.8201688e-05,1.09148e-05,14.490748,14.490748
134220000,1310988,1310988,0,0,0,0,0,0,0,0,250.0,250.0,250.0,250.0,0.05358695,0.0043761693,1.7469114e-09,0.121338144,0.16903083,-11.482879,-0.2336764,0.16390158,0.343633,0.002096419,0.003174207,0.0033477438,2.2400729e-05,1.7530596e-05,4.4651082e-05,14.49087,14.49087
135220000,1310988,1310988,0,0,0,0,0,0,0,0,250.0,250.0,250.0,250.0,0.05122176,0.00432986,1.2343119e-09,0.08954314,0.12105101,-10.130059,-0.2276044,0.028953886,0.09772736,0.0017349464,0.0015185941,0.006397092,2.1128832e-05,4.264629e-05,2.291137e-05,14.488071,14.488071
136220000,1310988,1310988,0,0,0,0,0,0,0,0,250.0,250.0,250.0,250.0,0.047427304,0.0041870275,5.6324817e-10,0.15179239,0.19067438,-9.57786,-0.12947224,-0.014466292,0.065002434,0.0014020009,0.0030036166,0.001172272,1.798923e-05,2.6163492e-05,2.2919892e-05,14.484385,14.484385
137220000,1310988,1310988,0,0,0,0,0,0,0,0,250.0,250.0,250.0,250.0,0.050332014,0.007843517,1.7861772e-09,-0.068665706,0.1369485,-9.31287,0.41555968,-0.062126223,-0.035430696,0.0072635217,0.0029377532,0.008482402,0.007866376,0.00013352392,2.5204594e-05,14.48193,14.48193
138220000,1310988,1310988,0,0,0,0,0,0,0,0,250.0,250.0,250.0,250.0,0.05489429,0.007631257,4.056614e-09,-0.13388376,-0.09002179,-10.931733,0.23271766,0.29867885,0.45348307,0.0016599119,0.0024758335,0.01861769,0.00043717524,9.660547e-05,0.0002933428,14.484714,14.484714
139220000,1310988,1310988,0,0,0,0,0,0,0,0,250.0,250.0,250.0,250.0,0.05352848,0.0050547686,3.9378696e-09,0.57508725,0.25675446,-15.002834,-0.004921522,0.51571584,0.48889247,0.002686492,0.0017556207,0.002815823,4.357777e-05,3.7974773e-05,0.00020826502,14.494267,14.494267
140220000,1310988,1310988,0,0,0,0,0,0,0,0,250.0,250.0,250.0,250.0,0.053531945,0.0046264674,2.1705846e-09,-0.42722136,0.055641454,-12.038908,-0.16601081,0.25361815,0.3420351,0.001475125,0.003650113,0.006576664,1.4391015e-05,3.1813794e-05,6.4628104e-05,14.501054,14.501054
141220000,1310988,1310988,0,0,0,0,0,0,0,0,250.0,250.0,250.0,250.0,0.052564383,0.0042625424,2.0375812e-09,-0.77696633,0.21183915,-11.1850395,-0.24942102,0.14800784,0.32601354,0.0025762045,0.0025461102,0.004524382,1.8050694e-05,1.8495164e-05,0.0001533363,14.507549,14.507549
142220000,1310988,1310988,0,0,0,0,0,0,0,0,250.0,250.0,250.0,250.0,0.05117556,0.0043252455,1.1676686e-09,-0.9057744,0.12947859,-9.656486,-0.22551648,-0.002769689,0.07767908,0.0017453212,0.0016102329,0.004490944,2.0024278e-05,1.4752248e-05,1.4815607e-05,14.5126915,14.5126915
143220000,1310988,1310988,0,0,0,0,0,0,0,0,250.0,250.0,250.0,250.0,0.053730376,0.004598701,5.5530475e-10,-0.92081,0.15907092,-9.32915,-0.11809522,-0.03161705,0.04499677,0.002775818,0.0029306263,0.0023770095,1.9350982e-05,1.2716251e-05,2.2367623e-05,14.518786,14.518786
144220000,1310988,1310988,0,0,0,0,0,0,0,0,250.0,250.0,250.0,250.0,0.05299883,0.004317968,4.392674e-10,-0.9045294,0.12804207,-9.423578,-0.05341236,-0.018514294,-0.087543435,0.0022269604,0.0023450057,0.0018734739,1.0485448e-05,1.9629004e-05,1.2739893e-05,14.527349,14.527349
145220000,1310988,1310988,0,0,0,0,0,0,0,0,250.0,250.0,250.0,250.0,0.053218752,0.004337228,1.6653003e-10,-0.92847145,0.09184175,-9.608985,-0.0017257285,-0.008841694,-0.042035338,0.0029965087,0.0008411433,0.001941346,9.439548e-06,1.29555e-05,2.5176229e-05,14.537946,14.537946
146220000,1310988,1310988,0,0,0,0,0,0,0,0,250.0,250.0,250.0,250.0,0.050431453,0.0044454727,3.3268874e-10,-0.99732864,0.12536056,-9.761543,0.01945173,-0.0031744868,-0.065875955,0.0020822599,0.0018418904,0.0024222052,2.4495354e-05,1.3155979e-05,8.764354e-06,14.549639,14.549639
147220000,1310988,1310988,0,0,0,0,0,0,0,0,250.0,250.0,250.0,250.0,0.05231925,0.0040062484,1.7049168e-10,-1.0590034,0.12478597,-9.765374,0.02767557,-0.0025779395,-0.024628915,0.0014157201,0.0020154994,0.0037155757,1.8026112e-05,9.236232e-06,1.5255336e-05,14.561527,14.561527
148220000,1310988,1310988,0,0,0,0,0,0,0,0,250.0,250.0,250.0,250.0,0.050088428,0.004260947,1.0183913e-10,-1.0938629,0.14183266,-9.73808,0.019515645,-0.0036005937,-0.012101404,0.0020885859,0.002936932,0.0017138706,2.3827717e-05,7.80829e-06,1.2755021e-05,14.573296,14.573296
149220000,1310988,1310988,0,0,0,0,0,0,0,0,250.0,250.0,250.0,250.0,0.053295817,0.0041705244,5.6801286e-11,-1.1565909,0.13177702,-9.702455,0.014551512,-0.005603291,-0.00221575,0.0015610317,0.0014891687,0.004039824,1.1885018e-05,1.2816489e-05,1.0158247e-05,14.5851,14.5851
150220000,1310988,1310988,0,0,0,0,0,0,0,0,250.0,250.0,250.0,250.0,0.05044235,0.004250568,7.146726e-11,-1.1779473,0.10467467,-9.657348,0.0047297743,-0.009310411,0.008756474,0.0020401864,0.002184695,0.0023835779,1.369595e-05,2.9389128e-05,1.839492e-05,14.597164,14.597164
151220000,1310988,1310988,0,0,0,0,0,0,0,0,250.0,250.0,250.0,250.0,0.052999448,0.004239775,3.8068052e-11,-1.2113702,0.13311778,-9.678129,-0.000958738,-0.007307714,0.002599245,0.004397305,0.0018643987,0.0011400922,8.46363e-06,2.1265934e-05,1.7951406e-05,14.609516,14.609516
152220000,1310988,1310988,0,0,0,0,0,0,0,0,250.0,250.0,250.0,250.0,0.0528374,0.004137734,4.3167307e-11,-1.2030385,0.110420756,-9.648633,-0.0023861923,-0.009118663,0.007968178,0.003147514,0.0018120062,0.001982374,4.5419906e-06,2.5232963e-05,6.914644e-06,14.622135,14.622135
153220000,1310988,1310988,0,0,0,0,0,0,0,0,250.0,250.0,250.0,250.0,0.04799766,0.0038380031,4.2545984e-11,-1.2061031,0.12401982,-9.704178,-0.003536678,-0.006348976,-0.0017257285,0.0018091209,0.0011588603,0.001951803,1.8957588e-05,1.9336792e-05,9.652321e-06,14.634954,14.634954
154220000,1310988,1310988,0,0,0,0,0,0,0,0,250.0,250.0,250.0,250.0,0.0489788,0.0041636936,4.0958213e-11,-1.2160629,0.1228706,-9.696612,-0.0019813918,-0.004324974,0.0023861923,0.001962762,0.0012026734,0.0025773258,1.5899332e-05,1.8660648e-05,1.3927636e-05,14.647867,14.647867
155220000,1310988,1310988,0,0,0,0,0,0,0,0,250.0,250.0,250.0,250.0,0.04903842,0.008074487,3.254921e-09,-1.2390473,0.1483449,-9.72812,-0.64586985,0.00025566405,-0.031361386,0.0015448865,0.002866808,0.0010704828,0.005497222,1.4991501e-05,6.175897e-05,14.660831,14.660831
156220000,1310988,1310988,0,0,0,0,0,0,0,0,250.0,250.0,250.0,250.0,0.05111809,0.0072234333,4.298387e-09,-0.96706593,0.29716852,-12.303132,-0.21034712,0.38340998,-0.4934518,0.0021968277,0.0022634175,0.014010249,0.0002833406,9.45581e-05,0.0002411918,14.675638,14.675638
157220000,1310988,1310988,0,0,0,0,0,0,0,0,250.0,250.0,250.0,250.0,0.05223008,0.008081813,9.263094e-09,-1.2111788,-0.12133794,-11.585159,1.2301887,0.21614216,-0.21816616,0.0011905399,0.0022999123,0.011742245,4.531783e-05,5.4800825e-05,0.00079255516,14.693883,14.693883
158220000,1310988,1310988,0,0,0,0,0,0,0,0,250.0,250.0,250.0,250.0,0.055307485,0.0074860766,5.221691e-09,-0.8432378,0.06493098,-13.098199,0.3078401,0.41941592,0.5441584,0.0044754175,0.0017350994,0.053091224,0.0006085653,0.00017518474,3.1629344e-05,14.708893,14.708893
159220000,1310988,1310988,0,0,0,0,0,0,0,0,250.0,250.0,250.0,250.0,0.054800898,0.005433567,2.7913478e-09,-0.4051947,0.18100189,-13.332256,-0.25308552,0.31717184,0.28693962,0.0025022393,0.002358801,0.007771956,0.0001487442,0.00010967553,2.9138522e-05,14.720921,14.720921
160220000,1310988,1310988,0,0,0,0,0,0,0,0,250.0,250.0,250.0,250.0,0.051190563,0.0047681164,2.495396e-09,-0.5572744,0.16089055,-11.107372,-0.38899198,0.09327455,0.24064323,0.0018473358,0.003939456,0.0052471217,2.2500004e-05,1.8495159e-05,5.7070392e-05,14.726786,14.726786
161220000,1310988,1310988,0,0,0,0,0,0,0,0,250.0,250.0,250.0,250.0,0.05094063,0.0044770115,1.060908e-09,-0.441395,0.20762534,-9.830976,-0.21217938,0.0040267007,-0.07322628,0.0022684613,0.0015861576,0.0012126879,6.3096115e-05,2.3359618e-05,5.22031e-05,14.727572,14.727572
162220000,1310988,1310988,0,0,0,0,0,0,0,0,250.0,250.0,250.0,250.0,0.04738651,0.0042592967,4.507582e-10,-0.21317972,0.11999756,-9.666349,-0.05946306,-0.0016831163,-0.08447547,0.0014079626,0.0014589982,0.0014459536,1.7468179e-05,1.5453927e-05,1.0094888e-05,14.727614,14.727614
163220000,1310988,1310988,0,0,0,0,0,0,0,0,250.0,250.0,250.0,250.0,0.04891833,0.003994343,5.1346005e-10,0.017142484,0.18559869,-9.785869,0.0015552861,0.007669906,-0.13876136,0.0018121784,0.0016896238,0.0029256872,7.066895e-06,1.8700368e-05,2.258041e-05,14.729138,14.729138
164220000,1310988,1310988,0,0,0,0,0,0,0,0,250.0,250.0,250.0,250.0,0.04983561,0.0045272415,6.3229055e-10,0.034284968,0.13809773,-9.978937,0.04599812,0.015702,-0.104332,0.0014458143,0.0014099879,0.0021345133,1.0872218e-05,3.2628006e-05,2.7691689e-05,14.731621,14.731621
165220000,1310988,1310988,0,0,0,0,0,0,0,0,250.0,250.0,250.0,250.0,0.050869334,0.004620424,4.9254323e-10,0.02633622,0.14939837,-9.951164,0.057268616,0.007882958,-0.06785735,0.0010938952,0.003666221,0.0016532022,3.6316058e-05,4.113608e-05,1.581611e-05,14.733782,14.733782
166220000,1310988,1310988,0,0,0,0,0,0,0,0,250.0,250.0,250.0,250.0,0.05476717,0.0043534497,2.4551944e-10,-0.05851429,0.12593518,-9.881253,0.046637278,0.0007243805,-0.037774276,0.003982963,0.0018500681,0.0028234418,1.5345177e-05,1.4512999e-05,2.0046034e-05,14.735234,14.735234
167220000,1310988,1310988,0,0,0,0,0,0,0,0,250.0,250.0,250.0,250.0,0.05412021,0.0042117145,1.3620352e-10,-0.044819456,0.17266999,-9.797073,0.0302109,-0.0031318774,-0.0042397524,0.0019592284,0.0019916154,0.0016398975,1.0130827e-05,1.868429e-05,1.3747015e-05,14.736088,14.736088
168220000,1310988,1310988,0,0,0,0,0,0,0,0,250.0,250.0,250.0,250.0,0.04770331,0.004274583,7.011096e-11,0.0020111292,0.15188833,-9.725343,0.012420984,-0.007989484,-0.0006178536,0.0009986833,0.00092913257,0.0015369374,1.0632022e-05,1.9811514e-05,1.6565074e-05,14.736777,14.736777
169220000,1310988,1310988,0,0,0,0,0,0,0,0,250.0,250.0,250.0,250.0,0.051636145,0.004622257,7.867346e-10,0.8384494,0.21768102,-10.853778,-0.10861436,0.06870956,-0.09372196,0.0022183617,0.0017917524,0.0037210984,2.5554498e-05,9.692989e-06,3.436233e-05,14.73547,14.73547
170220000,1310988,1310988,0,0,0,0,0,0,0,0,250.0,250.0,250.0,250.0,0.05257963,0.0041408697,7.244116e-10,0.9930191,0.11750761,-10.543968,-0.028165592,0.0668773,-0.16228239,0.0022772504,0.0018548067,0.0014466577,9.2750015e-06,1.8040302e-05,1.3043453e-05,14.728074,14.728074
171220000,1310988,1310988,0,0,0,0,0,0,0,0,250.0,250.0,250.0,250.0,0.05480667,0.004436407,1.0926782e-09,1.169807,0.1702758,-10.335577,0.0013848438,0.06436328,-0.16147278,0.0022432022,0.0017360545,0.0025455463,1.2908218e-05,2.7038228e-05,1.892923e-05,14.717171,14.717171
172220000,1310988,1310988,0,0,0,0,0,0,0,0,250.0,250.0,250.0,250.0,0.052886773,0.004021545,8.0373425e-10,1.3635458,0.13263895,-10.321595,0.021539647,0.067005135,-0.19123627,0.0028045354,0.0019804758,0.0033212919,1.3099243e-05,1.2908218e-05,1.3250543e-05,14.704487,14.704487
173220000,1310988,1310988,0,0,0,0,0,0,0,0,250.0,250.0,250.0,250.0,0.051765654,0.0044708797,1.1229743e-09,1.5006857,0.15954977,-10.24613,0.030509174,0.061274014,-0.17951837,0.0032157672,0.0018141847,0.0015353158,3.5947258e-05,2.1761462e-05,1.0626354e-05,14.690516,14.690516
174220000,1310988,1310988,0,0,0,0,0,0,0,0,250.0,250.0,250.0,250.0,0.048949204,0.0043356214,8.831831e-10,1.6488388,0.14173692,-10.261356,0.034898065,0.0644272,-0.19277026,0.0017835371,0.0013107633,0.00097013824,1.31474735e-05,1.9089981e-05,1.1866104e-05,14.675559,14.675559
175220000,1310988,1310988,0,0,0,0,0,0,0,0,250.0,250.0,250.0,250.0,0.049676053,0.004157396,7.534211e-10,1.7344555,0.15150526,-10.184838,0.03854127,0.06106096,-0.186123,0.0011789599,0.0024206708,0.0020939084,1.6877138e-05,1.2692606e-05,1.2862822e-05,14.659667,14.659667
176220000,1310988,1310988,0,0,0,0,0,0,0,0,250.0,250.0,250.0,250.0,0.049423836,0.00439978,1.2094159e-09,1.771805,0.12593518,-10.117226,0.040927462,0.059867866,-0.18965968,0.004066271,0.0016265123,0.00093507086,2.0158568e-05,2.9480849e-05,1.2457134e-05,14.643047,14.643047
177220000,1310988,1310988,0,0,0,0,0,0,0,0,250.0,250.0,250.0,250.0,0.050760936,0.0043120747,7.3762246e-10,1.8375019,0.10544082,-10.10085,0.04282363,0.05682121,-0.18582474,0.0018166865,0.00113425,0.0015932196,1.4539475e-05,7.6059177e-06,1.7549493e-05,14.625849,14.625849
178220000,1310988,1310988,0,0,0,0,0,0,0,0,250.0,250.0,250.0,250.0,0.050750986,0.0039944695,7.72192e-10,1.8349162,0.12631826,-10.024331,0.04060788,0.053433668,-0.18520688,0.0011507384,0.002400971,0.0020272553,1.988906e-05,1.5005682e-05,1.2163981e-05,14.6082325,14.6082325
179220000,1310988,1310988,0,0,0,0,0,0,0,0,250.0,250.0,250.0,250.0,0.05197319,0.004312009,8.7227175e-10,1.8896955,0.12516904,-10.007955,0.04169445,0.056522936,-0.18320417,0.0018598716,0.0014309104,0.00250016,1.4930032e-05,3.315285e-05,1.45035465e-05,14.590353,14.590353
180220000,1310988,1310988,0,0,0,0,0,0,0,0,250.0,250.0,250.0,250.0,0.04956861,0.004319176,9.72513e-10,1.9219694,0.1159753,-10.006997,0.042504054,0.052837122,-0.18377943,0.00081936107,0.001266377,0.0033488981,2.5343605e-05,1.9527815e-05,1.02244485e-05,14.572174,14.572174
181220000,1310988,1310988,0,0,0,0,0,0,0,0,250.0,250.0,250.0,250.0,0.04715548,0.004487599,7.9190915e-10,1.9424638,0.14815338,-9.995696,0.041268345,0.053668026,-0.18211761,0.0032605305,0.0017962428,0.0015202163,1.7828472e-05,1.4120551e-05,1.2078877e-05,14.553741,14.553741
182220000,1310988,1310988,0,0,0,0,0,0,0,0,250.0,250.0,250.0,250.0,0.0533047,0.0046056183,9.71586e-10,1.151228,0.15916668,-8.435922,0.020836573,-0.035409387,-0.1845251,0.0040673222,0.0017713078,0.011276251,1.92044e-05,0.00041186006,1.5534319e-05,14.5356455,14.5356455
183220000,1310988,1310988,0,0,0,0,0,0,0,0,250.0,250.0,250.0,250.0,0.046174057,0.004061889,8.0923723e-10,1.0069054,0.16644506,-9.536776,0.012548815,0.01629855,-0.20314594,0.002757228,0.0006052824,0.0011581513,1.2626412e-05,1.08750555e-05,1.2577231e-05,14.5235195,14.5235195
184220000,1310988,1310988,0,0,0,0,0,0,0,0,250.0,250.0,250.0,250.0,0.05089297,0.004256752,8.839021e-10,0.8855673,0.12488173,-9.893225,0.02062352,0.038669102,-0.20129237,0.00377003,0.0017472135,0.0027732765,1.8641736e-05,1.9267762e-05,1.8745763e-05,14.515695,14.515695
185220000,1310988,1310988,0,0,0,0,0,0,0,0,250.0,250.0,250.0,250.0,0.05045864,0.004364111,1.1046303e-09,0.7534074,0.13235165,-10.031322,0.018322548,0.04627509,-0.19931097,0.0020075697,0.0020299256,0.0027369652,1.2671804e-05,1.8802499e-05,1.4043001e-05,14.509956,14.509956
186220000,1310988,1310988,0,0,0,0,0,0,0,0,250.0,250.0,250.0,250.0,0.053365625,0.004291895,7.203728e-10,0.6019023,0.12306215,-10.118279,0.018216021,0.04795821,-0.1933455,0.0014411705,0.0026549648,0.0012079183,7.825312e-06,7.765735e-06,6.359541e-06,14.505282,14.505282
187220000,1310988,1310988,0,0,0,0,0,0,0,0,250.0,250.0,250.0,250.0,0.051096953,0.0041239117,7.634835e-10,0.5172433,0.11492186,-10.123547,0.013209279,0.048107345,-0.19240807,0.0017901098,0.0010317963,0.0014391885,1.5390568e-05,1.6944283e-05,9.888732e-06,14.501226,14.501226
188220000,1310988,1310988,0,0,0,0,0,0,0,0,250.0,250.0,250.0,250.0,0.048363365,0.0044172592,7.755565e-10,0.40691853,0.12114678,-10.141743,0.011547467,0.04849084,-0.19161977,0.0013095596,0.0014645776,0.001261306,2.7559283e-05,1.7553288e-05,9.061285e-06,14.497723,14.497723
189220000,1310988,1310988,0,0,0,0,0,0,0,0,250.0,250.0,250.0,250.0,0.049789734,0.0042450856,1.0890627e-09,0.36458904,0.11798644,-10.1292925,0.009012138,0.04800082,-0.19117236,0.0018092359,0.0019640052,0.0008752438,2.6571068e-05,3.1970776e-05,1.03767e-05,14.494773,14.494773
190220000,1310988,1310988,0,0,0,0,0,0,0,0,250.0,250.0,250.0,250.0,0.052042447,0.004330258,9.222744e-10,0.31086314,0.10678157,-10.134081,0.008777779,0.049960908,-0.19240807,0.0019478404,0.0014984932,0.001201995,1.7355642e-05,7.96716e-06,1.2323793e-05,14.492428,14.492428
191220000,1310988,1310988,0,0,0,0,0,0,0,0,250.0,250.0,250.0,250.0,0.05109705,0.0042238995,8.4930407e-10,0.29621065,0.10927154,-10.139253,0.006327671,0.049747854,-0.1933881,0.0020877256,0.0013030631,0.0017458884,1.1237242e-05,1.10169085e-05,1.484492e-05,14.490627,14.490627
192220000,1310988,1310988,0,0,0,0,0,0,0,0,250.0,250.0,250.0,250.0,0.0504686,0.0046790545,9.996838e-10,0.24794354,0.09595978,-10.202268,0.0058802594,0.054861125,-0.19262111,0.0022489722,0.0018767802,0.002794573,8.002149e-06,2.9244446e-05,1.1392334e-05,14.489261,14.489261
193220000,1310988,1310988,0,0,0,0,0,0,0,0,250.0,250.0,250.0,250.0,0.0535605,0.0044103474,8.722972e-10,0.23118411,0.15533598,-10.200544,0.006881608,0.051707942,-0.19345203,0.0017244758,0.001317604,0.0028131325,1.7516404e-05,1.3993834e-05,1.893678e-05,14.488171,14.488171
194220000,1310988,1310988,0,0,0,0,0,0,0,0,250.0,250.0,250.0,250.0,0.053151686,0.004113342,8.057854e-10,0.20657173,0.13484162,-10.181391,0.0065407236,0.054903734,-0.19366507,0.0031176112,0.0017696837,0.0017264071,9.918051e-06,1.3993835e-05,1.8132972e-05,14.487352,14.487352
195220000,1310988,1310988,0,0,0,0,0,0,0,0,250.0,250.0,250.0,250.0,0.051522598,0.004092374,9.1984786e-10,0.17602171,0.14355652,-10.218836,0.0052624065,0.057929084,-0.1945173,0.0027132998,0.0018875569,0.0019344687,9.653266e-06,2.0834716e-05,9.220155e-06,14.486683,14.486683
196220000,1310988,1310988,0,0,0,0,0,0,0,0,250.0,250.0,250.0,250.0,0.05307934,0.004352905,7.8560186e-10,0.18253393,0.12995745,-10.243257,0.008564726,0.055755947,-0.19238676,0.002603509,0.003268559,0.003755988,1.7019935e-05,9.166251e-06,1.2293526e-05,14.486122,14.486122
197220000,1310988,1310988,0,0,0,0,0,0,0,0,250.0,250.0,250.0,250.0,0.05148608,0.0040131924,8.9686714e-10,0.14662091,0.10745195,-10.214239,0.0065407236,0.056075525,-0.1929407,0.0016610393,0.0028151418,0.0016744074,3.0415165e-05,1.8807228e-05,1.1756411e-05,14.485613,14.485613
198220000,1310988,1310988,0,0,0,0,0,0,0,0,250.0,250.0,250.0,250.0,0.05179324,0.004149455,8.269342e-10,0.13551182,0.085999906,-10.168749,0.005752428,0.05296495,-0.19264242,0.0021529195,0.00223361,0.0022237413,1.1300601e-05,2.045172e-05,1.3445347e-05,14.485203,14.485203
199220000,1310988,1310988,0,0,0,0,0,0,0,0,250.0,250.0,250.0,250.0,0.04757806,0.004302844,8.8339486e-10,0.1619438,0.101801634,-10.24546,0.004623248,0.055926386,-0.19355854,0.0015696106,0.00218737,0.0029805247,1.3374427e-05,2.1726464e-05,1.0331309e-05,14.484817,14.484817
200220000,1310988,1310988,0,0,0,0,0,0,0,0,250.0,250.0,250.0,250.0,0.04898317,0.0042864294,8.675144e-10,0.13867216,0.08389301,-10.248332,0.0037923413,0.05424327,-0.19428293,0.0017162785,0.0009665829,0.0013480934,8.920382e-06,1.3609899e-05,1.6602904e-05,14.484461,14.484461
201220000,1310988,1310988,0,0,0,0,0,0,0,0,250.0,250.0,250.0,250.0,0.05074246,0.0044376245,9.750287e-10,0.1415452,0.124594435,-10.239234,0.004857606,0.053987607,-0.19639215,0.0013629838,0.0025821086,0.0061166175,2.34835e-05,2.2456506e-05,2.1667845e-05,14.4841585,14.4841585
202220000,1310988,1310988,0,0,0,0,0,0,0,0,250.0,250.0,250.0,250.0,0.048753165,0.0042858473,8.147924e-10,0.15428236,0.096725926,-10.237127,0.00664725,0.055159397,-0.19628564,0.0011039649,0.0018085096,0.0030447538,1.6835533e-05,1.14679815e-05,1.3880372e-05,14.484006,14.484006
203220000,1310988,1310988,0,0,0,0,0,0,0,0,250.0,250.0,250.0,250.0,0.050762776,0.0038487453,8.670997e-10,0.12018892,0.11128268,-10.245651,0.006348976,0.057694726,-0.1946025,0.0026435005,0.0007772484,0.0021600246,9.029133e-06,2.1601641e-05,1.0044767e-05,14.483945,14.483945
204220000,1310988,1310988,0,0,0,0,0,0,0,0,250.0,250.0,250.0,250.0,0.051719997,0.004061117,1.0522814e-09,0.12765883,0.10333393,-10.228987,0.0059867864,0.055095483,-0.1945386,0.0014099879,0.0032863095,0.0019824049,3.319918e-05,1.276826e-05,1.1212654e-05,14.483945,14.483945
205220000,1310988,1310988,0,0,0,0,0,0,0,0,250.0,250.0,250.0,250.0,0.048607912,0.0041938513,6.383769e-10,0.14968549,0.102088936,-10.205907,0.0074142404,0.054179356,-0.1933881,0.0016346902,0.0016126022,0.0018650166,7.0432534e-06,5.4734624e-06,3.425453e-05,14.483975,14.483975
206220000,1310988,1310988,0,0,0,0,0,0,0,0,250.0,250.0,250.0,250.0,0.053580657,0.004157437,7.538365e-10,0.11520898,0.122104466,-10.205045,0.0051771854,0.05609683,-0.19023493,0.0013749258,0.003362414,0.0035888345,7.837605e-06,1.7204338e-05,1.33261965e-05,14.483987,14.483987
207220000,1310988,1310988,0,0,0,0,0,0,0,0,250.0,250.0,250.0,250.0,0.05157698,0.0042520585,9.0623586e-10,0.104195654,0.08140304,-10.241533,0.0022370555,0.056288578,-0.19281286,0.0021142843,0.0020110477,0.0024041254,1.0000323e-05,2.2854645e-05,8.912809e-06,14.4840145,14.4840145
208220000,1310988,1310988,0,0,0,0,0,0,0,0,250.0,250.0,250.0,250.0,0.05182354,0.0042093825,8.733619e-10,0.11070789,0.10697311,-10.276105,0.004197142,0.05564942,-0.1913428,0.0031853272,0.0031946134,0.0028741863,8.731251e-06,2.3384204e-05,9.297686e-06,14.484036,14.484036
209220000,1310988,1310988,0,0,0,0,0,0,0,0,250.0,250.0,250.0,250.0,0.052295476,0.0041480386,8.755295e-10,0.118752405,0.1058239,-10.235786,0.004708469,0.057417758,-0.19315375,0.0021662945,0.003935634,0.0030640054,1.4059082e-05,1.3712021e-05,1.2858109e-05,14.484006,14.484006
210220000,1310988,1310988,0,0,0,0,0,0,0,0,250.0,250.0,250.0,250.0,0.053343575,0.004239365,8.71922e-10,0.12622231,0.12248754,-10.2143345,0.0040906155,0.056203358,-0.193729,0.0019329557,0.001948318,0.0012407892,1.8646464e-05,2.2793178e-05,2.6136067e-05,14.483975,14.483975
211220000,1310988,1310988,0,0,0,0,0,0,0,0,250.0,250.0,250.0,250.0,0.049141012,0.0042913565,8.469819e-10,0.12220006,0.10438737,-10.242491,0.005837649,0.05590508,-0.19166239,0.0013172028,0.0013972241,0.0019186143,1.6536706e-05,1.1595646e-05,2.7109141e-05,14.483945,14.483945
212220000,1310988,1310988,0,0,0,0,0,0,0,0,250.0,250.0,250.0,250.0,0.050060738,0.004365845,8.9655394e-10,0.14020446,0.07316698,-10.206482,0.0070520504,0.05703426,-0.19396335,0.0021806634,0.0011359695,0.0027227956,1.5586318e-05,2.0495227e-05,1.5572123e-05,14.483792,14.483792
213220000,1310988,1310988,0,0,0,0,0,0,0,0,250.0,250.0,250.0,250.0,0.051282045,0.00430651,8.5636226e-10,0.13848062,0.07259237,-10.215197,0.0053476277,0.057396453,-0.19049059,0.0016674403,0.0020319317,0.00233915,1.5922025e-05,2.5019244e-05,1.5151322e-05,14.483563,14.483563
214220000,1310988,1310988,0,0,0,0,0,0,0,0,250.0,250.0,250.0,250.0,0.055143297,0.0042159567,6.537698e-10,0.12344504,0.077476546,-10.195851,0.004282363,0.05871738,-0.1937716,0.00237317,0.0022503096,0.0013786207,8.569544e-06,1.5964579e-05,2.0047919e-05,14.483321,14.483321
215220000,1310988,1310988,0,0,0,0,0,0,0,0,250.0,250.0,250.0,250.0,0.05341221,0.004100019,9.527207e-10,0.15351622,0.047213834,-10.229083,0.007435546,0.057843864,-0.19219501,0.0013902117,0.0016840827,0.0031259954,1.3794298e-05,2.4327019e-05,1.0702002e-05,14.483121,14.483121
216220000,1310988,1310988,0,0,0,0,0,0,0,0,250.0,250.0,250.0,250.0,0.050938595,0.0042540436,9.553646e-10,0.14269443,0.069240496,-10.190489,0.0070307455,0.05569203,-0.19396335,0.0018128089,0.0017826766,0.0017028138,2.2553919e-05,7.732637e-06,2.1577067e-05,14.482938,14.482938
217220000,1310988,1310988,0,0,0,0,0,0,0,0,250.0,250.0,250.0,250.0,0.05057088,0.0068649845,2.0811375e-09,0.24909274,0.12603097,-10.907409,-0.086414255,0.17172064,-0.293736,0.0010038422,0.001582508,0.0028027042,0.0005463363,1.6643551e-05,4.7687667e-05,14.483024,14.483024
218220000,1310988,1310988,0,0,0,0,0,0,0,0,250.0,250.0,250.0,250.0,0.051579397,0.004492961,1.5760991e-09,0.21720198,0.011300824,-10.921869,0.20902619,0.12900352,-0.3069879,0.0031324187,0.002296473,0.0012352805,9.127498e-06,1.4279432e-05,6.645318e-05,14.484305,14.484305
219220000,1310988,1310988,0,0,0,0,0,0,0,0,250.0,250.0,250.0,250.0,0.048797976,0.0044103134,1.0302763e-09,0.12679692,0.046734996,-10.177368,0.17368072,0.032959282,-0.100241385,0.0019921693,0.003957665,0.0021159863,1.6168839e-05,2.2183223e-05,1.2151692e-05,14.484363,14.484363
220220000,1310988,1310988,0,0,0,0,0,0,0,0,250.0,250.0,250.0,250.0,0.051244985,0.0044349427,6.139464e-10,0.08580819,0.035434358,-9.776196,0.0833889,0.0026844677,-0.0857964,0.002083025,0.0017946567,0.0029064822,2.0948193e-05,1.8853563e-05,2.803684e-05,14.483055,14.483055
