timestamp,data_rate,rate_multiplier,tx_rate_avg,tx_error_rate_avg,tx_message_count,tx_buffer_overruns,rx_rate_avg,rx_message_count,rx_message_lost_count,rx_buffer_overruns,rx_parse_errors,rx_packet_drop_count,rx_message_lost_rate,type,mode,flow_control,forwarding,mavlink_v2,ftp,streams,heartbeat_type_antenna_tracker,heartbeat_type_gcs,heartbeat_type_onboard_controller,heartbeat_type_gimbal,heartbeat_type_adsb,heartbeat_type_camera,heartbeat_type_parachute,heartbeat_type_open_drone_id,heartbeat_component_telemetry_radio,heartbeat_component_log,heartbeat_component_osd,heartbeat_component_obstacle_avoidance,heartbeat_component_vio,heartbeat_component_pairing_manager,heartbeat_component_udp_bridge,heartbeat_component_uart_bridge,avoidance_system_healthy,open_drone_id_system_healthy,parachute_system_healthy
4504000,4000000.0,1.0,13920.319,0.0,319,0,20.916336,4,0,0,0,0,0.0,0,0,0,1,1,1,53,0,1,0,0,0,0,0,0,0,0,0,0,0,0,0,0,0,0,0
5336000,4000000.0,1.0,13920.319,0.0,635,0,20.916336,31,0,0,0,0,0.0,0,0,0,1,1,1,54,0,1,0,0,0,0,0,0,0,0,0,0,0,0,0,0,0,0,0
6320000,4000000.0,1.0,17785.857,0.0,966,0,693.2271,60,0,0,0,0,0.0,0,0,0,1,1,1,54,0,1,0,0,0,0,0,0,0,0,0,0,0,0,0,0,0,0,0
7304000,4000000.0,1.0,15058.766,0.0,1292,0,708.16736,97,0,0,0,0,0.0,0,0,0,1,1,1,54,0,1,0,0,0,0,0,0,0,0,0,0,0,0,0,0,0,0,0
8348000,4000000.0,1.0,15376.494,0.0,1635,0,822.70917,122,0,0,0,0,0.0,0,0,0,1,1,1,54,0,1,0,0,0,0,0,0,0,0,0,0,0,0,0,0,0,0,0
9296000,4000000.0,1.0,14997.013,0.0,1982,0,547.8088,148,0,0,0,0,0.0,0,0,0,1,1,1,54,0,1,0,0,0,0,0,0,0,0,0,0,0,0,0,0,0,0,0
10300000,4000000.0,1.0,17128.486,0.0,2364,0,639.44226,174,0,0,0,0,0.0,0,0,0,1,1,1,54,0,1,0,0,0,0,0,0,0,0,0,0,0,0,0,0,0,0,0
11300000,4000000.0,1.0,16989.045,0.0,2746,0,570.71716,200,0,0,0,0,0.0,0,0,0,1,1,1,54,0,1,0,0,0,0,0,0,0,0,0,0,0,0,0,0,0,0,0
12296000,4000000.0,1.0,17415.34,0.0,3126,0,616.5339,225,0,0,0,0,0.0,0,0,0,1,1,1,54,0,1,0,0,0,0,0,0,0,0,0,0,0,0,0,0,0,0,0
13292000,4000000.0,1.0,17201.195,0.0,3505,0,570.71716,251,0,0,0,0,0.0,0,0,0,1,1,1,54,0,1,0,0,0,0,0,0,0,0,0,0,0,0,0,0,0,0,0
14300000,4000000.0,1.0,17339.643,0.0,3889,0,619.5219,279,0,0,0,0,0.0,0,0,0,1,1,1,54,0,1,0,0,0,0,0,0,0,0,0,0,0,0,0,0,0,0,0
15288000,4000000.0,1.0,17050.797,0.0,4266,0,593.6255,305,0,0,0,0,0.0,0,0,0,1,1,1,54,0,1,0,0,0,0,0,0,0,0,0,0,0,0,0,0,0,0,0
16288000,4000000.0,1.0,17278.885,0.0,4648,0,593.6255,330,0,0,0,0,0.0,0,0,0,1,1,1,54,0,1,0,0,0,0,0,0,0,0,0,0,0,0,0,0,0,0,0
17292000,4000000.0,1.0,17051.793,0.0,5027,0,616.5339,357,0,0,0,0,0.0,0,0,0,1,1,1,54,0,1,0,0,0,0,0,0,0,0,0,0,0,0,0,0,0,0,0
18288000,4000000.0,1.0,17439.244,0.0,5407,0,593.6255,383,0,0,0,0,0.0,0,0,0,1,1,1,54,0,1,0,0,0,0,0,0,0,0,0,0,0,0,0,0,0,0,0
19284000,4000000.0,1.0,17055.777,0.0,5785,0,593.6255,408,0,0,0,0,0.0,0,0,0,1,1,1,54,0,1,0,0,0,0,0,0,0,0,0,0,0,0,0,0,0,0,0
20284000,4000000.0,1.0,17300.797,0.0,6165,0,593.6255,435,0,0,0,0,0.0,0,0,0,1,1,1,54,0,1,0,0,0,0,0,0,0,0,0,0,0,0,0,0,0,0,0
21288000,4000000.0,1.0,17002.988,0.0,6545,0,593.6255,461,0,0,0,0,0.0,0,0,0,1,1,1,54,0,1,0,0,0,0,0,0,0,0,0,0,0,0,0,0,0,0,0
22280000,4000000.0,1.0,17314.742,0.0,6921,0,593.6255,487,0,0,0,0,0.0,0,0,0,1,1,1,54,0,1,0,0,0,0,0,0,0,0,0,0,0,0,0,0,0,0,0
23284000,4000000.0,1.0,17189.244,0.0,7304,0,593.6255,513,0,0,0,0,0.0,0,0,0,1,1,1,54,0,1,0,0,0,0,0,0,0,0,0,0,0,0,0,0,0,0,0
24276000,4000000.0,1.0,17358.566,0.0,7682,0,642.4303,539,0,0,0,0,0.0,0,0,0,1,1,1,54,0,1,0,0,0,0,0,0,0,0,0,0,0,0,0,0,0,0,0
25272000,4000000.0,1.0,17050.797,0.0,8061,0,593.6255,566,0,0,0,0,0.0,0,0,0,1,1,1,54,0,1,0,0,0,0,0,0,0,0,0,0,0,0,0,0,0,0,0
26288000,4000000.0,1.0,17265.938,0.0,8448,0,593.6255,592,0,0,0,0,0.0,0,0,0,1,1,1,54,0,1,0,0,0,0,0,0,0,0,0,0,0,0,0,0,0,0,0
27276000,4000000.0,1.0,17038.846,0.0,8820,0,593.6255,618,0,0,0,0,0.0,0,0,0,1,1,1,54,0,1,0,0,0,0,0,0,0,0,0,0,0,0,0,0,0,0,0
28276000,4000000.0,1.0,17465.14,0.0,9202,0,593.6255,644,0,0,0,0,0.0,0,0,0,1,1,1,54,0,1,0,0,0,0,0,0,0,0,0,0,0,0,0,0,0,0,0
29272000,4000000.0,1.0,17042.83,0.0,9580,0,593.6255,670,0,0,0,0,0.0,0,0,0,1,1,1,54,0,1,0,0,0,0,0,0,0,0,0,0,0,0,0,0,0,0,0
30272000,4000000.0,1.0,17300.797,0.0,9961,0,593.6255,696,0,0,0,0,0.0,0,0,0,1,1,1,54,0,1,0,0,0,0,0,0,0,0,0,0,0,0,0,0,0,0,0
31268000,4000000.0,1.0,17015.938,0.0,10340,0,593.6255,722,0,0,0,0,0.0,0,0,0,1,1,1,54,0,1,0,0,0,0,0,0,0,0,0,0,0,0,0,0,0,0,0
32272000,4000000.0,1.0,17314.742,0.0,10721,0,593.6255,748,0,0,0,0,0.0,0,0,0,1,1,1,54,0,1,0,0,0,0,0,0,0,0,0,0,0,0,0,0,0,0,0
33264000,4000000.0,1.0,17176.295,0.0,11097,0,616.5339,774,0,0,0,0,0.0,0,0,0,1,1,1,54,0,1,0,0,0,0,0,0,0,0,0,0,0,0,0,0,0,0,0
34256000,4000000.0,1.0,17358.566,0.0,11476,0,619.5219,800,0,0,0,0,0.0,0,0,0,1,1,1,54,0,1,0,0,0,0,0,0,0,0,0,0,0,0,0,0,0,0,0
35264000,4000000.0,1.0,17050.797,0.0,11859,0,593.6255,827,0,0,0,0,0.0,0,0,0,1,1,1,54,0,1,0,0,0,0,0,0,0,0,0,0,0,0,0,0,0,0,0
36244000,4000000.0,1.0,17252.988,0.0,12232,0,616.5339,850,0,0,0,0,0.0,0,0,0,1,1,1,54,0,1,0,0,0,0,0,0,0,0,0,0,0,0,0,0,0,0,0
37264000,4000000.0,1.0,17051.793,0.0,12619,0,524.9004,877,0,0,0,0,0.0,0,0,0,1,1,1,54,0,1,0,0,0,0,0,0,0,0,0,0,0,0,0,0,0,0,0
38300000,4000000.0,1.0,17452.191,0.0,13015,0,616.5339,905,0,0,0,0,0.0,0,0,0,1,1,1,54,0,1,0,0,0,0,0,0,0,0,0,0,0,0,0,0,0,0,0
39264000,4000000.0,1.0,17155.379,0.0,13374,0,591.6335,933,0,0,0,0,0.0,0,0,0,1,1,1,54,0,1,0,0,0,0,0,0,0,0,0,0,0,0,0,0,0,0,0
40260000,4000000.0,1.0,17197.21,0.0,13742,0,685.259,962,0,0,0,0,0.0,0,0,0,1,1,1,54,0,1,0,0,0,0,0,0,0,0,0,0,0,0,0,0,0,0,0
41260000,4000000.0,1.0,16873.506,0.0,14111,0,662.35065,989,0,0,0,0,0.0,0,0,0,1,1,1,54,0,1,0,0,0,0,0,0,0,0,0,0,0,0,0,0,0,0,0
42256000,4000000.0,1.0,17185.26,0.0,14481,0,593.6255,1014,0,0,0,0,0.0,0,0,0,1,1,1,54,0,1,0,0,0,0,0,0,0,0,0,0,0,0,0,0,0,0,0
43252000,4000000.0,1.0,17072.709,0.0,14851,0,593.6255,1041,0,0,0,0,0.0,0,0,0,1,1,1,54,0,1,0,0,0,0,0,0,0,0,0,0,0,0,0,0,0,0,0
44264000,4000000.0,1.0,17229.084,0.0,15229,0,642.4303,1069,0,0,0,0,0.0,0,0,0,1,1,1,54,0,1,0,0,0,0,0,0,0,0,0,0,0,0,0,0,0,0,0
45328000,4000000.0,1.0,16921.314,0.0,15620,0,570.71716,1079,0,0,0,0,0.0,0,0,0,1,1,1,54,0,1,0,0,0,0,0,0,0,0,0,0,0,0,0,0,0,0,0
46252000,4000000.0,1.0,17149.402,0.0,15965,0,250.0,1104,0,0,0,0,0.0,0,0,0,1,1,1,54,0,1,0,0,0,0,0,0,0,0,0,0,0,0,0,0,0,0,0
47256000,4000000.0,1.0,16922.31,0.0,16334,0,593.6255,1130,0,0,0,0,0.0,0,0,0,1,1,1,54,0,1,0,0,0,0,0,0,0,0,0,0,0,0,0,0,0,0,0
48248000,4000000.0,1.0,17322.709,0.0,16704,0,593.6255,1156,0,0,0,0,0.0,0,0,0,1,1,1,54,0,1,0,0,0,0,0,0,0,0,0,0,0,0,0,0,0,0,0
49240000,4000000.0,1.0,16926.295,0.0,17069,0,593.6255,1182,0,0,0,0,0.0,0,0,0,1,1,1,54,0,1,0,0,0,0,0,0,0,0,0,0,0,0,0,0,0,0,0
50240000,4000000.0,1.0,17184.264,0.0,17440,0,593.6255,1207,0,0,0,0,0.0,0,0,0,1,1,1,54,0,1,0,0,0,0,0,0,0,0,0,0,0,0,0,0,0,0,0
51244000,4000000.0,1.0,17330.678,0.0,17844,0,1473.1077,1254,0,0,0,0,0.0,0,0,0,1,1,1,54,0,1,0,0,0,0,0,0,0,0,0,0,0,0,0,0,0,0,0
52228000,4000000.0,1.0,17314.742,0.0,18220,0,616.5339,1281,0,0,0,0,0.0,0,0,0,1,1,1,54,0,1,0,0,0,0,0,0,0,0,0,0,0,0,0,0,0,0,0
53224000,4000000.0,1.0,17189.244,0.0,18597,0,639.44226,1308,0,0,0,0,0.0,0,0,0,1,1,1,54,0,1,0,0,0,0,0,0,0,0,0,0,0,0,0,0,0,0,0
54232000,4000000.0,1.0,17345.617,0.0,18982,0,734.0638,1345,0,0,0,0,0.0,0,0,0,1,1,1,54,0,1,0,0,0,0,0,0,0,0,0,0,0,0,0,0,0,0,0
55248000,4000000.0,1.0,17063.746,0.0,19367,0,776.89246,1374,0,0,0,0,0.0,0,0,0,1,1,1,54,0,1,0,0,0,0,0,0,0,0,0,0,0,0,0,0,0,0,0
56228000,4000000.0,1.0,17252.988,0.0,19741,0,593.6255,1400,0,0,0,0,0.0,0,0,0,1,1,1,54,0,1,0,0,0,0,0,0,0,0,0,0,0,0,0,0,0,0,0
57244000,4000000.0,1.0,17051.793,0.0,20126,0,593.6255,1426,0,0,0,0,0.0,0,0,0,1,1,1,54,0,1,0,0,0,0,0,0,0,0,0,0,0,0,0,0,0,0,0
58260000,4000000.0,1.0,17487.053,0.0,20511,0,519.92035,1441,0,0,0,0,0.0,0,0,0,1,1,1,54,0,1,0,0,0,0,0,0,0,0,0,0,0,0,0,0,0,0,0
59308000,4000000.0,1.0,17378.486,0.0,20915,0,293.8247,1452,0,0,0,0,0.0,0,0,0,1,1,1,54,0,1,0,0,0,0,0,0,0,0,0,0,0,0,0,0,0,0,0
60228000,4000000.0,1.0,17298.805,0.0,21267,0,272.9084,1472,0,0,0,0,0.0,0,0,0,1,1,1,54,0,1,0,0,0,0,0,0,0,0,0,0,0,0,0,0,0,0,0
61224000,4000000.0,1.0,17272.908,0.0,21649,0,753.9841,1512,0,0,0,0,0.0,0,0,0,1,1,1,54,0,1,0,0,0,0,0,0,0,0,0,0,0,0,0,0,0,0,0
62224000,4000000.0,1.0,17307.77,0.0,22030,0,845.61755,1543,0,0,0,0,0.0,0,0,0,1,1,1,54,0,1,0,0,0,0,0,0,0,0,0,0,0,0,0,0,0,0,0
63224000,4000000.0,1.0,17357.57,0.0,22410,0,616.5339,1569,0,0,0,0,0.0,0,0,0,1,1,1,54,0,1,0,0,0,0,0,0,0,0,0,0,0,0,0,0,0,0,0
64228000,4000000.0,1.0,17364.543,0.0,22795,0,619.5219,1595,0,0,0,0,0.0,0,0,0,1,1,1,54,0,1,0,0,0,0,0,0,0,0,0,0,0,0,0,0,0,0,0
65216000,4000000.0,1.0,17219.123,0.0,23169,0,593.6255,1622,0,0,0,0,0.0,0,0,0,1,1,1,54,0,1,0,0,0,0,0,0,0,0,0,0,0,0,0,0,0,0,0
66220000,4000000.0,1.0,17289.842,0.0,23551,0,616.5339,1648,0,0,0,0,0.0,0,0,0,1,1,1,54,0,1,0,0,0,0,0,0,0,0,0,0,0,0,0,0,0,0,0
67212000,4000000.0,1.0,17233.068,0.0,23930,0,593.6255,1674,0,0,0,0,0.0,0,0,0,1,1,1,54,0,1,0,0,0,0,0,0,0,0,0,0,0,0,0,0,0,0,0
68208000,4000000.0,1.0,17445.219,0.0,24310,0,593.6255,1699,0,0,0,0,0.0,0,0,0,1,1,1,54,0,1,0,0,0,0,0,0,0,0,0,0,0,0,0,0,0,0,0
69196000,4000000.0,1.0,17211.156,0.0,24683,0,593.6255,1726,0,0,0,0,0.0,0,0,0,1,1,1,54,0,1,0,0,0,0,0,0,0,0,0,0,0,0,0,0,0,0,0
70196000,4000000.0,1.0,17319.72,0.0,25066,0,616.5339,1754,0,0,0,0,0.0,0,0,0,1,1,1,54,0,1,0,0,0,0,0,0,0,0,0,0,0,0,0,0,0,0,0
71204000,4000000.0,1.0,17171.314,0.0,25450,0,776.89246,1785,0,0,0,0,0.0,0,0,0,1,1,1,54,0,1,0,0,0,0,0,0,0,0,0,0,0,0,0,0,0,0,0
72212000,4000000.0,1.0,17307.77,0.0,25834,0,570.71716,1812,0,0,0,0,0.0,0,0,0,1,1,1,54,0,1,0,0,0,0,0,0,0,0,0,0,0,0,0,0,0,0,0
73200000,4000000.0,1.0,17370.518,0.0,26209,0,593.6255,1837,0,0,0,0,0.0,0,0,0,1,1,1,54,0,1,0,0,0,0,0,0,0,0,0,0,0,0,0,0,0,0,0
74216000,4000000.0,1.0,17364.543,0.0,26599,0,642.4303,1864,0,0,0,0,0.0,0,0,0,1,1,1,54,0,1,0,0,0,0,0,0,0,0,0,0,0,0,0,0,0,0,0
75200000,4000000.0,1.0,17206.176,0.0,26971,0,570.71716,1891,0,0,0,0,0.0,0,0,0,1,1,1,54,0,1,0,0,0,0,0,0,0,0,0,0,0,0,0,0,0,0,0
76200000,4000000.0,1.0,17284.861,0.0,27354,0,616.5339,1917,0,0,0,0,0.0,0,0,0,1,1,1,54,0,1,0,0,0,0,0,0,0,0,0,0,0,0,0,0,0,0,0
77200000,4000000.0,1.0,17207.172,0.0,27733,0,593.6255,1943,0,0,0,0,0.0,0,0,0,1,1,1,54,0,1,0,0,0,0,0,0,0,0,0,0,0,0,0,0,0,0,0
78200000,4000000.0,1.0,17445.219,0.0,28114,0,593.6255,1969,0,0,0,0,0.0,0,0,0,1,1,1,54,0,1,0,0,0,0,0,0,0,0,0,0,0,0,0,0,0,0,0
79204000,4000000.0,1.0,17211.156,0.0,28499,0,593.6255,1994,0,0,0,0,0.0,0,0,0,1,1,1,54,0,1,0,0,0,0,0,0,0,0,0,0,0,0,0,0,0,0,0
80196000,4000000.0,1.0,17319.72,0.0,28875,0,593.6255,2020,0,0,0,0,0.0,0,0,0,1,1,1,54,0,1,0,0,0,0,0,0,0,0,0,0,0,0,0,0,0,0,0
81192000,4000000.0,1.0,17158.367,0.0,29254,0,593.6255,2046,0,0,0,0,0.0,0,0,0,1,1,1,54,0,1,0,0,0,0,0,0,0,0,0,0,0,0,0,0,0,0,0
82196000,4000000.0,1.0,17333.666,0.0,29637,0,593.6255,2073,0,0,0,0,0.0,0,0,0,1,1,1,54,0,1,0,0,0,0,0,0,0,0,0,0,0,0,0,0,0,0,0
83192000,4000000.0,1.0,17357.57,0.0,30017,0,616.5339,2098,0,0,0,0,0.0,0,0,0,1,1,1,54,0,1,0,0,0,0,0,0,0,0,0,0,0,0,0,0,0,0,0
84188000,4000000.0,1.0,17351.594,0.0,30399,0,619.5219,2126,0,0,0,0,0.0,0,0,0,1,1,1,54,0,1,0,0,0,0,0,0,0,0,0,0,0,0,0,0,0,0,0
85188000,4000000.0,1.0,17232.072,0.0,30779,0,593.6255,2152,0,0,0,0,0.0,0,0,0,1,1,1,54,0,1,0,0,0,0,0,0,0,0,0,0,0,0,0,0,0,0,0
86188000,4000000.0,1.0,17258.965,0.0,31161,0,593.6255,2178,0,0,0,0,0.0,0,0,0,1,1,1,54,0,1,0,0,0,0,0,0,0,0,0,0,0,0,0,0,0,0,0
87184000,4000000.0,1.0,17220.12,0.0,31540,0,593.6255,2203,0,0,0,0,0.0,0,0,0,1,1,1,54,0,1,0,0,0,0,0,0,0,0,0,0,0,0,0,0,0,0,0
88184000,4000000.0,1.0,17471.115,0.0,31923,0,593.6255,2229,0,0,0,0,0.0,0,0,0,1,1,1,54,0,1,0,0,0,0,0,0,0,0,0,0,0,0,0,0,0,0,0
89196000,4000000.0,1.0,17211.156,0.0,32305,0,616.5339,2256,0,0,0,0,0.0,0,0,0,1,1,1,54,0,1,0,0,0,0,0,0,0,0,0,0,0,0,0,0,0,0,0
90232000,4000000.0,1.0,17358.566,0.0,32709,0,593.6255,2282,0,0,0,0,0.0,0,0,0,1,1,1,54,0,1,0,0,0,0,0,0,0,0,0,0,0,0,0,0,0,0,0
91192000,4000000.0,1.0,17287.85,0.0,33079,0,570.71716,2306,0,0,0,0,0.0,0,0,0,1,1,1,54,0,1,0,0,0,0,0,0,0,0,0,0,0,0,0,0,0,0,0
92228000,4000000.0,1.0,17320.717,0.0,33475,0,593.6255,2332,0,0,0,0,0.0,0,0,0,1,1,1,54,0,1,0,0,0,0,0,0,0,0,0,0,0,0,0,0,0,0,0
93192000,4000000.0,1.0,17426.295,0.0,33848,0,593.6255,2358,0,0,0,0,0.0,0,0,0,1,1,1,54,0,1,0,0,0,0,0,0,0,0,0,0,0,0,0,0,0,0,0
94188000,4000000.0,1.0,17512.95,0.0,34237,0,596.6136,2384,0,0,0,0,0.0,0,0,0,1,1,1,54,0,1,0,0,0,0,0,0,0,0,0,0,0,0,0,0,0,0,0
95168000,4000000.0,1.0,17308.766,0.0,34610,0,593.6255,2410,0,0,0,0,0.0,0,0,0,1,1,1,54,0,1,0,0,0,0,0,0,0,0,0,0,0,0,0,0,0,0,0
96184000,4000000.0,1.0,17297.809,0.0,35005,0,662.35065,2437,0,0,0,0,0.0,0,0,0,1,1,1,54,0,1,0,0,0,0,0,0,0,0,0,0,0,0,0,0,0,0,0
97164000,4000000.0,1.0,17453.188,0.0,35390,0,547.8088,2463,0,0,0,0,0.0,0,0,0,1,1,1,54,0,1,0,0,0,0,0,0,0,0,0,0,0,0,0,0,0,0,0
98172000,4000000.0,1.0,17621.514,0.0,35777,0,570.71716,2488,0,0,0,0,0.0,0,0,0,1,1,1,54,0,1,0,0,0,0,0,0,0,0,0,0,0,0,0,0,0,0,0
99168000,4000000.0,1.0,17279.88,0.0,36157,0,616.5339,2515,0,0,0,0,0.0,0,0,0,1,1,1,54,0,1,0,0,0,0,0,0,0,0,0,0,0,0,0,0,0,0,0
100172000,4000000.0,1.0,17398.406,0.0,36542,0,616.5339,2542,0,0,0,0,0.0,0,0,0,1,1,1,54,0,1,0,0,0,0,0,0,0,0,0,0,0,0,0,0,0,0,0
101164000,4000000.0,1.0,17200.2,0.0,36921,0,731.07574,2575,0,0,0,0,0.0,0,0,0,1,1,1,54,0,1,0,0,0,0,0,0,0,0,0,0,0,0,0,0,0,0,0
102168000,4000000.0,1.0,17380.479,0.0,37305,0,845.61755,2610,0,0,0,0,0.0,0,0,0,1,1,1,54,0,1,0,0,0,0,0,0,0,0,0,0,0,0,0,0,0,0,0
103180000,4000000.0,1.0,17399.402,0.0,37689,0,593.6255,2635,0,0,0,0,0.0,0,0,0,1,1,1,54,0,1,0,0,0,0,0,0,0,0,0,0,0,0,0,0,0,0,0
104156000,4000000.0,1.0,17424.303,0.0,38066,0,573.7052,2662,0,0,0,0,0.0,0,0,0,1,1,1,54,0,1,0,0,0,0,0,0,0,0,0,0,0,0,0,0,0,0,0
105164000,4000000.0,1.0,17235.06,0.0,38451,0,593.6255,2688,0,0,0,0,0.0,0,0,0,1,1,1,54,0,1,0,0,0,0,0,0,0,0,0,0,0,0,0,0,0,0,0
106172000,4000000.0,1.0,17383.467,0.0,38843,0,616.5339,2713,0,0,0,0,0.0,0,0,0,1,1,1,54,0,1,0,0,0,0,0,0,0,0,0,0,0,0,0,0,0,0,0
107160000,4000000.0,1.0,17365.54,0.0,39224,0,570.71716,2740,0,0,0,0,0.0,0,0,0,1,1,1,54,0,1,0,0,0,0,0,0,0,0,0,0,0,0,0,0,0,0,0
108176000,4000000.0,1.0,17517.93,0.0,39613,0,616.5339,2765,0,0,0,0,0.0,0,0,0,1,1,1,54,0,1,0,0,0,0,0,0,0,0,0,0,0,0,0,0,0,0,0
109152000,4000000.0,1.0,17250.996,0.0,39988,0,593.6255,2791,0,0,0,0,0.0,0,0,0,1,1,1,54,0,1,0,0,0,0,0,0,0,0,0,0,0,0,0,0,0,0,0
110160000,4000000.0,1.0,17396.414,0.0,40372,0,593.6255,2816,0,0,0,0,0.0,0,0,0,1,1,1,54,0,1,0,0,0,0,0,0,0,0,0,0,0,0,0,0,0,0,0
111148000,4000000.0,1.0,17191.236,0.0,40750,0,593.6255,2844,0,0,0,0,0.0,0,0,0,1,1,1,54,0,1,0,0,0,0,0,0,0,0,0,0,0,0,0,0,0,0,0
112156000,4000000.0,1.0,17410.36,0.0,41136,0,616.5339,2868,0,0,0,0,0.0,0,0,0,1,1,1,54,0,1,0,0,0,0,0,0,0,0,0,0,0,0,0,0,0,0,0
113148000,4000000.0,1.0,17377.49,0.0,41516,0,570.71716,2895,0,0,0,0,0.0,0,0,0,1,1,1,54,0,1,0,0,0,0,0,0,0,0,0,0,0,0,0,0,0,0,0
114144000,4000000.0,1.0,17441.236,0.0,41900,0,619.5219,2921,0,0,0,0,0.0,0,0,0,1,1,1,54,0,1,0,0,0,0,0,0,0,0,0,0,0,0,0,0,0,0,0
115136000,4000000.0,1.0,17264.941,0.0,42277,0,593.6255,2948,0,0,0,0,0.0,0,0,0,1,1,1,54,0,1,0,0,0,0,0,0,0,0,0,0,0,0,0,0,0,0,0
116120000,4000000.0,1.0,17335.658,0.0,42654,0,593.6255,2973,0,0,0,0,0.0,0,0,0,1,1,1,54,0,1,0,0,0,0,0,0,0,0,0,0,0,0,0,0,0,0,0
117148000,4000000.0,1.0,17252.988,0.0,43047,0,593.6255,3000,0,0,0,0,0.0,0,0,0,1,1,1,54,0,1,0,0,0,0,0,0,0,0,0,0,0,0,0,0,0,0,0
118144000,4000000.0,1.0,17534.861,0.0,43430,0,593.6255,3026,0,0,0,0,0.0,0,0,0,1,1,1,54,0,1,0,0,0,0,0,0,0,0,0,0,0,0,0,0,0,0,0
119140000,4000000.0,1.0,17244.025,0.0,43807,0,593.6255,3052,0,0,0,0,0.0,0,0,0,1,1,1,54,0,1,0,0,0,0,0,0,0,0,0,0,0,0,0,0,0,0,0
120140000,4000000.0,1.0,17383.467,0.0,44190,0,593.6255,3078,0,0,0,0,0.0,0,0,0,1,1,1,54,0,1,0,0,0,0,0,0,0,0,0,0,0,0,0,0,0,0,0
121128000,4000000.0,1.0,17255.977,0.0,44575,0,616.5339,3103,0,0,0,0,0.0,0,0,0,1,1,1,54,0,1,0,0,0,0,0,0,0,0,0,0,0,0,0,0,0,0,0
122132000,4000000.0,1.0,17488.049,0.0,44965,0,593.6255,3130,0,0,0,0,0.0,0,0,0,1,1,1,54,0,1,0,0,0,0,0,0,0,0,0,0,0,0,0,0,0,0,0
123128000,4000000.0,1.0,17390.44,0.0,45344,0,593.6255,3156,0,0,0,0,0.0,0,0,0,1,1,1,54,0,1,0,0,0,0,0,0,0,0,0,0,0,0,0,0,0,0,0
124124000,4000000.0,1.0,17441.236,0.0,45730,0,619.5219,3182,0,0,0,0,0.0,0,0,0,1,1,1,54,0,1,0,0,0,0,0,0,0,0,0,0,0,0,0,0,0,0,0
125128000,4000000.0,1.0,17251.992,0.0,46111,0,593.6255,3209,0,0,0,0,0.0,0,0,0,1,1,1,54,0,1,0,0,0,0,0,0,0,0,0,0,0,0,0,0,0,0,0
126112000,4000000.0,1.0,17335.658,0.0,46489,0,593.6255,3234,0,0,0,0,0.0,0,0,0,1,1,1,54,0,1,0,0,0,0,0,0,0,0,0,0,0,0,0,0,0,0,0
127132000,4000000.0,1.0,17265.938,0.0,46877,0,593.6255,3261,0,0,0,0,0.0,0,0,0,1,1,1,54,0,1,0,0,0,0,0,0,0,0,0,0,0,0,0,0,0,0,0
128108000,4000000.0,1.0,17551.793,0.0,47253,0,616.5339,3286,0,0,0,0,0.0,0,0,0,1,1,1,54,0,1,0,0,0,0,0,0,0,0,0,0,0,0,0,0,0,0,0
129116000,4000000.0,1.0,17244.025,0.0,47634,0,593.6255,3313,0,0,0,0,0.0,0,0,0,1,1,1,54,0,1,0,0,0,0,0,0,0,0,0,0,0,0,0,0,0,0,0
130108000,4000000.0,1.0,17396.414,0.0,48017,0,593.6255,3338,0,0,0,0,0.0,0,0,0,1,1,1,54,0,1,0,0,0,0,0,0,0,0,0,0,0,0,0,0,0,0,0
131136000,4000000.0,1.0,17294.82,0.0,48414,0,593.6255,3365,0,0,0,0,0.0,0,0,0,1,1,1,54,0,1,0,0,0,0,0,0,0,0,0,0,0,0,0,0,0,0,0
132120000,4000000.0,1.0,17436.256,0.0,48794,0,593.6255,3391,0,0,0,0,0.0,0,0,0,1,1,1,54,0,1,0,0,0,0,0,0,0,0,0,0,0,0,0,0,0,0,0
133160000,4000000.0,1.0,17385.459,0.0,49190,0,593.6255,3416,0,0,0,0,0.0,0,0,0,1,1,1,54,0,1,0,0,0,0,0,0,0,0,0,0,0,0,0,0,0,0,0
134108000,4000000.0,1.0,17436.256,0.0,49559,0,596.6136,3442,0,0,0,0,0.0,0,0,0,1,1,1,54,0,1,0,0,0,0,0,0,0,0,0,0,0,0,0,0,0,0,0
135112000,4000000.0,1.0,17248.008,0.0,49941,0,616.5339,3468,0,0,0,0,0.0,0,0,0,1,1,1,54,0,1,0,0,0,0,0,0,0,0,0,0,0,0,0,0,0,0,0
136128000,4000000.0,1.0,17357.57,0.0,50332,0,593.6255,3495,0,0,0,0,0.0,0,0,0,1,1,1,54,0,1,0,0,0,0,0,0,0,0,0,0,0,0,0,0,0,0,0
137104000,4000000.0,1.0,17236.057,0.0,50707,0,593.6255,3521,0,0,0,0,0.0,0,0,0,1,1,1,54,0,1,0,0,0,0,0,0,0,0,0,0,0,0,0,0,0,0,0
138104000,4000000.0,1.0,17687.252,0.0,51100,0,593.6255,3546,0,0,0,0,0.0,0,0,0,1,1,1,54,0,1,0,0,0,0,0,0,0,0,0,0,0,0,0,0,0,0,0
139100000,4000000.0,1.0,17241.037,0.0,51477,0,593.6255,3573,0,0,0,0,0.0,0,0,0,1,1,1,54,0,1,0,0,0,0,0,0,0,0,0,0,0,0,0,0,0,0,0
140104000,4000000.0,1.0,17393.428,0.0,51865,0,593.6255,3599,0,0,0,0,0.0,0,0,0,1,1,1,54,0,1,0,0,0,0,0,0,0,0,0,0,0,0,0,0,0,0,0
141104000,4000000.0,1.0,17188.248,0.0,52245,0,593.6255,3625,0,0,0,0,0.0,0,0,0,1,1,1,54,0,1,0,0,0,0,0,0,0,0,0,0,0,0,0,0,0,0,0
142104000,4000000.0,1.0,17406.375,0.0,52629,0,616.5339,3651,0,0,0,0,0.0,0,0,0,1,1,1,54,0,1,0,0,0,0,0,0,0,0,0,0,0,0,0,0,0,0,0
143080000,4000000.0,1.0,17373.506,0.0,52999,0,593.6255,3676,0,0,0,0,0.0,0,0,0,1,1,1,54,0,1,0,0,0,0,0,0,0,0,0,0,0,0,0,0,0,0,0
144100000,4000000.0,1.0,17437.252,0.0,53392,0,596.6136,3704,0,0,0,0,0.0,0,0,0,1,1,1,54,0,1,0,0,0,0,0,0,0,0,0,0,0,0,0,0,0,0,0
145092000,4000000.0,1.0,17260.957,0.0,53772,0,616.5339,3730,0,0,0,0,0.0,0,0,0,1,1,1,54,0,1,0,0,0,0,0,0,0,0,0,0,0,0,0,0,0,0,0
146092000,4000000.0,1.0,17331.674,0.0,54156,0,593.6255,3755,0,0,0,0,0.0,0,0,0,1,1,1,54,0,1,0,0,0,0,0,0,0,0,0,0,0,0,0,0,0,0,0
147084000,4000000.0,1.0,17236.057,0.0,54534,0,593.6255,3782,0,0,0,0,0.0,0,0,0,1,1,1,54,0,1,0,0,0,0,0,0,0,0,0,0,0,0,0,0,0,0,0
148104000,4000000.0,1.0,17543.826,0.0,54925,0,616.5339,3808,0,0,0,0,0.0,0,0,0,1,1,1,54,0,1,0,0,0,0,0,0,0,0,0,0,0,0,0,0,0,0,0
149084000,4000000.0,1.0,17240.041,0.0,55299,0,570.71716,3833,0,0,0,0,0.0,0,0,0,1,1,1,54,0,1,0,0,0,0,0,0,0,0,0,0,0,0,0,0,0,0,0
150092000,4000000.0,1.0,17379.482,0.0,55685,0,616.5339,3860,0,0,0,0,0.0,0,0,0,1,1,1,54,0,1,0,0,0,0,0,0,0,0,0,0,0,0,0,0,0,0,0
151092000,4000000.0,1.0,17213.148,0.0,56066,0,593.6255,3886,0,0,0,0,0.0,0,0,0,1,1,1,54,0,1,0,0,0,0,0,0,0,0,0,0,0,0,0,0,0,0,0
152084000,4000000.0,1.0,17393.428,0.0,56448,0,593.6255,3912,0,0,0,0,0.0,0,0,0,1,1,1,54,0,1,0,0,0,0,0,0,0,0,0,0,0,0,0,0,0,0,0
153096000,4000000.0,1.0,17373.506,0.0,56830,0,593.6255,3938,0,0,0,0,0.0,0,0,0,1,1,1,54,0,1,0,0,0,0,0,0,0,0,0,0,0,0,0,0,0,0,0
154076000,4000000.0,1.0,17450.2,0.0,57210,0,619.5219,3965,0,0,0,0,0.0,0,0,0,1,1,1,54,0,1,0,0,0,0,0,0,0,0,0,0,0,0,0,0,0,0,0
155076000,4000000.0,1.0,17270.916,0.0,57591,0,593.6255,3991,0,0,0,0,0.0,0,0,0,1,1,1,54,0,1,0,0,0,0,0,0,0,0,0,0,0,0,0,0,0,0,0
156080000,4000000.0,1.0,17403.387,0.0,57977,0,593.6255,4017,0,0,0,0,0.0,0,0,0,1,1,1,54,0,1,0,0,0,0,0,0,0,0,0,0,0,0,0,0,0,0,0
157084000,4000000.0,1.0,17424.303,0.0,58372,0,593.6255,4043,0,0,0,0,0.0,0,0,0,1,1,1,54,0,1,0,0,0,0,0,0,0,0,0,0,0,0,0,0,0,0,0
158072000,4000000.0,1.0,17424.303,0.0,58754,0,593.6255,4069,0,0,0,0,0.0,0,0,0,1,1,1,54,0,1,0,0,0,0,0,0,0,0,0,0,0,0,0,0,0,0,0
159080000,4000000.0,1.0,17569.72,0.0,59135,0,637.4502,4094,0,0,0,0,0.0,0,0,0,1,1,1,54,0,1,0,0,0,0,0,0,0,0,0,0,0,0,0,0,0,0,0
160080000,4000000.0,1.0,17227.092,0.0,59520,0,593.6255,4120,0,0,0,0,0.0,0,0,0,1,1,1,54,0,1,0,0,0,0,0,0,0,0,0,0,0,0,0,0,0,0,0
161064000,4000000.0,1.0,17405.379,0.0,59897,0,593.6255,4147,0,0,0,0,0.0,0,0,0,1,1,1,54,0,1,0,0,0,0,0,0,0,0,0,0,0,0,0,0,0,0,0
162092000,4000000.0,1.0,17187.252,0.0,60290,0,593.6255,4173,0,0,0,0,0.0,0,0,0,1,1,1,54,0,1,0,0,0,0,0,0,0,0,0,0,0,0,0,0,0,0,0
163060000,4000000.0,1.0,17393.428,0.0,60658,0,593.6255,4198,0,0,0,0,0.0,0,0,0,1,1,1,54,0,1,0,0,0,0,0,0,0,0,0,0,0,0,0,0,0,0,0
164056000,4000000.0,1.0,17386.455,0.0,61043,0,616.5339,4225,0,0,0,0,0.0,0,0,0,1,1,1,54,0,1,0,0,0,0,0,0,0,0,0,0,0,0,0,0,0,0,0
165064000,4000000.0,1.0,17437.252,0.0,61429,0,619.5219,4252,0,0,0,0,0.0,0,0,0,1,1,1,54,0,1,0,0,0,0,0,0,0,0,0,0,0,0,0,0,0,0,0
166052000,4000000.0,1.0,17248.008,0.0,61808,0,593.6255,4277,0,0,0,0,0.0,0,0,0,1,1,1,54,0,1,0,0,0,0,0,0,0,0,0,0,0,0,0,0,0,0,0
167124000,4000000.0,1.0,17339.643,0.0,62222,0,503.98407,4303,0,0,0,0,0.0,0,0,0,1,1,1,54,0,1,0,0,0,0,0,0,0,0,0,0,0,0,0,0,0,0,0
168080000,4000000.0,1.0,17339.643,0.0,62592,0,503.98407,4328,0,0,0,0,0.0,0,0,0,1,1,1,54,0,1,0,0,0,0,0,0,0,0,0,0,0,0,0,0,0,0,0
169104000,4000000.0,1.0,17582.67,0.0,62998,0,660.3586,4354,0,0,0,0,0.0,0,0,0,1,1,1,54,0,1,0,0,0,0,0,0,0,0,0,0,0,0,0,0,0,0,0
170048000,4000000.0,1.0,17467.133,0.0,63364,0,570.71716,4379,0,0,0,0,0.0,0,0,0,1,1,1,54,0,1,0,0,0,0,0,0,0,0,0,0,0,0,0,0,0,0,0
171040000,4000000.0,1.0,17464.145,0.0,63741,0,616.5339,4405,0,0,0,0,0.0,0,0,0,1,1,1,54,0,1,0,0,0,0,0,0,0,0,0,0,0,0,0,0,0,0,0
172068000,4000000.0,1.0,17271.912,0.0,64140,0,593.6255,4432,0,0,0,0,0.0,0,0,0,1,1,1,54,0,1,0,0,0,0,0,0,0,0,0,0,0,0,0,0,0,0,0
173064000,4000000.0,1.0,17465.14,0.0,64521,0,593.6255,4457,0,0,0,0,0.0,0,0,0,1,1,1,54,0,1,0,0,0,0,0,0,0,0,0,0,0,0,0,0,0,0,0
174048000,4000000.0,1.0,17458.168,0.0,64903,0,593.6255,4485,0,0,0,0,0.0,0,0,0,1,1,1,54,0,1,0,0,0,0,0,0,0,0,0,0,0,0,0,0,0,0,0
175044000,4000000.0,1.0,17508.965,0.0,65286,0,619.5219,4511,0,0,0,0,0.0,0,0,0,1,1,1,54,0,1,0,0,0,0,0,0,0,0,0,0,0,0,0,0,0,0,0
176040000,4000000.0,1.0,17332.67,0.0,65667,0,593.6255,4536,0,0,0,0,0.0,0,0,0,1,1,1,54,0,1,0,0,0,0,0,0,0,0,0,0,0,0,0,0,0,0,0
177044000,4000000.0,1.0,17403.387,0.0,66054,0,616.5339,4562,0,0,0,0,0.0,0,0,0,1,1,1,54,0,1,0,0,0,0,0,0,0,0,0,0,0,0,0,0,0,0,0
178076000,4000000.0,1.0,17320.717,0.0,66449,0,593.6255,4588,0,0,0,0,0.0,0,0,0,1,1,1,54,0,1,0,0,0,0,0,0,0,0,0,0,0,0,0,0,0,0,0
179040000,4000000.0,1.0,17602.59,0.0,66819,0,570.71716,4614,0,0,0,0,0.0,0,0,0,1,1,1,54,0,1,0,0,0,0,0,0,0,0,0,0,0,0,0,0,0,0,0
180040000,4000000.0,1.0,17311.754,0.0,67204,0,593.6255,4639,0,0,0,0,0.0,0,0,0,1,1,1,54,0,1,0,0,0,0,0,0,0,0,0,0,0,0,0,0,0,0,0
181064000,4000000.0,1.0,17451.195,0.0,67599,0,593.6255,4665,0,0,0,0,0.0,0,0,0,1,1,1,54,0,1,0,0,0,0,0,0,0,0,0,0,0,0,0,0,0,0,0
182052000,4000000.0,1.0,17284.861,0.0,67979,0,570.71716,4691,0,0,0,0,0.0,0,0,0,1,1,1,54,0,1,0,0,0,0,0,0,0,0,0,0,0,0,0,0,0,0,0
183032000,4000000.0,1.0,17452.191,0.0,68354,0,593.6255,4716,0,0,0,0,0.0,0,0,0,1,1,1,54,0,1,0,0,0,0,0,0,0,0,0,0,0,0,0,0,0,0,0
184032000,4000000.0,1.0,17447.21,0.0,68743,0,593.6255,4744,0,0,0,0,0.0,0,0,0,1,1,1,54,0,1,0,0,0,0,0,0,0,0,0,0,0,0,0,0,0,0,0
185024000,4000000.0,1.0,17525.896,0.0,69124,0,642.4303,4770,0,0,0,0,0.0,0,0,0,1,1,1,54,0,1,0,0,0,0,0,0,0,0,0,0,0,0,0,0,0,0,0
186024000,4000000.0,1.0,17310.758,0.0,69509,0,593.6255,4795,0,0,0,0,0.0,0,0,0,1,1,1,54,0,1,0,0,0,0,0,0,0,0,0,0,0,0,0,0,0,0,0
187032000,4000000.0,1.0,17420.318,0.0,69894,0,593.6255,4821,0,0,0,0,0.0,0,0,0,1,1,1,54,0,1,0,0,0,0,0,0,0,0,0,0,0,0,0,0,0,0,0
188024000,4000000.0,1.0,17374.502,0.0,70278,0,593.6255,4848,0,0,0,0,0.0,0,0,0,1,1,1,54,0,1,0,0,0,0,0,0,0,0,0,0,0,0,0,0,0,0,0
189020000,4000000.0,1.0,17606.574,0.0,70657,0,593.6255,4874,0,0,0,0,0.0,0,0,0,1,1,1,54,0,1,0,0,0,0,0,0,0,0,0,0,0,0,0,0,0,0,0
190024000,4000000.0,1.0,17315.738,0.0,71047,0,593.6255,4900,0,0,0,0,0.0,0,0,0,1,1,1,54,0,1,0,0,0,0,0,0,0,0,0,0,0,0,0,0,0,0,0
191024000,4000000.0,1.0,17468.129,0.0,71430,0,616.5339,4925,0,0,0,0,0.0,0,0,0,1,1,1,54,0,1,0,0,0,0,0,0,0,0,0,0,0,0,0,0,0,0,0
192016000,4000000.0,1.0,17341.635,0.0,71810,0,593.6255,4951,0,0,0,0,0.0,0,0,0,1,1,1,54,0,1,0,0,0,0,0,0,0,0,0,0,0,0,0,0,0,0,0
193032000,4000000.0,1.0,17454.184,0.0,72201,0,593.6255,4978,0,0,0,0,0.0,0,0,0,1,1,1,54,0,1,0,0,0,0,0,0,0,0,0,0,0,0,0,0,0,0,0
194044000,4000000.0,1.0,17471.115,0.0,72594,0,593.6255,5004,0,0,0,0,0.0,0,0,0,1,1,1,54,0,1,0,0,0,0,0,0,0,0,0,0,0,0,0,0,0,0,0
195024000,4000000.0,1.0,17508.965,0.0,72969,0,596.6136,5030,0,0,0,0,0.0,0,0,0,1,1,1,54,0,1,0,0,0,0,0,0,0,0,0,0,0,0,0,0,0,0,0
196044000,4000000.0,1.0,17306.773,0.0,73363,0,593.6255,5056,0,0,0,0,0.0,0,0,0,1,1,1,54,0,1,0,0,0,0,0,0,0,0,0,0,0,0,0,0,0,0,0
197044000,4000000.0,1.0,17429.283,0.0,73745,0,570.71716,5081,0,0,0,0,0.0,0,0,0,1,1,1,54,0,1,0,0,0,0,0,0,0,0,0,0,0,0,0,0,0,0,0
198040000,4000000.0,1.0,17307.77,0.0,74127,0,570.71716,5105,0,0,0,0,0.0,0,0,0,1,1,1,54,0,1,0,0,0,0,0,0,0,0,0,0,0,0,0,0,0,0,0
199024000,4000000.0,1.0,17602.59,0.0,74507,0,593.6255,5130,0,0,0,0,0.0,0,0,0,1,1,1,54,0,1,0,0,0,0,0,0,0,0,0,0,0,0,0,0,0,0,0
200004000,4000000.0,1.0,17311.754,0.0,74885,0,593.6255,5157,0,0,0,0,0.0,0,0,0,1,1,1,54,0,1,0,0,0,0,0,0,0,0,0,0,0,0,0,0,0,0,0
201004000,4000000.0,1.0,17464.145,0.0,75268,0,593.6255,5183,0,0,0,0,0.0,0,0,0,1,1,1,54,0,1,0,0,0,0,0,0,0,0,0,0,0,0,0,0,0,0,0
202020000,4000000.0,1.0,17258.965,0.0,75657,0,593.6255,5208,0,0,0,0,0.0,0,0,0,1,1,1,54,0,1,0,0,0,0,0,0,0,0,0,0,0,0,0,0,0,0,0
203004000,4000000.0,1.0,17465.14,0.0,76036,0,593.6255,5235,0,0,0,0,0.0,0,0,0,1,1,1,54,0,1,0,0,0,0,0,0,0,0,0,0,0,0,0,0,0,0,0
204000000,4000000.0,1.0,17458.168,0.0,76420,0,593.6255,5261,0,0,0,0,0.0,0,0,0,1,1,1,54,0,1,0,0,0,0,0,0,0,0,0,0,0,0,0,0,0,0,0
204996000,4000000.0,1.0,17496.016,0.0,76802,0,642.4303,5287,0,0,0,0,0.0,0,0,0,1,1,1,54,0,1,0,0,0,0,0,0,0,0,0,0,0,0,0,0,0,0,0
206016000,4000000.0,1.0,17332.67,0.0,77195,0,593.6255,5314,0,0,0,0,0.0,0,0,0,1,1,1,54,0,1,0,0,0,0,0,0,0,0,0,0,0,0,0,0,0,0,0
207004000,4000000.0,1.0,17403.387,0.0,77575,0,593.6255,5340,0,0,0,0,0.0,0,0,0,1,1,1,54,0,1,0,0,0,0,0,0,0,0,0,0,0,0,0,0,0,0,0
207992000,4000000.0,1.0,17320.717,0.0,77957,0,593.6255,5365,0,0,0,0,0.0,0,0,0,1,1,1,54,0,1,0,0,0,0,0,0,0,0,0,0,0,0,0,0,0,0,0
209008000,4000000.0,1.0,17602.59,0.0,78345,0,570.71716,5392,0,0,0,0,0.0,0,0,0,1,1,1,54,0,1,0,0,0,0,0,0,0,0,0,0,0,0,0,0,0,0,0
209988000,4000000.0,1.0,17311.754,0.0,78724,0,616.5339,5417,0,0,0,0,0.0,0,0,0,1,1,1,54,0,1,0,0,0,0,0,0,0,0,0,0,0,0,0,0,0,0,0
210992000,4000000.0,1.0,17464.145,0.0,79108,0,593.6255,5444,0,0,0,0,0.0,0,0,0,1,1,1,54,0,1,0,0,0,0,0,0,0,0,0,0,0,0,0,0,0,0,0
211988000,4000000.0,1.0,17271.912,0.0,79493,0,616.5339,5470,0,0,0,0,0.0,0,0,0,1,1,1,54,0,1,0,0,0,0,0,0,0,0,0,0,0,0,0,0,0,0,0
212984000,4000000.0,1.0,17465.14,0.0,79875,0,593.6255,5496,0,0,0,0,0.0,0,0,0,1,1,1,54,0,1,0,0,0,0,0,0,0,0,0,0,0,0,0,0,0,0,0
213996000,4000000.0,1.0,17458.168,0.0,80265,0,593.6255,5522,0,0,0,0,0.0,0,0,0,1,1,1,54,0,1,0,0,0,0,0,0,0,0,0,0,0,0,0,0,0,0,0
214996000,4000000.0,1.0,17500.0,0.0,80648,0,619.5219,5549,0,0,0,0,0.0,0,0,0,1,1,1,54,0,1,0,0,0,0,0,0,0,0,0,0,0,0,0,0,0,0,0
215980000,4000000.0,1.0,17310.758,0.0,81027,0,593.6255,5575,0,0,0,0,0.0,0,0,0,1,1,1,54,0,1,0,0,0,0,0,0,0,0,0,0,0,0,0,0,0,0,0
216988000,4000000.0,1.0,17420.318,0.0,81421,0,593.6255,5600,0,0,0,0,0.0,0,0,0,1,1,1,54,0,1,0,0,0,0,0,0,0,0,0,0,0,0,0,0,0,0,0
217988000,4000000.0,1.0,17431.275,0.0,81811,0,593.6255,5626,0,0,0,0,0.0,0,0,0,1,1,1,54,0,1,0,0,0,0,0,0,0,0,0,0,0,0,0,0,0,0,0
218956000,4000000.0,1.0,17547.809,0.0,82177,0,593.6255,5652,0,0,0,0,0.0,0,0,0,1,1,1,54,0,1,0,0,0,0,0,0,0,0,0,0,0,0,0,0,0,0,0
219988000,4000000.0,1.0,17231.076,0.0,82575,0,616.5339,5678,0,0,0,0,0.0,0,0,0,1,1,1,54,0,1,0,0,0,0,0,0,0,0,0,0,0,0,0,0,0,0,0
220968000,4000000.0,1.0,17409.363,0.0,82949,0,593.6255,5704,0,0,0,0,0.0,0,0,0,1,1,1,54,0,1,0,0,0,0,0,0,0,0,0,0,0,0,0,0,0,0,0
221976000,4000000.0,1.0,17204.184,0.0,83334,0,593.6255,5731,0,0,0,0,0.0,0,0,0,1,1,1,54,0,1,0,0,0,0,0,0,0,0,0,0,0,0,0,0,0,0,0
222976000,4000000.0,1.0,17397.41,0.0,83716,0,593.6255,5757,0,0,0,0,0.0,0,0,0,1,1,1,54,0,1,0,0,0,0,0,0,0,0,0,0,0,0,0,0,0,0,0
223956000,4000000.0,1.0,17390.44,0.0,84093,0,593.6255,5784,0,0,0,0,0.0,0,0,0,1,1,1,54,0,1,0,0,0,0,0,0,0,0,0,0,0,0,0,0,0,0,0
224952000,4000000.0,1.0,17441.236,0.0,84474,0,619.5219,5809,0,0,0,0,0.0,0,0,0,1,1,1,54,0,1,0,0,0,0,0,0,0,0,0,0,0,0,0,0,0,0,0
225960000,4000000.0,1.0,17239.045,0.0,84859,0,593.6255,5835,0,0,0,0,0.0,0,0,0,1,1,1,54,0,1,0,0,0,0,0,0,0,0,0,0,0,0,0,0,0,0,0
226960000,4000000.0,1.0,17361.555,0.0,85243,0,616.5339,5861,0,0,0,0,0.0,0,0,0,1,1,1,54,0,1,0,0,0,0,0,0,0,0,0,0,0,0,0,0,0,0,0
227968000,4000000.0,1.0,17343.627,0.0,85642,0,593.6255,5889,0,0,0,0,0.0,0,0,0,1,1,1,54,0,1,0,0,0,0,0,0,0,0,0,0,0,0,0,0,0,0,0
228964000,4000000.0,1.0,17725.1,0.0,86025,0,708.16736,5927,0,0,0,0,0.0,0,0,0,1,1,1,54,0,1,0,0,0,0,0,0,0,0,0,0,0,0,0,0,0,0,0
229972000,4000000.0,1.0,17260.957,0.0,86410,0,776.89246,5953,0,0,0,0,0.0,0,0,0,1,1,1,54,0,1,0,0,0,0,0,0,0,0,0,0,0,0,0,0,0,0,0
230956000,4000000.0,1.0,17387.451,0.0,86783,0,593.6255,5978,0,0,0,0,0.0,0,0,0,1,1,1,54,0,1,0,0,0,0,0,0,0,0,0,0,0,0,0,0,0,0,0
231968000,4000000.0,1.0,17208.168,0.0,87174,0,593.6255,6003,0,0,0,0,0.0,0,0,0,1,1,1,54,0,1,0,0,0,0,0,0,0,0,0,0,0,0,0,0,0,0,0
232968000,4000000.0,1.0,17401.395,0.0,87555,0,593.6255,6031,0,0,0,0,0.0,0,0,0,1,1,1,54,0,1,0,0,0,0,0,0,0,0,0,0,0,0,0,0,0,0,0
233952000,4000000.0,1.0,17357.57,0.0,87932,0,616.5339,6057,0,0,0,0,0.0,0,0,0,1,1,1,54,0,1,0,0,0,0,0,0,0,0,0,0,0,0,0,0,0,0,0
234964000,4000000.0,1.0,17395.418,0.0,88319,0,596.6136,6084,0,0,0,0,0.0,0,0,0,1,1,1,54,0,1,0,0,0,0,0,0,0,0,0,0,0,0,0,0,0,0,0
235960000,4000000.0,1.0,17232.072,0.0,88702,0,616.5339,6110,0,0,0,0,0.0,0,0,0,1,1,1,54,0,1,0,0,0,0,0,0,0,0,0,0,0,0,0,0,0,0,0
236944000,4000000.0,1.0,17432.271,0.0,89083,0,593.6255,6136,0,0,0,0,0.0,0,0,0,1,1,1,54,0,1,0,0,0,0,0,0,0,0,0,0,0,0,0,0,0,0,0
237932000,4000000.0,1.0,17233.068,0.0,89462,0,593.6255,6161,0,0,0,0,0.0,0,0,0,1,1,1,54,0,1,0,0,0,0,0,0,0,0,0,0,0,0,0,0,0,0,0
238936000,4000000.0,1.0,17501.992,0.0,89841,0,593.6255,6187,0,0,0,0,0.0,0,0,0,1,1,1,54,0,1,0,0,0,0,0,0,0,0,0,0,0,0,0,0,0,0,0
239936000,4000000.0,1.0,17198.207,0.0,90222,0,593.6255,6214,0,0,0,0,0.0,0,0,0,1,1,1,54,0,1,0,0,0,0,0,0,0,0,0,0,0,0,0,0,0,0,0
240936000,4000000.0,1.0,17319.72,0.0,90603,0,616.5339,6240,0,0,0,0,0.0,0,0,0,1,1,1,54,0,1,0,0,0,0,0,0,0,0,0,0,0,0,0,0,0,0,0
241936000,4000000.0,1.0,17184.264,0.0,90984,0,593.6255,6265,0,0,0,0,0.0,0,0,0,1,1,1,54,0,1,0,0,0,0,0,0,0,0,0,0,0,0,0,0,0,0,0
242928000,4000000.0,1.0,17307.77,0.0,91363,0,593.6255,6291,0,0,0,0,0.0,0,0,0,1,1,1,54,0,1,0,0,0,0,0,0,0,0,0,0,0,0,0,0,0,0,0
243928000,4000000.0,1.0,17357.57,0.0,91748,0,593.6255,6318,0,0,0,0,0.0,0,0,0,1,1,1,54,0,1,0,0,0,0,0,0,0,0,0,0,0,0,0,0,0,0,0
244936000,4000000.0,1.0,17377.49,0.0,92129,0,619.5219,6345,0,0,0,0,0.0,0,0,0,1,1,1,54,0,1,0,0,0,0,0,0,0,0,0,0,0,0,0,0,0,0,0
245936000,4000000.0,1.0,17219.123,0.0,92511,0,593.6255,6370,0,0,0,0,0.0,0,0,0,1,1,1,54,0,1,0,0,0,0,0,0,0,0,0,0,0,0,0,0,0,0,0
246924000,4000000.0,1.0,17258.965,0.0,92889,0,593.6255,6397,0,0,0,0,0.0,0,0,0,1,1,1,54,0,1,0,0,0,0,0,0,0,0,0,0,0,0,0,0,0,0,0
247920000,4000000.0,1.0,17233.068,0.0,93267,0,616.5339,6422,0,0,0,0,0.0,0,0,0,1,1,1,54,0,1,0,0,0,0,0,0,0,0,0,0,0,0,0,0,0,0,0
248916000,4000000.0,1.0,17458.168,0.0,93645,0,593.6255,6448,0,0,0,0,0.0,0,0,0,1,1,1,54,0,1,0,0,0,0,0,0,0,0,0,0,0,0,0,0,0,0,0
249920000,4000000.0,1.0,17198.207,0.0,94029,0,593.6255,6474,0,0,0,0,0.0,0,0,0,1,1,1,54,0,1,0,0,0,0,0,0,0,0,0,0,0,0,0,0,0,0,0
250924000,4000000.0,1.0,17332.67,0.0,94413,0,593.6255,6500,0,0,0,0,0.0,0,0,0,1,1,1,54,0,1,0,0,0,0,0,0,0,0,0,0,0,0,0,0,0,0,0
251916000,4000000.0,1.0,17171.314,0.0,94789,0,593.6255,6527,0,0,0,0,0.0,0,0,0,1,1,1,54,0,1,0,0,0,0,0,0,0,0,0,0,0,0,0,0,0,0,0
252920000,4000000.0,1.0,17307.77,0.0,95171,0,593.6255,6553,0,0,0,0,0.0,0,0,0,1,1,1,54,0,1,0,0,0,0,0,0,0,0,0,0,0,0,0,0,0,0,0
253920000,4000000.0,1.0,18243.03,0.0,95554,0,593.6255,6580,0,0,0,0,0.0,0,0,0,1,1,1,54,0,1,0,0,0,0,0,0,0,0,0,0,0,0,0,0,0,0,0
254920000,4000000.0,1.0,17116.535,0.0,95934,0,619.5219,6606,0,0,0,0,0.0,0,0,0,1,1,1,54,0,1,0,0,0,0,0,0,0,0,0,0,0,0,0,0,0,0,0
255920000,4000000.0,1.0,17401.395,0.0,96316,0,616.5339,6631,0,0,0,0,0.0,0,0,0,1,1,1,54,0,1,0,0,0,0,0,0,0,0,0,0,0,0,0,0,0,0,0
256912000,4000000.0,1.0,17102.59,0.0,96695,0,593.6255,6657,0,0,0,0,0.0,0,0,0,1,1,1,54,0,1,0,0,0,0,0,0,0,0,0,0,0,0,0,0,0,0,0
257928000,4000000.0,1.0,17402.39,0.0,97083,0,593.6255,6684,0,0,0,0,0.0,0,0,0,1,1,1,54,0,1,0,0,0,0,0,0,0,0,0,0,0,0,0,0,0,0,0
258908000,4000000.0,1.0,17262.95,0.0,97457,0,593.6255,6710,0,0,0,0,0.0,0,0,0,1,1,1,54,0,1,0,0,0,0,0,0,0,0,0,0,0,0,0,0,0,0,0
259904000,4000000.0,1.0,17406.375,0.0,97838,0,593.6255,6735,0,0,0,0,0.0,0,0,0,1,1,1,54,0,1,0,0,0,0,0,0,0,0,0,0,0,0,0,0,0,0,0
260904000,4000000.0,1.0,17137.451,0.0,98217,0,593.6255,6762,0,0,0,0,0.0,0,0,0,1,1,1,54,0,1,0,0,0,0,0,0,0,0,0,0,0,0,0,0,0,0,0
261896000,4000000.0,1.0,17353.586,0.0,98595,0,593.6255,6787,0,0,0,0,0.0,0,0,0,1,1,1,54,0,1,0,0,0,0,0,0,0,0,0,0,0,0,0,0,0,0,0
262896000,4000000.0,1.0,17138.447,0.0,98974,0,616.5339,6814,0,0,0,0,0.0,0,0,0,1,1,1,54,0,1,0,0,0,0,0,0,0,0,0,0,0,0,0,0,0,0,0
263904000,4000000.0,1.0,17592.63,0.0,99363,0,619.5219,6841,0,0,0,0,0.0,0,0,0,1,1,1,54,0,1,0,0,0,0,0,0,0,0,0,0,0,0,0,0,0,0,0
264896000,4000000.0,1.0,17116.535,0.0,99738,0,593.6255,6867,0,0,0,0,0.0,0,0,0,1,1,1,54,0,1,0,0,0,0,0,0,0,0,0,0,0,0,0,0,0,0,0
265896000,4000000.0,1.0,17414.344,0.0,100119,0,593.6255,6893,0,0,0,0,0.0,0,0,0,1,1,1,54,0,1,0,0,0,0,0,0,0,0,0,0,0,0,0,0,0,0,0
266892000,4000000.0,1.0,17076.693,0.0,100499,0,593.6255,6919,0,0,0,0,0.0,0,0,0,1,1,1,54,0,1,0,0,0,0,0,0,0,0,0,0,0,0,0,0,0,0,0
267888000,4000000.0,1.0,17402.39,0.0,100881,0,593.6255,6945,0,0,0,0,0.0,0,0,0,1,1,1,54,0,1,0,0,0,0,0,0,0,0,0,0,0,0,0,0,0,0,0
268900000,4000000.0,1.0,17288.846,0.0,101262,0,593.6255,6971,0,0,0,0,0.0,0,0,0,1,1,1,54,0,1,0,0,0,0,0,0,0,0,0,0,0,0,0,0,0,0,0
269900000,4000000.0,1.0,17393.428,0.0,101644,0,616.5339,6997,0,0,0,0,0.0,0,0,0,1,1,1,54,0,1,0,0,0,0,0,0,0,0,0,0,0,0,0,0,0,0,0
270892000,4000000.0,1.0,17124.502,0.0,102024,0,593.6255,7022,0,0,0,0,0.0,0,0,0,1,1,1,54,0,1,0,0,0,0,0,0,0,0,0,0,0,0,0,0,0,0,0
271888000,4000000.0,1.0,17366.535,0.0,102404,0,593.6255,7049,0,0,0,0,0.0,0,0,0,1,1,1,54,0,1,0,0,0,0,0,0,0,0,0,0,0,0,0,0,0,0,0
272888000,4000000.0,1.0,17138.447,0.0,102784,0,593.6255,7075,0,0,0,0,0.0,0,0,0,1,1,1,54,0,1,0,0,0,0,0,0,0,0,0,0,0,0,0,0,0,0,0
273888000,4000000.0,1.0,17579.682,0.0,103169,0,619.5219,7102,0,0,0,0,0.0,0,0,0,1,1,1,54,0,1,0,0,0,0,0,0,0,0,0,0,0,0,0,0,0,0,0
274888000,4000000.0,1.0,17142.432,0.0,103548,0,593.6255,7127,0,0,0,0,0.0,0,0,0,1,1,1,54,0,1,0,0,0,0,0,0,0,0,0,0,0,0,0,0,0,0,0
275880000,4000000.0,1.0,17388.447,0.0,103925,0,593.6255,7154,0,0,0,0,0.0,0,0,0,1,1,1,54,0,1,0,0,0,0,0,0,0,0,0,0,0,0,0,0,0,0,0
276880000,4000000.0,1.0,17089.643,0.0,104305,0,616.5339,7179,0,0,0,0,0.0,0,0,0,1,1,1,54,0,1,0,0,0,0,0,0,0,0,0,0,0,0,0,0,0,0,0
