timestamp,timestamp_sample,time_last_fuse,device_id,observation,observation_variance,innovation,innovation_variance,test_ratio,estimator_instance,fusion_enabled,innovation_rejected,fused
3492000,3368914,0,0,-30.142002,1.0,30.140995,101.08259,0.35949993,0,0,0,0
3892000,3769319,0,0,-30.145002,1.0,30.14555,50.999992,0.71274847,0,0,0,0
4292000,4169588,0,0,-0.02136612,1.0,-0.00015049987,9.221513,9.824942e-11,0,0,0,0
4692000,4569751,0,0,-0.034366608,1.0,0.03962385,2.4431624,2.57052e-05,0,0,0,0
5092000,4969850,0,0,-0.023366928,1.0,0.025827462,1.7918483,1.4890943e-05,0,0,0,0
5492000,5369909,0,0,-0.024366379,1.0,0.01606876,1.5722775,6.5689433e-06,0,0,0,0
5892000,5769945,0,0,-0.018367767,1.0,0.010046072,1.433369,2.8164018e-06,0,0,0,0
6292000,6169967,0,0,-0.02136612,1.0,0.009101623,1.3496927,2.4550636e-06,0,0,0,0
6684000,6565980,0,0,-0.022367477,1.0,0.010500356,1.301019,3.3898805e-06,0,0,0,0
7092000,6969988,0,0,-0.030366898,1.0,0.016679075,1.2595183,8.834854e-06,0,0,0,0
7492000,7369993,0,0,-0.029367447,1.0,0.018002504,1.2299281,1.0540133e-05,0,0,0,0
7892000,7769996,0,0,-0.029367447,1.0,0.01717159,1.2061627,9.778564e-06,0,0,0,0
8292000,8169998,0,0,-0.032367706,1.0,0.020102687,1.1902556,1.3580881e-05,0,0,0,0
8684000,8569999,8604000,0,-0.028367996,1.0,0.013004914,1.17444,5.760287e-06,0,0,0,0
9084000,8966000,9004000,0,-0.025367737,1.0,-0.003345903,1.6825964,2.661379e-07,0,1,0,1
9492000,9370000,9412000,0,-0.028367996,1.0,-0.007406626,1.3458809,1.6304001e-06,0,1,0,1
9884000,9770000,9804000,0,-0.023366928,1.0,-0.007430218,1.2415266,1.7787179e-06,0,1,0,1
10292000,10170000,10212000,0,-0.020366669,1.0,-0.010201592,1.194246,3.485797e-06,0,1,0,1
10692000,10570000,10612000,0,-0.011367798,1.0,-0.018026384,1.1701628,1.11078725e-05,0,1,0,1
11092000,10970000,11012000,0,-0.029367447,1.0,0.011368865,1.153635,4.4815247e-06,0,1,0,1
11492000,11370000,11412000,0,-0.03136635,1.0,0.014435032,1.1428174,7.2932094e-06,0,1,0,1
11892000,11770000,11812000,0,-0.033367157,1.0,0.010157298,1.1368124,3.6301751e-06,0,1,0,1
12284000,12170000,12204000,0,-0.033367157,1.0,0.01318589,1.1306897,6.1508545e-06,0,1,0,1
12692000,12570000,12612000,0,-0.023366928,1.0,0.004366964,1.1269923,6.768591e-07,0,1,0,1
13092000,12970000,13012000,0,-0.029367447,1.0,0.0062289815,1.1236004,1.3812815e-06,0,1,0,1
13492000,13370000,13412000,0,-0.025367737,1.0,0.012793515,1.1220323,5.834913e-06,0,1,0,1
13884000,13766000,13804000,0,-0.03136635,1.0,0.014443032,1.1192266,7.4551904e-06,0,1,0,1
14292000,14170000,14212000,0,-0.023366928,1.0,0.0077094957,1.1177702,2.1269602e-06,0,1,0,1
14692000,14570000,14612000,0,-0.026367188,1.0,0.021748062,1.1172287,1.693398e-05,0,1,0,1
15092000,14970000,15012000,0,-0.025367737,1.0,0.025050117,1.1158361,2.249464e-05,0,1,0,1
15484000,15370000,15404000,0,-0.032367706,1.0,0.03164477,1.1153193,3.5914076e-05,0,1,0,1
15892000,15770000,15812000,0,-0.027366638,1.0,0.027745102,1.1148814,2.7618747e-05,0,1,0,1
16284000,16166000,16204000,0,-0.022367477,1.0,0.024511233,1.113687,2.1578793e-05,0,1,0,1
16692000,16570000,16612000,0,-0.023366928,1.0,0.03367481,1.1135932,4.073275e-05,0,1,0,1
17092000,16970000,17012000,0,-0.037366867,1.0,0.050401792,1.1141844,9.12e-05,0,1,0,1
17492000,17370000,17412000,0,-0.025367737,1.0,0.035616763,1.1138265,4.55566e-05,0,1,0,1
17892000,17770000,17812000,0,-0.028367996,1.0,0.04302002,1.1135427,6.648051e-05,0,1,0,1
18292000,18170000,18212000,0,-0.02136612,1.0,0.043282904,1.11437,6.724552e-05,0,1,0,1
18684000,18566000,18604000,0,-0.01736641,1.0,0.04823062,1.1137174,8.3546955e-05,0,1,0,1
19092000,18970000,19012000,0,-0.022367477,1.0,0.052474022,1.1140463,9.8865654e-05,0,1,0,1
19492000,19370000,19412000,0,-0.027366638,1.0,0.061658427,1.1149241,0.00013639535,0,1,0,1
19884000,19766000,19804000,0,-0.026367188,1.0,0.06361083,1.1142654,0.00014525579,0,1,0,1
20292000,20170000,20212000,0,-0.032367706,1.0,0.06918256,1.1145672,0.00017176986,0,1,0,1
20692000,20570000,20612000,0,-0.023366928,1.0,0.063359156,1.115399,0.00014396221,0,1,0,1
21084000,20970000,21004000,0,-0.030366898,1.0,0.07453011,1.1146698,0.0001993321,0,1,0,1
21492000,21370000,21412000,0,-0.032367706,1.0,0.07774486,1.1148994,0.0002168541,0,1,0,1
21892000,21770000,21812000,0,-0.033367157,1.0,0.07776363,1.1156611,0.00021681072,0,1,0,1
22284000,22170000,22204000,0,-0.024366379,1.0,0.06764501,1.1148603,0.00016417654,0,1,0,1
22692000,22570000,22612000,0,-0.028367996,1.0,0.074843556,1.1150254,0.00020094817,0,1,0,1
23084000,22970000,23004000,0,-0.03136635,1.0,0.07969595,1.1152662,0.0002278001,0,1,0,1
23484000,23366000,23404000,0,-0.027366638,1.0,0.07788709,1.1149409,0.00021764019,0,1,0,1
23892000,23770000,23812000,0,-0.032367706,1.0,0.09125759,1.1150612,0.00029874404,0,1,0,1
24284000,24170000,24204000,0,-0.033367157,1.0,0.0964341,1.1152688,0.00033353522,0,1,0,1
24684000,24570000,24604000,0,-0.025367737,1.0,0.085548274,1.1149181,0.00026256664,0,1,0,1
25092000,24970000,25012000,0,-0.02136612,1.0,0.08738137,1.1150287,0.00027391236,0,1,0,1
25484000,25370000,25404000,0,-0.028367996,1.0,0.09272647,1.1152613,0.00030838326,0,1,0,1
25892000,25770000,25812000,0,-0.025367737,1.0,0.090550415,1.1154027,0.0002940419,0,1,0,1
26292000,26170000,26212000,0,-0.020366669,1.0,0.083136536,1.1150174,0.00024794892,0,1,0,1
26684000,26570000,26604000,0,-0.030366898,1.0,0.09818569,1.1141908,0.00034609617,0,1,0,1
27084000,26966000,27004000,0,-0.028367996,1.0,0.09483473,1.1149714,0.00032264955,0,1,0,1
27492000,27370000,27412000,0,-0.01736641,1.0,0.08568033,1.1151353,0.00026332654,0,1,0,1
27892000,27770000,27812000,0,-0.016366959,1.0,0.08387375,1.114772,0.00025242133,0,1,0,1
28292000,28170000,28212000,0,-0.029367447,1.0,0.10089793,1.1154819,0.0003650581,0,1,0,1
28692000,28570000,28612000,0,-0.019367218,1.0,0.09024066,1.1151166,0.00029210854,0,1,0,1
29092000,28970000,29012000,0,-0.022367477,1.0,0.09753281,1.1147522,0.0003413368,0,1,0,1
29492000,29370000,29412000,0,-0.03136635,1.0,0.11364089,1.1154616,0.00046309983,0,1,0,1
29892000,29770000,29812000,0,-0.026367188,1.0,0.11467484,1.1150972,0.0004717192,0,1,0,1
30292000,30170000,30212000,0,-0.023366928,1.0,0.11635595,1.1147469,0.0004858038,0,1,0,1
30692000,30570000,30612000,0,-0.027366638,1.0,0.120325945,1.1144236,0.0005196707,0,1,0,1
31092000,30970000,31012000,0,-0.03136635,1.0,0.12838031,1.1151671,0.00059117615,0,1,0,1
31492000,31370000,31412000,0,-0.023366928,1.0,0.118658274,1.114833,0.0005051801,0,1,0,1
31892000,31770000,31812000,0,-0.022367477,1.0,0.12325154,1.1144953,0.0005452134,0,1,0,1
32292000,32170000,32212000,0,-0.032367706,1.0,0.13588825,1.1152271,0.0006623087,0,1,0,1
32684000,32570000,32604000,0,-0.032367706,1.0,0.13784294,1.11442,0.00068199326,0,1,0,1
33092000,32970000,33012000,0,-0.015367508,1.0,0.12321354,1.1145881,0.00054483174,0,1,0,1
33484000,33370000,33404000,0,-0.018367767,1.0,0.13443696,1.1148553,0.0006484536,0,1,0,1
33892000,33770000,33812000,0,-0.018367767,1.0,0.13958287,1.1150565,0.0006989198,0,1,0,1
34284000,34170000,34204000,0,-0.015367508,1.0,0.13677207,1.1142604,0.00067153416,0,1,0,1
34692000,34570000,34612000,0,-0.032367706,1.0,0.15007241,1.1155095,0.00080758537,0,1,0,1
35084000,34970000,35004000,0,-0.01436615,1.0,0.13068825,1.114698,0.00061288057,0,1,0,1
35492000,35370000,35412000,0,-0.024366379,1.0,0.129271,1.1148596,0.0005995729,0,1,0,1
35892000,35770000,35812000,0,-0.020366669,1.0,0.121863514,1.1155698,0.000532489,0,1,0,1
36292000,36170000,36212000,0,-0.034366608,1.0,0.13167964,1.1152068,0.00062193046,0,1,0,1
36692000,36570000,36612000,0,-0.025367737,1.0,0.119010255,1.1148397,0.00050817855,0,1,0,1
37084000,36970000,37004000,0,-0.02136612,1.0,0.10903934,1.1150832,0.00042650008,0,1,0,1
37484000,37370000,37404000,0,-0.02136612,1.0,0.108514555,1.1147754,0.00042252132,0,1,0,1
37884000,37770000,37804000,0,-0.022367477,1.0,0.105800845,1.1144896,0.00040175588,0,1,0,1
38284000,38170000,38204000,0,-0.03136635,1.0,0.10955768,1.1152698,0.00043049263,0,1,0,1
38692000,38570000,38612000,0,-0.023366928,1.0,0.09203457,1.1154373,0.00030375036,0,1,0,1
39092000,38970000,39012000,0,-0.034366608,1.0,0.10367765,1.1150753,0.0003855903,0,1,0,1
39492000,39370000,39412000,0,-0.026367188,1.0,0.09787862,1.1147085,0.00034377503,0,1,0,1
39892000,39770000,39812000,0,-0.030366898,1.0,0.10283877,1.115418,0.00037925917,0,1,0,1
40284000,40166000,40204000,0,-0.029367447,1.0,0.10736148,1.1145912,0.00041365795,0,1,0,1
40692000,40570000,40612000,0,-0.033367157,1.0,0.1261377,1.1147397,0.00057092146,0,1,0,1
41092000,40970000,41012000,0,-0.024366379,1.0,0.11856403,1.1154422,0.0005041025,0,1,0,1
41492000,41370000,41412000,0,-0.023366928,1.0,0.13028826,1.1150718,0.0006089305,0,1,0,1
41884000,41770000,41804000,0,-0.036367416,1.0,0.15212855,1.1153082,0.00083001616,0,1,0,1
42284000,42170000,42204000,0,-0.037366867,1.0,0.15792319,1.1149955,0.0008947026,0,1,0,1
42692000,42570000,42612000,0,-0.019367218,1.0,0.15262787,1.1151767,0.0008355722,0,1,0,1
43092000,42970000,43012000,0,-0.030366898,1.0,0.16919988,1.1148328,0.0010271891,0,1,0,1
43492000,43370000,43412000,0,-0.033367157,1.0,0.17857233,1.1144906,0.0011444896,0,1,0,1
43892000,43770000,43812000,0,-0.019367218,1.0,0.16725074,1.1152505,0.0010032835,0,1,0,1
44292000,44170000,44212000,0,-0.018367767,1.0,0.16501294,1.1149322,0.0009768942,0,1,0,1
44684000,44570000,44604000,0,-0.022367477,1.0,0.175987,1.1141467,0.0011119335,0,1,0,1
45092000,44970000,45012000,0,-0.024366379,1.0,0.18588634,1.1154021,0.0012391488,0,1,0,1
45484000,45370000,45404000,0,-0.018367767,1.0,0.18075329,1.1145949,0.0011725067,0,1,0,1
45884000,45766000,45804000,0,-0.023366928,1.0,0.1919517,1.1143022,0.0013226379,0,1,0,1
46292000,46170000,46212000,0,-0.028367996,1.0,0.19692387,1.1155337,0.0013905097,0,1,0,1
46692000,46570000,46612000,0,-0.026367188,1.0,0.1842226,1.115165,0.0012173253,0,1,0,1
47084000,46970000,47004000,0,-0.028367996,1.0,0.18475191,1.1143352,0.0012252425,0,1,0,1
47484000,47370000,47404000,0,-0.022367477,1.0,0.17757276,1.1150928,0.0011311016,0,1,0,1
47892000,47770000,47812000,0,-0.030366898,1.0,0.18564461,1.1152352,0.0012361131,0,1,0,1
48284000,48170000,48204000,0,-0.028367996,1.0,0.1757235,1.1143916,0.0011083626,0,1,0,1
48684000,48570000,48604000,0,-0.023366928,1.0,0.17166246,1.1151754,0.0010569817,0,1,0,1
49092000,48970000,49012000,0,-0.020366669,1.0,0.16375431,1.1153476,0.0009616904,0,1,0,1
49492000,49370000,49412000,0,-0.025367737,1.0,0.1702991,1.1149865,0.0010404353,0,1,0,1
49892000,49770000,49812000,0,-0.027366638,1.0,0.17132342,1.1146245,0.001053331,0,1,0,1
50284000,50170000,50204000,0,-0.033367157,1.0,0.17745294,1.1148736,0.0011297978,0,1,0,1
50692000,50570000,50612000,0,-0.034366608,1.0,0.18350114,1.115027,0.0012079589,0,1,0,1
51092000,50970000,51012000,0,-0.022367477,1.0,0.17440641,1.1146555,0.0010915515,0,1,0,1
51492000,51370000,51412000,0,-0.027366638,1.0,0.18269043,1.1153607,0.0011969506,0,1,0,1
51884000,51770000,51804000,0,-0.030366898,1.0,0.1860924,1.1145281,0.0012428717,0,1,0,1
52284000,52170000,52204000,0,-0.033367157,1.0,0.1887911,1.115284,0.0012783139,0,1,0,1
52684000,52570000,52604000,0,-0.037366867,1.0,0.19392106,1.1149676,0.0013491111,0,1,0,1
53092000,52970000,53012000,0,-0.033367157,1.0,0.19000083,1.1151044,0.0012949574,0,1,0,1
53492000,53370000,53412000,0,-0.036367416,1.0,0.19367264,1.1147186,0.0013459574,0,1,0,1
53892000,53770000,53812000,0,-0.03136635,1.0,0.18320934,1.1154128,0.0012037037,0,1,0,1
54284000,54170000,54204000,0,-0.028367996,1.0,0.17599504,1.1145699,0.0011116127,0,1,0,1
54692000,54570000,54612000,0,-0.027366638,1.0,0.17009842,1.1147089,0.0010382432,0,1,0,1
55092000,54970000,55012000,0,-0.019367218,1.0,0.16762124,1.1154039,0.0010075949,0,1,0,1
55492000,55370000,55412000,0,-0.029367447,1.0,0.17825863,1.115024,0.0011399266,0,1,0,1
55884000,55766000,55804000,0,-0.039367676,1.0,0.18961102,1.1152563,0.0012894735,0,1,0,1
56284000,56170000,56204000,0,-0.03136635,1.0,0.17786536,1.1149414,0.0011349865,0,1,0,1
56692000,56570000,56612000,0,-0.024366379,1.0,0.17026742,1.1150801,0.0010399609,0,1,0,1
57084000,56970000,57004000,0,-0.028367996,1.0,0.16907567,1.115306,0.0010252462,0,1,0,1
57492000,57370000,57412000,0,-0.02136612,1.0,0.16076633,1.1154485,0.00092683133,0,1,0,1
57892000,57770000,57812000,0,-0.024366379,1.0,0.16755752,1.115063,0.0010071368,0,1,0,1
58284000,58166000,58204000,0,-0.026367188,1.0,0.1695647,1.1152906,0.0010311997,0,1,0,1
58692000,58570000,58612000,0,-0.023366928,1.0,0.1629178,1.1154349,0.0009518156,0,1,0,1
59092000,58970000,59012000,0,-0.029367447,1.0,0.16871527,1.115051,0.0010211135,0,1,0,1
59492000,59370000,59412000,0,-0.026367188,1.0,0.15763862,1.1146713,0.0008917404,0,1,0,1
59892000,59770000,59812000,0,-0.027366638,1.0,0.15687557,1.115371,0.00088257424,0,1,0,1
60284000,60170000,60204000,0,-0.03136635,1.0,0.16266148,1.1145341,0.0009495898,0,1,0,1
60692000,60570000,60612000,0,-0.038366318,1.0,0.16275683,1.1146915,0.0009505692,0,1,0,1
61092000,60970000,61012000,0,-0.032367706,1.0,0.1510382,1.1154261,0.00081807445,0,1,0,1
61492000,61370000,61412000,0,-0.028367996,1.0,0.13974056,1.1150881,0.00070047996,0,1,0,1
61892000,61770000,61812000,0,-0.015367508,1.0,0.12573239,1.1147434,0.0005672565,0,1,0,1
62292000,62170000,62212000,0,-0.029367447,1.0,0.13818859,1.1154695,0.0006847731,0,1,0,1
62692000,62570000,62612000,0,-0.041366577,1.0,0.13098934,1.1151232,0.00061547314,0,1,0,1
63092000,62970000,63012000,0,-0.19636726,1.0,0.11497242,1.1147712,0.0004743092,0,1,0,1
63492000,63370000,63412000,0,-0.4923668,1.0,0.1154975,1.1154916,0.00047834235,0,1,0,1
63884000,63770000,63804000,0,-0.90236664,1.0,0.13562465,1.114714,0.00066004536,0,1,0,1
64292000,64170000,64212000,0,-1.3853664,1.0,0.11131585,1.1149138,0.00044456238,0,1,0,1
64692000,64570000,64612000,0,-1.8873672,1.0,0.1105026,1.1145873,0.00043821867,0,1,0,1
65092000,64970000,65012000,0,-2.4233665,1.0,0.11638856,1.1153575,0.00048581001,0,1,0,1
65492000,65370000,65412000,0,-2.9683685,1.0,0.115628004,1.115071,0.0004796048,0,1,0,1
65892000,65770000,65812000,0,-3.5193672,1.0,0.10938239,1.114792,0.00042930007,0,1,0,1
66284000,66166000,66204000,0,-4.092369,1.0,0.11819005,1.114039,0.00050155836,0,1,0,1
66692000,66570000,66612000,0,-4.674366,1.0,0.1092267,1.115319,0.00042787663,0,1,0,1
67092000,66970000,67012000,0,-5.268368,1.0,0.11026716,1.1149962,0.00043619334,0,1,0,1
67492000,67370000,67412000,0,-5.8593674,1.0,0.10147238,1.1146655,0.00036949717,0,1,0,1
67892000,67770000,67812000,0,-6.4423676,1.0,0.08824921,1.1154002,0.0002792871,0,1,0,1
68292000,68170000,68212000,0,-7.047367,1.0,0.09482288,1.1150564,0.0003225444,0,1,0,1
68692000,68570000,68612000,0,-7.644367,1.0,0.08716822,1.1147088,0.0002726559,0,1,0,1
69084000,68970000,69004000,0,-8.245369,1.0,0.08815098,1.1149668,0.00027877407,0,1,0,1
69492000,69370000,69412000,0,-8.861366,1.0,0.084168434,1.115152,0.00025411157,0,1,0,1
69892000,69770000,69812000,0,-9.463367,1.0,0.069542885,1.1148264,0.00017352344,0,1,0,1
70292000,70170000,70212000,0,-10.063366,1.0,0.058904648,1.1145315,0.00012452793,0,1,0,1
70692000,70570000,70612000,0,-10.723366,1.0,0.037241936,1.1152993,4.974312e-05,0,1,0,1
71092000,70970000,71012000,0,-11.702366,1.0,0.01746273,1.1149905,1.0939895e-05,0,1,0,1
71484000,71370000,71404000,0,-12.847366,1.0,0.034693718,1.114208,4.321111e-05,0,1,0,1
71892000,71770000,71812000,0,-13.977367,1.0,0.0013656616,1.1154671,6.687895e-08,0,1,0,1
72292000,72170000,72212000,0,-15.1003685,1.0,-0.02045536,1.1151277,1.5008928e-05,0,1,0,1
72692000,72570000,72612000,0,-16.256367,1.0,-0.026733398,1.11478,2.564361e-05,0,1,0,1
73092000,72970000,73012000,0,-17.403366,1.0,-0.013866425,1.1155027,6.8947475e-06,0,1,0,1
73484000,73366000,73404000,0,-18.517368,1.0,-0.015331268,1.1146892,8.434558e-06,0,1,0,1
73684000,73566000,73604000,0,-19.090366,1.0,-0.007665634,1.107287,2.1227359e-06,0,1,0,1
74084000,73970000,74004000,0,-20.256367,1.0,0.006319046,1.108243,1.4412126e-06,0,1,0,1
74492000,74370000,74412000,0,-21.401367,1.0,-0.03179741,1.1094902,3.6451886e-05,0,1,0,1
74892000,74770000,74812000,0,-22.568367,1.0,-0.0198555,1.1111014,1.4192795e-05,0,1,0,1
75292000,75170000,75212000,0,-23.72337,1.0,-0.02911377,1.1116017,3.0500549e-05,0,1,0,1
75692000,75570000,75612000,0,-24.892368,1.0,-0.03158188,1.1119701,3.5879206e-05,0,1,0,1
76084000,75970000,76004000,0,-26.079369,1.0,0.004333496,1.112796,6.750272e-07,0,1,0,1
76492000,76370000,76412000,0,-27.270367,1.0,-0.034101486,1.1134651,4.1776308e-05,0,1,0,1
76892000,76770000,76812000,0,-28.476368,1.0,-0.026540756,1.1135175,2.530402e-05,0,1,0,1
77292000,77170000,77212000,0,-29.66837,1.0,-0.041475296,1.1145447,6.173642e-05,0,1,0,1
77684000,77570000,77604000,0,-30.888367,1.0,-0.029834747,1.1139914,3.1961186e-05,0,1,0,1
78092000,77970000,78012000,0,-32.129368,1.0,-0.03294754,1.1143533,3.896575e-05,0,1,0,1
78492000,78370000,78412000,0,-33.344368,1.0,-0.032226562,1.115211,3.7250396e-05,0,1,0,1
78892000,78770000,78812000,0,-34.55737,1.0,-0.032592773,1.1149658,3.8110185e-05,0,1,0,1
79292000,79170000,79212000,0,-35.756367,1.0,-0.04113388,1.1146848,6.0716575e-05,0,1,0,1
79692000,79570000,79612000,0,-36.962368,1.0,-0.044487,1.1154522,7.097007e-05,0,1,0,1
80092000,79970000,80012000,0,-38.19437,1.0,-0.021446228,1.1151316,1.6498167e-05,0,1,0,1
80484000,80370000,80404000,0,-39.40337,1.0,0.006111145,1.1143314,1.340574e-06,0,1,0,1
80892000,80770000,80812000,0,-40.60037,1.0,-0.023174286,1.1155736,1.9256371e-05,0,1,0,1
81292000,81170000,81212000,0,-41.802372,1.0,-0.025089264,1.115214,2.2577591e-05,0,1,0,1
81684000,81566000,81604000,0,-43.010372,1.0,-0.0014953613,1.1143854,8.026328e-08,0,1,0,1
82092000,81970000,82012000,0,-44.177372,1.0,-0.0029792786,1.1156079,3.1825164e-07,0,1,0,1
82484000,82370000,82404000,0,-45.177372,1.0,0.023658752,1.114771,2.008436e-05,0,1,0,1
82884000,82766000,82804000,0,-46.063366,1.0,0.043800354,1.1144501,6.885803e-05,0,1,0,1
83284000,83170000,83204000,0,-46.785366,1.0,0.053180695,1.115196,0.00010144177,0,1,0,1
83684000,83566000,83604000,0,-47.382366,1.0,0.06415939,1.114868,0.00014769202,0,1,0,1
84084000,83970000,84004000,0,-47.868366,1.0,0.06191635,1.1145321,0.00013758722,0,1,0,1
84492000,84370000,84412000,0,-48.274372,1.0,0.052051544,1.115732,9.7133125e-05,0,1,0,1
84892000,84770000,84812000,0,-48.59437,1.0,0.04547882,1.115337,7.4177515e-05,0,1,0,1
85292000,85170000,85212000,0,-48.87337,1.0,0.061656952,1.1149435,0.00013638646,0,1,0,1
85684000,85570000,85604000,0,-49.09437,1.0,0.071941376,1.1151669,0.00018564258,0,1,0,1
86092000,85970000,86012000,0,-49.26337,1.0,0.058921814,1.1153048,0.00012451413,0,1,0,1
86492000,86370000,86412000,0,-49.439373,1.0,0.07528305,1.1149619,0.00020332671,0,1,0,1
86892000,86770000,86812000,0,-49.58337,1.0,0.0761528,1.1145926,0.00020812087,0,1,0,1
87292000,87170000,87212000,0,-49.66937,1.0,0.06666565,1.1152873,0.000159396,0,1,0,1
87692000,87570000,87612000,0,-49.73837,1.0,0.0803566,1.1149294,0.00023166249,0,1,0,1
88084000,87970000,88004000,0,-49.768368,1.0,0.08555603,1.115191,0.00026255,0,1,0,1
88492000,88370000,88412000,0,-49.810368,1.0,0.08363342,1.1153729,0.00025084164,0,1,0,1
88892000,88770000,88812000,0,-49.86137,1.0,0.079574585,1.1150169,0.00022715761,0,1,0,1
89292000,89170000,89212000,0,-49.923367,1.0,0.08853912,1.1146469,0.00028131515,0,1,0,1
89692000,89570000,89612000,0,-49.965366,1.0,0.08513641,1.11535,0.00025994383,0,1,0,1
90092000,89970000,90012000,0,-49.99737,1.0,0.08074188,1.1149977,0.00023387498,0,1,0,1
90492000,90370000,90412000,0,-50.05337,1.0,0.08414078,1.1146781,0.00025405255,0,1,0,1
90892000,90770000,90812000,0,-50.09737,1.0,0.09755325,1.1155238,0.0003412437,0,1,0,1
91284000,91166000,91204000,0,-50.10837,1.0,0.103946686,1.1149534,0.00038763645,0,1,0,1
91692000,91570000,91612000,0,-50.101368,1.0,0.0990448,1.115532,0.00035175582,0,1,0,1
92092000,91970000,92012000,0,-50.08437,1.0,0.08312988,1.1168133,0.0002475106,0,1,0,1
92484000,92366000,92404000,0,-50.063366,1.0,0.08489227,1.116627,0.00025815956,0,1,0,1
92892000,92770000,92812000,0,-50.021366,1.0,0.087272644,1.1173953,0.00027265248,0,1,0,1
93284000,93170000,93204000,0,-49.97437,1.0,0.06462097,1.1179587,0.00014941052,0,1,0,1
93692000,93570000,93612000,0,-49.98737,1.0,0.049926758,1.1181775,8.916942e-05,0,1,0,1
94092000,93970000,94012000,0,-49.96037,1.0,0.05431366,1.1176051,0.00010558197,0,1,0,1
94492000,94370000,94412000,0,-49.90137,1.0,0.055023193,1.1179208,0.00010832796,0,1,0,1
94892000,94770000,94812000,0,-49.853367,1.0,0.056793213,1.1170127,0.0001155034,0,1,0,1
95292000,95170000,95212000,0,-49.816372,1.0,0.035396576,1.1162034,4.4899254e-05,0,1,0,1
95684000,95570000,95604000,0,-49.83137,1.0,0.033058167,1.1160737,3.9167386e-05,0,1,0,1
96084000,95966000,96004000,0,-49.86137,1.0,0.030788422,1.1154487,3.3992666e-05,0,1,0,1
96484000,96370000,96404000,0,-49.87537,1.0,0.0313797,1.1149012,3.5328172e-05,0,1,0,1
96892000,96770000,96812000,0,-49.828373,1.0,0.02999115,1.1148124,3.227338e-05,0,1,0,1
97292000,97170000,97212000,0,-49.77937,1.0,0.011550903,1.1153227,4.7851036e-06,0,1,0,1
97684000,97566000,97604000,0,-49.742367,1.0,0.008743286,1.1143699,2.7439742e-06,0,1,0,1
98092000,97970000,98012000,0,-49.703373,1.0,-0.014461517,1.1144708,7.5061807e-06,0,1,0,1
98484000,98370000,98404000,0,-49.66437,1.0,-0.013465881,1.1147733,6.5064337e-06,0,1,0,1
98892000,98770000,98812000,0,-49.341366,1.0,-0.0193367,1.1151686,1.3411711e-05,0,1,0,1
99284000,99170000,99204000,0,-48.910366,1.0,-0.033237457,1.1147834,3.9639217e-05,0,1,0,1
99684000,99566000,99604000,0,-48.397366,1.0,-0.042980194,1.1162969,6.619375e-05,0,1,0,1
100092000,99970000,100012000,0,-47.89137,1.0,-0.045085907,1.1175116,7.275948e-05,0,1,0,1
100492000,100370000,100412000,0,-47.521366,1.0,-0.054496765,1.1181296,0.00010624519,0,1,0,1
100892000,100770000,100812000,0,-47.466366,1.0,-0.063251495,1.119559,0.00014294028,0,1,0,1
101284000,101166000,101204000,0,-47.590366,1.0,-0.06315231,1.118799,0.00014258914,0,1,0,1
101684000,101566000,101604000,0,-47.80437,1.0,-0.06106186,1.1181369,0.0001333844,0,1,0,1
102084000,101970000,102004000,0,-48.102367,1.0,-0.05670929,1.1182334,0.00011503657,0,1,0,1
102492000,102370000,102412000,0,-48.41537,1.0,-0.051891327,1.1174637,9.638649e-05,0,1,0,1
102892000,102770000,102812000,0,-48.68037,1.0,-0.05263138,1.1161244,9.927431e-05,0,1,0,1
103292000,103170000,103212000,0,-48.881367,1.0,-0.052516937,1.1148574,9.895539e-05,0,1,0,1
103692000,103570000,103612000,0,-49.018368,1.0,-0.038700104,1.114808,5.373833e-05,0,1,0,1
104092000,103970000,104012000,0,-49.08237,1.0,-0.029659271,1.1138495,3.159035e-05,0,1,0,1
104484000,104370000,104404000,0,-49.09437,1.0,-0.017120361,1.1126248,1.0537489e-05,0,1,0,1
104892000,104770000,104812000,0,-49.04537,1.0,-0.028419495,1.1135175,2.90132e-05,0,1,0,1
105292000,105170000,105212000,0,-48.981373,1.0,-0.02149582,1.1130226,1.6605962e-05,0,1,0,1
105692000,105570000,105612000,0,-48.90537,1.0,-0.017230988,1.1126403,1.067396e-05,0,1,0,1
106084000,105970000,106004000,0,-48.815372,1.0,-0.027088165,1.1129355,2.6372369e-05,0,1,0,1
106492000,106370000,106412000,0,-48.73537,1.0,-0.026088715,1.1132103,2.4456152e-05,0,1,0,1
106884000,106770000,106804000,0,-48.538372,1.0,-0.022174835,1.1124984,1.7679964e-05,0,1,0,1
107292000,107170000,107212000,0,-48.187366,1.0,-0.015842438,1.1136882,9.014473e-06,0,1,0,1
107692000,107570000,107612000,0,-47.76437,1.0,-0.028144836,1.1134545,2.845673e-05,0,1,0,1
108084000,107970000,108004000,0,-47.33637,1.0,-0.06679535,1.1131628,0.00016032223,0,1,0,1
108492000,108370000,108412000,0,-47.01137,1.0,-0.07635498,1.114391,0.00020926527,0,1,0,1
108892000,108770000,108812000,0,-46.755367,1.0,-0.09331131,1.1165528,0.00031192438,0,1,0,1
109292000,109170000,109212000,0,-46.589367,1.0,-0.093940735,1.1177073,0.00031582016,0,1,0,1
109684000,109570000,109604000,0,-46.532368,1.0,-0.075862885,1.1192445,0.0002056808,0,1,0,1
110092000,109970000,110012000,0,-46.616367,1.0,-0.068984985,1.1205013,0.00016988568,0,1,0,1
110492000,110370000,110412000,0,-46.855366,1.0,-0.06423187,1.1206537,0.00014726166,0,1,0,1
110884000,110766000,110804000,0,-47.231373,1.0,-0.026454926,1.1209543,2.4973831e-05,0,1,0,1
111292000,111170000,111212000,0,-47.661373,1.0,-0.012836456,1.1207983,5.880616e-06,0,1,0,1
111684000,111566000,111604000,0,-48.107372,1.0,0.01518631,1.1191511,8.242819e-06,0,1,0,1
112084000,111966000,112004000,0,-48.520367,1.0,0.032123566,1.1179222,3.692291e-05,0,1,0,1
112484000,112370000,112404000,0,-48.86037,1.0,0.047454834,1.117755,8.0588725e-05,0,1,0,1
112892000,112770000,112812000,0,-49.106373,1.0,0.037014008,1.1169528,4.9063372e-05,0,1,0,1
113284000,113170000,113204000,0,-49.316372,1.0,0.067920685,1.1152978,0.00016545247,0,1,0,1
113692000,113570000,113612000,0,-49.450367,1.0,0.06764221,1.114814,0.00016416975,0,1,0,1
114092000,113970000,114012000,0,-49.55637,1.0,0.074394226,1.1140114,0.00019872331,0,1,0,1
114492000,114370000,114412000,0,-49.635372,1.0,0.083683014,1.1144265,0.0002513525,0,1,0,1
114892000,114770000,114812000,0,-49.703373,1.0,0.08885574,1.1139134,0.0002835173,0,1,0,1
115292000,115170000,115212000,0,-49.75137,1.0,0.08919144,1.1135069,0.00028576786,0,1,0,1
115684000,115570000,115604000,0,-49.823368,1.0,0.10916519,1.1137758,0.00042798696,0,1,0,1
116092000,115970000,116012000,0,-49.879368,1.0,0.1065712,1.1140015,0.00040780625,0,1,0,1
116492000,116370000,116412000,0,-49.94537,1.0,0.10368347,1.1137651,0.00038608722,0,1,0,1
116884000,116766000,116804000,0,-50.009373,1.0,0.100914,1.1141503,0.00036561085,0,1,0,1
117284000,117170000,117204000,0,-50.088367,1.0,0.10562134,1.1139917,0.00040057272,0,1,0,1
117692000,117570000,117612000,0,-50.148373,1.0,0.09703064,1.1142703,0.00033797705,0,1,0,1
118084000,117966000,118004000,0,-50.22337,1.0,0.11260986,1.1146182,0.00045507896,0,1,0,1
118492000,118370000,118412000,0,-50.287373,1.0,0.109622955,1.1148697,0.00043116044,0,1,0,1
118884000,118766000,118804000,0,-50.341366,1.0,0.10213089,1.1141179,0.00037449246,0,1,0,1
119292000,119170000,119212000,0,-50.38837,1.0,0.09819412,1.1154013,0.00034578,0,1,0,1
119692000,119570000,119612000,0,-50.435368,1.0,0.09274292,1.1150833,0.00030854193,0,1,0,1
120092000,119970000,120012000,0,-50.46137,1.0,0.0822525,1.1147525,0.00024276148,0,1,0,1
120484000,120370000,120404000,0,-50.494366,1.0,0.08405304,1.1150236,0.00025344442,0,1,0,1
120892000,120770000,120812000,0,-50.506367,1.0,0.0687294,1.1152016,0.00016943055,0,1,0,1
121292000,121170000,121212000,0,-50.521366,1.0,0.067474365,1.114844,0.00016335165,0,1,0,1
121692000,121570000,121612000,0,-50.538372,1.0,0.062194824,1.1145079,0.00013883064,0,1,0,1
122092000,121970000,122012000,0,-50.54137,1.0,0.054058075,1.1152538,0.00010481114,0,1,0,1
122492000,122370000,122412000,0,-50.54237,1.0,0.04373932,1.114921,6.863726e-05,0,1,0,1
122884000,122770000,122804000,0,-50.54237,1.0,0.037010193,1.1151851,4.913101e-05,0,1,0,1
123292000,123170000,123212000,0,-50.536373,1.0,0.025066376,1.11536,2.2533466e-05,0,1,0,1
123684000,123566000,123604000,0,-50.534367,1.0,0.017974854,1.1145893,1.1595136e-05,0,1,0,1
124084000,123966000,124004000,0,-50.533367,1.0,0.010334015,1.1143646,3.833283e-06,0,1,0,1
124492000,124370000,124412000,0,-50.535366,1.0,0.011890411,1.1145821,5.0738977e-06,0,1,0,1
124884000,124766000,124804000,0,-50.519367,1.0,-0.010219574,1.1148738,3.7471398e-06,0,1,0,1
125292000,125170000,125212000,0,-50.51737,1.0,-0.008651733,1.1150677,2.685128e-06,0,1,0,1
125692000,125570000,125612000,0,-50.509373,1.0,-0.015254974,1.1147287,8.350525e-06,0,1,0,1
126092000,125970000,126012000,0,-50.506367,1.0,-0.016117096,1.1154562,9.31496e-06,0,1,0,1
126484000,126366000,126404000,0,-50.493366,1.0,-0.02193451,1.1146412,1.7265564e-05,0,1,0,1
126884000,126770000,126804000,0,-50.48537,1.0,-0.012592316,1.1143398,5.691851e-06,0,1,0,1
127284000,127166000,127204000,0,-50.467373,1.0,-0.019550323,1.1150982,1.3710545e-05,0,1,0,1
127692000,127570000,127612000,0,-50.44237,1.0,-0.03293228,1.1152387,3.8898765e-05,0,1,0,1
128084000,127970000,128004000,0,-50.423367,1.0,-0.033668518,1.1143916,4.068836e-05,0,1,0,1
128484000,128366000,128404000,0,-50.408367,1.0,-0.030532837,1.1151341,3.3440072e-05,0,1,0,1
128892000,128770000,128812000,0,-50.38837,1.0,-0.031284332,1.1152622,3.51024e-05,0,1,0,1
129292000,129170000,129212000,0,-50.36337,1.0,-0.03989029,1.1148678,5.7091438e-05,0,1,0,1
129692000,129570000,129612000,0,-50.34737,1.0,-0.037231445,1.1155528,4.970381e-05,0,1,0,1
130092000,129970000,130012000,0,-50.311367,1.0,-0.058876038,1.1151657,0.00012433623,0,1,0,1
130484000,130370000,130404000,0,-50.298367,1.0,-0.04827118,1.1143228,8.364207e-05,0,1,0,1
130884000,130770000,130804000,0,-50.27737,1.0,-0.04150772,1.1150715,6.180378e-05,0,1,0,1
131292000,131170000,131212000,0,-50.19437,1.0,-0.03372574,1.1151894,4.0797568e-05,0,1,0,1
131692000,131570000,131612000,0,-49.979366,1.0,-0.027423859,1.1146882,2.6987565e-05,0,1,0,1
132084000,131970000,132004000,0,-49.686367,1.0,-0.022403717,1.1147223,1.8010818e-05,0,1,0,1
132492000,132370000,132412000,0,-49.38737,1.0,-0.029029846,1.114674,3.024138e-05,0,1,0,1
132892000,132770000,132812000,0,-49.177372,1.0,-0.034305573,1.1142476,4.2248143e-05,0,1,0,1
133292000,133170000,133212000,0,-49.06837,1.0,-0.026130676,1.115064,2.44941e-05,0,1,0,1
133684000,133570000,133604000,0,-49.006367,1.0,-0.028999329,1.114486,3.018292e-05,0,1,0,1
134092000,133970000,134012000,0,-49.01737,1.0,-0.009815216,1.1149735,3.4561706e-06,0,1,0,1
134492000,134370000,134412000,0,-49.092373,1.0,-0.0008049011,1.1160156,2.3220673e-08,0,1,0,1
134884000,134770000,134804000,0,-49.257366,1.0,0.02526474,1.1154517,2.2889637e-05,0,1,0,1
135292000,135170000,135212000,0,-49.468372,1.0,0.02292633,1.1158214,1.8842322e-05,0,1,0,1
135684000,135566000,135604000,0,-49.716366,1.0,0.055480957,1.1161511,0.00011031254,0,1,0,1
136092000,135970000,136012000,0,-49.94737,1.0,0.05419922,1.116294,0.00010526099,0,1,0,1
136484000,136370000,136404000,0,-50.13937,1.0,0.055671692,1.115327,0.00011115439,0,1,0,1
136892000,136770000,136812000,0,-50.30937,1.0,0.07329559,1.1163833,0.00019248744,0,1,0,1
137292000,137170000,137212000,0,-50.427372,1.0,0.06322098,1.1157705,0.00014328724,0,1,0,1
137692000,137570000,137612000,0,-50.43137,1.0,0.050613403,1.1151725,9.188593e-05,0,1,0,1
138092000,137970000,138012000,0,-50.200367,1.0,0.062870026,1.1146929,0.00014183781,0,1,0,1
138492000,138370000,138412000,0,-49.71137,1.0,0.072509766,1.1153537,0.000188556,0,1,0,1
138884000,138770000,138804000,0,-49.08037,1.0,0.051193237,1.1145084,9.405932e-05,0,1,0,1
139284000,139170000,139204000,0,-48.504368,1.0,0.041412354,1.1142863,6.156346e-05,0,1,0,1
139684000,139570000,139604000,0,-48.05437,1.0,0.029571533,1.115254,3.1364176e-05,0,1,0,1
140084000,139966000,140004000,0,-47.66737,1.0,0.0418396,1.1152346,6.2786865e-05,0,1,0,1
140492000,140370000,140412000,0,-47.268368,1.0,0.047561646,1.1157237,8.109929e-05,0,1,0,1
140884000,140770000,140804000,0,-46.86437,1.0,0.044021606,1.1162679,6.9442176e-05,0,1,0,1
141292000,141170000,141212000,0,-46.468372,1.0,0.0459404,1.1167637,7.5594166e-05,0,1,0,1
141692000,141570000,141612000,0,-46.132366,1.0,0.05157852,1.1166362,9.529851e-05,0,1,0,1
142092000,141970000,142012000,0,-45.83437,1.0,0.06504059,1.1164082,0.00015156742,0,1,0,1
142492000,142370000,142412000,0,-45.51237,1.0,0.07683563,1.1171767,0.0002113798,0,1,0,1
142892000,142770000,142812000,0,-45.158367,1.0,0.09742355,1.1167216,0.00033997186,0,1,0,1
143284000,143166000,143204000,0,-44.75337,1.0,0.1135788,1.1167847,0.00046204583,0,1,0,1
143684000,143570000,143604000,0,-44.260372,1.0,0.11208725,1.1162083,0.00045022246,0,1,0,1
144084000,143966000,144004000,0,-43.726368,1.0,0.13197327,1.1155783,0.00062449917,0,1,0,1
144492000,144370000,144412000,0,-43.107372,1.0,0.13066483,1.1153847,0.0006122837,0,1,0,1
144892000,144770000,144812000,0,-42.47137,1.0,0.14670181,1.115766,0.0007715388,0,1,0,1
145284000,145166000,145204000,0,-41.786366,1.0,0.12859726,1.1146489,0.00059345155,0,1,0,1
145692000,145570000,145612000,0,-41.079372,1.0,0.14222336,1.1145568,0.00072593824,0,1,0,1
146084000,145966000,146004000,0,-40.357372,1.0,0.13004303,1.114627,0.0006068825,0,1,0,1
146484000,146366000,146404000,0,-39.619366,1.0,0.111335754,1.114205,0.0004450043,0,1,0,1
146884000,146770000,146804000,0,-38.897366,1.0,0.11551285,1.1148916,0.000478727,0,1,0,1
147292000,147170000,147212000,0,-38.15537,1.0,0.10811615,1.1150184,0.00041933308,0,1,0,1
147684000,147570000,147604000,0,-37.43337,1.0,0.089271545,1.1142011,0.00028610308,0,1,0,1
148092000,147970000,148012000,0,-36.712368,1.0,0.09684372,1.114376,0.00033664424,0,1,0,1
148484000,148370000,148404000,0,-35.98437,1.0,0.06802368,1.1146548,0.00016605038,0,1,0,1
148892000,148770000,148812000,0,-35.26737,1.0,0.075279236,1.1148518,0.00020332616,0,1,0,1
149284000,149166000,149204000,0,-34.53037,1.0,0.04024887,1.1151301,5.8108795e-05,0,1,0,1
149684000,149570000,149604000,0,-33.79137,1.0,0.029270172,1.11486,3.073903e-05,0,1,0,1
150092000,149970000,150012000,0,-33.05537,1.0,0.041996002,1.1150429,6.3268024e-05,0,1,0,1
150492000,150370000,150412000,0,-32.296368,1.0,0.025745392,1.1146929,2.3785033e-05,0,1,0,1
150892000,150770000,150812000,0,-31.54137,1.0,0.015485764,1.1154165,8.599796e-06,0,1,0,1
151284000,151166000,151204000,0,-30.77937,1.0,-0.012132645,1.1146005,5.282648e-06,0,1,0,1
151692000,151570000,151612000,0,-29.995369,1.0,-0.01620102,1.1147572,9.418123e-06,0,1,0,1
152084000,151966000,152004000,0,-29.212368,1.0,-0.0500412,1.1150002,8.9833935e-05,0,1,0,1
152484000,152370000,152404000,0,-28.427368,1.0,-0.06654358,1.1146867,0.00015889837,0,1,0,1
152892000,152770000,152812000,0,-27.659367,1.0,-0.03577423,1.1148216,4.5919296e-05,0,1,0,1
153284000,153166000,153204000,0,-26.860367,1.0,-0.067705154,1.1150461,0.00016444118,0,1,0,1
153692000,153570000,153612000,0,-26.05637,1.0,-0.06980133,1.1151781,0.00017476045,0,1,0,1
154084000,153966000,154004000,0,-25.27937,1.0,-0.06349754,1.1153916,0.00014459273,0,1,0,1
154492000,154370000,154412000,0,-24.472366,1.0,-0.058023453,1.1155188,0.00012072306,0,1,0,1
154884000,154770000,154804000,0,-23.68837,1.0,-0.054014206,1.1146594,0.00010469689,0,1,0,1
155292000,155170000,155212000,0,-22.881367,1.0,-0.047403336,1.1147778,8.062867e-05,0,1,0,1
155692000,155570000,155612000,0,-22.061367,1.0,-0.04993248,1.1154554,8.940752e-05,0,1,0,1
156092000,155970000,156012000,0,-21.123367,1.0,-0.03577614,1.1150165,4.5916167e-05,0,1,0,1
156492000,156370000,156412000,0,-20.033367,1.0,-0.03810692,1.1144907,5.2118416e-05,0,1,0,1
156884000,156766000,156804000,0,-18.916367,1.0,-0.04726982,1.1145163,8.019393e-05,0,1,0,1
157292000,157170000,157212000,0,-17.79337,1.0,-0.027391434,1.1145185,2.6927884e-05,0,1,0,1
157692000,157570000,157612000,0,-16.829369,1.0,-0.060569763,1.1141695,0.00013171052,0,1,0,1
158084000,157970000,158004000,0,-15.948368,1.0,-0.052043915,1.1143997,9.722075e-05,0,1,0,1
158492000,158370000,158412000,0,-15.022369,1.0,-0.041275024,1.1142715,6.115664e-05,0,1,0,1
158892000,158770000,158812000,0,-14.252369,1.0,-0.032559395,1.1133829,3.808624e-05,0,1,0,1
159284000,159166000,159204000,0,-13.638367,1.0,-0.050611496,1.1120877,9.213387e-05,0,1,0,1
159692000,159570000,159612000,0,-13.179367,1.0,-0.039767265,1.1129068,5.6839817e-05,0,1,0,1
160084000,159970000,160004000,0,-12.856369,1.0,-0.05389023,1.1120116,0.00010446498,0,1,0,1
160484000,160366000,160404000,0,-12.672367,1.0,-0.06415653,1.1117903,0.00014808767,0,1,0,1
160892000,160770000,160812000,0,-12.625366,1.0,-0.059396744,1.1131421,0.0001267753,0,1,0,1
161292000,161170000,161212000,0,-12.626369,1.0,-0.06894302,1.112993,0.00017082374,0,1,0,1
161692000,161570000,161612000,0,-12.647369,1.0,-0.05803013,1.1128216,0.00012104351,0,1,0,1
162084000,161966000,162004000,0,-12.640369,1.0,-0.048449516,1.1131985,8.434634e-05,0,1,0,1
162492000,162370000,162412000,0,-12.583366,1.0,-0.06624031,1.1134518,0.00015762796,0,1,0,1
162892000,162770000,162812000,0,-12.501369,1.0,-0.057261467,1.1131723,0.00011782095,0,1,0,1
163292000,163170000,163212000,0,-12.389366,1.0,-0.04832363,1.1139321,8.3853345e-05,0,1,0,1
163692000,163570000,163612000,0,-12.230366,1.0,-0.06665707,1.113654,0.00015958869,0,1,0,1
164092000,163970000,164012000,0,-12.073368,1.0,-0.067352295,1.1134038,0.00016297166,0,1,0,1
164484000,164366000,164404000,0,-11.921368,1.0,-0.079865456,1.1137872,0.00022907396,0,1,0,1
164884000,164766000,164804000,0,-11.791367,1.0,-0.081599236,1.1136487,0.00023915748,0,1,0,1
165292000,165170000,165212000,0,-11.672367,1.0,-0.09080696,1.1139619,0.00029609285,0,1,0,1
165684000,165570000,165604000,0,-11.576366,1.0,-0.09739685,1.1143547,0.00034050725,0,1,0,1
166092000,165970000,166012000,0,-11.478367,1.0,-0.1143074,1.1146652,0.0004688828,0,1,0,1
166484000,166370000,166404000,0,-11.413368,1.0,-0.11574936,1.1139764,0.00048108434,0,1,0,1
166884000,166770000,166804000,0,-11.363369,1.0,-0.11263466,1.1138115,0.00045560912,0,1,0,1
167292000,167170000,167212000,0,-11.315369,1.0,-0.11334896,1.1151601,0.00046084815,0,1,0,1
167692000,167570000,167612000,0,-11.259369,1.0,-0.12543869,1.1149015,0.00056452927,0,1,0,1
168092000,167970000,168012000,0,-11.2253685,1.0,-0.10978508,1.114618,0.00043253438,0,1,0,1
168484000,168366000,168404000,0,-11.181366,1.0,-0.102072716,1.1149235,0.0003737957,0,1,0,1
168892000,168770000,168812000,0,-11.209366,1.0,-0.09382439,1.1151311,0.0003157661,0,1,0,1
169292000,169170000,169212000,0,-11.409367,1.0,-0.1096859,1.1148005,0.00043168254,0,1,0,1
169684000,169566000,169604000,0,-11.792366,1.0,-0.102415085,1.1150689,0.00037625837,0,1,0,1
170092000,169970000,170012000,0,-12.275368,1.0,-0.12013912,1.1152363,0.0005176808,0,1,0,1
170492000,170370000,170412000,0,-12.858368,1.0,-0.12681675,1.1148607,0.0005770223,0,1,0,1
170892000,170770000,170812000,0,-13.508369,1.0,-0.13173866,1.1155511,0.000622296,0,1,0,1
171292000,171170000,171212000,0,-14.246368,1.0,-0.10468578,1.1151655,0.0003930937,0,1,0,1
171692000,171570000,171612000,0,-15.006367,1.0,-0.097667694,1.1147763,0.0003422742,0,1,0,1
172092000,171970000,172012000,0,-15.777367,1.0,-0.11512852,1.1154647,0.00047530237,0,1,0,1
172484000,172370000,172404000,0,-16.613369,1.0,-0.07520676,1.1146277,0.00020297561,0,1,0,1
172884000,172770000,172804000,0,-17.456367,1.0,-0.08657074,1.1143135,0.00026902638,0,1,0,1
173292000,173170000,173212000,0,-18.338367,1.0,-0.09469986,1.1155359,0.0003215697,0,1,0,1
173692000,173570000,173612000,0,-19.250366,1.0,-0.078424454,1.1152107,0.0002206003,0,1,0,1
174084000,173970000,174004000,0,-20.170368,1.0,-0.05924034,1.1144309,0.0001259627,0,1,0,1
174492000,174370000,174412000,0,-21.131367,1.0,-0.0685215,1.1146278,0.00016849376,0,1,0,1
174884000,174770000,174804000,0,-22.09837,1.0,-0.04367447,1.114913,6.843437e-05,0,1,0,1
175284000,175166000,175204000,0,-23.08437,1.0,-0.046535492,1.1146463,7.771262e-05,0,1,0,1
175684000,175566000,175604000,0,-24.11937,1.0,-0.026662827,1.1144124,2.5516812e-05,0,1,0,1
176092000,175970000,176012000,0,-25.134369,1.0,-0.062417984,1.1146673,0.0001398087,0,1,0,1
176484000,176370000,176404000,0,-26.187366,1.0,-0.026828766,1.1149894,2.5822044e-05,0,1,0,1
176892000,176770000,176812000,0,-27.227367,1.0,-0.058202744,1.1152155,0.00012150331,0,1,0,1
177292000,177170000,177212000,0,-28.280369,1.0,-0.06762695,1.1149384,0.0001640774,0,1,0,1
177684000,177566000,177604000,0,-29.380367,1.0,-0.023363113,1.1152562,1.9577028e-05,0,1,0,1
178092000,177970000,178012000,0,-30.46037,1.0,-0.050807953,1.1154828,9.256792e-05,0,1,0,1
178484000,178370000,178404000,0,-31.551369,1.0,-0.025665283,1.114695,2.3637202e-05,0,1,0,1
178892000,178770000,178812000,0,-32.644367,1.0,-0.049274445,1.1148845,8.7111126e-05,0,1,0,1
179292000,179170000,179212000,0,-33.742367,1.0,-0.04940033,1.1156183,8.749919e-05,0,1,0,1
179684000,179570000,179604000,0,-34.86337,1.0,-0.004283905,1.114797,6.5848195e-07,0,1,0,1
180084000,179966000,180004000,0,-35.98637,1.0,0.008647919,1.1155678,2.6815583e-06,0,1,0,1
180484000,180366000,180404000,0,-37.12537,1.0,0.029800415,1.1152561,3.1851512e-05,0,1,0,1
180892000,180770000,180812000,0,-38.24837,1.0,0.0038909912,1.1153958,5.429396e-07,0,1,0,1
181284000,181166000,181204000,0,-39.39037,1.0,0.033058167,1.1156151,3.9183487e-05,0,1,0,1
181684000,181566000,181604000,0,-40.54337,1.0,0.046504974,1.1152822,7.7566474e-05,0,1,0,1
182084000,181970000,182004000,0,-41.65037,1.0,0.03056717,1.1149393,3.352117e-05,0,1,0,1
182492000,182370000,182412000,0,-42.62337,1.0,0.031929016,1.1150553,3.6570815e-05,0,1,0,1
182892000,182770000,182812000,0,-43.396366,1.0,0.050518036,1.1157286,9.149437e-05,0,1,0,1
183284000,183166000,183204000,0,-44.02837,1.0,0.06613159,1.114863,0.0001569121,0,1,0,1
183692000,183570000,183612000,0,-44.56937,1.0,0.07126236,1.1149961,0.00018218267,0,1,0,1
184092000,183970000,184012000,0,-45.024372,1.0,0.06621933,1.1157222,0.00015720759,0,1,0,1
184492000,184370000,184412000,0,-45.43037,1.0,0.073604584,1.115393,0.00019428611,0,1,0,1
184884000,184766000,184804000,0,-45.79437,1.0,0.08363724,1.1146007,0.00025103835,0,1,0,1
185292000,185170000,185212000,0,-46.11237,1.0,0.07369995,1.1158788,0.0001947051,0,1,0,1
185684000,185570000,185604000,0,-46.40537,1.0,0.073093414,1.1150855,0.0001916498,0,1,0,1
186084000,185966000,186004000,0,-46.689373,1.0,0.07266998,1.1148151,0.00018948168,0,1,0,1
186492000,186370000,186412000,0,-46.96137,1.0,0.0724411,1.1160874,0.00018807534,0,1,0,1
186884000,186766000,186804000,0,-47.217373,1.0,0.08362961,1.115277,0.00025084033,0,1,0,1
187284000,187170000,187204000,0,-47.437366,1.0,0.062088013,1.1149873,0.00013829472,0,1,0,1
187692000,187570000,187612000,0,-47.677372,1.0,0.06954193,1.116244,0.00017329832,0,1,0,1
188084000,187966000,188004000,0,-47.885372,1.0,0.06518936,1.1154102,0.00015239784,0,1,0,1
188492000,188370000,188412000,0,-48.08337,1.0,0.06213379,1.1155685,0.00013842655,0,1,0,1
188892000,188770000,188812000,0,-48.274372,1.0,0.072883606,1.1162801,0.00019034721,0,1,0,1
189292000,189170000,189212000,0,-48.439373,1.0,0.06890106,1.1159048,0.00017017065,0,1,0,1
189692000,189570000,189612000,0,-48.59437,1.0,0.06618118,1.1155264,0.00015705406,0,1,0,1
190092000,189970000,190012000,0,-48.73637,1.0,0.06742859,1.1162349,0.0001629268,0,1,0,1
190484000,190370000,190404000,0,-48.871372,1.0,0.08096695,1.1153903,0.00023509786,0,1,0,1
190884000,190766000,190804000,0,-48.980366,1.0,0.065013885,1.1150695,0.00015162482,0,1,0,1
191292000,191170000,191212000,0,-49.08437,1.0,0.0669899,1.1162992,0.00016080445,0,1,0,1
191684000,191570000,191604000,0,-49.17837,1.0,0.07286072,1.115479,0.00019036428,0,1,0,1
192084000,191966000,192004000,0,-49.259373,1.0,0.065639496,1.1151886,0.00015454045,0,1,0,1
192492000,192370000,192412000,0,-49.33137,1.0,0.05368805,1.1153511,0.00010337217,0,1,0,1
192892000,192770000,192812000,0,-49.40037,1.0,0.048397064,1.116068,8.394742e-05,0,1,0,1
193284000,193166000,193204000,0,-49.466366,1.0,0.055027008,1.1152295,0.00010860443,0,1,0,1
193692000,193570000,193612000,0,-49.520367,1.0,0.04214859,1.1153815,6.3709274e-05,0,1,0,1
194084000,193970000,194004000,0,-49.566372,1.0,0.041980743,1.1156199,6.318936e-05,0,1,0,1
194492000,194370000,194412000,0,-49.61237,1.0,0.044670105,1.1157718,7.1534996e-05,0,1,0,1
194892000,194770000,194812000,0,-49.643368,1.0,0.033481598,1.1153868,4.0201925e-05,0,1,0,1
195284000,195166000,195204000,0,-49.686367,1.0,0.046821594,1.1156228,7.860225e-05,0,1,0,1
195684000,195566000,195604000,0,-49.72337,1.0,0.055160522,1.1153035,0.000109124856,0,1,0,1
196092000,195970000,196012000,0,-49.75237,1.0,0.052711487,1.1154436,9.963752e-05,0,1,0,1
196492000,196370000,196412000,0,-49.797367,1.0,0.06793976,1.1161444,0.00016541984,0,1,0,1
196884000,196766000,196804000,0,-49.815372,1.0,0.059459686,1.1152921,0.00012679923,0,1,0,1
197292000,197170000,197212000,0,-49.851368,1.0,0.07247543,1.1154348,0.0001883638,0,1,0,1
197684000,197566000,197604000,0,-49.869366,1.0,0.06315613,1.1156665,0.00014300676,0,1,0,1
198084000,197970000,198004000,0,-49.90037,1.0,0.07125473,1.1153432,0.00018208697,0,1,0,1
198492000,198370000,198412000,0,-49.91937,1.0,0.07234192,1.1154804,0.00018766275,0,1,0,1
198892000,198770000,198812000,0,-49.952366,1.0,0.08172226,1.1161786,0.00023933544,0,1,0,1
199292000,199170000,199212000,0,-49.979366,1.0,0.0920105,1.1157924,0.00030349486,0,1,0,1
199692000,199570000,199612000,0,-49.995373,1.0,0.08532715,1.1154058,0.0002610968,0,1,0,1
200084000,199970000,200004000,0,-50.021366,1.0,0.0848999,1.1156405,0.00025843427,0,1,0,1
200492000,200370000,200412000,0,-50.036373,1.0,0.068618774,1.1157901,0.00016879648,0,1,0,1
200892000,200770000,200812000,0,-50.05937,1.0,0.06937027,1.1154026,0.0001725739,0,1,0,1
201292000,201170000,201212000,0,-50.076366,1.0,0.06306839,1.1161078,0.00014255333,0,1,0,1
201684000,201566000,201604000,0,-50.08637,1.0,0.06933975,1.1152586,0.00017244436,0,1,0,1
202084000,201970000,202004000,0,-50.090366,1.0,0.058311462,1.1160175,0.00012187001,0,1,0,1
202484000,202370000,202404000,0,-50.101368,1.0,0.061023712,1.1156904,0.00013350992,0,1,0,1
202892000,202770000,202812000,0,-50.11437,1.0,0.0684433,1.1158657,0.0001679229,0,1,0,1
203284000,203170000,203204000,0,-50.101368,1.0,0.0427742,1.1150379,6.56348e-05,0,1,0,1
203692000,203570000,203612000,0,-50.107372,1.0,0.0429039,1.1152419,6.602136e-05,0,1,0,1
204092000,203970000,204012000,0,-50.104366,1.0,0.036769867,1.1159879,4.8460133e-05,0,1,0,1
204484000,204370000,204404000,0,-50.102367,1.0,0.027877808,1.115173,2.7876291e-05,0,1,0,1
204884000,204766000,204804000,0,-50.10937,1.0,0.033535004,1.1148795,4.034863e-05,0,1,0,1
205284000,205166000,205204000,0,-50.11137,1.0,0.029876709,1.115654,3.200339e-05,0,1,0,1
205684000,205566000,205604000,0,-50.10937,1.0,0.023857117,1.1153362,2.0412215e-05,0,1,0,1
206092000,205970000,206012000,0,-50.088367,1.0,0.002960205,1.1155026,3.142194e-07,0,1,0,1
206492000,206370000,206412000,0,-50.091366,1.0,0.00925827,1.1151472,3.0745919e-06,0,1,0,1
206892000,206770000,206812000,0,-50.09837,1.0,0.016654968,1.1158732,9.943351e-06,0,1,0,1
207292000,207170000,207212000,0,-50.088367,1.0,0.008575439,1.1155082,2.6369385e-06,0,1,0,1
207692000,207570000,207612000,0,-50.09437,1.0,0.017814636,1.1151665,1.1383457e-05,0,1,0,1
208092000,207970000,208012000,0,-50.088367,1.0,0.014076233,1.1159177,7.1023283e-06,0,1,0,1
208492000,208370000,208412000,0,-50.087368,1.0,0.012325287,1.1155828,5.4469356e-06,0,1,0,1
208892000,208770000,208812000,0,-50.08037,1.0,0.0023651123,1.1152391,2.0062984e-07,0,1,0,1
209292000,209170000,209212000,0,-50.088367,1.0,0.012626648,1.1159726,5.714557e-06,0,1,0,1
209692000,209570000,209612000,0,-50.09637,1.0,0.019630432,1.1156241,1.3816621e-05,0,1,0,1
210092000,209970000,210012000,0,-50.105366,1.0,0.025917053,1.1152678,2.4090847e-05,0,1,0,1
210492000,210370000,210412000,0,-50.103367,1.0,0.024780273,1.1159936,2.2009513e-05,0,1,0,1
210892000,210770000,210812000,0,-50.101368,1.0,0.02602005,1.1156373,2.4274663e-05,0,1,0,1
211292000,211170000,211212000,0,-50.10937,1.0,0.033809662,1.1152763,4.0997667e-05,0,1,0,1
211692000,211570000,211612000,0,-50.118366,1.0,0.04376602,1.1159992,6.865469e-05,0,1,0,1
212092000,211970000,212012000,0,-50.12337,1.0,0.04714203,1.1156408,7.968052e-05,0,1,0,1
212492000,212370000,212412000,0,-50.13737,1.0,0.06359863,1.1152794,0.00014506807,0,1,0,1
212892000,212770000,212812000,0,-50.149372,1.0,0.071632385,1.1160004,0.00018391386,0,1,0,1
213284000,213170000,213204000,0,-50.162373,1.0,0.07616806,1.1151743,0.00020809568,0,1,0,1
213684000,213570000,213604000,0,-50.189373,1.0,0.09614563,1.1148683,0.00033166184,0,1,0,1
214084000,213970000,214004000,0,-50.201366,1.0,0.10009003,1.1156361,0.00035918568,0,1,0,1
214484000,214370000,214404000,0,-50.202366,1.0,0.08979416,1.115319,0.00028917257,0,1,0,1
214884000,214770000,214804000,0,-50.22337,1.0,0.10486984,1.1149924,0.00039453845,0,1,0,1
215292000,215170000,215212000,0,-50.23837,1.0,0.11903,1.1162128,0.0005077218,0,1,0,1
215692000,215570000,215612000,0,-50.244366,1.0,0.11960602,1.1158214,0.0005128276,0,1,0,1
216092000,215970000,216012000,0,-50.25337,1.0,0.117630005,1.1154301,0.0004961967,0,1,0,1
216492000,216370000,216412000,0,-50.268368,1.0,0.13515091,1.116127,0.00065461255,0,1,0,1
216892000,216770000,216812000,0,-50.27637,1.0,0.13601303,1.1157453,0.00066321745,0,1,0,1
217284000,217166000,217204000,0,-50.24737,1.0,0.1315918,1.1148969,0.0006212736,0,1,0,1
217692000,217570000,217612000,0,-50.173367,1.0,0.13806915,1.1161286,0.0006831862,0,1,0,1
218084000,217970000,218004000,0,-50.087368,1.0,0.14764023,1.1152865,0.00078177714,0,1,0,1
218492000,218370000,218412000,0,-50.02837,1.0,0.16889572,1.1154506,0.0010229325,0,1,0,1
218892000,218770000,218812000,0,-50.009373,1.0,0.16809464,1.1161833,0.0010125866,0,1,0,1
219284000,219166000,219204000,0,-50.047367,1.0,0.17657089,1.11536,0.0011181064,0,1,0,1
219692000,219570000,219612000,0,-50.11337,1.0,0.17254257,1.1155126,0.0010675249,0,1,0,1
220092000,219970000,220012000,0,-50.19437,1.0,0.16859055,1.1161883,0.0010185655,0,1,0,1
220492000,220370000,220412000,0,-50.28937,1.0,0.1663742,1.1157529,0.0009923478,0,1,0,1
220892000,220770000,220812000,0,-50.381367,1.0,0.16897202,1.1152911,0.0010240031,0,1,0,1
221284000,221170000,221204000,0,-50.452366,1.0,0.16424179,1.1154379,0.00096734625,0,1,0,1
221684000,221570000,221604000,0,-50.506367,1.0,0.1698494,1.1150334,0.0010349042,0,1,0,1
222084000,221970000,222004000,0,-50.532368,1.0,0.15804291,1.1146333,0.0008963508,0,1,0,1
222484000,222366000,222404000,0,-50.538372,1.0,0.15324402,1.1153197,0.0008422241,0,1,0,1
222884000,222770000,222804000,0,-50.552372,1.0,0.16347504,1.1149471,0.0009587572,0,1,0,1
223284000,223170000,223204000,0,-50.546368,1.0,0.15506363,1.1145822,0.00086291454,0,1,0,1
223692000,223570000,223612000,0,-50.535366,1.0,0.1528511,1.1157646,0.00083757663,0,1,0,1
224092000,223970000,224012000,0,-50.537373,1.0,0.15337753,1.1153593,0.00084366236,0,1,0,1
224492000,224370000,224412000,0,-50.52637,1.0,0.14651108,1.11496,0.00077009026,0,1,0,1
224892000,224770000,224812000,0,-50.521366,1.0,0.14263153,1.1156453,0.0007293986,0,1,0,1
225284000,225166000,225204000,0,-50.508373,1.0,0.1291275,1.1147988,0.00059827516,0,1,0,1
225692000,225570000,225612000,0,-50.504368,1.0,0.122612,1.1149333,0.00053935795,0,1,0,1
226092000,225970000,226012000,0,-50.506367,1.0,0.12639236,1.1156217,0.0005727759,0,1,0,1
226492000,226370000,226412000,0,-50.505367,1.0,0.12551117,1.1152387,0.000565011,0,1,0,1
226892000,226770000,226812000,0,-50.505367,1.0,0.12511063,1.1148541,0.0005616042,0,1,0,1
227292000,227170000,227212000,0,-50.479366,1.0,0.122867584,1.1155465,0.00054131116,0,1,0,1
227692000,227570000,227612000,0,-50.452366,1.0,0.110557556,1.115169,0.00043842584,0,1,0,1
228084000,227966000,228004000,0,-50.49837,1.0,0.10451889,1.1143312,0.0003921347,0,1,0,1
228492000,228370000,228412000,0,-50.643368,1.0,0.106918335,1.1155524,0.00040989663,0,1,0,1
228884000,228770000,228804000,0,-50.85837,1.0,0.09952545,1.114727,0.00035543466,0,1,0,1
229284000,229170000,229204000,0,-51.13737,1.0,0.10433197,1.1144289,0.00039069916,0,1,0,1
229692000,229570000,229612000,0,-51.441372,1.0,0.101509094,1.1156743,0.00036943026,0,1,0,1
230092000,229970000,230012000,0,-51.74737,1.0,0.094623566,1.1153327,0.00032111024,0,1,0,1
230492000,230370000,230412000,0,-52.008373,1.0,0.08739853,1.1149957,0.00027402805,0,1,0,1
230892000,230770000,230812000,0,-52.22437,1.0,0.09509659,1.1157409,0.00032421006,0,1,0,1
231292000,231170000,231212000,0,-52.37337,1.0,0.08812332,1.1154115,0.00027848806,0,1,0,1
231692000,231570000,231612000,0,-52.476368,1.0,0.08588028,1.1150744,0.00026457148,0,1,0,1
232092000,231970000,232012000,0,-52.518368,1.0,0.074085236,1.1158104,0.00019675824,0,1,0,1
232492000,232370000,232412000,0,-52.48337,1.0,0.06531525,1.1154618,0.00015297992,0,1,0,1
232892000,232770000,232812000,0,-52.17937,1.0,0.06034851,1.1150925,0.00013064181,0,1,0,1
233284000,233166000,233204000,0,-51.88637,1.0,0.033863068,1.1153146,4.1125877e-05,0,1,0,1
233684000,233566000,233604000,0,-51.617367,1.0,0.023025513,1.1149644,1.9020312e-05,0,1,0,1
234092000,233970000,234012000,0,-51.352367,1.0,0.018379211,1.1150522,1.2117654e-05,0,1,0,1
234484000,234366000,234404000,0,-51.08137,1.0,0.0047454834,1.1152375,8.0770644e-07,0,1,0,1
234884000,234770000,234804000,0,-50.829372,1.0,-0.014785767,1.1149108,7.843458e-06,0,1,0,1
235292000,235170000,235212000,0,-50.631367,1.0,-0.03596878,1.1150517,4.6410518e-05,0,1,0,1
235692000,235570000,235612000,0,-50.36337,1.0,-0.033504486,1.1146628,4.0283056e-05,0,1,0,1
236084000,235970000,236004000,0,-50.132366,1.0,-0.025608063,1.1148852,2.3527908e-05,0,1,0,1
236492000,236370000,236412000,0,-49.976368,1.0,-0.0409317,1.1150262,6.010277e-05,0,1,0,1
236884000,236766000,236804000,0,-49.88837,1.0,-0.045757294,1.1152571,7.5094074e-05,0,1,0,1
237292000,237170000,237212000,0,-49.823368,1.0,-0.045265198,1.1154028,7.347796e-05,0,1,0,1
237684000,237570000,237604000,0,-49.78037,1.0,-0.058151245,1.1145627,0.00012135942,0,1,0,1
238092000,237970000,238012000,0,-49.657368,1.0,-0.058429718,1.1147028,0.00012250914,0,1,0,1
238492000,238370000,238412000,0,-49.19637,1.0,-0.048553467,1.1154029,8.454126e-05,0,1,0,1
238892000,238770000,238812000,0,-48.606373,1.0,-0.061885834,1.1150366,0.00013738943,0,1,0,1
239292000,239170000,239212000,0,-48.04537,1.0,-0.07257843,1.1146686,0.00018902941,0,1,0,1
239684000,239566000,239604000,0,-47.462368,1.0,-0.102573395,1.1149079,0.00037747697,0,1,0,1
240084000,239966000,240004000,0,-46.870373,1.0,-0.13014984,1.1145914,0.0006078992,0,1,0,1
240492000,240370000,240412000,0,-46.29037,1.0,-0.11508942,1.1147256,0.00047529454,0,1,0,1
240884000,240770000,240804000,0,-45.67937,1.0,-0.14199066,1.1149538,0.000723307,0,1,0,1
241284000,241166000,241204000,0,-45.075367,1.0,-0.15009308,1.1146321,0.0008084437,0,1,0,1
241692000,241570000,241612000,0,-44.441372,1.0,-0.17998505,1.1147649,0.0011623838,0,1,0,1
242084000,241970000,242004000,0,-43.840366,1.0,-0.18916321,1.1149927,0.0012836934,0,1,0,1
242484000,242370000,242404000,0,-43.217373,1.0,-0.20185089,1.11467,0.0014620931,0,1,0,1
242892000,242770000,242812000,0,-42.603367,1.0,-0.19444656,1.1148015,0.0013566348,0,1,0,1
243292000,243170000,243212000,0,-41.996372,1.0,-0.19754791,1.1154916,0.0013993892,0,1,0,1
243684000,243570000,243604000,0,-41.38937,1.0,-0.21953583,1.1146483,0.0017295493,0,1,0,1
244092000,243970000,244012000,0,-40.788372,1.0,-0.2188263,1.1147845,0.0017181778,0,1,0,1
244492000,244370000,244412000,0,-40.19437,1.0,-0.22474289,1.1154782,0.0018112186,0,1,0,1
244884000,244766000,244804000,0,-39.601368,1.0,-0.23591232,1.1146381,0.0019972266,0,1,0,1
245284000,245170000,245204000,0,-39.008366,1.0,-0.23235321,1.1153867,0.0019361182,0,1,0,1
245684000,245570000,245604000,0,-38.410366,1.0,-0.22335434,1.1150625,0.0017895737,0,1,0,1
246084000,245970000,246004000,0,-37.837368,1.0,-0.20043564,1.1147343,0.0014415793,0,1,0,1
246284000,246170000,246204000,0,-37.538372,1.0,-0.19647217,1.1073122,0.0013944148,0,1,0,1
246692000,246570000,246612000,0,-36.951366,1.0,-0.18664551,1.1086746,0.0012568717,0,1,0,1
247092000,246970000,247012000,0,-36.36337,1.0,-0.18774796,1.1094136,0.0012709163,0,1,0,1
247484000,247366000,247404000,0,-35.77737,1.0,-0.19019318,1.1105647,0.0013028847,0,1,0,1
247892000,247770000,247812000,0,-35.19337,1.0,-0.16474533,1.1115502,0.0009766909,0,1,0,1
248292000,248170000,248212000,0,-34.601368,1.0,-0.16285706,1.1119015,0.0009541284,0,1,0,1
248684000,248566000,248604000,0,-34.005367,1.0,-0.17687988,1.1127157,0.0011246895,0,1,0,1
249092000,248970000,249012000,0,-33.421368,1.0,-0.14980316,1.1133718,0.00080623507,0,1,0,1
249492000,249370000,249412000,0,-32.80637,1.0,-0.16756058,1.1134136,0.0010086655,0,1,0,1
249892000,249770000,249812000,0,-32.212368,1.0,-0.16073227,1.114434,0.0009272819,0,1,0,1
250292000,250170000,250212000,0,-31.61837,1.0,-0.14196587,1.1143355,0.00072345557,0,1,0,1
250692000,250570000,250612000,0,-31.01437,1.0,-0.14661407,1.1141748,0.0007717169,0,1,0,1
251092000,250970000,251012000,0,-30.420368,1.0,-0.14731789,1.1150359,0.00077854213,0,1,0,1
251492000,251370000,251412000,0,-29.836369,1.0,-0.14605713,1.1147933,0.00076544,0,1,0,1
251892000,251770000,251812000,0,-29.241367,1.0,-0.14995384,1.1145151,0.00080702914,0,1,0,1
252292000,252170000,252212000,0,-28.656368,1.0,-0.14232254,1.1152866,0.0007264754,0,1,0,1
252692000,252570000,252612000,0,-28.066368,1.0,-0.13673592,1.1149688,0.0006707528,0,1,0,1
253084000,252970000,253004000,0,-27.482368,1.0,-0.13875961,1.1152403,0.0006905859,0,1,0,1
253492000,253370000,253412000,0,-26.886368,1.0,-0.122076035,1.115417,0.00053442107,0,1,0,1
253892000,253770000,253812000,0,-26.30737,1.0,-0.10049629,1.1150595,0.00036229476,0,1,0,1
254292000,254170000,254212000,0,-25.712368,1.0,-0.10531807,1.1146941,0.0003980247,0,1,0,1
254692000,254570000,254612000,0,-25.120369,1.0,-0.09466553,1.1154363,0.00032136525,0,1,0,1
255092000,254970000,255012000,0,-24.545368,1.0,-0.06569862,1.1151066,0.00015483037,0,1,0,1
255492000,255370000,255412000,0,-23.955368,1.0,-0.058839798,1.1147717,0.00012422711,0,1,0,1
255892000,255770000,255812000,0,-23.395367,1.0,-0.02491188,1.1155021,2.2253722e-05,0,1,0,1
256284000,256166000,256204000,0,-22.815369,1.0,-0.03217125,1.114696,3.7139784e-05,0,1,0,1
256692000,256570000,256612000,0,-22.232368,1.0,-0.01911354,1.1148673,1.3107477e-05,0,1,0,1
257092000,256970000,257012000,0,-21.659367,1.0,-0.0007305145,1.1155835,1.9134433e-08,0,1,0,1
257492000,257370000,257412000,0,-21.079369,1.0,0.0050849915,1.1152264,9.2742204e-07,0,1,0,1
257884000,257770000,257804000,0,-20.518368,1.0,0.020885468,1.1144078,1.5656844e-05,0,1,0,1
258292000,258170000,258212000,0,-19.921368,1.0,0.029081345,1.1156381,3.0322542e-05,0,1,0,1
258692000,258570000,258612000,0,-19.32737,1.0,0.036035538,1.1152931,4.6572866e-05,0,1,0,1
259092000,258970000,259012000,0,-18.740368,1.0,0.050559998,1.1149657,9.170913e-05,0,1,0,1
259492000,259370000,259412000,0,-18.152367,1.0,0.065485,1.1146333,0.00015389045,0,1,0,1
259892000,259770000,259812000,0,-17.549366,1.0,0.06188202,1.115368,0.00013733168,0,1,0,1
260292000,260170000,260212000,0,-16.951366,1.0,0.06609917,1.1150262,0.00015673533,0,1,0,1
260692000,260570000,260612000,0,-16.344368,1.0,0.06360245,1.1146818,0.00014516326,0,1,0,1
261092000,260970000,261012000,0,-15.739368,1.0,0.06892681,1.1154069,0.00017037388,0,1,0,1
261492000,261370000,261412000,0,-15.140369,1.0,0.068045616,1.1150564,0.00016609764,0,1,0,1
261884000,261766000,261804000,0,-14.519367,1.0,0.03399849,1.1142436,4.1495317e-05,0,1,0,1
262292000,262170000,262212000,0,-13.898369,1.0,0.03300762,1.1154788,3.9068538e-05,0,1,0,1
262692000,262570000,262612000,0,-13.268368,1.0,0.009363174,1.1151159,3.1447505e-06,0,1,0,1
263084000,262970000,263004000,0,-12.652367,1.0,-0.0006017685,1.1142924,1.2999293e-08,0,1,0,1
263484000,263366000,263404000,0,-12.019367,1.0,-0.018068314,1.1150552,1.1711131e-05,0,1,0,1
263884000,263766000,263804000,0,-11.392368,1.0,-0.029985428,1.1147403,3.2263153e-05,0,1,0,1
264292000,264170000,264212000,0,-10.771366,1.0,-0.031402588,1.114881,3.5380366e-05,0,1,0,1
264684000,264570000,264604000,0,-10.145367,1.0,-0.05934429,1.11511,0.00012632816,0,1,0,1
265092000,264970000,265012000,0,-9.511368,1.0,-0.06686211,1.1152481,0.00016034248,0,1,0,1
265484000,265370000,265404000,0,-8.926369,1.0,-0.09754753,1.1144013,0.00034154736,0,1,0,1
265892000,265770000,265812000,0,-8.381367,1.0,-0.10430622,1.115611,0.00039009252,0,1,0,1
266284000,266166000,266204000,0,-7.865368,1.0,-0.1260953,1.11476,0.0005705272,0,1,0,1
266684000,266570000,266604000,0,-7.365368,1.0,-0.1564107,1.1144321,0.0008780905,0,1,0,1
267084000,266966000,267004000,0,-6.905369,1.0,-0.1745758,1.1151721,0.0010931662,0,1,0,1
267484000,267370000,267404000,0,-6.4753685,1.0,-0.17930079,1.1148355,0.0011534893,0,1,0,1
267884000,267770000,267804000,0,-6.059368,1.0,-0.20340204,1.1144961,0.0014848824,0,1,0,1
268292000,268170000,268212000,0,-5.686367,1.0,-0.20187378,1.1156921,0.0014610848,0,1,0,1
268692000,268570000,268612000,0,-5.3333664,1.0,-0.22227478,1.1152903,0.001771954,0,1,0,1
