timestamp,altitude_sp,altitude_reference,height_rate_reference,height_rate_direct,height_rate_setpoint,height_rate,equivalent_airspeed_sp,true_airspeed_sp,true_airspeed_filtered,true_airspeed_derivative_sp,true_airspeed_derivative,true_airspeed_derivative_raw,total_energy_rate_sp,total_energy_rate,total_energy_balance_rate_sp,total_energy_balance_rate,throttle_integ,pitch_integ,throttle_sp,pitch_sp_rad,throttle_trim,mode
99652000,79.994774,78.525795,-1.1935333,nan,-0.35806,-1.1935333,14.192059,14.246319,14.214197,0.0,0.0,0.0,-3.4682913,-11.704563,-3.5113692,-11.704563,0.0,0.0,0.1,-0.019312572,0.2509546,0
99676000,79.994774,78.498634,-1.0500333,nan,-0.31456903,-1.1859958,14.240059,14.294502,14.214197,0.016061021,0.0,0.0,-2.8134885,-11.700379,-3.313163,-11.630646,0.00010661301,0.00014320565,0.23386417,-0.017658284,0.2509546,0
99852000,79.994774,78.422226,0.1819666,nan,0.084381245,-1.1323314,15.44836,15.507192,14.306349,0.24016857,0.050838437,0.0,4.305418,-11.462882,-2.608438,-11.83169,0.001209355,0.0012560484,0.28713292,-0.010762089,0.25095206,0
100052000,79.994774,78.598595,1.5819665,nan,0.58566326,-1.0081446,16.345438,16.407455,14.579881,0.36551496,0.18477651,0.0,11.108831,-10.390334,0.41423035,-12.580541,0.0030834686,0.0028781677,0.32508457,0.01486383,0.25094855,0
100252000,79.994774,79.054955,2.98154,nan,1.1374063,-0.7582559,16.145435,16.206553,14.963521,0.24860631,0.34709784,0.0,14.902586,-8.086077,7.43412,-12.629756,0.0053245462,0.0052130367,0.34573713,0.06954709,0.25094602,0
100452000,79.994774,79.626305,2.3766043,nan,1.0950477,-0.29809406,15.945431,16.005735,15.371259,0.12689534,0.48734486,0.0,12.7099085,-4.3098316,8.788208,-10.414409,0.0073626773,0.007936516,0.33202535,0.07897559,0.25094548,0
100652000,79.994774,79.961655,0.97660446,nan,0.7512043,0.09961248,15.745433,15.804896,15.762745,0.00843029,0.58953196,0.0,7.512652,0.49415737,7.2339134,-8.315777,0.0085209245,0.010178677,0.29999748,0.06703531,0.25094414,0
100852000,79.994774,80.017006,-0.42339545,nan,0.33706677,0.3200173,15.545433,15.604147,16.10985,-0.101140596,0.6469525,0.0,1.6833084,5.091944,4.934856,-7.28401,0.008645819,0.011930024,0.26369193,0.05090078,0.2509441,0
101052000,79.994774,79.995125,-0.09532613,nan,0.42285022,0.39984635,15.345431,15.403543,16.39621,-0.19853325,0.66044736,0.0,0.8950938,8.66491,7.401937,-6.9076805,0.008094297,0.013665979,0.25526664,0.068599716,0.25094673,0
101252000,79.994774,79.99473,0.0058216094,nan,0.43833858,0.52539164,15.145433,15.202805,16.617094,-0.2828579,0.6373321,0.0,-0.39998388,11.255699,8.998909,-5.438275,0.007108218,0.015462993,0.24269485,0.079544686,0.250947,0
101452000,79.994774,79.994774,0.0,nan,0.4177185,0.63962847,15.0,15.056784,16.774235,-0.3434902,0.5855359,0.0,-1.664735,13.086843,9.858205,-3.549304,0.005756628,0.017174045,0.22652474,0.085253194,0.25094792,0
101652000,79.994774,79.994774,0.0,nan,0.3925705,0.7389337,14.999999,15.056901,16.864882,-0.3615961,0.5099964,0.0,-2.2482686,14.213546,9.948077,-1.3545651,0.0041805306,0.018661937,0.2178299,0.08564589,0.25094837,0
101852000,79.994774,79.994774,0.0,nan,0.3659378,0.7881232,15.0,15.057043,16.888988,-0.3663891,0.41554207,0.0,-2.5992832,14.611463,9.776566,0.71076345,0.0024854927,0.019879999,0.21213453,0.08438224,0.25095072,0
102052000,79.994774,79.994774,0.0,nan,0.336232,0.8014899,15.0,15.05701,16.871035,-0.36280498,0.3190835,0.0,-2.823584,14.335835,9.418205,2.4766622,0.000761437,0.020833114,0.20838575,0.08195407,0.250954,0
102252000,79.994774,79.994774,0.0,nan,0.30675203,0.7801099,14.999999,15.057268,16.8002,-0.3485863,0.21492186,0.0,-2.8480954,13.4747095,8.864529,4.0395346,-0.0009143969,0.021533303,0.20731956,0.07826665,0.25095448,0
102452000,79.994774,79.994774,0.0,nan,0.27734527,0.73383015,14.999998,15.057224,16.703745,-0.32930413,0.11959176,0.0,-2.7807627,12.158191,8.22044,5.1987853,-0.0024738922,0.021995056,0.207767,0.07402314,0.25095376,0
102652000,79.994774,79.994774,0.0,nan,0.25087434,0.6636142,15.000001,15.057542,16.578907,-0.30427304,0.028773293,0.0,-2.5842404,10.518952,7.504751,6.0308027,-0.003870512,0.022264935,0.21003266,0.06933087,0.250959,0
102852000,79.994774,79.994774,0.0,nan,0.22653198,0.5855725,15.0,15.057535,16.419464,-0.2723858,-0.06061245,0.0,-2.2508855,8.643383,6.6939487,6.7377286,-0.0050610285,0.022342654,0.21414061,0.06388764,0.25095892,0
103052000,79.994774,79.994774,0.0,nan,0.20565033,0.49641976,15.0,15.057642,16.25081,-0.23863374,-0.13604157,0.0,-1.8612384,6.6563506,5.8947325,7.0790005,-0.0060199425,0.022256086,0.21917158,0.058501616,0.2509607,0
103252000,79.994774,79.994774,0.0,nan,0.18794708,0.39954042,14.999999,15.057738,16.082285,-0.20490932,-0.19560513,0.0,-1.4522771,4.677197,5.138541,7.0639305,-0.0067394027,0.02205231,0.22463231,0.05341302,0.25096232,0
103452000,79.994774,79.994774,0.0,nan,0.17435303,0.30489632,15.0,15.05768,15.918008,-0.17206554,-0.24021524,0.0,-1.0291197,2.7901692,4.44876,6.81376,-0.0072229756,0.02177183,0.23038003,0.048755795,0.25096133,0
103652000,79.994774,79.994774,0.0,nan,0.16424714,0.21444726,15.0,15.057758,15.7622795,-0.14090423,-0.27119943,0.0,-0.61023796,1.0738299,3.831686,6.3777304,-0.0074852346,0.021452159,0.23613863,0.044593535,0.25096446,0
103852000,79.994774,79.994774,0.0,nan,0.15789337,0.12907791,14.999999,15.057788,15.612667,-0.11097584,-0.29294193,0.0,-0.18417907,-0.43643922,3.281034,5.8394265,-0.007546135,0.02112388,0.24196184,0.040882453,0.25096315,0
104052000,79.994774,79.994774,0.0,nan,0.15446626,0.057328254,14.999999,15.057815,15.464246,-0.081286244,-0.30895284,0.0,0.25786614,-1.7635264,2.771827,5.339921,-0.0074206777,0.02078335,0.24671416,0.037367437,0.2509636,0
104252000,79.994774,79.994774,0.0,nan,0.15391846,-0.005979298,15.0,15.057752,15.314085,-0.05126667,-0.32281008,0.0,0.7244636,-2.8971696,2.2945266,4.8849044,-0.007129182,0.020443214,0.2506872,0.033996888,0.25096375,0
104452000,79.994774,79.994774,0.0,nan,0.15547791,-0.060261793,15.0,15.057814,15.192452,-0.026927758,-0.3186443,0.0,1.1158404,-3.8118207,1.9338162,4.250022,-0.0066922726,0.020112084,0.25417566,0.03153721,0.25096357,0
104652000,79.994774,79.994774,0.0,nan,0.15908356,-0.10831942,14.999998,15.057807,15.089086,-0.006255722,-0.3055947,0.0,1.4659323,-4.51149,1.65447,3.548894,-0.006138665,0.019828111,0.2573405,0.029728726,0.25096348,0
104852000,79.994774,79.994774,0.0,nan,0.16421662,-0.14957036,14.999999,15.057856,15.014452,0.0086807255,-0.2809594,0.0,1.7410713,-4.9550943,1.4800787,2.7516673,-0.0055002896,0.019620316,0.25992563,0.028808758,0.25096422,0
105052000,79.994774,79.994774,0.0,nan,0.17067719,-0.17835064,14.999999,15.057813,14.95295,0.020972634,-0.25415576,0.0,1.9877373,-5.2134047,1.3601687,2.0513558,-0.00480058,0.019489966,0.26222992,0.02829428,0.25096357,0
105252000,79.994774,79.994774,0.0,nan,0.17793122,-0.19028765,15.0,15.057805,14.907282,0.030104637,-0.22462495,0.0,2.1940987,-5.275336,1.2961309,1.482463,-0.0040633655,0.019431418,0.26415586,0.02817,0.25096342,0
105452000,79.994774,79.994774,0.0,nan,0.18593903,-0.20302492,15.0,15.057642,14.883064,0.034915544,-0.19032793,0.0,2.3435097,-5.159599,1.3037887,0.84166837,-0.0033135607,0.019456474,0.26560506,0.02870603,0.25096262,0
105652000,79.994774,79.994774,0.0,nan,0.1943161,-0.2025418,14.999999,15.057672,14.855345,0.040465355,-0.16486092,0.0,2.5071566,-4.9547415,1.3044633,0.4628091,-0.0025643192,0.019549802,0.2670418,0.029081773,0.2509612,0
105852000,79.994774,79.994774,0.0,nan,0.2021286,-0.19270411,15.000002,15.057625,14.855238,0.040477373,-0.13033338,0.0,2.583579,-4.615688,1.3809035,0.046351552,-0.0018311387,0.019701451,0.26785251,0.030096546,0.25096038,0
106052000,79.994774,79.994774,0.0,nan,0.20970917,-0.18244724,15.000001,15.057583,14.85453,0.040610503,-0.10357501,0.0,2.7334533,-4.193635,1.4532945,-0.25063813,-0.0011279734,0.019915154,0.26894948,0.031061254,0.25095767,0
106252000,79.994774,79.994774,0.0,nan,0.21768646,-0.20384203,15.000002,15.057617,14.851176,0.041288186,-0.0835102,0.0,3.4125328,-3.8232899,1.5215968,-0.75878274,-0.00042572425,0.020183282,0.27299252,0.03219668,0.25096026,0
106452000,79.994774,79.994774,0.0,nan,0.22831269,-0.3394764,15.000001,15.057472,14.852123,0.041069794,-0.065562144,0.0,5.096776,-3.7990973,1.629009,-2.3553894,0.000377533,0.020611536,0.28296682,0.034531582,0.25095785,0
106652000,79.994774,79.994774,0.0,nan,0.24536896,-0.5473541,15.000002,15.057546,14.862853,0.038938522,-0.0462488,0.0,6.9316483,-4.389473,1.8275101,-4.6803207,0.0013976048,0.021346413,0.29459828,0.038349576,0.25095883,0
106852000,79.994774,79.994774,0.0,nan,0.27070618,-0.74753547,15.000002,15.057335,14.883908,0.034685325,-0.025638994,0.0,8.463453,-5.4120016,2.1384676,-6.94921,0.0026701137,0.022437498,0.3052549,0.04331451,0.25095555,0
107052000,79.994774,79.994774,0.0,nan,0.30425262,-0.9013625,15.000001,15.057309,14.921537,0.02715435,-0.0003492899,0.0,9.623326,-6.5804462,2.5785143,-8.834135,0.0041892664,0.023858767,0.3142758,0.049279198,0.25095513,0
107252000,79.994774,79.994774,0.0,nan,0.34259796,-0.99680084,15.000001,15.057121,14.970321,0.017360115,0.025294093,0.0,10.464974,-7.6007786,3.0998518,-10.153938,0.0059160753,0.025562316,0.3216158,0.055705152,0.250952,0
107452000,79.994774,79.994774,0.0,nan,0.38372955,-1.0231751,15.000001,15.056989,15.0436735,0.0026630403,0.058845896,0.0,11.0074835,-8.263897,3.7230394,-10.919179,0.0077958005,0.027467825,0.32711884,0.062629014,0.2509498,0
107652000,79.994774,79.994774,0.0,nan,0.4245331,-0.99368984,15.000001,15.056846,15.140223,-0.016675377,0.09721306,0.0,11.283167,-8.423094,4.4157166,-11.216596,0.009752657,0.029523667,0.33073634,0.06979276,0.25094578,0
107852000,79.994774,79.994774,0.0,nan,0.46372834,-0.91194236,15.000001,15.056696,15.233144,-0.035289574,0.12521045,0.0,11.400166,-8.087831,5.0851927,-10.850449,0.011714951,0.0316542,0.33300155,0.076362215,0.2509449,0
108052000,79.994774,79.994774,0.0,nan,0.4983902,-0.7934003,15.0,15.05655,15.319757,-0.05264149,0.14422216,0.0,11.371912,-7.3436856,5.693993,-9.990047,0.013624719,0.033765454,0.33401066,0.08210554,0.2509425,0
108252000,79.994774,79.994774,0.0,nan,0.5312363,-0.6748119,15.0,15.056471,15.402611,-0.069227986,0.15752584,0.0,11.219782,-6.3493357,6.2759404,-9.043953,0.015435828,0.035820525,0.33399484,0.08751224,0.25094044,0
108452000,79.994774,79.994774,0.0,nan,0.5581619,-0.563532,15.000001,15.0563545,15.492351,-0.08719921,0.17190054,0.0,10.865471,-5.222167,6.8246193,-8.189505,0.017113935,0.037816726,0.3326085,0.09261918,0.25093773,0
108652000,79.994774,79.994774,0.0,nan,0.5827347,-0.4712548,15.000002,15.056309,15.57711,-0.10416031,0.1799038,0.0,10.413553,-4.059438,7.337192,-7.4238124,0.01863236,0.03977289,0.33049732,0.097466886,0.25093845,0
108852000,79.994774,79.994774,0.0,nan,0.60213774,-0.37300196,15.000001,15.056165,15.64063,-0.11689301,0.17561698,0.0,9.900142,-2.993976,7.7332344,-6.40466,0.01999262,0.04165786,0.32798478,0.10129337,0.25093454,0
109052000,79.994774,79.994774,0.0,nan,0.6208939,-0.27975106,15.000002,15.056046,15.7037525,-0.1295414,0.17185633,0.0,9.325044,-1.9872321,8.123175,-5.44221,0.021193972,0.043456666,0.32503858,0.10501277,0.25093406,0
109252000,79.994774,79.994774,0.0,nan,0.6337723,-0.16530742,15.000001,15.05602,15.766896,-0.1421753,0.16914763,0.0,8.626128,-1.0019269,8.456846,-4.288045,0.022234207,0.04515661,0.3212766,0.108093545,0.25093365,0
109452000,79.994774,79.994774,0.0,nan,0.64384,-0.03679686,15.000002,15.055951,15.820053,-0.1528204,0.16161606,0.0,7.8911386,0.037351735,8.731541,-2.9176285,0.02309995,0.04672872,0.31708956,0.1105185,0.2509336,0
109652000,79.994774,79.994774,0.0,nan,0.6456238,0.13498312,15.000001,15.056097,15.874517,-0.16368409,0.1560935,0.0,7.038321,1.2304847,8.929812,-1.1541766,0.023774534,0.048122544,0.31191322,0.11196168,0.25093272,0
109852000,79.994774,79.994774,0.0,nan,0.6431961,0.31388286,15.000002,15.056088,15.908494,-0.17048112,0.14104012,0.0,6.224785,2.5676796,9.019697,0.8344035,0.024237005,0.049287584,0.30659825,0.11234948,0.25093478,0
110052000,79.994774,79.994774,0.0,nan,0.6304764,0.5130018,15.000001,15.056024,15.920827,-0.17296067,0.118039556,0.0,5.411606,3.9887836,8.936539,3.1515417,0.024480455,0.05016905,0.3009796,0.11111211,0.25093415,0
110252000,79.994774,79.994774,0.0,nan,0.61100465,0.69628364,15.000002,15.056015,15.919236,-0.17264424,0.0923352,0.0,4.660786,5.4475603,8.740273,5.358304,0.024499316,0.05074018,0.29544234,0.10889286,0.2509366,0
110452000,79.994774,79.994774,0.0,nan,0.582576,0.8546269,15.000001,15.056169,15.898116,-0.16838951,0.061822895,0.0,3.9873939,6.8001494,8.390195,7.3981595,0.024307074,0.051004022,0.29022002,0.10545561,0.25093612,0
110652000,79.994774,79.994774,0.0,nan,0.54986113,0.96815133,15.000001,15.056342,15.8607025,-0.16087209,0.029288575,0.0,3.4407096,7.93557,7.94384,9.029784,0.023929983,0.050979465,0.28572777,0.101353824,0.25094151,0
110852000,79.994774,79.994774,0.0,nan,0.511673,1.0389532,15.000003,15.056438,15.811593,-0.15103093,-0.0026912054,0.0,2.9779968,8.768284,7.4058375,10.231202,0.023405328,0.050715744,0.28184396,0.096655115,0.25094172,0
111052000,79.994774,79.994774,0.0,nan,0.47286224,1.0669863,15.000003,15.056641,15.7451,-0.13769189,-0.037253078,0.0,2.651927,9.255323,6.805167,11.050116,0.022776945,0.05024883,0.27895024,0.09157264,0.25094396,0
111252000,79.994774,79.994774,0.0,nan,0.4316086,1.0706099,15.000001,15.05676,15.662654,-0.12117882,-0.072643355,0.0,2.4151225,9.383225,6.130616,11.636885,0.022093397,0.04960489,0.27684885,0.08593337,0.25094715,0
111452000,79.994774,79.994774,0.0,nan,0.39146882,1.0368111,15.000001,15.056929,15.5661745,-0.101849176,-0.10812475,0.0,2.2791467,9.185327,5.4244,11.850732,0.021396128,0.048817784,0.2756104,0.08014241,0.25095063,0
111652000,79.994774,79.994774,0.0,nan,0.35159913,0.98779446,15.0,15.057156,15.461225,-0.08081379,-0.14065175,0.0,2.201051,8.703549,4.6974897,11.861603,0.020725157,0.047918327,0.27499652,0.074174784,0.2509526,0
111852000,79.994774,79.994774,0.0,nan,0.3126114,0.91448224,15.000002,15.05728,15.347116,-0.057967376,-0.17081839,0.0,2.1778376,7.978685,3.9553027,11.589577,0.020111915,0.046930764,0.27498454,0.0681387,0.25095597,0
112052000,79.994774,79.994774,0.0,nan,0.27639922,0.82843775,15.000001,15.057359,15.233039,-0.035136033,-0.19470486,0.0,2.1899867,7.0798564,3.245779,11.090145,0.019580696,0.045893244,0.27541825,0.062369738,0.25095597,0
112252000,79.994774,79.994774,0.0,nan,0.24224854,0.7372978,15.000001,15.057565,15.122884,-0.013063813,-0.21180907,0.0,2.212851,6.0819488,2.573209,10.433585,0.019147051,0.044839215,0.2761112,0.056889877,0.25096005,0
112452000,79.994774,79.994774,0.0,nan,0.21238708,0.6418205,15.000001,15.057636,15.006756,0.010176087,-0.22816062,0.0,2.292765,5.021179,1.9300958,9.71806,0.018822843,0.043778453,0.27728567,0.05160159,0.25096187,0
112652000,79.994774,79.994774,0.0,nan,0.18544312,0.55532604,15.000002,15.057727,14.896638,0.03221779,-0.23771057,0.0,2.3771386,3.9556274,1.338639,8.986977,0.018614685,0.042723194,0.27860373,0.04665105,0.25096208,0
112852000,79.994774,79.994774,0.0,nan,0.16281739,0.466727,15.0,15.057858,14.813914,0.048788834,-0.23106861,0.0,2.4163084,2.985223,0.8739396,8.000059,0.018513897,0.041709118,0.27969024,0.042819615,0.25096533,0
113052000,79.994774,79.994774,0.0,nan,0.1429184,0.38460436,15.000003,15.057967,14.741456,0.063302234,-0.22079234,0.0,2.4448404,2.1338973,0.46838355,7.0264807,0.018505977,0.040770546,0.28068998,0.039474055,0.25096607,0
113252000,79.994774,79.994774,0.0,nan,0.12684785,0.31308416,15.000001,15.058049,14.683227,0.07496452,-0.20500188,0.0,2.4636564,1.4002718,0.14323139,6.0803957,0.018579701,0.039907917,0.28160125,0.036779404,0.25096747,0
113452000,79.994774,79.994774,0.0,nan,0.112635806,0.25452912,15.000002,15.05802,14.633322,0.08493958,-0.18833207,0.0,2.4707074,0.80994594,-0.13836825,5.252002,0.018719818,0.039126642,0.28236982,0.034406174,0.25096723,0
113652000,79.994774,79.994774,0.0,nan,0.10144653,0.20855741,15.000002,15.058132,14.583762,0.094874,-0.17467895,0.0,2.5016642,0.3337954,-0.38876927,4.5927258,0.018915383,0.038403027,0.28321207,0.032201573,0.25096884,0
113852000,79.994774,79.994774,0.0,nan,0.09061127,0.17163649,15.000003,15.058119,14.551516,0.10132065,-0.15506285,0.0,2.4831822,-0.004183281,-0.5857759,3.9395785,0.01915075,0.037741937,0.28368416,0.030465836,0.2509686,0
114052000,79.994774,79.994774,0.0,nan,0.08225556,0.13741916,15.000003,15.058082,14.525213,0.10657368,-0.13622066,0.0,2.4689476,-0.24078685,-0.741354,3.3262558,0.019412763,0.03714049,0.28410432,0.029080357,0.25096798,0
114252000,79.994774,79.994774,0.0,nan,0.07374115,0.112053424,15.0,15.058204,14.509063,0.10982819,-0.11631742,0.0,2.4231987,-0.3801031,-0.87035036,2.7865255,0.019689357,0.036601864,0.28427246,0.027914826,0.25097007,0
114452000,79.994774,79.994774,0.0,nan,0.06733246,0.090850264,15.000001,15.058186,14.510455,0.10954609,-0.09123607,0.0,2.346735,-0.41778615,-0.9292577,2.2148137,0.019968431,0.03612459,0.2841713,0.027384788,0.25096974,0
114652000,79.994774,79.994774,0.0,nan,0.06094513,0.07589366,15.000002,15.058232,14.500589,0.11152859,-0.07738594,0.0,2.3011703,-0.41414553,-1.0195627,1.8664043,0.020242298,0.03570489,0.28419352,0.026505597,0.2509705,0
114852000,79.994774,79.994774,0.0,nan,0.056088258,0.06663587,15.0,15.058329,14.50466,0.1107338,-0.05905087,0.0,2.2314548,-0.3578729,-1.0561182,1.5099875,0.020507403,0.035321187,0.28402326,0.026092354,0.25097215,0
115052000,79.994774,79.994774,0.0,nan,0.049430847,0.06949651,15.000001,15.058317,14.5218315,0.10729714,-0.037630267,0.0,2.1072965,-0.22147569,-1.0734,1.2279884,0.020753235,0.034979712,0.2834545,0.025826324,0.25097194,0
115252000,79.994774,79.994774,0.0,nan,0.044047546,0.07072404,15.000004,15.058281,14.533647,0.10492688,-0.023772085,0.0,2.0109005,-0.03570523,-1.0930113,1.039061,0.020970104,0.03467461,0.2829586,0.025509862,0.2509713,0
115452000,79.994774,79.994774,0.0,nan,0.03825989,0.07704625,15.000001,15.058372,14.552773,0.101119615,-0.008602214,0.0,1.8905584,0.17468055,-1.0963695,0.8807517,0.021157483,0.03438296,0.28227997,0.025315301,0.25097284,0
115652000,79.994774,79.994774,0.0,nan,0.033457946,0.0746857,15.0,15.058285,14.56892,0.09787293,0.0014713069,0.0,1.7884384,0.38194674,-1.0977925,0.71098113,0.021310888,0.034122396,0.28166708,0.025172658,0.2509714,0
115852000,79.994774,79.994774,0.0,nan,0.027120972,0.081446536,15.0,15.058361,14.59381,0.09291019,0.014114759,0.0,1.6485407,0.58530504,-1.0899479,0.59272957,0.021432798,0.03387881,0.28082296,0.025087256,0.2509727,0
116052000,79.994774,79.994774,0.0,nan,0.021788025,0.08443392,15.000001,15.058409,14.612087,0.089264296,0.020756401,0.0,1.5378393,0.77506465,-1.0906702,0.5247196,0.021522207,0.033647686,0.2801189,0.024909046,0.25097346,0
116252000,79.994774,79.994774,0.0,nan,0.015133667,0.08770552,15.000003,15.0584,14.648312,0.08201771,0.035357352,0.0,1.3643209,0.9728019,-1.0530105,0.3421719,0.021578353,0.03343825,0.2790312,0.025136674,0.25097483,0
116452000,79.994774,79.994774,0.0,nan,0.009458924,0.0874594,15.000003,15.058402,14.668743,0.077931784,0.03828903,0.0,1.246182,1.1429943,-1.050401,0.29603177,0.021600045,0.033254243,0.27823603,0.02501626,0.2509733,0
116652000,79.994774,79.994774,0.0,nan,0.0018569947,0.09491694,15.000002,15.058508,14.6742735,0.07684689,0.033016168,0.0,1.152848,1.2515407,-1.1094614,0.44632897,0.021598734,0.033052642,0.27761832,0.024261866,0.2509751,0
116852000,79.994774,79.994774,0.0,nan,-0.0047439574,0.10377955,15.000001,15.058495,14.683418,0.07501526,0.031335074,0.0,1.0595661,1.3198737,-1.1480029,0.55762374,0.021581046,0.03281844,0.27702388,0.023661427,0.25097606,0
117052000,79.994774,79.994774,0.0,nan,-0.01290741,0.10388524,15.000003,15.058539,14.69907,0.071893886,0.03272961,0.0,0.9330988,1.3952415,-1.1833518,0.5376713,0.021543065,0.03258189,0.27621943,0.023178719,0.2509756,0
117252000,79.994774,79.994774,0.0,nan,-0.019557191,0.10617484,15.000001,15.058593,14.712603,0.069198035,0.033074703,0.0,0.82789665,1.4393849,-1.2098738,0.55460453,0.021488791,0.03233741,0.27554747,0.022728948,0.25097653,0
117452000,79.994774,79.994774,0.0,nan,-0.028012086,0.11102717,15.000001,15.058474,14.729281,0.065838434,0.034988485,0.0,0.6958152,1.4906707,-1.2444576,0.5734494,0.021417726,0.03208782,0.274704,0.022213826,0.2509767,0
117652000,79.994774,79.994774,0.0,nan,-0.03485718,0.110685796,15.000002,15.058604,14.740718,0.06357727,0.033368517,0.0,0.59561604,1.5378302,-1.2790067,0.59358096,0.021328969,0.03183316,0.2740209,0.02169,0.2509767,0
117852000,79.994774,79.994774,0.0,nan,-0.042382814,0.112847,15.000002,15.058676,14.7363205,0.06447106,0.023788571,0.0,0.5344846,1.5322505,-1.3656996,0.75609505,0.021230312,0.031558417,0.2735952,0.020639893,0.2509779,0
118052000,79.994774,79.994774,0.0,nan,-0.048808288,0.11296861,15.000001,15.058588,14.73929,0.06385956,0.02066605,0.0,0.4625988,1.4878712,-1.4198904,0.8032408,0.02112959,0.031253017,0.273146,0.019891672,0.25097764,0
118252000,79.994774,79.994774,0.0,nan,-0.055516053,0.10745436,15.000002,15.058646,14.742769,0.063175395,0.017829273,0.0,0.38700384,1.4474667,-1.4758067,0.7909145,0.02102396,0.030945016,0.27266774,0.019169444,0.2509774,0
118452000,79.994774,79.994774,0.0,nan,-0.06104889,0.10423789,15.000002,15.058708,14.737497,0.06424218,0.011466691,0.0,0.34824824,1.3667027,-1.545454,0.85323423,0.020920254,0.030618193,0.27243415,0.018265195,0.25097844,0
118652000,79.994774,79.994774,0.0,nan,-0.06759796,0.095970094,15.000002,15.058759,14.740535,0.06364479,0.010661772,0.0,0.27556336,1.2800444,-1.6010678,0.7839849,0.02081903,0.03028556,0.27202272,0.017559819,0.25097853,0
118852000,79.994774,79.994774,0.0,nan,-0.07289276,0.09268024,15.0,15.058706,14.748642,0.062012862,0.012425922,0.0,0.20020801,1.2175802,-1.6294394,0.7256172,0.020717345,0.029960694,0.27157187,0.017066527,0.25097844,0
119052000,79.994774,79.994774,0.0,nan,-0.07937469,0.08913135,15.000001,15.058717,14.741858,0.06337185,0.0063901856,0.0,0.15632325,1.1376691,-1.7126186,0.7798767,0.020617682,0.029623017,0.27131262,0.016052485,0.2509786,0
119252000,79.994774,79.994774,0.0,nan,-0.084358215,0.08450577,15.000001,15.058734,14.732718,0.06520309,0.00014275519,0.0,0.13387656,1.0447577,-1.7878903,0.82661533,0.020522762,0.029269973,0.2711883,0.015085584,0.2509789,0
119452000,79.994774,79.994774,0.0,nan,-0.08952179,0.0817685,15.000001,15.058813,14.728265,0.06610966,-0.0020791183,0.0,0.09633136,0.94282997,-1.8515894,0.8324969,0.020435939,0.028900804,0.2709996,0.014222929,0.2509802,0
119652000,79.994774,79.994774,0.0,nan,-0.093832396,0.07528709,15.000001,15.058901,14.731355,0.06550922,-1.7565052e-06,0.0,0.0453946,0.86822677,-1.885221,0.73834,0.020353016,0.028532524,0.27071458,0.0136668235,0.25098166,0
119852000,79.994774,79.994774,0.0,nan,-0.098997496,0.06850787,15.000001,15.05877,14.731679,0.06541824,0.0001574324,0.0,-0.006587565,0.80730057,-1.9345543,0.6695135,0.020271022,0.028171144,0.2703758,0.012977782,0.25097948,0
120052000,79.994774,79.994774,0.0,nan,-0.102787785,0.060897045,15.000001,15.05885,14.725363,0.0666975,-0.0032785872,0.0,-0.025343955,0.7271995,-1.9901488,0.64547443,0.020192564,0.027809354,0.27018613,0.012202635,0.25098082,0
120252000,79.994774,79.994774,0.0,nan,-0.10616455,0.054921307,15.000002,15.058825,14.717092,0.0683466,-0.0068337684,0.0,-0.034797788,0.62861305,-2.0469818,0.63916725,0.020122355,0.027440393,0.27011693,0.011396112,0.25098038,0
120452000,79.994774,79.994774,0.0,nan,-0.10875855,0.049438953,15.000002,15.058857,14.717887,0.06819401,-0.004825944,0.0,-0.0625062,0.54358083,-2.0702288,0.55585825,0.020059759,0.027070668,0.26985532,0.010907803,0.2509809,0
120652000,79.994774,79.994774,0.0,nan,-0.111709595,0.04092679,14.999999,15.058836,14.721188,0.06752968,-0.002398377,0.0,-0.1008988,0.49155894,-2.089614,0.4366617,0.019998927,0.026718149,0.26945192,0.010493768,0.25098062,0
120852000,79.994774,79.994774,0.0,nan,-0.113743596,0.036592215,15.000001,15.058889,14.722776,0.067222595,-0.00107987,0.0,-0.12330681,0.437546,-2.105147,0.37474573,0.0199416,0.026371572,0.2692193,0.010073485,0.25098148,0
121052000,79.994774,79.994774,0.0,nan,-0.11608124,0.03172678,14.999999,15.058906,14.723085,0.06716404,-0.0006813483,0.0,-0.142241,0.39350152,-2.1272302,0.321165,0.019886881,0.026029164,0.26901257,0.009600285,0.25097987,0
121252000,79.994774,79.994774,0.0,nan,-0.11758881,0.025863394,14.999999,15.058963,14.735428,0.064706996,0.005974872,0.0,-0.18478262,0.3671986,-2.1066375,0.16559097,0.019833175,0.02570182,0.2685511,0.009551117,0.25098273,0
121452000,79.994774,79.994774,0.0,nan,-0.11889038,0.019963004,15.0,15.058867,14.736676,0.064438246,0.005726957,0.0,-0.19127333,0.32666805,-2.115522,0.11137387,0.01978052,0.025390012,0.2684719,0.00921057,0.2509823,0
121652000,79.994774,79.994774,0.0,nan,-0.119851686,0.016411642,15.0,15.058892,14.745857,0.062607005,0.009022233,0.0,-0.21605057,0.3196269,-2.0985374,0.027902663,0.01972691,0.025093298,0.2681706,0.009110849,0.25098205,0
121852000,79.994774,79.994774,0.0,nan,-0.12194061,0.01709505,15.0,15.059043,14.748505,0.06210766,0.008307507,0.0,-0.23221385,0.3141448,-2.111824,0.045121863,0.01967246,0.024798125,0.26795766,0.008705588,0.25098404,0
122052000,79.994774,79.994774,0.0,nan,-0.12343903,0.01674428,15.0,15.058878,14.74572,0.06263161,0.005271851,0.0,-0.22925764,0.2901302,-2.1340716,0.086468056,0.019619394,0.02449461,0.2679582,0.00820121,0.2509833,0
122252000,79.994774,79.994774,0.0,nan,-0.124824524,0.015542817,14.999999,15.058877,14.749712,0.061833,0.00634619,0.0,-0.24528486,0.2716741,-2.1361294,0.05881849,0.019568011,0.024187822,0.2677595,0.007902296,0.25098214,0
122452000,79.994774,79.994774,0.0,nan,-0.12563019,0.009671109,15.000001,15.058887,14.748283,0.062120628,0.0041484744,0.0,-0.24287188,0.24080768,-2.1481838,0.033658307,0.019517647,0.023888186,0.26776406,0.007526798,0.25098142,0
122652000,79.994774,79.994774,0.0,nan,-0.12647247,0.013696851,14.999999,15.058904,14.74682,0.06241665,0.0027580343,0.0,-0.24296284,0.19891891,-2.1607184,0.093647994,0.019472564,0.023580125,0.26775956,0.0070802886,0.25098106,0
122852000,79.994774,79.994774,0.0,nan,-0.12708893,0.014547034,15.0,15.058871,14.748056,0.062162973,0.0027813183,0.0,-0.25164586,0.1925838,-2.1630998,0.101638645,0.01942794,0.023268428,0.2676335,0.0067463387,0.25098243,0
123052000,79.994774,79.994774,0.0,nan,-0.1279831,0.017507479,14.999999,15.058783,14.763341,0.059088327,0.010221893,0.0,-0.30584902,0.22296983,-2.1274266,0.02078043,0.019379389,0.022963958,0.26699516,0.006785862,0.25097972,0
123252000,79.994774,79.994774,0.0,nan,-0.12849884,0.018589132,15.0,15.058851,14.770159,0.057738494,0.011603928,0.0,-0.33376342,0.26741302,-2.1129498,0.010905251,0.019322464,0.02266973,0.26660976,0.0066158623,0.25098234,0
123452000,79.994774,79.994774,0.0,nan,-0.12911835,0.018692346,14.999999,15.058928,14.775477,0.056690026,0.011802139,0.0,-0.3595348,0.30453312,-2.1038408,0.008927062,0.019258564,0.02237907,0.26624388,0.006401496,0.25098214,0
123652000,79.994774,79.994774,0.0,nan,-0.1298172,0.024233697,15.0,15.058929,14.771894,0.057407,0.0076210694,0.0,-0.36168474,0.32035023,-2.121082,0.12507376,0.019191371,0.02207454,0.266138,0.005881993,0.25098133,0
123852000,79.994774,79.994774,0.0,nan,-0.13049316,0.02776745,14.999999,15.058859,14.778291,0.056113627,0.009395916,0.0,-0.3928395,0.35051337,-2.1089642,0.13345009,0.019119637,0.021763077,0.2657158,0.005663734,0.250981,0
124052000,79.994774,79.994774,0.0,nan,-0.13127747,0.030170687,15.0,15.058916,14.780851,0.055612948,0.008333015,0.0,-0.4144057,0.38740557,-2.1093988,0.17270431,0.019040821,0.021455592,0.26537955,0.005328661,0.25098193,0
124252000,79.994774,79.994774,0.0,nan,-0.13185883,0.03319137,15.000001,15.058805,14.777979,0.056165315,0.005309476,0.0,-0.4183067,0.39226747,-2.1231031,0.24703285,0.01896053,0.021131683,0.26525438,0.0048463084,0.25098196,0
124452000,79.994774,79.994774,0.0,nan,-0.13251953,0.035910957,14.999999,15.058913,14.7799,0.05580273,0.00516752,0.0,-0.4367177,0.3984087,-2.1243315,0.27579075,0.018878259,0.02080332,0.26497683,0.004490899,0.2509819,0
124652000,79.994774,79.994774,0.0,nan,-0.13253938,0.030455036,14.999999,15.058883,14.781743,0.055427935,0.0049231956,0.0,-0.44813406,0.40570801,-2.1190886,0.22588848,0.018793011,0.020476386,0.26476654,0.0042402074,0.2509814,0
124852000,79.994774,79.994774,0.0,nan,-0.13263093,0.026882457,15.0,15.058935,14.782329,0.055321313,0.0042572264,0.0,-0.45630127,0.38010678,-2.118443,0.20069513,0.01870878,0.02015368,0.26462287,0.003940424,0.25098023,0
125052000,79.994774,79.994774,0.0,nan,-0.13222657,0.02165652,15.000002,15.058889,14.7842865,0.05492058,0.0045012156,0.0,-0.463116,0.3441765,-2.1086614,0.14583066,0.018626852,0.019838175,0.26450807,0.0037391204,0.25098145,0
125252000,79.994774,79.994774,0.0,nan,-0.13210297,0.022722863,15.000001,15.058913,14.782913,0.055200007,0.002434623,0.0,-0.4626013,0.32291713,-2.1115046,0.18684435,0.018546423,0.019529827,0.2644546,0.0033794139,0.25098187,0
125452000,79.994774,79.994774,0.0,nan,-0.13149415,0.02497643,15.000001,15.058906,14.774844,0.056812286,-0.0018752882,0.0,-0.437114,0.27815983,-2.1289098,0.2726422,0.018472916,0.01919927,0.26468754,0.002848681,0.2509818,0
125652000,79.994774,79.994774,0.0,nan,-0.13131562,0.020520719,14.999999,15.058883,14.770392,0.05769806,-0.0039055273,0.0,-0.42586237,0.23666754,-2.1399894,0.25892568,0.018403864,0.01887072,0.2647751,0.0024405327,0.2509814,0
125852000,79.994774,79.994774,0.0,nan,-0.1307724,0.021232398,14.999998,15.058915,14.7737465,0.05703373,-0.0013366874,0.0,-0.43268293,0.21287851,-2.125041,0.22796659,0.018338893,0.01854198,0.26466444,0.0022503864,0.25098196,0
126052000,79.994774,79.994774,0.0,nan,-0.13052826,0.017058231,14.999999,15.058809,14.774057,0.05695038,-0.000775114,0.0,-0.4335373,0.19257239,-2.121433,0.17873567,0.018275587,0.018221049,0.264612,0.0019911695,0.2509813,0
126252000,79.994774,79.994774,0.0,nan,-0.12983246,0.016418481,15.0,15.058839,14.77955,0.05585785,0.002165636,0.0,-0.44407707,0.19111703,-2.0987754,0.12900317,0.018212406,0.01790929,0.26444137,0.0018917155,0.25098065,0
126452000,79.994774,79.994774,0.0,nan,-0.12945099,0.015770119,15.0,15.058851,14.773855,0.056999207,-0.0012170173,0.0,-0.4248953,0.17763263,-2.1115785,0.17263208,0.018150484,0.017596608,0.26459014,0.0014455412,0.25098085,0
126652000,79.994774,79.994774,0.0,nan,-0.12833405,0.01399816,15.0,15.058866,14.78068,0.05563717,0.0024745292,0.0,-0.43455714,0.17636685,-2.0808823,0.10069983,0.018089607,0.017289761,0.26443043,0.0014287252,0.25098,0
126852000,79.994774,79.994774,0.0,nan,-0.1276596,0.012052677,14.999999,15.058748,14.780217,0.055706214,0.0017186177,0.0,-0.42755997,0.16688879,-2.075263,0.092794836,0.018029347,0.016991824,0.26445067,0.0011783913,0.25097916,0
127052000,79.994774,79.994774,0.0,nan,-0.12536164,0.006971238,14.999999,15.058754,14.782322,0.055286407,0.0026613835,0.0,-0.4115101,0.14466509,-2.0466392,0.029023066,0.017972516,0.016696919,0.264581,0.0011469265,0.25097924,0
127252000,79.994774,79.994774,0.0,nan,-0.123635866,0.0032302106,15.0,15.05888,14.783315,0.05511303,0.0023615207,0.0,-0.39738578,0.12222593,-2.027207,-0.0032335594,0.017918415,0.016418671,0.26469588,0.0010394165,0.25098076,0
127452000,79.994774,79.994774,0.0,nan,-0.12190705,0.0029134557,14.999999,15.058832,14.786486,0.0544693,0.0037478653,0.0,-0.38993293,0.10087823,-2.0009093,-0.026846517,0.017868893,0.016140359,0.26474404,0.0009801779,0.25098056,0
127652000,79.994774,79.994774,0.0,nan,-0.1208725,0.001623585,15.0,15.058802,14.778942,0.05597191,-0.0011637233,0.0,-0.3580987,0.077629685,-2.01256,0.033120528,0.017822003,0.015866036,0.2650468,0.0005683154,0.25098002,0
127852000,79.994774,79.994774,0.0,nan,-0.1190445,0.0013041133,15.000001,15.058809,14.771121,0.057537653,-0.0048780087,0.0,-0.3175214,0.031266455,-2.0173235,0.08484264,0.017783511,0.01557724,0.265471,0.00019954052,0.25097966,0
128052000,79.994774,79.994774,0.0,nan,-0.11780091,-0.002128639,15.000001,15.058754,14.771738,0.057403184,-0.0035119378,0.0,-0.3072875,-0.0014947196,-2.0031772,0.031002605,0.017751195,0.015290549,0.2655761,5.8077276e-05,0.25097921,0
128252000,79.994774,79.994774,0.0,nan,-0.11527558,-0.007967956,14.999998,15.058803,14.770061,0.057748415,-0.0037035614,0.0,-0.27750897,-0.04383629,-1.9834149,-0.023437135,0.017724624,0.015016391,0.26589856,-3.0144118e-05,0.25098008,0
128452000,79.994774,79.994774,0.0,nan,-0.1134903,-0.008330986,14.999998,15.05887,14.772898,0.05719452,-0.0008829736,0.0,-0.268004,-0.09052653,-1.9578884,-0.068654984,0.01770651,0.014745528,0.2660253,-7.308647e-05,0.25098068,0
128652000,79.994774,79.994774,0.0,nan,-0.11104889,-0.016972631,14.999999,15.058793,14.789137,0.053931236,0.0076887636,0.0,-0.29138005,-0.076323085,-1.8866141,-0.28015482,0.017686374,0.014507283,0.26575014,0.00039135292,0.2509799,0
128852000,79.994774,79.994774,0.0,nan,-0.108992,-0.018446906,14.999999,15.058685,14.789134,0.053910255,0.006014393,0.0,-0.271514,-0.07740275,-1.8661325,-0.26985002,0.01766537,0.01428947,0.26593244,0.0003217766,0.2509781,0
129052000,79.994774,79.994774,0.0,nan,-0.10654755,-0.016101448,14.999999,15.058763,14.7949705,0.052758407,0.0074821846,0.0,-0.26427257,-0.061965734,-1.8254336,-0.2686,0.017644983,0.014075037,0.2659733,0.00042055175,0.2509804,0
129252000,79.994774,79.994774,0.0,nan,-0.104817204,-0.011385169,15.0,15.058702,14.789312,0.05387802,0.0033667034,0.0,-0.2310493,-0.07443876,-1.8247246,-0.1614416,0.017628344,0.013849258,0.2663083,0.00012104213,0.25097838,0
129452000,79.994774,79.994774,0.0,nan,-0.10310822,-0.01127546,14.999999,15.058787,14.7960005,0.052557375,0.006016198,0.0,-0.2334804,-0.058020193,-1.7887852,-0.19959016,0.017611325,0.013626805,0.26625133,0.00020354148,0.2509798,0
129652000,79.994774,79.994774,0.0,nan,-0.10189819,-0.009855349,15.0,15.058823,14.797493,0.05226593,0.0052407007,0.0,-0.22585732,-0.034637112,-1.7726846,-0.1741972,0.017592082,0.013410254,0.2662862,9.289384e-05,0.250979,0
129852000,79.994774,79.994774,0.0,nan,-0.10000153,-0.0072983014,14.999999,15.058648,14.793861,0.052957345,0.002425168,0.0,-0.19722563,-0.031085743,-1.7641237,-0.10744949,0.01757445,0.013182917,0.26655754,-0.00011881068,0.2509775,0
130052000,79.994774,79.994774,0.0,nan,-0.09853516,-0.0090178475,14.999999,15.0587015,14.794116,0.0529171,0.0021963497,0.0,-0.18343276,-0.042397022,-1.7491615,-0.12092793,0.01755956,0.012954478,0.2666965,-0.00022428669,0.25097838,0
130252000,79.994774,79.994774,0.0,nan,-0.09655609,-0.010210754,14.999999,15.058732,14.80463,0.05082035,0.0071936822,0.0,-0.1945135,-0.03020359,-1.6992683,-0.20663309,0.017544271,0.012739756,0.26655623,7.403083e-06,0.2509794,0
130452000,79.994774,79.994774,0.0,nan,-0.095106505,-0.01261673,15.0,15.0588,14.814294,0.048901178,0.010655404,0.0,-0.2075907,-0.01001668,-1.6571126,-0.28158015,0.017525982,0.012544511,0.26638407,0.00019124057,0.25098,0
130652000,79.994774,79.994774,0.0,nan,-0.09227448,-0.019328613,14.999999,15.058662,14.820163,0.04769993,0.011594119,0.0,-0.08052713,0.0009210424,-1.6118243,-0.36137566,0.017509863,0.012361881,0.26765966,0.00041117892,0.25097772,0
130852000,79.994774,79.994774,0.0,nan,-0.0892685,-0.07052193,15.000002,15.05881,14.827493,0.046263505,0.012840125,0.0,0.64304376,-0.0886085,-1.5613967,-0.88197076,0.017537095,0.012224899,0.27211562,0.0010196082,0.25097832,0
131052000,79.994774,79.994774,0.0,nan,-0.08111115,-0.23306595,15.000001,15.058609,14.83326,0.045069885,0.013209198,0.0,2.1531057,-0.5860057,-1.463962,-2.4815316,0.017714612,0.0122518195,0.28103533,0.0028873067,0.2509768,0
131252000,79.994774,79.994774,0.0,nan,-0.06665802,-0.4227899,15.000002,15.058546,14.837146,0.044280052,0.012479312,0.0,3.5898385,-1.592982,-1.3106815,-4.33131,0.018121937,0.0125435805,0.29029423,0.0056116222,0.25097573,0
131452000,79.994774,79.994774,0.0,nan,-0.04510803,-0.5871388,15.0,15.058619,14.84539,0.042645644,0.014341134,0.0,4.7062206,-2.8866467,-1.07545,-5.970764,0.018775567,0.013102676,0.29833794,0.009078056,0.25097597,0
131652000,79.994774,79.994774,0.0,nan,-0.01849823,-0.7066691,15.000001,15.058519,14.864665,0.038770866,0.022057418,0.0,5.494637,-4.1851087,-0.7577216,-7.2579327,0.01965484,0.013894306,0.3048202,0.01315548,0.2509753,0
131852000,79.994774,79.994774,0.0,nan,0.011393738,-0.7622361,15.0,15.058424,14.902164,0.031251907,0.0369693,0.0,5.955592,-5.2124834,-0.35398668,-8.025906,0.020709127,0.014883683,0.30941725,0.017711138,0.25097373,0
132052000,79.994774,79.994774,0.0,nan,0.041871645,-0.7505923,14.999999,15.058289,14.95575,0.020507623,0.057372056,0.0,6.1603827,-5.7931433,0.103913695,-8.218838,0.021874942,0.015985593,0.3122795,0.022368737,0.2509713,0
132252000,79.994774,79.994774,0.0,nan,0.071302794,-0.690494,15.0,15.058111,15.013553,0.008911706,0.07565875,0.0,6.1551127,-5.8780127,0.5654452,-7.9073396,0.023079738,0.017133756,0.3135376,0.026728936,0.25096852,0
132452000,79.994774,79.994774,0.0,nan,0.09743805,-0.5968379,15.000001,15.0580635,15.069215,-0.0022302628,0.08904052,0.0,6.009366,-5.542163,0.9891492,-7.194751,0.024260642,0.0182646,0.313586,0.030496007,0.2509677,0
132652000,79.994774,79.994774,0.0,nan,0.11990052,-0.4898125,15.0,15.057968,15.136185,-0.015643312,0.10527085,0.0,5.685336,-4.8357596,1.4126024,-6.3968186,0.025361598,0.019342877,0.31220967,0.034120664,0.25096616,0
132852000,79.994774,79.994774,0.0,nan,0.13768463,-0.37481925,15.000002,15.057915,15.19395,-0.027206993,0.11378795,0.0,5.3010316,-3.931881,1.7636067,-5.4046097,0.026345564,0.020343449,0.31019038,0.036990423,0.2509652,0
133052000,79.994774,79.994774,0.0,nan,0.15076904,-0.2715887,15.0,15.057846,15.25058,-0.038546752,0.11932911,0.0,4.8315554,-2.8966804,2.0663996,-4.4832134,0.027185377,0.02125906,0.3074304,0.039455194,0.2509641,0
133252000,79.994774,79.994774,0.0,nan,0.15999603,-0.18847477,15.0,15.057773,15.299519,-0.04834919,0.120189816,0.0,4.35309,-1.9164758,2.3087444,-3.6871524,0.027877416,0.022089444,0.30452958,0.041473553,0.25096408,0
133452000,79.994774,79.994774,0.0,nan,0.16613923,-0.12615925,15.000001,15.057751,15.344418,-0.057333376,0.1181213,0.0,3.859354,-1.0318639,2.5090165,-3.0497022,0.028425615,0.022859484,0.30149552,0.04322726,0.2509625,0
133652000,79.994774,79.994774,0.0,nan,0.16983795,-0.06255989,15.000001,15.057765,15.374628,-0.06337261,0.10906673,0.0,3.4101107,-0.2932908,2.6398718,-2.2903633,0.028847892,0.023552543,0.2987264,0.04433135,0.25096273,0
133852000,79.994774,79.994774,0.0,nan,0.17151642,0.0055140145,15.000001,15.057796,15.395726,-0.06758614,0.09753768,0.0,2.98072,0.33055696,2.7225392,-1.4475894,0.02916042,0.024149034,0.29606998,0.044943456,0.25096238,0
134052000,79.994774,79.994774,0.0,nan,0.17012177,0.08170011,15.000002,15.057854,15.41686,-0.071801186,0.08804859,0.0,2.5309954,0.9382092,2.7752736,-0.55622846,0.029366823,0.024643509,0.29321477,0.045203533,0.2509642,0
134252000,79.994774,79.994774,0.0,nan,0.16529083,0.17428571,15.000001,15.057756,15.428033,-0.07405529,0.0753175,0.0,2.0882783,1.5744348,2.7634768,0.5471581,0.029466415,0.025007004,0.29025906,0.044737086,0.2509626,0
134452000,79.994774,79.994774,0.0,nan,0.1563797,0.27434182,15.000001,15.057767,15.425624,-0.0735714,0.05840298,0.0,1.672992,2.236613,2.6684456,1.7894719,0.029458903,0.025201429,0.2873235,0.043422326,0.2509644,0
134652000,79.994774,79.994774,0.0,nan,0.14312287,0.36581737,15.000001,15.057881,15.416385,-0.07170067,0.041318405,0.0,1.2708974,2.9027112,2.5089211,2.9504623,0.029343268,0.025221368,0.2843464,0.04152456,0.25096467,0
134852000,79.994774,79.994774,0.0,nan,0.12654267,0.4374782,15.000001,15.05792,15.399555,-0.06832695,0.023520332,0.0,0.9029398,3.5293963,2.2931643,3.9279933,0.029122977,0.025076827,0.28149083,0.03917899,0.25096533,0
135052000,79.994774,79.994774,0.0,nan,0.1070282,0.49117902,15.000001,15.057947,15.375572,-0.06352501,0.006130552,0.0,0.5756347,4.030533,2.0263214,4.72256,0.028813532,0.024777625,0.27889603,0.03642814,0.25096837,0
135252000,79.994774,79.994774,0.0,nan,0.08612519,0.51097876,15.0,15.058083,15.359914,-0.06036625,-0.0033674494,0.0,0.25723833,4.3935194,1.7718201,5.062714,0.028429247,0.024371222,0.27640975,0.03394924,0.25096804,0
135452000,79.994774,79.994774,0.0,nan,0.06347809,0.5114976,15.0,15.058154,15.318893,-0.052147865,-0.024172818,0.0,0.043123484,4.5397367,1.421355,5.386379,0.027993716,0.023885015,0.27465996,0.03070704,0.25096923,0
135652000,79.994774,79.994774,0.0,nan,0.0415329,0.5017375,15.000001,15.058246,15.26635,-0.04162083,-0.046731092,0.0,-0.09370655,4.490055,1.0426967,5.633777,0.02753701,0.023308516,0.27305645,0.027206596,0.2509706,0
135852000,79.994774,79.994774,0.0,nan,0.019425964,0.48163953,14.999999,15.058394,15.2043705,-0.029195214,-0.069340385,0.0,-0.17680699,4.257572,0.63439846,5.7775474,0.027085653,0.022650544,0.27198675,0.023455912,0.25097325,0
136052000,79.994774,79.994774,0.0,nan,-0.0009140015,0.44897217,15.000001,15.058414,15.146791,-0.0176754,-0.08490721,0.0,-0.23783976,3.9060705,0.2587623,5.688985,0.026657276,0.021935945,0.27128327,0.020022243,0.25097355,0
136252000,79.994774,79.994774,0.0,nan,-0.022148132,0.41445872,15.000002,15.058442,15.094191,-0.0071496964,-0.0945681,0.0,-0.30916408,3.4899142,-0.1092801,5.4918804,0.026261913,0.021189077,0.2705741,0.016666846,0.2509762,0
136452000,79.994774,79.994774,0.0,nan,-0.040356446,0.36709714,15.000001,15.058684,15.042438,0.003249359,-0.10194781,0.0,-0.34269008,3.0316255,-0.44463983,5.133537,0.025904782,0.02043106,0.27033266,0.013635471,0.25097805,0
136652000,79.994774,79.994774,0.0,nan,-0.057847597,0.32349384,15.000001,15.058664,14.983866,0.014959717,-0.11132231,0.0,-0.34302944,2.5315065,-0.79144555,4.8404293,0.025594234,0.019670436,0.2705183,0.010451578,0.25097772,0
136852000,79.994774,79.994774,0.0,nan,-0.0721878,0.27578554,15.0,15.058655,14.935818,0.024567414,-0.11329829,0.0,-0.33971477,2.0306141,-1.074855,4.396735,0.025334187,0.018914757,0.27079493,0.007840747,0.25097963,0
137052000,77.441414,79.98512,-0.3675,nan,-0.19709846,0.23297456,14.999999,15.0588255,14.879026,0.035959817,-0.119047076,0.0,-1.3923193,1.5082269,-2.4679227,4.0560045,0.02510966,0.018140059,0.26028335,-0.0032446496,0.25098044,0
137252000,77.441414,79.77165,-1.7674999,nan,-0.66953987,0.1490693,14.999999,15.0587,14.83923,0.043894004,-0.11480501,0.0,-5.9026184,0.9879568,-7.2172966,3.1654882,0.024602413,0.016942838,0.21397397,-0.039787494,0.25097835,0
137452000,77.441414,79.37554,-2.0,nan,-0.8239868,-0.0821201,15.000001,15.058811,14.7993355,0.05189514,-0.11168185,0.0,-6.9674435,0.048553996,-8.848564,0.84749407,0.023867395,0.015510474,0.20324455,-0.052139502,0.25098044,0
137652000,77.441414,78.97557,-2.0,nan,-0.89668274,-0.4125063,15.000001,15.058815,14.752363,0.06129036,-0.11319468,0.0,-6.328372,-1.629231,-9.697632,-2.3754163,0.023276892,0.014346196,0.21089435,-0.057747275,0.25098023,0
137852000,77.441414,78.5756,-2.0,nan,-0.95689094,-0.7780362,15.000001,15.058761,14.692752,0.07320175,-0.120676,0.0,-5.213896,-4.0547123,-10.45943,-5.856866,0.022997757,0.013541116,0.22448464,-0.062244423,0.25097933,0
138052000,77.441414,78.17563,-2.0,nan,-1.0015687,-1.1113235,15.0,15.058645,14.639522,0.08382473,-0.12291442,0.0,-4.2617555,-6.889934,-11.049188,-9.098952,0.023091886,0.013103585,0.23718965,-0.065218,0.25097743,0
138252000,77.441414,77.77566,-2.0,nan,-1.036168,-1.3897146,15.0,15.058412,14.600848,0.09151268,-0.11729905,0.0,-3.644536,-9.75494,-11.497499,-11.915779,0.023550333,0.0130204335,0.24684717,-0.06698543,0.25097352,0
138452000,77.441414,77.46959,-0.8657682,nan,-0.70008695,-1.5915908,14.999998,15.058324,14.583719,0.094920926,-0.10115194,0.0,0.23797369,-12.346025,-8.249807,-14.133001,0.024491798,0.013455622,0.289106,-0.040114686,0.2509721,0
138652000,77.441414,77.43574,0.40823174,nan,-0.26367703,-1.6527381,15.0,15.05804,14.596124,0.0923832,-0.073326215,0.0,4.762662,-14.270052,-3.934225,-15.137547,0.026128009,0.01472496,0.31737024,-0.0049334923,0.25096732,0
138852000,77.441414,77.44205,-0.04250905,nan,-0.33553103,-1.5710417,14.999999,15.057841,14.626776,0.08621311,-0.041633386,0.0,4.0926085,-15.171419,-4.551455,-14.797694,0.028011579,0.016161233,0.3164925,-0.008426325,0.25096405,0
139052000,77.441414,77.44141,0.0021561086,nan,-0.26592422,-1.4241616,15.0,15.057635,14.6914625,0.07323456,0.0013303553,0.0,4.5287733,-15.042374,-3.6837485,-13.985799,0.029969871,0.01759772,0.32070008,-0.00082019717,0.25096047,0
139252000,77.39163,77.43674,-0.25550002,nan,-0.29243982,-1.2636509,14.999999,15.05745,14.776051,0.056279946,0.04558153,0.0,3.8494673,-14.119971,-3.6994505,-13.065698,0.03187603,0.01899358,0.31797147,-7.307157e-05,0.25095752,0
139452000,77.03595,77.24566,-1.6554999,nan,-0.70580983,-1.1054343,14.999999,15.057164,14.875539,0.036325075,0.088018745,0.0,-0.80228376,-12.670881,-7.461985,-12.149934,0.033344693,0.019929951,0.28872544,-0.028008273,0.25095275,0
139652000,76.617355,76.87629,-1.9188261,nan,-0.81744623,-1.0314759,15.0,15.057127,14.970481,0.017329216,0.119314596,0.0,-2.5733953,-11.159571,-8.275836,-11.90152,0.034332383,0.020456579,0.27001014,-0.033444744,0.2509497,0
139852000,76.15253,76.47782,-2.0,nan,-0.88327336,-1.0108997,15.0,15.056913,15.057981,-0.00021343231,0.1400255,0.0,-3.9475331,-9.928926,-8.658739,-12.02204,0.035034638,0.020914126,0.2553687,-0.03544466,0.25094855,0
140052000,75.64678,76.07785,-2.0,nan,-0.9238648,-1.0234559,15.0,15.056781,15.134218,-0.01548748,0.15062425,0.0,-5.063719,-9.090545,-8.825627,-12.316254,0.03552124,0.02137572,0.24355188,-0.035737835,0.25094634,0
140252000,75.11014,75.67788,-2.0,nan,-0.9638108,-1.0549704,15.0,15.056677,15.20287,-0.0292387,0.15482438,0.0,-6.159407,-8.614559,-9.007243,-12.6995,0.035833396,0.021859912,0.23213235,-0.03607866,0.2509431,0
140452000,74.54824,75.27791,-2.0,nan,-1.0015931,-1.0785584,15.0,15.056448,15.252648,-0.039240073,0.1485295,0.0,-7.1727614,-8.451177,-9.223759,-12.842514,0.036011554,0.022351392,0.22173786,-0.036894754,0.2509408,0
140652000,73.969055,74.87794,-2.0,nan,-1.0410508,-1.0786021,15.0,15.056385,15.302374,-0.04919777,0.14352085,0.0,-8.194829,-8.419479,-9.456378,-12.773684,0.036081072,0.022814196,0.21127814,-0.037990425,0.25093976,0
140852000,73.37598,74.47797,-2.0,nan,-1.0798005,-1.0556986,14.999999,15.056182,15.335356,-0.05583477,0.13070448,0.0,-9.1435375,-8.40491,-9.73298,-12.357267,0.036049787,0.023210946,0.2014861,-0.03976297,0.2509367,0
141052000,72.773834,74.077995,-2.0,nan,-1.1216264,-0.99575335,15.0,15.056015,15.349322,-0.05866146,0.11053196,0.0,-10.045122,-8.317142,-10.098984,-11.461596,0.035921108,0.023471778,0.19200742,-0.04271452,0.2509336,0
141252000,72.1673,73.678024,-2.0,nan,-1.1645142,-0.9324164,15.0,15.05596,15.357016,-0.06021118,0.09131805,0.0,-10.903618,-8.139362,-10.495318,-10.546253,0.03569095,0.023557644,0.18278106,-0.04609816,0.25093174,0
141452000,71.55969,73.27805,-2.0,nan,-1.2103226,-0.8742191,14.999999,15.055781,15.345397,-0.057923127,0.066065066,0.0,-11.680752,-7.936485,-10.980357,-9.586956,0.035359617,0.023460006,0.1742638,-0.050431438,0.2509297,0
141652000,70.95407,72.87808,-2.0,nan,-1.2569764,-0.8367011,15.0,15.05561,15.314459,-0.05176983,0.036056858,0.0,-12.347105,-7.80375,-11.533901,-8.757425,0.03493942,0.023172552,0.16686466,-0.055474877,0.25092682,0
141852000,70.3517,72.47811,-2.0,nan,-1.3056991,-0.8228738,15.0,15.055616,15.2709875,-0.043074228,0.0060114097,0.0,-12.933536,-7.8200436,-12.146748,-8.161435,0.034452707,0.022708213,0.1603704,-0.061062552,0.25092554,0
142052000,69.75432,72.07814,-2.0,nan,-1.3534927,-0.84334105,15.0,15.055506,15.222313,-0.033361435,-0.0205305,0.0,-13.438369,-8.014926,-12.765391,-7.9578285,0.033922356,0.022110209,0.15484855,-0.06662342,0.25092378,0
142252000,69.16203,71.67817,-2.0,nan,-1.4014908,-0.8891272,15.0,15.055389,15.159175,-0.020757103,-0.049493887,0.0,-13.849406,-8.421243,-13.42927,-7.969073,0.03337648,0.021417618,0.15048695,-0.07259033,0.25092316,0
142452000,68.57464,71.2782,-2.0,nan,-1.4462783,-0.94572383,14.999999,15.055194,15.080847,-0.0051305774,-0.07977619,0.0,-14.14381,-9.055133,-14.105772,-8.07129,0.032850876,0.020632295,0.1475693,-0.07882651,0.2509209,0
142652000,67.99162,70.87823,-2.0,nan,-1.4897659,-1.0125071,14.999999,15.055133,15.011715,0.0086835865,-0.099014156,0.0,-14.421165,-9.818856,-14.739968,-8.442931,0.032368436,0.019790139,0.14499857,-0.08461301,0.2509175,0
142852000,67.41268,70.47826,-2.0,nan,-1.52912,-1.0912862,15.0,15.054939,14.935976,0.023792649,-0.11773757,0.0,-14.617293,-10.678239,-15.350911,-8.943336,0.031943865,0.018923625,0.14341709,-0.09025547,0.25091565,0
143052000,66.83807,70.078285,-2.0,nan,-1.5673752,-1.1689969,14.999999,15.054933,14.851397,0.04070721,-0.13729157,0.0,-14.76066,-11.604985,-15.975259,-9.424973,0.031592432,0.018034039,0.14251699,-0.09615167,0.25091285,0
143252000,66.265854,69.678314,-2.0,nan,-1.601378,-1.2427294,14.999999,15.0546465,14.776156,0.055698015,-0.1476633,0.0,-14.881105,-12.53198,-16.527155,-10.005116,0.031321194,0.017129725,0.14193393,-0.10142662,0.25091127,0
143452000,65.69574,69.27834,-2.0,nan,-1.6341233,-1.3249975,14.999998,15.054533,14.715913,0.06772404,-0.14823334,0.0,-15.026135,-13.419726,-17.021896,-10.812399,0.031127265,0.016249346,0.14113572,-0.106004,0.2509089,0
143652000,65.126976,68.87837,-2.0,nan,-1.6618257,-1.4098756,15.0,15.054338,14.65568,0.079731755,-0.14870533,0.0,-15.118602,-14.283011,-17.465467,-11.646779,0.031008773,0.015416823,0.14092666,-0.11015334,0.25090492,0
143852000,64.55869,68.4784,-2.0,nan,-1.687912,-1.4824722,15.0,15.054198,14.597984,0.09124279,-0.14739685,0.0,-15.201212,-15.113159,-17.884724,-12.386389,0.03096773,0.014626391,0.14086354,-0.11414493,0.2509013,0
144052000,63.990604,68.07843,-2.0,nan,-1.7093766,-1.5535493,15.0,15.053998,14.545156,0.10176849,-0.14422435,0.0,-15.252932,-15.868327,-18.243496,-13.137348,0.030997436,0.013889457,0.14111571,-0.11758985,0.25089997,0
144252000,63.422325,67.67846,-2.0,nan,-1.7303437,-1.614002,14.999999,15.053706,14.492581,0.11222496,-0.14138336,0.0,-15.302625,-16.56335,-18.595304,-13.778944,0.031095013,0.013195958,0.14139208,-0.12103179,0.25089428,0
144452000,62.853283,67.27849,-2.0,nan,-1.7472215,-1.6686746,14.999999,15.053409,14.46085,0.11851177,-0.12806454,0.0,-15.372672,-17.152302,-18.848171,-14.512185,0.03125099,0.012551833,0.14141335,-0.12341483,0.25089017,0
144652000,62.284348,66.87852,-2.0,nan,-1.7638749,-1.7192304,14.999999,15.053192,14.43855,0.12292843,-0.11306335,0.0,-15.468915,-17.624676,-19.072613,-15.227421,0.03145006,0.011982916,0.14109266,-0.12543222,0.25088656,0
144852000,61.713833,66.478546,-2.0,nan,-1.7769303,-1.7547613,15.0,15.053088,14.404619,0.12969379,-0.10682863,0.0,-15.499604,-18.031384,-19.293922,-15.669504,0.031687405,0.0114548085,0.14141808,-0.1276944,0.25088322,0
145052000,61.143154,66.078575,-2.0,nan,-1.790451,-1.7856016,15.0,15.052874,14.390243,0.1325262,-0.09198389,0.0,-15.591733,-18.326096,-19.46541,-16.1871,0.03195236,0.010969935,0.14102653,-0.12928823,0.2508782,0
145252000,60.570248,65.678604,-2.0,nan,-1.8011353,-1.8127373,14.999999,15.052436,14.383866,0.13371392,-0.075723216,0.0,-15.680972,-18.529879,-19.586426,-16.687687,0.032232862,0.010531634,0.14059,-0.13037752,0.25087395,0
145452000,59.994656,65.27863,-2.0,nan,-1.8118485,-1.8364891,15.0,15.052289,14.396506,0.13115655,-0.053307258,0.0,-15.823513,-18.635237,-19.65636,-17.242367,0.03251624,0.010159554,0.13950911,-0.13077788,0.25086823,0
145652000,59.41736,64.87866,-2.0,nan,-1.8199112,-1.8565898,15.0,15.052063,14.417627,0.12688713,-0.030736655,0.0,-15.965012,-18.66707,-19.676643,-17.763777,0.032792598,0.0098531535,0.13836226,-0.13066684,0.25086635,0
145852000,58.838657,64.47869,-2.0,nan,-1.828885,-1.8654042,15.0,15.0517845,14.439101,0.12253666,-0.013129549,0.0,-16.117561,-18.62106,-19.704554,-18.103788,0.03305179,0.009610863,0.1370055,-0.13067685,0.25086308,0
146052000,58.258324,64.07872,-2.0,nan,-1.8361008,-1.8722857,14.999999,15.051455,14.465388,0.11721325,0.003307135,0.0,-16.267616,-18.520239,-19.701534,-18.40869,0.03328787,0.009410442,0.13559559,-0.13038398,0.25085893,0
146252000,57.675007,63.678715,-2.0,nan,-1.8441033,-1.8681494,14.999998,15.051339,14.487395,0.112788774,0.01423075,0.0,-16.41321,-18.397444,-19.718493,-18.526455,0.03349894,0.009236206,0.13418253,-0.13039428,0.2508528,0
146452000,57.090664,63.278706,-2.0,nan,-1.8510323,-1.8602915,14.999999,15.050981,14.51177,0.107842065,0.024307445,0.0,-16.556046,-18.240076,-19.717405,-18.59597,0.033681408,0.009072284,0.13273768,-0.1302664,0.2508497,0
146652000,56.504295,62.878696,-2.0,nan,-1.8598686,-1.8494242,15.0,15.050695,14.538921,0.10235482,0.033612825,0.0,-16.724863,-18.053242,-19.72721,-18.62535,0.033830624,0.008916685,0.13095878,-0.13021682,0.2508421,0
146852000,55.917522,62.478687,-2.0,nan,-1.8674554,-1.844529,15.0,15.05052,14.568665,0.09637108,0.042073257,0.0,-16.888664,-17.850737,-19.71748,-18.701603,0.033942584,0.008769636,0.12918426,-0.12995154,0.25084028,0
147052000,55.33027,62.07868,-2.0,nan,-1.8762169,-1.8321974,15.000001,15.050077,14.596768,0.09066182,0.048163272,0.0,-17.059729,-17.658442,-19.722773,-18.670748,0.034018826,0.008625771,0.12730579,-0.12989055,0.2508346,0
147252000,54.74263,61.67867,-2.0,nan,-1.8841301,-1.8224505,14.999999,15.049934,14.621106,0.08576565,0.05072943,0.0,-17.210716,-17.475698,-19.730993,-18.613855,0.03405966,0.008477372,0.12560993,-0.12991112,0.25083125,0
147452000,54.15474,61.27866,-2.0,nan,-1.8932885,-1.8090447,15.0,15.049675,14.647131,0.080508806,0.0540236,0.0,-17.378466,-17.307728,-19.74604,-18.53196,0.034068257,0.008313083,0.123722926,-0.13000177,0.25082633,0
147652000,53.566345,60.87865,-2.0,nan,-1.9018211,-1.8013892,15.0,15.049373,14.6678915,0.07629623,0.053621218,0.0,-17.52483,-17.152275,-19.769598,-18.452105,0.034043744,0.008138124,0.12203641,-0.13021664,0.25082287,0
147852000,52.975945,60.47864,-2.0,nan,-1.9109627,-1.7912548,14.999999,15.049078,14.690564,0.07170277,0.05452829,0.0,-17.682104,-17.0216,-19.793497,-18.36726,0.033990774,0.00794424,0.12023184,-0.13043836,0.2508171,0
148052000,52.38594,60.078632,-2.0,nan,-1.9195886,-1.7861931,15.0,15.048907,14.711727,0.06743603,0.053981874,0.0,-17.829544,-16.905066,-19.816833,-18.310738,0.033909015,0.0077440273,0.11851545,-0.13065661,0.25081316,0
148252000,51.796288,59.678623,-2.0,nan,-1.9287987,-1.7798107,15.0,15.048553,14.717768,0.066157155,0.046025246,0.0,-17.939407,-16.847292,-19.88874,-18.13137,0.03380678,0.007516244,0.11722324,-0.1314999,0.25080922,0
148452000,51.20662,59.278614,-2.0,nan,-1.9376061,-1.7769308,14.999999,15.04832,14.72817,0.06402989,0.042073775,0.0,-18.057281,-16.82632,-19.944468,-18.045408,0.03368983,0.00725895,0.11586933,-0.13214293,0.25080377,0
148652000,50.615906,58.878605,-2.0,nan,-1.9461846,-1.7803304,15.0,15.048018,14.740798,0.061444093,0.039808087,0.0,-18.179214,-16.82594,-19.991287,-18.045881,0.0335591,0.0069947746,0.11448287,-0.13264364,0.25080067,0
148852000,50.025726,58.478596,-2.0,nan,-1.9544,-1.7835953,15.0,15.0478115,14.754389,0.05868454,0.038835313,0.0,-18.300035,-16.856924,-20.031971,-18.064085,0.03341921,0.0067218547,0.11312933,-0.13308464,0.25079685,0
149052000,49.435577,58.078587,-2.0,nan,-1.9631127,-1.790215,15.0,15.047493,14.762052,0.057088282,0.034609437,0.0,-18.408762,-16.904257,-20.094301,-18.06692,0.03327069,0.0064498936,0.111904964,-0.13375568,0.2507903,0
149252000,48.845665,57.678577,-2.0,nan,-1.9712701,-1.7922142,14.999999,15.047333,14.758925,0.057681467,0.026291236,0.0,-18.48024,-17.001514,-20.182873,-17.963648,0.03312257,0.006147944,0.1111166,-0.13483182,0.2507869,0
149452000,48.254055,57.27857,-2.0,nan,-1.9788766,-1.8016524,14.999999,15.046954,14.774646,0.05446167,0.028912313,0.0,-18.601463,-17.075493,-20.210802,-18.095345,0.032971438,0.0058523654,0.10979016,-0.13509855,0.25078258,0
149652000,47.662975,56.87856,-2.0,nan,-1.9859796,-1.806985,15.0,15.046713,14.777366,0.053869437,0.024598824,0.0,-18.67962,-17.176693,-20.271856,-18.083977,0.0328207,0.005554676,0.10893264,-0.13584158,0.25077727,0
149852000,47.06981,56.47855,-2.0,nan,-1.992498,-1.813415,15.0,15.046585,14.782883,0.05274048,0.022282835,0.0,-18.759825,-17.26715,-20.319387,-18.112932,0.03267075,0.0052537997,0.10804653,-0.13643037,0.25077438,0
150052000,46.477577,56.07854,-2.0,nan,-1.9990616,-1.816288,15.0,15.046185,14.78312,0.05261288,0.018284846,0.0,-18.825907,-17.372068,-20.38188,-18.082008,0.032524582,0.004939379,0.10732195,-0.137238,0.25076973,0
150252000,45.88658,55.67853,-2.0,nan,-2.005272,-1.8237767,14.999999,15.045992,14.790486,0.051101115,0.018053677,0.0,-18.908686,-17.442656,-20.42081,-18.152163,0.032377418,0.0046280073,0.10639028,-0.13772546,0.2507648,0
150452000,45.29574,55.278522,-2.0,nan,-2.011355,-1.8309513,14.999999,15.045698,14.791262,0.050887298,0.014997828,0.0,-18.971382,-17.537231,-20.47734,-18.177336,0.032232873,0.004309199,0.1056924,-0.13844813,0.2507608,0
150652000,44.705593,54.878513,-2.0,nan,-2.0160866,-1.8411716,14.999999,15.045357,14.802537,0.048563957,0.017829413,0.0,-19.05154,-17.619354,-20.489925,-18.319645,0.032089405,0.00400183,0.104802996,-0.1386441,0.25075597,0
150852000,44.11534,54.478504,-2.0,nan,-2.020887,-1.8438299,14.999998,15.045086,14.804131,0.04819107,0.015140696,0.0,-19.10402,-17.704994,-20.531557,-18.305939,0.031948436,0.0036987104,0.10420357,-0.13925675,0.25075084,0
151052000,43.52488,54.078495,-2.0,nan,-2.025663,-1.8435879,15.0,15.044927,14.809204,0.04714451,0.0148280915,0.0,-19.166124,-17.767366,-20.56314,-18.299015,0.031809147,0.0033876328,0.10348435,-0.13976283,0.25074637,0
151252000,42.934,53.678486,-2.0,nan,-2.0307946,-1.8466192,14.999999,15.044576,14.813712,0.046172716,0.014229596,0.0,-19.230648,-17.810213,-20.599281,-18.31994,0.031667884,0.003074726,0.10271984,-0.14029142,0.25074294,0
151452000,42.341606,53.278477,-2.0,nan,-2.0350428,-1.8546176,15.0,15.044283,14.822859,0.04428482,0.016022101,0.0,-19.299952,-17.851042,-20.61338,-18.42508,0.0315239,0.0027699412,0.101897575,-0.1405421,0.25073558,0
151652000,41.749443,52.878468,-2.0,nan,-2.039489,-1.8561902,15.0,15.044164,14.820488,0.044735145,0.011502682,0.0,-19.337044,-17.910603,-20.663551,-18.373484,0.031380266,0.00246186,0.101428986,-0.14128834,0.250732,0
151852000,41.15692,52.47846,-2.0,nan,-2.0421882,-1.8670467,14.999999,15.043714,14.821495,0.044443704,0.0098469695,0.0,-19.367859,-17.984291,-20.685747,-18.45542,0.031239728,0.0021501463,0.1010422,-0.14170188,0.25072858,0
152052000,40.564564,52.07845,-2.0,nan,-2.045227,-1.8710797,14.999999,15.043462,14.820735,0.044545364,0.007834767,0.0,-19.396248,-18.083796,-20.71702,-18.465141,0.031106371,0.0018398139,0.10071121,-0.14224957,0.250723,0
152252000,39.994774,51.67844,-2.0,nan,-2.0472207,-1.8849663,15.0,15.043162,14.832377,0.042156983,0.012328538,0.0,-19.450783,-18.153084,-20.701666,-18.668066,0.030975655,0.0015475894,0.1000855,-0.14217308,0.2507188,0
152452000,39.994774,51.27843,-2.0,nan,-2.0496874,-1.8923577,15.000001,15.042996,14.835917,0.04141579,0.011594423,0.0,-19.485895,-18.229982,-20.715008,-18.729704,0.030848013,0.0012739988,0.09967192,-0.1424709,0.2507166,0
152652000,39.994774,50.87842,-2.0,nan,-2.0516548,-1.897382,15.0,15.042551,14.848623,0.038785554,0.016241556,0.0,-19.54377,-18.288256,-20.695774,-18.848127,0.03072348,0.0010082779,0.09900259,-0.142387,0.2507079,0
152852000,39.994774,50.478413,-2.0,nan,-2.0539298,-1.9041911,15.0,15.042366,14.854009,0.037671473,0.015691359,0.0,-19.582466,-18.336948,-20.701744,-18.906816,0.03059829,0.00076067646,0.09852553,-0.1425874,0.25070477,0
153052000,39.994774,50.078403,-2.0,nan,-2.0552025,-1.907727,15.0,15.041963,14.857538,0.03688488,0.014377537,0.0,-19.606533,-18.38315,-20.702671,-18.922028,0.030474678,0.00051500363,0.09819555,-0.14279558,0.25069937,0
153252000,39.994774,49.678394,-2.0,nan,-2.0569024,-1.9143475,15.0,15.0417795,14.860018,0.036352348,0.012823014,0.0,-19.631054,-18.4494,-20.71152,-18.963886,0.030354844,0.00027290455,0.09788538,-0.14305182,0.25069463,0
153452000,39.994774,49.278385,-2.0,nan,-2.0572853,-1.9248878,15.000001,15.041551,14.8740015,0.03350983,0.01786959,0.0,-19.67661,-18.511427,-20.673502,-19.142494,0.030238656,4.4414795e-05,0.09735944,-0.1427364,0.25069073,0
153652000,39.994774,48.878376,-2.0,nan,-2.0582657,-1.9347914,15.000001,15.041243,14.881152,0.03201809,0.017891409,0.0,-19.70821,-18.569103,-20.661158,-19.240068,0.030123034,-0.000155037,0.09697359,-0.14270735,0.25068736,0
