timestamp,timestamp_sample,q[0],q[1],q[2],q[3],delta_q_reset[0],delta_q_reset[1],delta_q_reset[2],delta_q_reset[3],quat_reset_counter
4008000,4008000,0.7068471,-0.002160796,-0.0029339856,0.7073571,0.99999976,-2.3283064e-10,3.4924597e-10,0.0007277131,1
4508000,4508000,0.7093558,-0.002066755,-0.002741747,0.7048423,0.99999976,-2.3283064e-10,3.4924597e-10,0.0007277131,1
5008000,5008000,0.7100459,-0.0020132465,-0.002623919,0.7041477,0.99999976,-2.3283064e-10,3.4924597e-10,0.0007277131,1
5508000,5508000,0.7102948,-0.001890047,-0.0024871307,0.7038974,0.99999976,-2.3283064e-10,3.4924597e-10,0.0007277131,1
6008000,6008000,0.7104223,-0.0021748433,-0.002386615,0.70376825,0.99999976,-2.3283064e-10,3.4924597e-10,0.0007277131,1
6508000,6508000,0.7105975,-0.0019707177,-0.0021783067,0.70359254,0.99999976,-2.3283064e-10,3.4924597e-10,0.0007277131,1
7008000,7008000,0.71060926,-0.0017482091,-0.0018695418,0.7035822,0.99999976,-2.3283064e-10,3.4924597e-10,0.0007277131,1
7508000,7508000,0.710817,-0.0017119834,-0.0018765251,0.7033725,0.99999976,-2.3283064e-10,3.4924597e-10,0.0007277131,1
8008000,8008000,0.7108288,-0.0020702009,-0.0021644763,0.7033587,0.99999976,-2.3283064e-10,3.4924597e-10,0.0007277131,1
8508000,8508000,0.7109006,-0.002269915,-0.0019921,0.70328605,0.99999976,-2.3283064e-10,3.4924597e-10,0.0007277131,1
9008000,9008000,0.7108745,-0.0021352856,-0.0017625793,0.7033135,0.99999976,-2.3283064e-10,3.4924597e-10,0.0007277131,1
9508000,9508000,0.71083814,-0.002195061,-0.0016591663,0.7033503,0.99999976,-2.3283064e-10,3.4924597e-10,0.0007277131,1
10008000,10008000,0.71091557,-0.0023430104,-0.001501006,0.7032719,0.99999976,-2.3283064e-10,3.4924597e-10,0.0007277131,1
10508000,10508000,0.7110682,-0.0023899525,-0.0015264608,0.7031174,0.99999976,-2.3283064e-10,3.4924597e-10,0.0007277131,1
11008000,11008000,0.7110194,-0.0023736136,-0.0014146111,0.70316696,0.99999976,-2.3283064e-10,3.4924597e-10,0.0007277131,1
11508000,11508000,0.7110827,-0.0025507167,-0.001397591,0.70310247,0.99999976,-2.3283064e-10,3.4924597e-10,0.0007277131,1
12008000,12008000,0.71114147,-0.0026374725,-0.0013083597,0.70304275,0.99999976,-2.3283064e-10,3.4924597e-10,0.0007277131,1
12508000,12508000,0.7112113,-0.0023545332,-0.0012832079,0.7029732,0.99999976,-2.3283064e-10,3.4924597e-10,0.0007277131,1
13008000,13008000,0.7112606,-0.0024659655,-0.001370685,0.70292276,0.99999976,-2.3283064e-10,3.4924597e-10,0.0007277131,1
13508000,13508000,0.7112721,-0.0023936469,-0.0012176492,0.7029116,0.99999976,-2.3283064e-10,3.4924597e-10,0.0007277131,1
14008000,14008000,0.71120757,-0.0024490587,-0.001211386,0.70297676,0.99999976,-2.3283064e-10,3.4924597e-10,0.0007277131,1
14508000,14508000,0.7113584,-0.002521779,-0.001110552,0.70282406,0.99999976,-2.3283064e-10,3.4924597e-10,0.0007277131,1
15008000,15008000,0.7113428,-0.0026255022,-0.0010518729,0.70283955,0.99999976,-2.3283064e-10,3.4924597e-10,0.0007277131,1
15508000,15508000,0.7115004,-0.0025942316,-0.0008190909,0.70268047,0.99999976,-2.3283064e-10,3.4924597e-10,0.0007277131,1
16008000,16008000,0.71150684,-0.0026642962,-0.00050907413,0.702674,0.99999976,-2.3283064e-10,3.4924597e-10,0.0007277131,1
16508000,16508000,0.7117289,-0.0029896714,-0.00049133523,0.70244783,0.99999976,-2.3283064e-10,3.4924597e-10,0.0007277131,1
17008000,17008000,0.7116821,-0.0030599118,-0.0005555029,0.7024948,0.99999976,-2.3283064e-10,3.4924597e-10,0.0007277131,1
17508000,17508000,0.7116704,-0.0031842494,-0.0005575953,0.7025061,0.99999976,-2.3283064e-10,3.4924597e-10,0.0007277131,1
18008000,18008000,0.7116935,-0.0030147708,-0.00030865712,0.70248353,0.99999976,-2.3283064e-10,3.4924597e-10,0.0007277131,1
18508000,18508000,0.71174586,-0.0031170188,-0.0002466151,0.7024302,0.99999976,-2.3283064e-10,3.4924597e-10,0.0007277131,1
19008000,19008000,0.71174693,-0.003290408,-0.00021859197,0.7024282,0.99999976,-2.3283064e-10,3.4924597e-10,0.0007277131,1
19508000,19508000,0.7120563,-0.0034682842,-0.00013105615,0.70211387,0.99999976,-2.3283064e-10,3.4924597e-10,0.0007277131,1
20008000,20008000,0.71194744,-0.0035587866,-8.918545e-05,0.70222384,0.99999976,-2.3283064e-10,3.4924597e-10,0.0007277131,1
20508000,20508000,0.7119001,-0.0035493283,0.00021606594,0.70227176,0.99999976,-2.3283064e-10,3.4924597e-10,0.0007277131,1
21008000,21008000,0.71199465,-0.0034529532,0.0002135333,0.70217645,0.99999976,-2.3283064e-10,3.4924597e-10,0.0007277131,1
21508000,21508000,0.7120443,-0.0035164873,9.6017386e-05,0.70212585,0.99999976,-2.3283064e-10,3.4924597e-10,0.0007277131,1
22008000,22008000,0.71208733,-0.0033235594,-2.8084123e-05,0.70208305,0.99999976,-2.3283064e-10,3.4924597e-10,0.0007277131,1
22508000,22508000,0.712121,-0.0032161607,6.984654e-05,0.70204943,0.99999976,-2.3283064e-10,3.4924597e-10,0.0007277131,1
23008000,23008000,0.712177,-0.0033391225,0.00012603951,0.70199203,0.99999976,-2.3283064e-10,3.4924597e-10,0.0007277131,1
23508000,23508000,0.71214336,-0.0033465615,8.038732e-05,0.7020262,0.99999976,-2.3283064e-10,3.4924597e-10,0.0007277131,1
24008000,24008000,0.71225214,-0.003361116,0.00016433214,0.70191574,0.99999976,-2.3283064e-10,3.4924597e-10,0.0007277131,1
24508000,24508000,0.7122648,-0.0034205122,0.00032275563,0.70190257,0.99999976,-2.3283064e-10,3.4924597e-10,0.0007277131,1
25008000,25008000,0.7122974,-0.0033217599,0.00033868605,0.7018699,0.99999976,-2.3283064e-10,3.4924597e-10,0.0007277131,1
25508000,25508000,0.71220106,-0.0031237644,0.00014448828,0.70196855,0.99999976,-2.3283064e-10,3.4924597e-10,0.0007277131,1
26008000,26008000,0.71225005,-0.0030198635,0.00010942118,0.70191944,0.99999976,-2.3283064e-10,3.4924597e-10,0.0007277131,1
26508000,26508000,0.7122716,-0.0030371635,0.00019281657,0.70189744,0.99999976,-2.3283064e-10,3.4924597e-10,0.0007277131,1
27008000,27008000,0.7122611,-0.0031415387,0.00023714434,0.70190763,0.99999976,-2.3283064e-10,3.4924597e-10,0.0007277131,1
27508000,27508000,0.71229553,-0.0031511886,0.00019036907,0.7018725,0.99999976,-2.3283064e-10,3.4924597e-10,0.0007277131,1
28008000,28008000,0.7121925,-0.003123783,0.00012197048,0.70197725,0.99999976,-2.3283064e-10,3.4924597e-10,0.0007277131,1
28508000,28508000,0.71226746,-0.0031459674,9.18728e-06,0.70190114,0.99999976,-2.3283064e-10,3.4924597e-10,0.0007277131,1
29008000,29008000,0.71236616,-0.0029586696,-2.969795e-05,0.7018018,0.99999976,-2.3283064e-10,3.4924597e-10,0.0007277131,1
29508000,29508000,0.7125326,-0.0029866039,-7.298383e-05,0.7016327,0.99999976,-2.3283064e-10,3.4924597e-10,0.0007277131,1
30008000,30008000,0.7125149,-0.0029341176,-0.0003012114,0.7016509,0.99999976,-2.3283064e-10,3.4924597e-10,0.0007277131,1
30508000,30508000,0.7125039,-0.0029588495,-0.00045407863,0.70166177,0.99999976,-2.3283064e-10,3.4924597e-10,0.0007277131,1
31008000,31008000,0.7125107,-0.0029657334,-0.00065271446,0.7016547,0.99999976,-2.3283064e-10,3.4924597e-10,0.0007277131,1
31508000,31508000,0.71260375,-0.003018112,-0.00067777693,0.70156,0.99999976,-2.3283064e-10,3.4924597e-10,0.0007277131,1
32008000,32008000,0.71260995,-0.0030485136,-0.0006518215,0.7015536,0.99999976,-2.3283064e-10,3.4924597e-10,0.0007277131,1
32508000,32508000,0.71262664,-0.0028788936,-0.00069268653,0.70153725,0.99999976,-2.3283064e-10,3.4924597e-10,0.0007277131,1
33008000,33008000,0.712512,-0.0028128426,-0.0008796805,0.7016537,0.99999976,-2.3283064e-10,3.4924597e-10,0.0007277131,1
33508000,33508000,0.71258265,-0.0027563786,-0.0010046066,0.7015821,0.99999976,-2.3283064e-10,3.4924597e-10,0.0007277131,1
34008000,34008000,0.7124926,-0.0027312909,-0.0010114651,0.7016737,0.99999976,-2.3283064e-10,3.4924597e-10,0.0007277131,1
34508000,34508000,0.7124949,-0.0027853842,-0.00083448045,0.70167124,0.99999976,-2.3283064e-10,3.4924597e-10,0.0007277131,1
35008000,35008000,0.7125578,-0.0028022458,-0.0007523632,0.70160747,0.99999976,-2.3283064e-10,3.4924597e-10,0.0007277131,1
35508000,35508000,0.7125435,-0.002804107,-0.0006897853,0.701622,0.99999976,-2.3283064e-10,3.4924597e-10,0.0007277131,1
36008000,36008000,0.7123923,-0.0025560798,-0.0006534702,0.7017766,0.99999976,-2.3283064e-10,3.4924597e-10,0.0007277131,1
36508000,36508000,0.71251124,-0.0027353663,-0.00063341873,0.7016551,0.99999976,-2.3283064e-10,3.4924597e-10,0.0007277131,1
37008000,37008000,0.71240586,-0.0027565788,-0.00063769356,0.701762,0.99999976,-2.3283064e-10,3.4924597e-10,0.0007277131,1
37508000,37508000,0.71242875,-0.002638024,-0.00067129004,0.7017392,0.99999976,-2.3283064e-10,3.4924597e-10,0.0007277131,1
38008000,38008000,0.71228796,-0.0025157903,-0.000529909,0.7018827,0.99999976,-2.3283064e-10,3.4924597e-10,0.0007277131,1
38508000,38508000,0.7122849,-0.0022642233,-0.00045544855,0.70188665,0.99999976,-2.3283064e-10,3.4924597e-10,0.0007277131,1
39008000,39008000,0.7123179,-0.0023966604,-0.00048722912,0.70185274,0.99999976,-2.3283064e-10,3.4924597e-10,0.0007277131,1
39508000,39508000,0.71240956,-0.0023555607,-0.0005483529,0.7017599,0.99999976,-2.3283064e-10,3.4924597e-10,0.0007277131,1
40008000,40008000,0.7124802,-0.0021587014,-0.0005012172,0.70168877,0.99999976,-2.3283064e-10,3.4924597e-10,0.0007277131,1
40508000,40508000,0.7122153,-0.0019543446,-0.0005004683,0.70195824,0.99999976,-2.3283064e-10,3.4924597e-10,0.0007277131,1
41008000,41008000,0.71240574,-0.001844826,-0.00031357855,0.7017653,0.99999976,-2.3283064e-10,3.4924597e-10,0.0007277131,1
41508000,41508000,0.71241826,-0.0017632183,-0.000363329,0.7017529,0.99999976,-2.3283064e-10,3.4924597e-10,0.0007277131,1
42008000,42008000,0.712408,-0.0017008005,-0.00044517367,0.7017634,0.99999976,-2.3283064e-10,3.4924597e-10,0.0007277131,1
42508000,42508000,0.7124941,-0.0013391698,-0.00060187635,0.7016766,0.99999976,-2.3283064e-10,3.4924597e-10,0.0007277131,1
43008000,43008000,0.712435,-0.0011850015,-0.00032344778,0.70173705,0.99999976,-2.3283064e-10,3.4924597e-10,0.0007277131,1
43508000,43508000,0.7124042,-0.0010267893,-0.0003852942,0.7017686,0.99999976,-2.3283064e-10,3.4924597e-10,0.0007277131,1
44008000,44008000,0.71227473,-0.00090421404,-0.0003738614,0.7019001,0.99999976,-2.3283064e-10,3.4924597e-10,0.0007277131,1
44508000,44508000,0.7123322,-0.00068884983,-0.00032499945,0.7018421,0.99999976,-2.3283064e-10,3.4924597e-10,0.0007277131,1
45008000,45008000,0.71224487,-0.00065288716,-0.00020335396,0.70193076,0.99999976,-2.3283064e-10,3.4924597e-10,0.0007277131,1
45508000,45508000,0.71224916,-0.0007023418,-1.5955522e-05,0.7019264,0.99999976,-2.3283064e-10,3.4924597e-10,0.0007277131,1
46008000,46008000,0.712275,-0.00079367904,-1.5591291e-05,0.70190006,0.99999976,-2.3283064e-10,3.4924597e-10,0.0007277131,1
46508000,46508000,0.7122832,-0.00062023866,-0.00016720539,0.70189196,0.99999976,-2.3283064e-10,3.4924597e-10,0.0007277131,1
47008000,47008000,0.7122024,-0.00056117115,2.8328743e-05,0.70197403,0.99999976,-2.3283064e-10,3.4924597e-10,0.0007277131,1
47508000,47508000,0.71223056,-0.0005973296,9.546347e-05,0.70194536,0.99999976,-2.3283064e-10,3.4924597e-10,0.0007277131,1
48008000,48008000,0.7122153,-0.0004281334,0.00017314432,0.7019609,0.99999976,-2.3283064e-10,3.4924597e-10,0.0007277131,1
48508000,48508000,0.71220255,-0.0003699667,0.0001445135,0.7019739,0.99999976,-2.3283064e-10,3.4924597e-10,0.0007277131,1
49008000,49008000,0.7121348,-0.0002601205,0.0002554625,0.7020427,0.99999976,-2.3283064e-10,3.4924597e-10,0.0007277131,1
49508000,49508000,0.712121,-5.401576e-05,0.00018992837,0.7020567,0.99999976,-2.3283064e-10,3.4924597e-10,0.0007277131,1
50008000,50008000,0.71220565,-1.2662058e-05,0.00035119473,0.7019708,0.99999976,-2.3283064e-10,3.4924597e-10,0.0007277131,1
50508000,50508000,0.71231073,2.2163069e-05,0.0004548759,0.7018641,0.99999976,-2.3283064e-10,3.4924597e-10,0.0007277131,1
51008000,51008000,0.712395,6.640101e-05,0.0004401274,0.7017786,0.99999976,-2.3283064e-10,3.4924597e-10,0.0007277131,1
51508000,51508000,0.7122813,0.00018502763,0.0002334113,0.70189404,0.99999976,-2.3283064e-10,3.4924597e-10,0.0007277131,1
52008000,52008000,0.712284,0.00027615688,0.00018227375,0.7018913,0.99999976,-2.3283064e-10,3.4924597e-10,0.0007277131,1
52508000,52508000,0.7122158,0.00034403554,0.00018645856,0.7019605,0.99999976,-2.3283064e-10,3.4924597e-10,0.0007277131,1
53008000,53008000,0.71211165,0.00036954784,-1.7893992e-05,0.7020661,0.99999976,-2.3283064e-10,3.4924597e-10,0.0007277131,1
53508000,53508000,0.71211135,0.00039865993,7.599384e-05,0.7020665,0.99999976,-2.3283064e-10,3.4924597e-10,0.0007277131,1
54008000,54008000,0.71216834,0.000244565,-5.394465e-05,0.7020088,0.99999976,-2.3283064e-10,3.4924597e-10,0.0007277131,1
54508000,54508000,0.7121098,0.00044538846,-0.00014990823,0.70206803,0.99999976,-2.3283064e-10,3.4924597e-10,0.0007277131,1
55008000,55008000,0.71208936,0.0004979748,-7.875802e-05,0.70208865,0.99999976,-2.3283064e-10,3.4924597e-10,0.0007277131,1
55508000,55508000,0.7119227,0.0006795168,-0.0002396495,0.7022575,0.99999976,-2.3283064e-10,3.4924597e-10,0.0007277131,1
56008000,56008000,0.7118867,0.00079722836,-0.00016594327,0.7022939,0.99999976,-2.3283064e-10,3.4924597e-10,0.0007277131,1
56508000,56508000,0.7120502,0.0008560793,-0.0002558771,0.702128,0.99999976,-2.3283064e-10,3.4924597e-10,0.0007277131,1
57008000,57008000,0.7119595,0.0007722596,-0.00040653092,0.70222,0.99999976,-2.3283064e-10,3.4924597e-10,0.0007277131,1
57508000,57508000,0.711874,0.0008255304,-0.00045448917,0.7023066,0.99999976,-2.3283064e-10,3.4924597e-10,0.0007277131,1
58008000,58008000,0.71191454,0.00094124675,-0.00038445627,0.7022654,0.99999976,-2.3283064e-10,3.4924597e-10,0.0007277131,1
58508000,58508000,0.7118575,0.0010044937,-0.00029838327,0.7023232,0.99999976,-2.3283064e-10,3.4924597e-10,0.0007277131,1
59008000,59008000,0.71173877,0.0008588726,-0.0004479385,0.70244366,0.99999976,-2.3283064e-10,3.4924597e-10,0.0007277131,1
59508000,59508000,0.7117258,0.0009717153,-0.00044589644,0.70245665,0.99999976,-2.3283064e-10,3.4924597e-10,0.0007277131,1
60008000,60008000,0.71176344,0.00096643175,-0.00045176066,0.70241845,0.99999976,-2.3283064e-10,3.4924597e-10,0.0007277131,1
60508000,60508000,0.7117203,0.0010061633,-0.00060875475,0.7024621,0.99999976,-2.3283064e-10,3.4924597e-10,0.0007277131,1
61008000,61008000,0.7118051,0.0008339227,-0.00077187456,0.7023761,0.99999976,-2.3283064e-10,3.4924597e-10,0.0007277131,1
61508000,61508000,0.7115445,0.00072825013,-0.0007910956,0.70264024,0.99999976,-2.3283064e-10,3.4924597e-10,0.0007277131,1
62008000,62008000,0.71145415,0.0004990062,-0.0008089903,0.70273197,0.99999976,-2.3283064e-10,3.4924597e-10,0.0007277131,1
62508000,62508000,0.711441,-0.002522196,0.0046617626,0.7027259,0.99999976,-2.3283064e-10,3.4924597e-10,0.0007277131,1
63008000,63008000,0.71156484,0.004421931,-0.00225225,0.702603,0.99999976,-2.3283064e-10,3.4924597e-10,0.0007277131,1
63508000,63508000,0.7116132,0.0016004384,-0.001675862,0.7025677,0.99999976,-2.3283064e-10,3.4924597e-10,0.0007277131,1
64008000,64008000,0.7117216,-0.00045773244,-0.00086037465,0.702461,0.99999976,-2.3283064e-10,3.4924597e-10,0.0007277131,1
64508000,64508000,0.7127892,0.00045772176,-0.00041012833,0.70137805,0.99999845,5.820767e-11,-4.3655753e-11,-0.0017862322,2
65008000,65008000,0.712072,0.0013426928,0.0005921675,0.70210487,0.99999845,5.820767e-11,-4.3655753e-11,-0.0017862322,2
65508000,65508000,0.7120269,0.0006954266,-0.0023840712,0.7021479,0.99999845,5.820767e-11,-4.3655753e-11,-0.0017862322,2
66008000,66008000,0.7120212,-0.001808871,-0.0038943917,0.70214486,0.99999845,5.820767e-11,-4.3655753e-11,-0.0017862322,2
66508000,66508000,0.71192753,0.0024567242,-0.0009635612,0.702248,0.99999845,5.820767e-11,-4.3655753e-11,-0.0017862322,2
67008000,67008000,0.7120234,0.004109471,0.003032851,0.7021372,0.99999845,5.820767e-11,-4.3655753e-11,-0.0017862322,2
67508000,67508000,0.7117861,0.0005770799,0.0005572443,0.70239586,0.99999845,5.820767e-11,-4.3655753e-11,-0.0017862322,2
68008000,68008000,0.71185654,-0.0020617696,-0.00014150937,0.70232195,0.99999845,5.820767e-11,-4.3655753e-11,-0.0017862322,2
68508000,68508000,0.7117643,0.0003104174,0.002698562,0.70241314,0.99999845,5.820767e-11,-4.3655753e-11,-0.0017862322,2
69008000,69008000,0.711842,0.0017023861,0.004537592,0.7023229,0.99999845,5.820767e-11,-4.3655753e-11,-0.0017862322,2
69508000,69508000,0.7120019,0.0019526882,0.0005184678,0.70217466,0.99999845,5.820767e-11,-4.3655753e-11,-0.0017862322,2
70008000,70008000,0.711942,-0.00093824446,-0.0028047413,0.70223206,0.99999845,5.820767e-11,-4.3655753e-11,-0.0017862322,2
70508000,70508000,0.7119084,0.00039861567,-0.0006385337,0.70227194,0.99999845,5.820767e-11,-4.3655753e-11,-0.0017862322,2
71008000,71008000,0.7118175,0.0012534478,0.0009890259,0.70236266,0.99999845,5.820767e-11,-4.3655753e-11,-0.0017862322,2
71508000,71508000,0.71193576,0.0009137417,0.00079512835,0.7022436,0.99999845,5.820767e-11,-4.3655753e-11,-0.0017862322,2
72008000,72008000,0.7119115,0.00010832368,-0.00091404055,0.70226866,0.99999845,5.820767e-11,-4.3655753e-11,-0.0017862322,2
72508000,72508000,0.7119447,0.0018840161,0.00025208306,0.702233,0.99999845,5.820767e-11,-4.3655753e-11,-0.0017862322,2
73008000,73008000,0.7121029,0.0011149617,0.0009946128,0.7020735,0.99999845,5.820767e-11,-4.3655753e-11,-0.0017862322,2
73508000,73508000,0.7121203,0.0017706179,-3.6144465e-05,0.70205534,0.99999845,5.820767e-11,-4.3655753e-11,-0.0017862322,2
74008000,74008000,0.7122779,0.002771473,0.0022948135,0.7018884,0.99999845,5.820767e-11,-4.3655753e-11,-0.0017862322,2
74508000,74508000,0.71231663,0.0010211233,0.0017896019,0.7018553,0.99999845,5.820767e-11,-4.3655753e-11,-0.0017862322,2
75008000,75008000,0.71236295,0.00031067414,0.00032985542,0.70181113,0.99999845,5.820767e-11,-4.3655753e-11,-0.0017862322,2
75508000,75508000,0.71233404,6.623659e-05,0.00077606615,0.70184016,0.99999845,5.820767e-11,-4.3655753e-11,-0.0017862322,2
76008000,76008000,0.7124355,-0.0007411514,0.0003866478,0.70173717,0.99999845,5.820767e-11,-4.3655753e-11,-0.0017862322,2
76508000,76508000,0.7123374,0.0007845891,-0.00063938065,0.7018365,0.99999845,5.820767e-11,-4.3655753e-11,-0.0017862322,2
77008000,77008000,0.71235746,0.00036046605,0.001635669,0.70181483,0.99999845,5.820767e-11,-4.3655753e-11,-0.0017862322,2
77508000,77508000,0.7123655,0.0016705752,0.0016286882,0.70180476,0.99999845,5.820767e-11,-4.3655753e-11,-0.0017862322,2
78008000,78008000,0.7124112,0.0010468856,0.0013822454,0.7017601,0.99999845,5.820767e-11,-4.3655753e-11,-0.0017862322,2
78508000,78508000,0.7124652,-0.00027826935,-0.00035620487,0.70170736,0.99999845,5.820767e-11,-4.3655753e-11,-0.0017862322,2
79008000,79008000,0.71233255,-4.699814e-05,0.00028377396,0.7018421,0.99999845,5.820767e-11,-4.3655753e-11,-0.0017862322,2
79508000,79508000,0.7122552,0.0014699022,0.0012638789,0.701918,0.99999845,5.820767e-11,-4.3655753e-11,-0.0017862322,2
80008000,80008000,0.7123,0.0012614777,0.0014663743,0.7018725,0.99999845,5.820767e-11,-4.3655753e-11,-0.0017862322,2
80508000,80508000,0.7123155,0.0021810553,-0.00031087198,0.70185596,0.99999845,5.820767e-11,-4.3655753e-11,-0.0017862322,2
81008000,81008000,0.71233135,0.003079576,0.0019302174,0.7018339,0.99999845,5.820767e-11,-4.3655753e-11,-0.0017862322,2
81508000,81508000,0.7123342,0.0034512773,0.0010878362,0.70183116,0.99999845,5.820767e-11,-4.3655753e-11,-0.0017862322,2
82008000,82008000,0.7121486,0.0027847546,0.0013733857,0.70202196,0.99999845,5.820767e-11,-4.3655753e-11,-0.0017862322,2
82508000,82508000,0.7120794,8.410276e-05,-0.0020027852,0.7020961,0.99999845,5.820767e-11,-4.3655753e-11,-0.0017862322,2
83008000,83008000,0.71207887,-4.727116e-05,-0.0029367663,0.70209336,0.99999845,5.820767e-11,-4.3655753e-11,-0.0017862322,2
83508000,83508000,0.71205443,0.0011897119,5.5811484e-05,0.70212334,0.99999845,5.820767e-11,-4.3655753e-11,-0.0017862322,2
84008000,84008000,0.71186507,0.0021633352,0.0018900769,0.7023104,0.99999845,5.820767e-11,-4.3655753e-11,-0.0017862322,2
84508000,84508000,0.7117965,0.0014463795,0.0006140944,0.70238405,0.99999845,5.820767e-11,-4.3655753e-11,-0.0017862322,2
85008000,85008000,0.71181905,0.0014701601,0.00044074323,0.7023613,0.99999845,5.820767e-11,-4.3655753e-11,-0.0017862322,2
85508000,85508000,0.71188074,0.0012238646,-0.0015649558,0.70229757,0.99999845,5.820767e-11,-4.3655753e-11,-0.0017862322,2
86008000,86008000,0.7116441,-0.031418093,0.0013077059,0.7018361,0.99999845,5.820767e-11,-4.3655753e-11,-0.0017862322,2
86508000,86508000,0.7155264,-0.17420416,0.037475694,0.67547804,0.99999845,5.820767e-11,-4.3655753e-11,-0.0017862322,2
87008000,87008000,0.7409549,-0.17949606,0.04667075,0.645437,0.99999845,5.820767e-11,-4.3655753e-11,-0.0017862322,2
87508000,87508000,0.75602156,-0.14426653,0.023756362,0.638008,0.99999845,5.820767e-11,-4.3655753e-11,-0.0017862322,2
88008000,88008000,0.7651384,-0.01659275,-0.017442906,0.64341563,0.99999845,5.820767e-11,-4.3655753e-11,-0.0017862322,2
88508000,88508000,0.7655907,0.046582453,0.008813537,0.64157873,0.99999845,5.820767e-11,-4.3655753e-11,-0.0017862322,2
89008000,89008000,0.76500016,0.04529646,0.03835167,0.6412895,0.99999845,5.820767e-11,-4.3655753e-11,-0.0017862322,2
89508000,89508000,0.7675375,0.030615756,0.025935644,0.6397471,0.99999845,5.820767e-11,-4.3655753e-11,-0.0017862322,2
90008000,90008000,0.7688521,0.041109286,0.0343553,0.6371784,0.99999845,5.820767e-11,-4.3655753e-11,-0.0017862322,2
90508000,90508000,0.7575259,0.07074563,0.062434524,0.6459502,0.99999845,5.820767e-11,-4.3655753e-11,-0.0017862322,2
91008000,91008000,0.73164284,0.065919824,0.06142365,0.6757074,0.99999845,5.820767e-11,-4.3655753e-11,-0.0017862322,2
91508000,91508000,0.7015011,0.052973937,0.053421043,0.7086863,0.99999845,5.820767e-11,-4.3655753e-11,-0.0017862322,2
92008000,92008000,0.67428994,0.046365645,0.049424417,0.7353507,0.99999845,5.820767e-11,-4.3655753e-11,-0.0017862322,2
92508000,92508000,0.6570636,0.037102353,0.040678814,0.75182194,0.99999845,5.820767e-11,-4.3655753e-11,-0.0017862322,2
93008000,93008000,0.64261425,-0.022830522,-0.036314584,0.76498824,0.99999845,5.820767e-11,-4.3655753e-11,-0.0017862322,2
93508000,93508000,0.63350785,-0.14092332,0.08488458,0.7560444,0.99999845,5.820767e-11,-4.3655753e-11,-0.0017862322,2
94008000,94008000,0.6276622,-0.18557782,0.13983113,0.7429996,0.99999845,5.820767e-11,-4.3655753e-11,-0.0017862322,2
94508000,94508000,0.64110595,-0.14343083,0.05872401,0.7516398,0.99999845,5.820767e-11,-4.3655753e-11,-0.0017862322,2
95008000,95008000,0.6650662,-0.0021796457,-0.025587799,0.74634284,0.99999845,5.820767e-11,-4.3655753e-11,-0.0017862322,2
95508000,95508000,0.67407614,0.026107563,0.03220402,0.7374976,0.99999845,5.820767e-11,-4.3655753e-11,-0.0017862322,2
96008000,96008000,0.7005245,0.006370533,0.0047503836,0.7135842,0.99999845,5.820767e-11,-4.3655753e-11,-0.0017862322,2
96508000,96508000,0.79763114,0.0034539439,0.0012514204,0.6031344,0.99999845,5.820767e-11,-4.3655753e-11,-0.0017862322,2
97008000,97008000,0.8303619,0.007090042,0.007031703,0.5571351,0.99999845,5.820767e-11,-4.3655753e-11,-0.0017862322,2
97508000,97508000,0.83670086,0.006768462,0.005945282,0.54758614,0.99999845,5.820767e-11,-4.3655753e-11,-0.0017862322,2
98008000,98008000,0.8338773,0.011255807,0.008341566,0.551772,0.99999845,5.820767e-11,-4.3655753e-11,-0.0017862322,2
98508000,98508000,0.8266071,0.022448268,0.009907348,0.5622444,0.99999845,5.820767e-11,-4.3655753e-11,-0.0017862322,2
99008000,99008000,0.81791675,0.036192268,0.005728219,0.57416844,0.99999845,5.820767e-11,-4.3655753e-11,-0.0017862322,2
99508000,99508000,0.809959,0.044290453,0.0029551317,0.58480424,0.99999845,5.820767e-11,-4.3655753e-11,-0.0017862322,2
100008000,100008000,0.80321234,0.042275183,0.0023931882,0.5941862,0.99999845,5.820767e-11,-4.3655753e-11,-0.0017862322,2
100508000,100508000,0.7982712,0.017871112,0.017456224,0.60177994,0.99999845,5.820767e-11,-4.3655753e-11,-0.0017862322,2
101008000,101008000,0.7964364,0.0007260008,0.018386928,0.6044422,0.99999845,5.820767e-11,-4.3655753e-11,-0.0017862322,2
101508000,101508000,0.7963006,-0.012058162,0.022456037,0.604364,0.99999845,5.820767e-11,-4.3655753e-11,-0.0017862322,2
102008000,102008000,0.7963718,-0.01823736,0.024547525,0.6040338,0.99999845,5.820767e-11,-4.3655753e-11,-0.0017862322,2
102508000,102508000,0.79694474,-0.01891383,0.023453398,0.60330045,0.99999845,5.820767e-11,-4.3655753e-11,-0.0017862322,2
103008000,103008000,0.79800004,-0.016326176,0.02035545,0.60209215,0.99999845,5.820767e-11,-4.3655753e-11,-0.0017862322,2
103508000,103508000,0.7989173,-0.011871066,0.016351242,0.60110146,0.99999845,5.820767e-11,-4.3655753e-11,-0.0017862322,2
104008000,104008000,0.7992828,-0.007566539,0.012926474,0.60076857,0.99999845,5.820767e-11,-4.3655753e-11,-0.0017862322,2
104508000,104508000,0.7991702,-0.004295182,0.010347264,0.60100055,0.99999845,5.820767e-11,-4.3655753e-11,-0.0017862322,2
105008000,105008000,0.79891825,-0.0023617146,0.008731811,0.6013717,0.99999845,5.820767e-11,-4.3655753e-11,-0.0017862322,2
105508000,105508000,0.7987643,-0.0016832587,0.008421232,0.60158277,0.99999845,5.820767e-11,-4.3655753e-11,-0.0017862322,2
106008000,106008000,0.7985378,-0.031956926,-0.0132331755,0.6009502,0.99999845,5.820767e-11,-4.3655753e-11,-0.0017862322,2
106508000,106508000,0.7850358,-0.2361145,-0.14787588,0.55326444,0.99999845,5.820767e-11,-4.3655753e-11,-0.0017862322,2
107008000,107008000,0.8156872,-0.3410754,-0.1661985,0.4366924,0.99999845,5.820767e-11,-4.3655753e-11,-0.0017862322,2
107508000,107508000,0.8755379,-0.38358483,-0.12668991,0.2650394,0.99999845,5.820767e-11,-4.3655753e-11,-0.0017862322,2
108008000,108008000,0.9097447,-0.40150443,-0.054152027,0.09069937,0.99999845,5.820767e-11,-4.3655753e-11,-0.0017862322,2
108508000,108508000,0.9189081,-0.390497,0.028572269,-0.04799636,0.99999845,5.820767e-11,-4.3655753e-11,-0.0017862322,2
109008000,109008000,0.91421443,-0.35284558,0.08979747,-0.17789987,0.99999845,5.820767e-11,-4.3655753e-11,-0.0017862322,2
109508000,109508000,0.89448184,-0.29359293,0.12330428,-0.31384936,0.99999845,5.820767e-11,-4.3655753e-11,-0.0017862322,2
110008000,110008000,0.8704276,-0.21130766,0.13381909,-0.42402527,0.99999845,5.820767e-11,-4.3655753e-11,-0.0017862322,2
110508000,110508000,0.8553908,-0.119858116,0.11760442,-0.49001026,0.99999845,5.820767e-11,-4.3655753e-11,-0.0017862322,2
111008000,111008000,0.84444565,-0.045080625,0.08549377,-0.52684915,0.99999845,5.820767e-11,-4.3655753e-11,-0.0017862322,2
111508000,111508000,0.83402383,0.0071520163,0.05310838,-0.54912,0.99999845,5.820767e-11,-4.3655753e-11,-0.0017862322,2
112008000,112008000,0.8307936,0.04068536,0.026546573,-0.5544566,0.99999845,5.820767e-11,-4.3655753e-11,-0.0017862322,2
112508000,112508000,0.8382734,0.059338596,0.007473202,-0.5419601,0.99999845,5.820767e-11,-4.3655753e-11,-0.0017862322,2
113008000,113008000,0.8507209,0.06752761,-0.0038517166,-0.5212478,0.99999845,5.820767e-11,-4.3655753e-11,-0.0017862322,2
113508000,113508000,0.86170566,0.068936996,-0.008453369,-0.5026326,0.99999845,5.820767e-11,-4.3655753e-11,-0.0017862322,2
114008000,114008000,0.87120813,0.06592674,-0.008725108,-0.4863888,0.99999845,5.820767e-11,-4.3655753e-11,-0.0017862322,2
114508000,114508000,0.8813512,0.05972687,-0.0064942655,-0.46862632,0.99999845,5.820767e-11,-4.3655753e-11,-0.0017862322,2
115008000,115008000,0.8914256,0.051592596,-0.0021826772,-0.45021522,0.99999845,5.820767e-11,-4.3655753e-11,-0.0017862322,2
115508000,115508000,0.898904,0.042432837,0.0029426108,-0.43607628,0.99999845,5.820767e-11,-4.3655753e-11,-0.0017862322,2
116008000,116008000,0.90334034,0.0332863,0.00816421,-0.42755315,0.99999845,5.820767e-11,-4.3655753e-11,-0.0017862322,2
116508000,116508000,0.9062125,0.025158403,0.012501329,-0.42188826,0.99999845,5.820767e-11,-4.3655753e-11,-0.0017862322,2
117008000,117008000,0.9086152,0.018593369,0.015710002,-0.41692445,0.99999845,5.820767e-11,-4.3655753e-11,-0.0017862322,2
117508000,117508000,0.9101376,0.012996796,0.01800639,-0.41371062,0.99999845,5.820767e-11,-4.3655753e-11,-0.0017862322,2
118008000,118008000,0.9102761,0.009183433,0.019606235,-0.4134355,0.99999845,5.820767e-11,-4.3655753e-11,-0.0017862322,2
118508000,118508000,0.9097217,0.006363884,0.020295298,-0.41467348,0.99999845,5.820767e-11,-4.3655753e-11,-0.0017862322,2
119008000,119008000,0.90919125,0.0047623185,0.020237854,-0.41585955,0.99999845,5.820767e-11,-4.3655753e-11,-0.0017862322,2
119508000,119508000,0.90887433,0.004326742,0.019625308,-0.4165855,0.99999845,5.820767e-11,-4.3655753e-11,-0.0017862322,2
120008000,120008000,0.9083084,0.004161411,0.018971467,-0.41784996,0.99999845,5.820767e-11,-4.3655753e-11,-0.0017862322,2
120508000,120508000,0.90750575,0.004575732,0.018201226,-0.41962013,0.99999845,5.820767e-11,-4.3655753e-11,-0.0017862322,2
121008000,121008000,0.90661526,-0.0052481205,0.022223622,-0.42133984,0.99999845,5.820767e-11,-4.3655753e-11,-0.0017862322,2
121508000,121508000,0.90430754,-0.020157032,0.02886142,-0.42542762,0.99999845,5.820767e-11,-4.3655753e-11,-0.0017862322,2
122008000,122008000,0.89894557,-0.031073023,0.034439042,-0.43559772,0.99999845,5.820767e-11,-4.3655753e-11,-0.0017862322,2
122508000,122508000,0.8907398,-0.03648727,0.03760159,-0.4514836,0.99999845,5.820767e-11,-4.3655753e-11,-0.0017862322,2
123008000,123008000,0.8820217,-0.03692574,0.0384232,-0.46818572,0.99999845,5.820767e-11,-4.3655753e-11,-0.0017862322,2
123508000,123508000,0.8746062,-0.0334628,0.03726226,-0.48224044,0.99999845,5.820767e-11,-4.3655753e-11,-0.0017862322,2
124008000,124008000,0.8679521,-0.028098667,0.0348147,-0.4946286,0.99999845,5.820767e-11,-4.3655753e-11,-0.0017862322,2
124508000,124508000,0.8614973,-0.02178095,0.031555194,-0.50631243,0.99999845,5.820767e-11,-4.3655753e-11,-0.0017862322,2
125008000,125008000,0.8558127,-0.015310446,0.027836306,-0.5163093,0.99999845,5.820767e-11,-4.3655753e-11,-0.0017862322,2
125508000,125508000,0.8520489,-0.008754551,0.023975955,-0.5228397,0.99999845,5.820767e-11,-4.3655753e-11,-0.0017862322,2
126008000,126008000,0.84982115,-0.0033184597,0.02036057,-0.5266673,0.99999845,5.820767e-11,-4.3655753e-11,-0.0017862322,2
126508000,126508000,0.84836596,0.00088876457,0.017532589,-0.52911913,0.99999845,5.820767e-11,-4.3655753e-11,-0.0017862322,2
127008000,127008000,0.8472603,0.0040859734,0.015473687,-0.5309369,0.99999845,5.820767e-11,-4.3655753e-11,-0.0017862322,2
127508000,127508000,0.846823,0.006410651,0.013971086,-0.5316527,0.99999845,5.820767e-11,-4.3655753e-11,-0.0017862322,2
128008000,128008000,0.84702957,0.00799078,0.012972603,-0.5313274,0.99999845,5.820767e-11,-4.3655753e-11,-0.0017862322,2
128508000,128508000,0.84760857,0.008761317,0.012218699,-0.5304091,0.99999845,5.820767e-11,-4.3655753e-11,-0.0017862322,2
129008000,129008000,0.84798795,0.009082691,0.012307786,-0.52979475,0.99999845,5.820767e-11,-4.3655753e-11,-0.0017862322,2
129508000,129508000,0.8483471,0.008978013,0.012621402,-0.52921385,0.99999845,5.820767e-11,-4.3655753e-11,-0.0017862322,2
130008000,130008000,0.84862053,0.0086350525,0.0130516505,-0.5287706,0.99999845,5.820767e-11,-4.3655753e-11,-0.0017862322,2
130508000,130508000,0.848892,0.020867275,0.005359269,-0.528127,0.99999845,5.820767e-11,-4.3655753e-11,-0.0017862322,2
131008000,131008000,0.8344722,0.21662992,-0.10556729,-0.49556348,0.99999845,5.820767e-11,-4.3655753e-11,-0.0017862322,2
131508000,131508000,0.84975636,0.32309353,-0.124607876,-0.39748907,0.99999845,5.820767e-11,-4.3655753e-11,-0.0017862322,2
132008000,132008000,0.8979789,0.35328043,-0.091432996,-0.24590036,0.99999845,5.820767e-11,-4.3655753e-11,-0.0017862322,2
132508000,132508000,0.93085444,0.35166118,-0.036739767,-0.09216659,0.99999845,5.820767e-11,-4.3655753e-11,-0.0017862322,2
133008000,133008000,0.9452941,0.32506782,0.021140402,0.017415084,0.99999845,5.820767e-11,-4.3655753e-11,-0.0017862322,2
133508000,133508000,0.9508561,0.283347,0.05997538,0.10949967,0.99999845,5.820767e-11,-4.3655753e-11,-0.0017862322,2
134008000,134008000,0.9460583,0.23372243,0.0776061,0.21053515,0.99999845,5.820767e-11,-4.3655753e-11,-0.0017862322,2
134508000,134508000,0.9346264,0.17433493,0.08274947,0.29871964,0.99999845,5.820767e-11,-4.3655753e-11,-0.0017862322,2
135008000,135008000,0.9269486,0.11247334,0.0762816,0.34971002,0.99999845,5.820767e-11,-4.3655753e-11,-0.0017862322,2
135508000,135508000,0.92286617,0.060957596,0.060940005,0.3753515,0.99999845,5.820767e-11,-4.3655753e-11,-0.0017862322,2
136008000,136008000,0.91721934,0.023405813,0.04389517,0.3952647,0.99999845,5.820767e-11,-4.3655753e-11,-0.0017862322,2
136508000,136508000,0.9121585,-0.0031238408,0.028787784,0.4088135,0.99999845,5.820767e-11,-4.3655753e-11,-0.0017862322,2
137008000,137008000,0.9125836,-0.021076247,0.017087538,0.40798914,0.99999845,5.820767e-11,-4.3655753e-11,-0.0017862322,2
137508000,137508000,0.90676373,0.12072704,0.063289925,0.39899763,0.99999845,5.820767e-11,-4.3655753e-11,-0.0017862322,2
138008000,138008000,0.8416386,0.2878019,0.15630583,0.42939842,0.99999845,5.820767e-11,-4.3655753e-11,-0.0017862322,2
138508000,138508000,0.75014377,0.3103965,0.20887165,0.5452622,0.99999845,5.820767e-11,-4.3655753e-11,-0.0017862322,2
139008000,139008000,0.620058,0.27799642,0.26003197,0.6860244,0.99999845,5.820767e-11,-4.3655753e-11,-0.0017862322,2
139508000,139508000,0.5045296,0.21600835,0.29550695,0.7819629,0.99999845,5.820767e-11,-4.3655753e-11,-0.0017862322,2
140008000,140008000,0.42219713,0.15425573,0.29725575,0.842374,0.99999845,5.820767e-11,-4.3655753e-11,-0.0017862322,2
140508000,140508000,0.33133915,0.10916628,0.27213833,0.89679307,0.99999845,5.820767e-11,-4.3655753e-11,-0.0017862322,2
141008000,141008000,0.22842403,0.07406197,0.22871496,0.9434124,0.99999845,5.820767e-11,-4.3655753e-11,-0.0017862322,2
141508000,141508000,0.15474422,0.043713864,0.17078142,0.9720993,0.99999845,5.820767e-11,-4.3655753e-11,-0.0017862322,2
142008000,142008000,0.12227881,0.02633346,0.108511895,0.98619455,0.99999845,5.820767e-11,-4.3655753e-11,-0.0017862322,2
142508000,142508000,0.10465092,0.022206353,0.05472547,0.9927539,0.99999845,5.820767e-11,-4.3655753e-11,-0.0017862322,2
143008000,143008000,0.08749432,0.024203654,0.014364127,0.99576735,0.99999845,5.820767e-11,-4.3655753e-11,-0.0017862322,2
143508000,143508000,0.08085593,0.028179096,-0.014141432,0.9962271,0.99999845,5.820767e-11,-4.3655753e-11,-0.0017862322,2
144008000,144008000,0.093281,0.032279722,-0.033567626,0.99455017,0.99999845,5.820767e-11,-4.3655753e-11,-0.0017862322,2
144508000,144508000,0.11470024,0.035476457,-0.04497,0.9917475,0.99999845,5.820767e-11,-4.3655753e-11,-0.0017862322,2
145008000,145008000,0.13102607,0.03744689,-0.04957621,0.9894302,0.99999845,5.820767e-11,-4.3655753e-11,-0.0017862322,2
145508000,145508000,0.14137681,0.039245415,-0.048895746,0.9879684,0.99999845,5.820767e-11,-4.3655753e-11,-0.0017862322,2
146008000,146008000,0.15375254,0.040575415,-0.044921115,0.98625344,0.99999845,5.820767e-11,-4.3655753e-11,-0.0017862322,2
146508000,146508000,0.16941594,0.04136824,-0.03899131,0.9839038,0.99999845,5.820767e-11,-4.3655753e-11,-0.0017862322,2
147008000,147008000,0.18143825,0.042011213,-0.03203441,0.98198223,0.99999845,5.820767e-11,-4.3655753e-11,-0.0017862322,2
147508000,147508000,0.18630657,0.042953983,-0.025032282,0.98123306,0.99999845,5.820767e-11,-4.3655753e-11,-0.0017862322,2
148008000,148008000,0.18799832,0.044074837,-0.019272305,0.9809906,0.99999845,5.820767e-11,-4.3655753e-11,-0.0017862322,2
148508000,148508000,0.19091201,0.04517423,-0.014464049,0.98046046,0.99999845,5.820767e-11,-4.3655753e-11,-0.0017862322,2
149008000,149008000,0.19405484,0.046537995,-0.010860109,0.9798261,0.99999845,5.820767e-11,-4.3655753e-11,-0.0017862322,2
149508000,149508000,0.19403334,0.04785524,-0.0080883,0.97979367,0.99999845,5.820767e-11,-4.3655753e-11,-0.0017862322,2
150008000,150008000,0.1916102,0.048933942,-0.0059635644,0.9802323,0.99999845,5.820767e-11,-4.3655753e-11,-0.0017862322,2
150508000,150508000,0.18975002,0.049873576,-0.005059772,0.98055184,0.99999845,5.820767e-11,-4.3655753e-11,-0.0017862322,2
151008000,151008000,0.18935533,0.050665442,-0.00488972,0.9805885,0.99999845,5.820767e-11,-4.3655753e-11,-0.0017862322,2
151508000,151508000,0.18852623,0.051239807,-0.005472929,0.9807153,0.99999845,5.820767e-11,-4.3655753e-11,-0.0017862322,2
152008000,152008000,0.18669961,0.05154666,-0.006095442,0.9810449,0.99999845,5.820767e-11,-4.3655753e-11,-0.0017862322,2
152508000,152508000,0.18486446,0.05193301,-0.0070608985,0.9813655,0.99999845,5.820767e-11,-4.3655753e-11,-0.0017862322,2
153008000,153008000,0.18456776,0.05206583,-0.007899724,0.98140794,0.99999845,5.820767e-11,-4.3655753e-11,-0.0017862322,2
153508000,153508000,0.18496732,0.052138764,-0.008745802,0.98132163,0.99999845,5.820767e-11,-4.3655753e-11,-0.0017862322,2
154008000,154008000,0.18467928,0.051848058,-0.009659502,0.9813828,0.99999845,5.820767e-11,-4.3655753e-11,-0.0017862322,2
154508000,154508000,0.18422778,0.051892333,-0.010360229,0.9814582,0.99999845,5.820767e-11,-4.3655753e-11,-0.0017862322,2
155008000,155008000,0.18453687,0.05155923,-0.011251034,0.9814078,0.99999845,5.820767e-11,-4.3655753e-11,-0.0017862322,2
155508000,155508000,0.20623614,0.009758711,-0.20225433,0.9573216,0.99999845,5.820767e-11,-4.3655753e-11,-0.0017862322,2
156008000,156008000,0.28568807,-0.062328625,-0.34866968,0.89046454,0.99999845,5.820767e-11,-4.3655753e-11,-0.0017862322,2
156508000,156508000,0.42949787,-0.117320105,-0.3637339,0.81820863,0.99999845,5.820767e-11,-4.3655753e-11,-0.0017862322,2
157008000,157008000,0.56879395,-0.053642455,-0.21985357,0.7907341,0.99999845,5.820767e-11,-4.3655753e-11,-0.0017862322,2
157508000,157508000,0.59236854,0.09910781,0.04812092,0.7980987,0.99999845,5.820767e-11,-4.3655753e-11,-0.0017862322,2
158008000,158008000,0.47694814,0.19779018,0.24917111,0.81933707,0.99999845,5.820767e-11,-4.3655753e-11,-0.0017862322,2
158508000,158508000,0.31996265,0.1683426,0.32000658,0.87571716,0.99999845,5.820767e-11,-4.3655753e-11,-0.0017862322,2
159008000,159008000,0.19435796,0.09923889,0.31885356,0.92233896,0.99999845,5.820767e-11,-4.3655753e-11,-0.0017862322,2
159508000,159508000,0.111456744,0.03989826,0.25943086,0.95847857,0.99999845,5.820767e-11,-4.3655753e-11,-0.0017862322,2
160008000,160008000,0.04011864,0.007081991,0.16810143,0.9849276,0.99999845,5.820767e-11,-4.3655753e-11,-0.0017862322,2
160508000,160508000,-0.016499624,-0.00881508,0.075059704,0.99700356,0.99999845,5.820767e-11,-4.3655753e-11,-0.0017862322,2
161008000,161008000,-0.031663876,-0.015019179,0.0008272639,0.9993854,0.99999845,5.820767e-11,-4.3655753e-11,-0.0017862322,2
161508000,161508000,-0.011689562,-0.014845141,-0.04812729,0.9986625,0.99999845,5.820767e-11,-4.3655753e-11,-0.0017862322,2
162008000,162008000,0.014324472,-0.013546853,-0.07541277,0.99695754,0.99999845,5.820767e-11,-4.3655753e-11,-0.0017862322,2
162508000,162508000,0.035179358,-0.013020103,-0.088355005,0.9953825,0.99999845,5.820767e-11,-4.3655753e-11,-0.0017862322,2
163008000,163008000,0.06138164,-0.012671284,-0.092769004,0.99371314,0.99999845,5.820767e-11,-4.3655753e-11,-0.0017862322,2
163508000,163508000,0.097229265,-0.013044088,-0.09137736,0.9909726,0.99999845,5.820767e-11,-4.3655753e-11,-0.0017862322,2
164008000,164008000,0.13229573,-0.01438078,-0.08387637,0.9875505,0.99999845,5.820767e-11,-4.3655753e-11,-0.0017862322,2
164508000,164508000,0.15706241,-0.015588796,-0.07131167,0.9848874,0.99999845,5.820767e-11,-4.3655753e-11,-0.0017862322,2
165008000,165008000,0.17483215,-0.015943212,-0.056687996,0.9828357,0.99999845,5.820767e-11,-4.3655753e-11,-0.0017862322,2
165508000,165508000,0.1918198,-0.015489533,-0.04259062,0.9803833,0.99999845,5.820767e-11,-4.3655753e-11,-0.0017862322,2
166008000,166008000,0.20705268,-0.014641505,-0.029540675,0.9777741,0.99999845,5.820767e-11,-4.3655753e-11,-0.0017862322,2
166508000,166508000,0.21543318,-0.013924583,-0.01802822,0.97625285,0.99999845,5.820767e-11,-4.3655753e-11,-0.0017862322,2
167008000,167008000,0.21801965,-0.012725852,-0.008680434,0.9758228,0.99999845,5.820767e-11,-4.3655753e-11,-0.0017862322,2
167508000,167508000,0.21949624,-0.011594083,-0.002105828,0.9755422,0.99999845,5.820767e-11,-4.3655753e-11,-0.0017862322,2
168008000,168008000,0.22110425,-0.010673638,0.0021411967,0.97518945,0.99999845,5.820767e-11,-4.3655753e-11,-0.0017862322,2
168508000,168508000,0.22166541,-0.022202374,-0.023727488,0.9745813,0.99999845,5.820767e-11,-4.3655753e-11,-0.0017862322,2
169008000,169008000,0.2297256,-0.05371942,-0.060943175,0.96985894,0.99999845,5.820767e-11,-4.3655753e-11,-0.0017862322,2
169508000,169508000,0.2553089,-0.07546372,-0.08264996,0.9603602,0.99999845,5.820767e-11,-4.3655753e-11,-0.0017862322,2
170008000,170008000,0.29393548,-0.093160935,-0.094421774,0.94657683,0.99999845,5.820767e-11,-4.3655753e-11,-0.0017862322,2
170508000,170508000,0.33225095,-0.10797886,-0.09815669,0.93183434,0.99999845,5.820767e-11,-4.3655753e-11,-0.0017862322,2
171008000,171008000,0.36804438,-0.12051408,-0.09767817,0.9167763,0.99999845,5.820767e-11,-4.3655753e-11,-0.0017862322,2
171508000,171508000,0.407677,-0.13129993,-0.09570454,0.8985546,0.99999845,5.820767e-11,-4.3655753e-11,-0.0017862322,2
172008000,172008000,0.45184878,-0.14064008,-0.09199549,0.8761221,0.99999845,5.820767e-11,-4.3655753e-11,-0.0017862322,2
172508000,172508000,0.4952661,-0.14903146,-0.08524697,0.8516068,0.99999845,5.820767e-11,-4.3655753e-11,-0.0017862322,2
173008000,173008000,0.5355069,-0.15601689,-0.07692377,0.8264223,0.99999845,5.820767e-11,-4.3655753e-11,-0.0017862322,2
173508000,173508000,0.57523096,-0.16207632,-0.068430655,0.7988479,0.99999845,5.820767e-11,-4.3655753e-11,-0.0017862322,2
174008000,174008000,0.61526984,-0.16750479,-0.059768543,0.7679928,0.99999845,5.820767e-11,-4.3655753e-11,-0.0017862322,2
174508000,174508000,0.65387243,-0.17204516,-0.049905814,0.73509234,0.99999845,5.820767e-11,-4.3655753e-11,-0.0017862322,2
175008000,175008000,0.6900026,-0.17538925,-0.039424162,0.7011283,0.99999845,5.820767e-11,-4.3655753e-11,-0.0017862322,2
175508000,175508000,0.7241916,-0.17807291,-0.029302089,0.66556597,0.99999845,5.820767e-11,-4.3655753e-11,-0.0017862322,2
176008000,176008000,0.75713354,-0.17995428,-0.018889468,0.6277009,0.99999845,5.820767e-11,-4.3655753e-11,-0.0017862322,2
176508000,176508000,0.7882863,-0.1810882,-0.008457666,0.58799684,0.99999845,5.820767e-11,-4.3655753e-11,-0.0017862322,2
177008000,177008000,0.8169972,-0.18107963,0.0021233547,0.5474681,0.99999845,5.820767e-11,-4.3655753e-11,-0.0017862322,2
177508000,177508000,0.84345734,-0.18036766,0.012791249,0.5058493,0.99999845,5.820767e-11,-4.3655753e-11,-0.0017862322,2
178008000,178008000,0.8675331,-0.17909618,0.022649128,0.46346313,0.99999845,5.820767e-11,-4.3655753e-11,-0.0017862322,2
178508000,178508000,0.8895739,-0.17766955,0.03225799,0.4195848,0.99999845,5.820767e-11,-4.3655753e-11,-0.0017862322,2
179008000,179008000,0.90929943,-0.17531978,0.042180717,0.37504447,0.99999845,5.820767e-11,-4.3655753e-11,-0.0017862322,2
179508000,179508000,0.92664504,-0.17296177,0.05169893,0.3297582,0.99999845,5.820767e-11,-4.3655753e-11,-0.0017862322,2
180008000,180008000,0.94161206,-0.17064002,0.060474407,0.28388646,0.99999845,5.820767e-11,-4.3655753e-11,-0.0017862322,2
180508000,180508000,0.9544471,-0.16742428,0.069413446,0.23702714,0.99999845,5.820767e-11,-4.3655753e-11,-0.0017862322,2
181008000,181008000,0.9649447,-0.16373836,0.078184426,0.18962762,0.99999845,5.820767e-11,-4.3655753e-11,-0.0017862322,2
181508000,181508000,0.9729667,-0.16002046,0.086904906,0.14204551,0.99999845,5.820767e-11,-4.3655753e-11,-0.0017862322,2
182008000,182008000,0.9796683,-0.15503901,0.083106376,0.09646995,0.99999845,5.820767e-11,-4.3655753e-11,-0.0017862322,2
182508000,182508000,0.98424613,-0.15365516,0.070845,0.051289324,0.99999845,5.820767e-11,-4.3655753e-11,-0.0017862322,2
183008000,183008000,0.98585325,-0.15392119,0.066289395,0.0026968902,0.99999845,5.820767e-11,-4.3655753e-11,-0.0017862322,2
183508000,183508000,0.9848425,-0.15344068,0.06462983,-0.048624046,0.99999845,5.820767e-11,-4.3655753e-11,-0.0017862322,2
184008000,184008000,0.9810506,-0.1515897,0.066077225,-0.10096629,0.99999845,5.820767e-11,-4.3655753e-11,-0.0017862322,2
184508000,184508000,0.9746637,-0.14840166,0.06921167,-0.15237275,0.99999845,5.820767e-11,-4.3655753e-11,-0.0017862322,2
185008000,185008000,0.9656182,-0.14450298,0.072947055,-0.20341879,0.99999845,5.820767e-11,-4.3655753e-11,-0.0017862322,2
185508000,185508000,0.9539191,-0.14027163,0.07755923,-0.25366682,0.99999845,5.820767e-11,-4.3655753e-11,-0.0017862322,2
186008000,186008000,0.9397699,-0.13562478,0.08212889,-0.3028091,0.99999845,5.820767e-11,-4.3655753e-11,-0.0017862322,2
186508000,186508000,0.92326766,-0.13112497,0.08677196,-0.35050514,0.99999845,5.820767e-11,-4.3655753e-11,-0.0017862322,2
187008000,187008000,0.9045881,-0.12646195,0.09162854,-0.39665112,0.99999845,5.820767e-11,-4.3655753e-11,-0.0017862322,2
187508000,187508000,0.88358533,-0.12182121,0.09613335,-0.44180876,0.99999845,5.820767e-11,-4.3655753e-11,-0.0017862322,2
188008000,188008000,0.8603015,-0.117329344,0.10014156,-0.48588774,0.99999845,5.820767e-11,-4.3655753e-11,-0.0017862322,2
188508000,188508000,0.83490586,-0.11281061,0.104715735,-0.52843213,0.99999845,5.820767e-11,-4.3655753e-11,-0.0017862322,2
189008000,189008000,0.80748254,-0.10832025,0.109126374,-0.5694999,0.99999845,5.820767e-11,-4.3655753e-11,-0.0017862322,2
189508000,189508000,0.7778721,-0.1037822,0.113404825,-0.6093306,0.99999845,5.820767e-11,-4.3655753e-11,-0.0017862322,2
190008000,190008000,0.7460823,-0.09906907,0.11745746,-0.64788145,0.99999845,5.820767e-11,-4.3655753e-11,-0.0017862322,2
190508000,190508000,0.71230227,-0.09377624,0.12146412,-0.68489265,0.99999845,5.820767e-11,-4.3655753e-11,-0.0017862322,2
191008000,191008000,0.67658126,-0.08827352,0.12558156,-0.7201909,0.99999845,5.820767e-11,-4.3655753e-11,-0.0017862322,2
191508000,191508000,0.63922024,-0.08263477,0.12928851,-0.7535606,0.99999845,5.820767e-11,-4.3655753e-11,-0.0017862322,2
192008000,192008000,0.59999895,-0.0767263,0.1330262,-0.78512317,0.99999845,5.820767e-11,-4.3655753e-11,-0.0017862322,2
192508000,192508000,0.55932254,-0.07047999,0.13648772,-0.81459326,0.99999845,5.820767e-11,-4.3655753e-11,-0.0017862322,2
193008000,193008000,0.51716435,-0.06397178,0.13981551,-0.84196216,0.99999845,5.820767e-11,-4.3655753e-11,-0.0017862322,2
193508000,193508000,0.47368968,-0.05753689,0.142932,-0.86710906,0.99999845,5.820767e-11,-4.3655753e-11,-0.0017862322,2
194008000,194008000,0.42878217,-0.050456706,0.14550614,-0.8901842,0.99999845,5.820767e-11,-4.3655753e-11,-0.0017862322,2
194508000,194508000,0.38291577,-0.043175433,0.14762299,-0.9108891,0.99999845,5.820767e-11,-4.3655753e-11,-0.0017862322,2
195008000,195008000,0.33614945,-0.035769477,0.14949018,-0.9291807,0.99999845,5.820767e-11,-4.3655753e-11,-0.0017862322,2
195508000,195508000,0.2884841,-0.028214397,0.15124772,-0.9450423,0.99999845,5.820767e-11,-4.3655753e-11,-0.0017862322,2
196008000,196008000,0.2401895,-0.02036334,0.15229343,-0.95848894,0.99999845,5.820767e-11,-4.3655753e-11,-0.0017862322,2
196508000,196508000,0.19134754,-0.012616982,0.15278837,-0.9694755,0.99999845,5.820767e-11,-4.3655753e-11,-0.0017862322,2
197008000,197008000,0.14205393,-0.0048678583,0.15316126,-0.97792566,0.99999845,5.820767e-11,-4.3655753e-11,-0.0017862322,2
197508000,197508000,0.092277266,0.002728086,0.15312392,-0.98388547,0.99999845,5.820767e-11,-4.3655753e-11,-0.0017862322,2
198008000,198008000,0.042304754,0.010132588,0.15292841,-0.9872794,0.99999845,5.820767e-11,-4.3655753e-11,-0.0017862322,2
198508000,198508000,-0.007937717,0.01812573,0.1524446,-0.988114,0.99999845,5.820767e-11,-4.3655753e-11,-0.0017862322,2
199008000,199008000,-0.058181025,0.025578553,0.15119092,-0.98645943,0.99999845,5.820767e-11,-4.3655753e-11,-0.0017862322,2
199508000,199508000,-0.10838164,0.03336249,0.1499333,-0.98217124,0.99999845,5.820767e-11,-4.3655753e-11,-0.0017862322,2
200008000,200008000,-0.15830088,0.040972833,0.14839506,-0.9753158,0.99999845,5.820767e-11,-4.3655753e-11,-0.0017862322,2
200508000,200508000,-0.20791873,0.048628375,0.14632535,-0.96591616,0.99999845,5.820767e-11,-4.3655753e-11,-0.0017862322,2
201008000,201008000,-0.2573339,0.055705607,0.14376444,-0.9539434,0.99999845,5.820767e-11,-4.3655753e-11,-0.0017862322,2
201508000,201508000,-0.30594444,0.06266746,0.14084162,-0.93948627,0.99999845,5.820767e-11,-4.3655753e-11,-0.0017862322,2
202008000,202008000,-0.3538643,0.06975404,0.13760851,-0.9224849,0.99999845,5.820767e-11,-4.3655753e-11,-0.0017862322,2
202508000,202508000,-0.4008897,0.07651832,0.13362266,-0.9030932,0.99999845,5.820767e-11,-4.3655753e-11,-0.0017862322,2
203008000,203008000,-0.44686663,0.082840405,0.1294037,-0.8813072,0.99999845,5.820767e-11,-4.3655753e-11,-0.0017862322,2
203508000,203508000,-0.49129143,0.08926084,0.12484663,-0.8573673,0.99999845,5.820767e-11,-4.3655753e-11,-0.0017862322,2
204008000,204008000,-0.5342929,0.09516596,0.11982943,-0.8313335,0.99999845,5.820767e-11,-4.3655753e-11,-0.0017862322,2
204508000,204508000,-0.57598364,0.101170816,0.11465835,-0.8030322,0.99999845,5.820767e-11,-4.3655753e-11,-0.0017862322,2
205008000,205008000,-0.6159132,0.10642332,0.10888645,-0.7729611,0.99999845,5.820767e-11,-4.3655753e-11,-0.0017862322,2
205508000,205508000,-0.6541696,0.11181103,0.10317134,-0.7408888,0.99999845,5.820767e-11,-4.3655753e-11,-0.0017862322,2
206008000,206008000,-0.6905468,0.116745375,0.09746503,-0.70711833,0.99999845,5.820767e-11,-4.3655753e-11,-0.0017862322,2
206508000,206508000,-0.7251613,0.12185803,0.09151652,-0.6715031,0.99999845,5.820767e-11,-4.3655753e-11,-0.0017862322,2
207008000,207008000,-0.75806195,0.126476,0.085502185,-0.6340625,0.99999845,5.820767e-11,-4.3655753e-11,-0.0017862322,2
207508000,207508000,-0.78913355,0.13093671,0.07916843,-0.59485817,0.99999845,5.820767e-11,-4.3655753e-11,-0.0017862322,2
208008000,208008000,-0.8182979,0.1349743,0.0725425,-0.55399287,0.99999845,5.820767e-11,-4.3655753e-11,-0.0017862322,2
208508000,208508000,-0.8451916,0.13855004,0.06557733,-0.51201063,0.99999845,5.820767e-11,-4.3655753e-11,-0.0017862322,2
209008000,209008000,-0.8700343,0.1417445,0.05869758,-0.468512,0.99999845,5.820767e-11,-4.3655753e-11,-0.0017862322,2
209508000,209508000,-0.89262784,0.14496966,0.05159717,-0.42371848,0.99999845,5.820767e-11,-4.3655753e-11,-0.0017862322,2
210008000,210008000,-0.9130181,0.14774528,0.044172883,-0.37764817,0.99999845,5.820767e-11,-4.3655753e-11,-0.0017862322,2
210508000,210508000,-0.93110174,0.14972244,0.03662148,-0.33059293,0.99999845,5.820767e-11,-4.3655753e-11,-0.0017862322,2
211008000,211008000,-0.94680613,0.15113677,0.028604077,-0.2826618,0.99999845,5.820767e-11,-4.3655753e-11,-0.0017862322,2
211508000,211508000,-0.9599658,0.1520841,0.020619819,-0.23433061,0.99999845,5.820767e-11,-4.3655753e-11,-0.0017862322,2
212008000,212008000,-0.9706635,0.15265062,0.012699682,-0.18533476,0.99999845,5.820767e-11,-4.3655753e-11,-0.0017862322,2
212508000,212508000,-0.9788882,0.15258737,0.004807545,-0.13591114,0.99999845,5.820767e-11,-4.3655753e-11,-0.0017862322,2
213008000,213008000,-0.9845263,0.15229979,-0.003074983,-0.086622424,0.99999845,5.820767e-11,-4.3655753e-11,-0.0017862322,2
213508000,213508000,-0.98765236,0.1518108,-0.010799309,-0.037144843,0.99999845,5.820767e-11,-4.3655753e-11,-0.0017862322,2
214008000,214008000,-0.98820996,0.15147284,-0.018158404,0.0129340235,0.99999845,5.820767e-11,-4.3655753e-11,-0.0017862322,2
214508000,214508000,-0.9862149,0.1507369,-0.0260047,0.06310729,0.99999845,5.820767e-11,-4.3655753e-11,-0.0017862322,2
215008000,215008000,-0.98167837,0.1493912,-0.033549808,0.113420814,0.99999845,5.820767e-11,-4.3655753e-11,-0.0017862322,2
215508000,215508000,-0.9746461,0.14720698,-0.041199815,0.16339447,0.99999845,5.820767e-11,-4.3655753e-11,-0.0017862322,2
216008000,216008000,-0.9651239,0.14481638,-0.04872292,0.2125796,0.99999845,5.820767e-11,-4.3655753e-11,-0.0017862322,2
216508000,216508000,-0.9530976,0.14197968,-0.056181084,0.26132432,0.99999845,5.820767e-11,-4.3655753e-11,-0.0017862322,2
217008000,217008000,-0.91674745,0.2286569,-0.09780571,0.3126087,0.99999845,5.820767e-11,-4.3655753e-11,-0.0017862322,2
217508000,217508000,-0.8826268,0.23071659,-0.12209577,0.39093795,0.99999845,5.820767e-11,-4.3655753e-11,-0.0017862322,2
218008000,218008000,-0.8474999,0.19066407,-0.12027678,0.4805461,0.99999845,5.820767e-11,-4.3655753e-11,-0.0017862322,2
218508000,218508000,-0.81572104,0.13795725,-0.107233346,0.55142367,0.99999845,5.820767e-11,-4.3655753e-11,-0.0017862322,2
219008000,219008000,-0.7965343,0.08855029,-0.08757373,0.59162724,0.99999845,5.820767e-11,-4.3655753e-11,-0.0017862322,2
219508000,219508000,-0.78347814,0.052669242,-0.06772389,0.6154685,0.99999845,5.820767e-11,-4.3655753e-11,-0.0017862322,2
220008000,220008000,-0.76878834,0.029403672,-0.051723406,0.6367298,0.99999845,5.820767e-11,-4.3655753e-11,-0.0017862322,2
220508000,220508000,-0.75635827,0.015056012,-0.039987013,0.6527608,0.99999845,5.820767e-11,-4.3655753e-11,-0.0017862322,2
221008000,221008000,-0.74940234,0.02072041,-0.044545494,0.6602897,0.99999845,5.820767e-11,-4.3655753e-11,-0.0017862322,2
221508000,221508000,-0.74236417,0.029900169,-0.05149432,0.6673453,0.99999845,5.820767e-11,-4.3655753e-11,-0.0017862322,2
222008000,222008000,-0.72775495,0.036493927,-0.05693406,0.68249506,0.99999845,5.820767e-11,-4.3655753e-11,-0.0017862322,2
222508000,222508000,-0.70802945,0.038497314,-0.05921406,0.70264214,0.99999845,5.820767e-11,-4.3655753e-11,-0.0017862322,2
223008000,223008000,-0.6909908,0.035688017,-0.057831485,0.7196622,0.99999845,5.820767e-11,-4.3655753e-11,-0.0017862322,2
223508000,223508000,-0.678131,0.030296773,-0.053885784,0.7323366,0.99999845,5.820767e-11,-4.3655753e-11,-0.0017862322,2
224008000,224008000,-0.6648837,0.023726052,-0.047726747,0.745043,0.99999845,5.820767e-11,-4.3655753e-11,-0.0017862322,2
224508000,224508000,-0.65116185,0.016525647,-0.04082167,0.7576601,0.99999845,5.820767e-11,-4.3655753e-11,-0.0017862322,2
225008000,225008000,-0.6404998,0.009262082,-0.033380747,0.7671767,0.99999845,5.820767e-11,-4.3655753e-11,-0.0017862322,2
225508000,225508000,-0.6343753,0.0024634805,-0.025868535,0.77258843,0.99999845,5.820767e-11,-4.3655753e-11,-0.0017862322,2
226008000,226008000,-0.6303162,-0.003336056,-0.019077666,0.77609694,0.99999845,5.820767e-11,-4.3655753e-11,-0.0017862322,2
226508000,226508000,-0.6267726,-0.0077326354,-0.013517836,0.7790466,0.99999845,5.820767e-11,-4.3655753e-11,-0.0017862322,2
227008000,227008000,-0.62452173,-0.0098439595,-0.008118826,0.78090316,0.99999845,5.820767e-11,-4.3655753e-11,-0.0017862322,2
227508000,227508000,-0.6245051,-0.017510528,-0.007529259,0.7807881,0.99999845,5.820767e-11,-4.3655753e-11,-0.0017862322,2
228008000,228008000,-0.6256404,-0.028644456,-0.010716578,0.77951187,0.99999845,5.820767e-11,-4.3655753e-11,-0.0017862322,2
228508000,228508000,-0.6272861,-0.0394352,-0.016488792,0.7776151,0.99999845,5.820767e-11,-4.3655753e-11,-0.0017862322,2
229008000,229008000,-0.6293828,-0.047762167,-0.022429034,0.7753019,0.99999845,5.820767e-11,-4.3655753e-11,-0.0017862322,2
229508000,229508000,-0.6325508,-0.054170597,-0.028036842,0.77211326,0.99999845,5.820767e-11,-4.3655753e-11,-0.0017862322,2
230008000,230008000,-0.63619196,-0.059202656,-0.03423453,0.76849395,0.99999845,5.820767e-11,-4.3655753e-11,-0.0017862322,2
230508000,230508000,-0.6394989,-0.06325907,-0.0405336,0.76511204,0.99999845,5.820767e-11,-4.3655753e-11,-0.0017862322,2
231008000,231008000,-0.6419057,-0.06880801,-0.048262846,0.7621636,0.99999845,5.820767e-11,-4.3655753e-11,-0.0017862322,2
231508000,231508000,-0.6437285,-0.07631461,-0.057143327,0.759292,0.99999845,5.820767e-11,-4.3655753e-11,-0.0017862322,2
232008000,232008000,-0.6448399,-0.08528976,-0.06650164,0.7566273,0.99999845,5.820767e-11,-4.3655753e-11,-0.0017862322,2
232508000,232508000,-0.65361404,0.016283551,0.0059400853,0.7566296,0.99999845,5.820767e-11,-4.3655753e-11,-0.0017862322,2
233008000,233008000,-0.6503483,-0.021560052,0.017156292,0.75913626,0.99999845,5.820767e-11,-4.3655753e-11,-0.0017862322,2
233508000,233508000,-0.6491805,-0.012335676,0.010950763,0.76045555,0.99999845,5.820767e-11,-4.3655753e-11,-0.0017862322,2
234008000,234008000,-0.6514318,-0.003246945,0.0022351535,0.7586971,0.99999845,5.820767e-11,-4.3655753e-11,-0.0017862322,2
234508000,234508000,-0.6535502,0.0055861645,-0.0010289825,0.7568619,0.99999845,5.820767e-11,-4.3655753e-11,-0.0017862322,2
235008000,235008000,-0.6484805,-0.088758774,-0.07061694,0.75273377,0.99999845,5.820767e-11,-4.3655753e-11,-0.0017862322,2
235508000,235508000,-0.6427842,-0.12736227,-0.099294886,0.74883103,0.99999845,5.820767e-11,-4.3655753e-11,-0.0017862322,2
236008000,236008000,-0.6480375,-0.07131341,-0.049666163,0.7566341,0.99999845,5.820767e-11,-4.3655753e-11,-0.0017862322,2
236508000,236508000,-0.65031916,-0.022746865,-0.006854409,0.7592895,0.99999845,5.820767e-11,-4.3655753e-11,-0.0017862322,2
237008000,237008000,-0.65171814,-0.0063615516,-0.0062384997,0.758409,0.99999845,5.820767e-11,-4.3655753e-11,-0.0017862322,2
237508000,237508000,-0.6519785,-0.022132913,-0.010041056,0.75784785,0.99999845,5.820767e-11,-4.3655753e-11,-0.0017862322,2
238008000,238008000,-0.6514555,-0.0500713,-0.035607092,0.756195,0.99999845,5.820767e-11,-4.3655753e-11,-0.0017862322,2
238508000,238508000,-0.6513131,-0.055518504,-0.043539084,0.75552183,0.99999845,5.820767e-11,-4.3655753e-11,-0.0017862322,2
239008000,239008000,-0.65248597,0.0073827715,0.013018982,0.757653,0.99999845,5.820767e-11,-4.3655753e-11,-0.0017862322,2
239508000,239508000,-0.65281236,0.0023122053,0.00815969,0.7574722,0.99999845,5.820767e-11,-4.3655753e-11,-0.0017862322,2
240008000,240008000,-0.65298027,-0.0010567132,0.0034586727,0.75736636,0.99999845,5.820767e-11,-4.3655753e-11,-0.0017862322,2
240508000,240508000,-0.6530092,-0.0035366463,0.00050270883,0.7573417,0.99999845,5.820767e-11,-4.3655753e-11,-0.0017862322,2
241008000,241008000,-0.65317184,-0.0032181523,-0.0010031898,0.75720227,0.99999845,5.820767e-11,-4.3655753e-11,-0.0017862322,2
241508000,241508000,-0.65330416,-0.0037847445,0.00080333196,0.7570857,0.99999845,5.820767e-11,-4.3655753e-11,-0.0017862322,2
242008000,242008000,-0.65325314,-0.0039168047,0.003894472,0.75711936,0.99999845,5.820767e-11,-4.3655753e-11,-0.0017862322,2
242508000,242508000,-0.6532276,-0.0029215305,0.0018667694,0.75715363,0.99999845,5.820767e-11,-4.3655753e-11,-0.0017862322,2
243008000,243008000,-0.6531771,-0.0020680227,0.0019978168,0.7571998,0.99999845,5.820767e-11,-4.3655753e-11,-0.0017862322,2
243508000,243508000,-0.65322876,-0.0043128314,0.002566553,0.75714403,0.99999845,5.820767e-11,-4.3655753e-11,-0.0017862322,2
244008000,244008000,-0.6531833,-0.005585201,0.002580114,0.75717497,0.99999845,5.820767e-11,-4.3655753e-11,-0.0017862322,2
244508000,244508000,-0.6531179,-0.0046175253,0.0016287912,0.7572404,0.99999845,5.820767e-11,-4.3655753e-11,-0.0017862322,2
245008000,245008000,-0.65323776,-0.0027180703,0.00047675797,0.7571478,0.99999845,5.820767e-11,-4.3655753e-11,-0.0017862322,2
245508000,245508000,-0.6533551,-0.0030619318,0.0025974768,0.75704104,0.99999845,5.820767e-11,-4.3655753e-11,-0.0017862322,2
246008000,246008000,-0.6531679,-0.0038390183,0.0016045487,0.7572018,0.99999845,5.820767e-11,-4.3655753e-11,-0.0017862322,2
246508000,246508000,-0.6533336,-0.0052326,-0.0003696288,0.757052,0.99999845,5.820767e-11,-4.3655753e-11,-0.0017862322,2
247008000,247008000,-0.6534246,-0.003633778,0.0010623715,0.75698215,0.99999845,5.820767e-11,-4.3655753e-11,-0.0017862322,2
247508000,247508000,-0.65353864,-0.0014003284,0.00067117333,0.7568915,0.99999845,5.820767e-11,-4.3655753e-11,-0.0017862322,2
248008000,248008000,-0.6534336,-0.0019302979,0.0009030134,0.7569808,0.99999845,5.820767e-11,-4.3655753e-11,-0.0017862322,2
248508000,248508000,-0.6534735,-0.0052980836,0.0016614294,0.75692904,0.99999845,5.820767e-11,-4.3655753e-11,-0.0017862322,2
249008000,249008000,-0.6535993,-0.0057202084,0.0022758648,0.7568158,0.99999845,5.820767e-11,-4.3655753e-11,-0.0017862322,2
