timestamp,roll,pitch,yaw,thrust_body[0],thrust_body[1],thrust_body[2],reset_integral
3784000,0.03676501,-0.010285993,7.05719e-05,0.0,0.0,-0.001,0
3788000,0.036802977,-0.009822769,0.00014519691,0.0,0.0,-0.001,0
3800000,0.0367598,-0.008479631,8.8214874e-05,0.0,0.0,-0.001,0
3824000,0.036382694,-0.005211953,6.818771e-05,0.0,0.0,-0.001,0
3844000,0.03617824,-0.0023387359,0.00037884712,0.0,0.0,-0.001,0
3860000,0.035947002,-0.00017126533,0.00045728683,0.0,0.0,-0.001,0
3884000,0.035802275,0.002363642,0.00040745735,0.0,0.0,-0.001,0
3900000,0.03581517,0.0040548127,0.00031661987,0.0,0.0,-0.001,0
3924000,0.035869535,0.0053394735,0.00044822693,0.0,0.0,-0.001,0
3944000,0.035897058,0.005971124,0.0006518364,0.0,0.0,-0.001,0
3960000,0.03591259,0.0062841997,0.00016307831,0.0,0.0,-0.001,0
3980000,0.036032915,0.006998516,0.00025558472,0.0,0.0,-0.001,0
4000000,0.035957024,0.0073946803,0.00063204765,0.0,0.0,-0.001,0
4020000,0.035882294,0.007267986,0.00028824806,0.0,0.0,-0.001,0
4044000,0.035927758,0.006991927,0.00021123886,0.0,0.0,-0.001,0
4064000,0.035703,0.007213237,0.00015997887,0.0,0.0,-0.001,0
4084000,0.03564721,0.006767573,0.00032520294,0.0,0.0,-0.001,0
4100000,0.035373975,0.0066076173,0.00027155876,0.0,0.0,-0.001,0
4124000,0.034778472,0.006774683,0.00024437904,0.0,0.0,-0.001,0
4140000,0.034622423,0.006487867,0.00039243698,0.0,0.0,-0.001,0
4164000,0.03439165,0.006660334,0.00028443336,0.0,0.0,-0.001,0
4180000,0.034261815,0.0067161536,0.00026345253,0.0,0.0,-0.001,0
4204000,0.034180827,0.0066556726,0.00024938583,0.0,0.0,-0.001,0
4224000,0.03388609,0.006732057,0.00037932396,0.0,0.0,-0.001,0
4244000,0.03375356,0.0067520244,0.00020051003,0.0,0.0,-0.001,0
4260000,0.033665754,0.006965494,0.00024318695,0.0,0.0,-0.001,0
4284000,0.0342462,0.0064248852,0.00021576881,0.0,0.0,-0.001,0
4304000,0.034376286,0.0064306296,0.00012946129,0.0,0.0,-0.001,0
4324000,0.03420923,0.006177367,9.9897385e-05,0.0,0.0,-0.001,0
4340000,0.034110013,0.006652167,0.00010061264,0.0,0.0,-0.001,0
4364000,0.03409904,0.0061707203,7.271767e-05,0.0,0.0,-0.001,0
4380000,0.034435175,0.0063637616,8.440018e-05,0.0,0.0,-0.001,0
4400000,0.034504324,0.006182301,2.670288e-05,0.0,0.0,-0.001,0
4420000,0.03432945,0.006229467,6.914139e-05,0.0,0.0,-0.001,0
4440000,0.034333058,0.006016873,4.196167e-05,0.0,0.0,-0.001,0
4460000,0.03443493,0.006189827,5.3167343e-05,0.0,0.0,-0.001,0
4484000,0.034033094,0.0063037905,9.2983246e-05,0.0,0.0,-0.001,0
4500000,0.034000807,0.006456442,6.365776e-05,0.0,0.0,-0.001,0
4520000,0.03377226,0.0063291276,5.4836273e-05,0.0,0.0,-0.001,0
4544000,0.033642046,0.0067808987,0.00017523766,0.0,0.0,-0.001,0
4564000,0.033401623,0.006694025,0.00010347366,0.0,0.0,-0.001,0
4584000,0.03387343,0.006633259,5.7458878e-05,0.0,0.0,-0.001,0
4600000,0.03393277,0.006792576,9.059906e-06,0.0,0.0,-0.001,0
4620000,0.033743005,0.0073258234,4.6253204e-05,0.0,0.0,-0.001,0
4644000,0.033921335,0.0074368045,5.9843063e-05,0.0,0.0,-0.001,0
4664000,0.03367096,0.007268584,4.6253204e-05,0.0,0.0,-0.001,0
4680000,0.03366509,0.007256236,2.4557114e-05,0.0,0.0,-0.001,0
4700000,0.033418607,0.006893084,7.510185e-05,0.0,0.0,-0.001,0
4720000,0.033431478,0.0071827574,9.536743e-06,0.0,0.0,-0.001,0
4740000,0.033385534,0.0071166856,8.821487e-06,0.0,0.0,-0.001,0
4760000,0.033470843,0.0073751514,1.3113022e-05,0.0,0.0,-0.001,0
4780000,0.033477504,0.007462031,3.0517578e-05,0.0,0.0,-0.001,0
4800000,0.033514008,0.007321653,1.3113022e-05,0.0,0.0,-0.001,0
4820000,0.03345201,0.007325052,-7.05719e-05,0.0,0.0,-0.001,0
4840000,0.03344201,0.0077770045,-1.9073486e-06,0.0,0.0,-0.001,0
4860000,0.033766557,0.007568087,3.0994415e-06,0.0,0.0,-0.001,0
4880000,0.0337469,0.00724971,1.2397766e-05,0.0,0.0,-0.001,0
4904000,0.03401754,0.0068346774,-7.1525574e-06,0.0,0.0,-0.001,0
4924000,0.034014203,0.0065784,3.838539e-05,0.0,0.0,-0.001,0
4940000,0.033948034,0.005864582,0.00010514259,0.0,0.0,-0.001,0
4964000,0.033801176,0.005808726,0.00013256073,0.0,0.0,-0.001,0
4980000,0.03364215,0.005428637,0.00014019012,0.0,0.0,-0.001,0
5004000,0.032822035,0.005815138,0.0002207756,0.0,0.0,-0.001,0
5020000,0.032784324,0.0055125807,0.00013947487,0.0,0.0,-0.001,0
5044000,0.03224931,0.0051128087,0.000114917755,0.0,0.0,-0.001,0
5060000,0.031939067,0.004991298,0.00013661385,0.0,0.0,-0.001,0
5084000,0.031929374,0.0049111303,-1.4305115e-05,0.0,0.0,-0.001,0
5104000,0.03152669,0.004895441,-4.053116e-06,0.0,0.0,-0.001,0
5124000,0.03138242,0.0048012407,3.1232834e-05,0.0,0.0,-0.001,0
5144000,0.031743817,0.004466329,1.9073486e-06,0.0,0.0,-0.001,0
5164000,0.03173317,0.004521481,-9.584427e-05,0.0,0.0,-0.001,0
5180000,0.03187828,0.0045769596,-6.532669e-05,0.0,0.0,-0.001,0
5200000,0.031803817,0.0045258775,9.250641e-05,0.0,0.0,-0.001,0
5224000,0.031396687,0.0043464354,7.6293945e-06,0.0,0.0,-0.001,0
5240000,0.03139771,0.0039830534,-5.5789948e-05,0.0,0.0,-0.001,0
5260000,0.031400375,0.0039358563,3.504753e-05,0.0,0.0,-0.001,0
5280000,0.031101923,0.004257272,5.2452087e-06,0.0,0.0,-0.001,0
5304000,0.031120535,0.004007575,1.4066696e-05,0.0,0.0,-0.001,0
5324000,0.031388685,0.0038942713,1.1920929e-06,0.0,0.0,-0.001,0
5344000,0.031454414,0.0039573573,3.9100647e-05,0.0,0.0,-0.001,0
5360000,0.031688474,0.0041969283,9.298325e-06,0.0,0.0,-0.001,0
5380000,0.03163182,0.004855396,2.8133392e-05,0.0,0.0,-0.001,0
5404000,0.031668045,0.0051574074,6.0796738e-05,0.0,0.0,-0.001,0
5420000,0.03149852,0.005321638,7.510185e-05,0.0,0.0,-0.001,0
5444000,0.03177231,0.005282608,-1.9788742e-05,0.0,0.0,-0.001,0
5460000,0.031375878,0.0055357646,2.7894974e-05,0.0,0.0,-0.001,0
5480000,0.03126625,0.005689629,3.528595e-05,0.0,0.0,-0.001,0
5500000,0.031030942,0.0057123844,0.00010180473,0.0,0.0,-0.001,0
5520000,0.03077167,0.0055876984,-2.193451e-05,0.0,0.0,-0.001,0
5544000,0.030966008,0.0058901603,-6.651878e-05,0.0,0.0,-0.001,0
5564000,0.030726194,0.0059223548,4.6014786e-05,0.0,0.0,-0.001,0
5580000,0.030492721,0.0060775205,6.175041e-05,0.0,0.0,-0.001,0
5604000,0.03016078,0.0059411377,2.6464462e-05,0.0,0.0,-0.001,0
5620000,0.029978221,0.00577009,1.9073486e-05,0.0,0.0,-0.001,0
5644000,0.030072607,0.0056246524,-5.054474e-05,0.0,0.0,-0.001,0
5660000,0.030236652,0.0056905597,7.867813e-06,0.0,0.0,-0.001,0
5680000,0.030257318,0.005471076,1.1920929e-05,0.0,0.0,-0.001,0
5704000,0.030320287,0.0049374634,-2.1457672e-06,0.0,0.0,-0.001,0
5724000,0.030024843,0.0046187625,1.04904175e-05,0.0,0.0,-0.001,0
5740000,0.029764185,0.0044646426,-2.3841858e-06,0.0,0.0,-0.001,0
5760000,0.02978268,0.0038633314,9.298325e-06,0.0,0.0,-0.001,0
5780000,0.030017268,0.0041227387,2.4795532e-05,0.0,0.0,-0.001,0
5800000,0.030017566,0.0040763924,6.0796738e-05,0.0,0.0,-0.001,0
5824000,0.030486774,0.0037109107,-3.8146973e-06,0.0,0.0,-0.001,0
5844000,0.030679353,0.003502313,5.9604645e-06,0.0,0.0,-0.001,0
5864000,0.031151485,0.0030632229,-4.053116e-06,0.0,0.0,-0.001,0
5884000,0.03132648,0.0023481387,-1.0728836e-05,0.0,0.0,-0.001,0
5900000,0.03151179,0.0021802802,5.030632e-05,0.0,0.0,-0.001,0
5924000,0.03172526,0.0022532623,2.3126602e-05,0.0,0.0,-0.001,0
5940000,0.031797383,0.002240312,2.2411346e-05,0.0,0.0,-0.001,0
5964000,0.03188804,0.002249792,1.9311905e-05,0.0,0.0,-0.001,0
5980000,0.031978603,0.0024954258,1.335144e-05,0.0,0.0,-0.001,0
6000000,0.032218523,0.0020887966,1.1205673e-05,0.0,0.0,-0.001,0
6020000,0.031997927,0.0026828498,4.673004e-05,0.0,0.0,-0.001,0
6044000,0.031640377,0.0031396223,5.173683e-05,0.0,0.0,-0.001,0
6060000,0.03149464,0.003227062,-1.335144e-05,0.0,0.0,-0.001,0
6084000,0.0313911,0.0027600238,4.696846e-05,0.0,0.0,-0.001,0
6104000,0.031276714,0.002388598,9.298325e-06,0.0,0.0,-0.001,0
6124000,0.031129465,0.0023279726,5.8174133e-05,0.0,0.0,-0.001,0
6140000,0.03148478,0.0022127137,-7.867813e-06,0.0,0.0,-0.001,0
6160000,0.031841606,0.0022598999,-1.3828278e-05,0.0,0.0,-0.001,0
6184000,0.031709217,0.0019330496,-1.9073486e-06,0.0,0.0,-0.001,0
6200000,0.031508416,0.0022781198,-3.33786e-06,0.0,0.0,-0.001,0
6220000,0.031537373,0.0024761874,-4.053116e-05,0.0,0.0,-0.001,0
6240000,0.03122895,0.0020406977,-2.4557114e-05,0.0,0.0,-0.001,0
6260000,0.031216098,0.0019341544,6.67572e-06,0.0,0.0,-0.001,0
6280000,0.031318963,0.0021501603,1.692772e-05,0.0,0.0,-0.001,0
6304000,0.031011142,0.0018431023,-1.2397766e-05,0.0,0.0,-0.001,0
6324000,0.030999498,0.0015390558,-1.2397766e-05,0.0,0.0,-0.001,0
6340000,0.031113708,0.0010192516,0.000101327896,0.0,0.0,-0.001,0
6360000,0.031031057,0.001144947,5.2452087e-06,0.0,0.0,-0.001,0
6384000,0.030642672,0.0012195304,0.00016641617,0.0,0.0,-0.001,0
6404000,0.030503469,0.0016233128,-6.1273575e-05,0.0,0.0,-0.001,0
6424000,0.030130658,0.0013628039,2.1457672e-06,0.0,0.0,-0.001,0
6444000,0.029823165,0.0014117078,-1.66893e-05,0.0,0.0,-0.001,0
6464000,0.029434219,0.0018567032,5.00679e-06,0.0,0.0,-0.001,0
6480000,0.029335845,0.0016322979,2.0503998e-05,0.0,0.0,-0.001,0
6504000,0.02929218,0.0019066817,1.7166138e-05,0.0,0.0,-0.001,0
6524000,0.029240329,0.0020918702,1.66893e-05,0.0,0.0,-0.001,0
6540000,0.029254826,0.0018100042,-1.2874603e-05,0.0,0.0,-0.001,0
6564000,0.029104069,0.0016246113,-4.7683716e-07,0.0,0.0,-0.001,0
6580000,0.029030545,0.001693076,5.221367e-05,0.0,0.0,-0.001,0
6604000,0.02895014,0.0019612715,-8.106232e-06,0.0,0.0,-0.001,0
6624000,0.028707935,0.0018549734,1.0251999e-05,0.0,0.0,-0.001,0
6644000,0.028747132,0.0015270183,-7.200241e-05,0.0,0.0,-0.001,0
6664000,0.028744498,0.0012724252,2.6226044e-05,0.0,0.0,-0.001,0
6680000,0.028689476,0.0012904513,5.1021576e-05,0.0,0.0,-0.001,0
6704000,0.028273333,0.001446339,5.9604645e-06,0.0,0.0,-0.001,0
6724000,0.028118456,0.0013160913,-2.3841858e-06,0.0,0.0,-0.001,0
6740000,0.027909491,0.0011111407,-7.534027e-05,0.0,0.0,-0.001,0
6764000,0.027375426,0.00077622547,-7.247925e-05,0.0,0.0,-0.001,0
6780000,0.027251098,0.0006158339,-1.1920929e-05,0.0,0.0,-0.001,0
6804000,0.027024122,0.0006786097,-4.053116e-05,0.0,0.0,-0.001,0
6820000,0.026910737,0.0008839795,-5.38826e-05,0.0,0.0,-0.001,0
6844000,0.026570387,0.0011249535,1.1205673e-05,0.0,0.0,-0.001,0
6860000,0.026376069,0.00093193457,-2.6464462e-05,0.0,0.0,-0.001,0
6884000,0.026337098,0.0012007657,4.673004e-05,0.0,0.0,-0.001,0
6904000,0.026263412,0.0014450374,8.106232e-06,0.0,0.0,-0.001,0
6924000,0.025787637,0.0012621749,-5.507469e-05,0.0,0.0,-0.001,0
6940000,0.025652675,0.0013616355,5.8174133e-05,0.0,0.0,-0.001,0
6964000,0.02568831,0.001108232,-1.66893e-05,0.0,0.0,-0.001,0
6980000,0.025590438,0.0010950064,-3.5762787e-05,0.0,0.0,-0.001,0
7000000,0.025564678,0.0011299765,0.00010585785,0.0,0.0,-0.001,0
7020000,0.025567804,0.0013017155,5.9604645e-06,0.0,0.0,-0.001,0
7044000,0.025342181,0.0011925676,1.8835068e-05,0.0,0.0,-0.001,0
7064000,0.02511262,0.001110384,-1.04904175e-05,0.0,0.0,-0.001,0
7084000,0.02530887,0.0014805145,1.9073486e-05,0.0,0.0,-0.001,0
7104000,0.025493853,0.0021602442,1.3828278e-05,0.0,0.0,-0.001,0
7124000,0.025442507,0.0025267864,2.7894974e-05,0.0,0.0,-0.001,0
7144000,0.025612917,0.002754093,3.3140182e-05,0.0,0.0,-0.001,0
7164000,0.025676284,0.0026365048,1.4066696e-05,0.0,0.0,-0.001,0
7180000,0.02577072,0.0026885022,7.271767e-05,0.0,0.0,-0.001,0
7204000,0.025446229,0.0029824255,-2.6226044e-06,0.0,0.0,-0.001,0
7224000,0.025333885,0.0028639445,2.4795532e-05,0.0,0.0,-0.001,0
7240000,0.025663815,0.0029853645,-9.536743e-06,0.0,0.0,-0.001,0
7264000,0.026070107,0.003031399,7.724762e-05,0.0,0.0,-0.001,0
7284000,0.026276046,0.0030680476,6.890297e-05,0.0,0.0,-0.001,0
7304000,0.026213232,0.0028692656,4.36306e-05,0.0,0.0,-0.001,0
7324000,0.025985487,0.0026573883,4.4822693e-05,0.0,0.0,-0.001,0
7344000,0.025991794,0.0030984064,-1.9073486e-06,0.0,0.0,-0.001,0
7364000,0.026378911,0.002910772,-4.863739e-05,0.0,0.0,-0.001,0
7380000,0.026370607,0.002358934,5.054474e-05,0.0,0.0,-0.001,0
7404000,0.026455928,0.0024114032,-8.106232e-06,0.0,0.0,-0.001,0
7420000,0.02658031,0.0024553328,6.508827e-05,0.0,0.0,-0.001,0
7440000,0.025930814,0.002465863,2.3841858e-07,0.0,0.0,-0.001,0
7464000,0.025535136,0.002656745,3.33786e-06,0.0,0.0,-0.001,0
7480000,0.025478901,0.002230932,-2.026558e-05,0.0,0.0,-0.001,0
7500000,0.02552072,0.0017796666,-4.506111e-05,0.0,0.0,-0.001,0
7524000,0.025503203,0.0020856608,-1.5974045e-05,0.0,0.0,-0.001,0
7544000,0.025994154,0.0022760388,8.821487e-06,0.0,0.0,-0.001,0
7564000,0.026380137,0.0027838359,-4.2676926e-05,0.0,0.0,-0.001,0
7580000,0.026624553,0.0029548137,-2.169609e-05,0.0,0.0,-0.001,0
7604000,0.026845295,0.003392596,-1.0967255e-05,0.0,0.0,-0.001,0
7620000,0.026949994,0.0035659256,-1.859665e-05,0.0,0.0,-0.001,0
7644000,0.026978385,0.0040342184,2.4080276e-05,0.0,0.0,-0.001,0
7660000,0.026656315,0.004235237,-2.1457672e-06,0.0,0.0,-0.001,0
7680000,0.027400311,0.0043881508,-4.2915344e-06,0.0,0.0,-0.001,0
7700000,0.028092232,0.004166918,3.4570694e-05,0.0,0.0,-0.001,0
7724000,0.028339062,0.0035588597,3.385544e-05,0.0,0.0,-0.001,0
7740000,0.028349245,0.0035689767,5.865097e-05,0.0,0.0,-0.001,0
7764000,0.028559867,0.003483748,7.1525574e-05,0.0,0.0,-0.001,0
7780000,0.028658658,0.0032576402,9.10759e-05,0.0,0.0,-0.001,0
7804000,0.028954815,0.0034434749,5.6743622e-05,0.0,0.0,-0.001,0
7820000,0.029341655,0.0032573026,3.194809e-05,0.0,0.0,-0.001,0
7844000,0.029114587,0.0025997218,-1.335144e-05,0.0,0.0,-0.001,0
7864000,0.02932394,0.0022907264,7.867813e-06,0.0,0.0,-0.001,0
7884000,0.029707776,0.002128431,-1.2874603e-05,0.0,0.0,-0.001,0
7900000,0.029840637,0.0024519851,-4.053116e-06,0.0,0.0,-0.001,0
7924000,0.030090688,0.0018707748,2.7656555e-05,0.0,0.0,-0.001,0
7944000,0.03011629,0.0016784127,4.2915344e-06,0.0,0.0,-0.001,0
7960000,0.030376093,0.0018530423,-1.2636185e-05,0.0,0.0,-0.001,0
7980000,0.03020829,0.0018334695,0.0,0.0,0.0,-0.001,0
8000000,0.029825065,0.0013604853,4.6253204e-05,0.0,0.0,-0.001,0
8020000,0.029874464,0.00087854185,-8.821487e-06,0.0,0.0,-0.001,0
8044000,0.029653534,0.0009644318,2.9087067e-05,0.0,0.0,-0.001,0
8064000,0.029705219,0.0008889979,-3.361702e-05,0.0,0.0,-0.001,0
8080000,0.029867915,0.00077246164,4.7445297e-05,0.0,0.0,-0.001,0
8100000,0.029770862,0.0008864191,9.393692e-05,0.0,0.0,-0.001,0
8120000,0.029728863,0.0009883374,3.5762787e-06,0.0,0.0,-0.001,0
8140000,0.029697167,0.0009216707,-3.671646e-05,0.0,0.0,-0.001,0
8164000,0.030082537,0.00085509627,-1.04904175e-05,0.0,0.0,-0.001,0
8184000,0.030224513,0.00063112075,-1.168251e-05,0.0,0.0,-0.001,0
8204000,0.030339072,0.00059985847,3.0040741e-05,0.0,0.0,-0.001,0
8224000,0.030324437,0.00013676588,4.220009e-05,0.0,0.0,-0.001,0
8240000,0.030171093,0.00014614442,1.7881393e-05,0.0,0.0,-0.001,0
8264000,0.030265622,-0.0003305839,1.9788742e-05,0.0,0.0,-0.001,0
8280000,0.030212188,-0.000333249,1.4305115e-05,0.0,0.0,-0.001,0
8300000,0.030088834,-0.00063920685,3.4093857e-05,0.0,0.0,-0.001,0
8324000,0.030230112,-0.0010619946,1.4305115e-05,0.0,0.0,-0.001,0
8344000,0.030085478,-0.00082227367,1.7404556e-05,0.0,0.0,-0.001,0
8364000,0.029819777,-0.0006872376,3.1232834e-05,0.0,0.0,-0.001,0
8380000,0.02997931,-0.0008442785,-3.8146973e-05,0.0,0.0,-0.001,0
8404000,0.029939659,-0.0014154414,9.536743e-06,0.0,0.0,-0.001,0
8424000,0.030100275,-0.0017525934,-7.1525574e-06,0.0,0.0,-0.001,0
8444000,0.030320324,-0.0018034815,5.2452087e-05,0.0,0.0,-0.001,0
8460000,0.030116998,-0.002097541,2.9563904e-05,0.0,0.0,-0.001,0
8480000,0.030393088,-0.0018824007,-5.8412552e-05,0.0,0.0,-0.001,0
8500000,0.030436557,-0.0021351157,-4.529953e-05,0.0,0.0,-0.001,0
8520000,0.029885449,-0.0024460298,-1.21593475e-05,0.0,0.0,-0.001,0
8540000,0.02934394,-0.0027897032,-2.861023e-06,0.0,0.0,-0.001,0
8564000,0.029057484,-0.0026792705,-4.2676926e-05,0.0,0.0,-0.001,0
8580000,0.028698877,-0.0026142185,-1.9073486e-06,0.0,0.0,-0.001,0
8600000,0.028553937,-0.0023909574,1.1920929e-06,0.0,0.0,-0.001,0
8620000,0.028739054,-0.00240375,-2.7418137e-05,0.0,0.0,-0.001,0
8640000,0.02846065,-0.0025493768,-2.6464462e-05,0.0,0.0,-0.001,0
8660000,0.028416904,-0.0028900264,-1.7642975e-05,0.0,0.0,-0.001,0
8684000,0.028379813,-0.0029525524,5.9843063e-05,0.0,0.0,-0.001,0
8700000,0.02826653,-0.0032829836,-4.36306e-05,0.0,0.0,-0.001,0
8724000,0.028304692,-0.003315051,-3.0994415e-06,0.0,0.0,-0.001,0
8740000,0.028063558,-0.0035586688,-2.5510788e-05,0.0,0.0,-0.001,0
8764000,0.027875662,-0.0036052044,-3.33786e-06,0.0,0.0,-0.001,0
8780000,0.027725924,-0.003743664,-5.054474e-05,0.0,0.0,-0.001,0
8800000,0.027403273,-0.003797438,-1.9550323e-05,0.0,0.0,-0.001,0
8824000,0.02735924,-0.0034373866,-9.775162e-06,0.0,0.0,-0.001,0
8840000,0.027600698,-0.0030128842,3.2424927e-05,0.0,0.0,-0.001,0
8860000,0.027441112,-0.0026303635,2.1219254e-05,0.0,0.0,-0.001,0
8884000,0.027453044,-0.0029175763,4.5776367e-05,0.0,0.0,-0.001,0
8900000,0.027520124,-0.0031052846,2.026558e-05,0.0,0.0,-0.001,0
8924000,0.02750689,-0.0032286616,4.7683716e-07,0.0,0.0,-0.001,0
8944000,0.027605962,-0.003248027,3.2186508e-05,0.0,0.0,-0.001,0
8960000,0.027509794,-0.0033953763,3.862381e-05,0.0,0.0,-0.001,0
8980000,0.027663186,-0.0035421336,5.888939e-05,0.0,0.0,-0.001,0
9004000,0.027607452,-0.0033199922,1.5258789e-05,0.0,0.0,-0.001,0
9024000,0.027826205,-0.0035148363,3.0994415e-06,0.0,0.0,-0.001,0
9044000,0.027541146,-0.0035954323,2.4795532e-05,0.0,0.0,-0.001,0
9060000,0.027691284,-0.004163879,6.67572e-06,0.0,0.0,-0.001,0
9080000,0.027555708,-0.0039420445,-9.059906e-06,0.0,0.0,-0.001,0
9100000,0.027314402,-0.0039800312,-4.2915344e-06,0.0,0.0,-0.001,0
9120000,0.02752993,-0.0038857644,6.67572e-06,0.0,0.0,-0.001,0
9144000,0.027633063,-0.003968537,-7.6293945e-06,0.0,0.0,-0.001,0
9164000,0.027262634,-0.0039012479,-3.4809113e-05,0.0,0.0,-0.001,0
9180000,0.02707411,-0.004099727,-1.2636185e-05,0.0,0.0,-0.001,0
9200000,0.027372703,-0.0046056625,-9.536743e-06,0.0,0.0,-0.001,0
9224000,0.027630366,-0.0046672127,-1.4543533e-05,0.0,0.0,-0.001,0
9244000,0.027516289,-0.00510577,-2.7418137e-05,0.0,0.0,-0.001,0
9264000,0.027539492,-0.0049513895,-4.7683716e-06,0.0,0.0,-0.001,0
9284000,0.027700163,-0.005402128,-3.9577484e-05,0.0,0.0,-0.001,0
9300000,0.027730094,-0.005709963,-6.532669e-05,0.0,0.0,-0.001,0
9324000,0.02783331,-0.0058959275,-2.193451e-05,0.0,0.0,-0.001,0
9344000,0.028126864,-0.005542988,-9.536743e-07,0.0,0.0,-0.001,0
9364000,0.028111171,-0.004782199,3.9100647e-05,0.0,0.0,-0.001,0
9384000,0.028025977,-0.004784191,-1.4066696e-05,0.0,0.0,-0.001,0
9404000,0.028164433,-0.004917408,5.4121017e-05,0.0,0.0,-0.001,0
9424000,0.0279727,-0.004787505,-3.170967e-05,0.0,0.0,-0.001,0
9444000,0.027812082,-0.0050694454,-6.222725e-05,0.0,0.0,-0.001,0
9460000,0.027601771,-0.0046770587,2.1219254e-05,0.0,0.0,-0.001,0
9480000,0.027212106,-0.0047211954,-1.4543533e-05,0.0,0.0,-0.001,0
9504000,0.027186107,-0.0046073366,-4.36306e-05,0.0,0.0,-0.001,0
9524000,0.027334128,-0.004867104,1.8119812e-05,0.0,0.0,-0.001,0
9540000,0.027400892,-0.0045744986,-1.859665e-05,0.0,0.0,-0.001,0
9560000,0.027542626,-0.004251901,-3.361702e-05,0.0,0.0,-0.001,0
9580000,0.027529921,-0.0041521285,-4.9829483e-05,0.0,0.0,-0.001,0
9604000,0.02746427,-0.0046526417,-9.8228455e-05,0.0,0.0,-0.001,0
9624000,0.027371747,-0.005274811,-2.4557114e-05,0.0,0.0,-0.001,0
9640000,0.02743356,-0.005500581,1.4305115e-06,0.0,0.0,-0.001,0
9664000,0.027349036,-0.0052752085,1.4066696e-05,0.0,0.0,-0.001,0
9684000,0.027109833,-0.0055266856,1.3113022e-05,0.0,0.0,-0.001,0
9704000,0.027036503,-0.005438379,7.6293945e-06,0.0,0.0,-0.001,0
9724000,0.027102409,-0.00577791,5.2452087e-06,0.0,0.0,-0.001,0
9740000,0.02679048,-0.0059873387,5.4597855e-05,0.0,0.0,-0.001,0
9760000,0.026594177,-0.0058209146,3.552437e-05,0.0,0.0,-0.001,0
9780000,0.02649946,-0.0056128856,2.861023e-06,0.0,0.0,-0.001,0
9800000,0.026213035,-0.005400302,9.059906e-06,0.0,0.0,-0.001,0
9820000,0.026289485,-0.0060415063,6.771088e-05,0.0,0.0,-0.001,0
9840000,0.026577896,-0.0063117705,1.5974045e-05,0.0,0.0,-0.001,0
9860000,0.026822627,-0.006715768,-1.7166138e-05,0.0,0.0,-0.001,0
9884000,0.02711263,-0.007238997,2.8848648e-05,0.0,0.0,-0.001,0
9900000,0.027133819,-0.007597568,-1.1920929e-06,0.0,0.0,-0.001,0
9924000,0.027113687,-0.0078924885,-2.4080276e-05,0.0,0.0,-0.001,0
9940000,0.02720262,-0.007965351,4.839897e-05,0.0,0.0,-0.001,0
9960000,0.02696289,-0.0076314607,3.2186508e-05,0.0,0.0,-0.001,0
9984000,0.027091429,-0.0073436047,1.66893e-05,0.0,0.0,-0.001,0
10004000,0.027264848,-0.0075191907,3.2901764e-05,0.0,0.0,-0.001,0
10020000,0.027180012,-0.0074225524,6.580353e-05,0.0,0.0,-0.001,0
10044000,0.02731169,-0.007386069,-2.6226044e-06,0.0,0.0,-0.001,0
10064000,0.027252879,-0.0073698014,-3.5762787e-06,0.0,0.0,-0.001,0
10080000,0.027010962,-0.007621298,1.9550323e-05,0.0,0.0,-0.001,0
10100000,0.026797848,-0.008135044,2.2411346e-05,0.0,0.0,-0.001,0
10124000,0.026217926,-0.0075617884,-3.0517578e-05,0.0,0.0,-0.001,0
10140000,0.026340755,-0.0075591733,-3.194809e-05,0.0,0.0,-0.001,0
10160000,0.02615888,-0.0070913816,-3.5762787e-06,0.0,0.0,-0.001,0
10180000,0.026124585,-0.007144025,-1.8119812e-05,0.0,0.0,-0.001,0
10204000,0.026066722,-0.006943085,-9.298325e-06,0.0,0.0,-0.001,0
10224000,0.026243886,-0.0067059593,6.914139e-06,0.0,0.0,-0.001,0
10244000,0.026065186,-0.0064943666,1.3113022e-05,0.0,0.0,-0.001,0
10260000,0.02613863,-0.0064206733,5.4121017e-05,0.0,0.0,-0.001,0
10284000,0.0261759,-0.0063300133,-2.503395e-05,0.0,0.0,-0.001,0
10300000,0.026201852,-0.0060973414,3.671646e-05,0.0,0.0,-0.001,0
10320000,0.026405122,-0.0063270996,2.861023e-06,0.0,0.0,-0.001,0
10340000,0.02665405,-0.0060613803,-4.2915344e-06,0.0,0.0,-0.001,0
10364000,0.027089525,-0.005920481,-1.9073486e-05,0.0,0.0,-0.001,0
10380000,0.02727998,-0.0060997643,-1.9073486e-06,0.0,0.0,-0.001,0
10404000,0.027420927,-0.0065314267,-4.339218e-05,0.0,0.0,-0.001,0
10424000,0.027526395,-0.0065760007,3.4570694e-05,0.0,0.0,-0.001,0
10444000,0.027805056,-0.0066010174,1.3589859e-05,0.0,0.0,-0.001,0
10460000,0.027714442,-0.0064433757,4.2676926e-05,0.0,0.0,-0.001,0
10484000,0.02762841,-0.007097789,1.5258789e-05,0.0,0.0,-0.001,0
10500000,0.027868284,-0.007651987,2.026558e-05,0.0,0.0,-0.001,0
10524000,0.027892245,-0.008206798,2.3841858e-07,0.0,0.0,-0.001,0
10540000,0.027983159,-0.008082656,-2.336502e-05,0.0,0.0,-0.001,0
10564000,0.028152723,-0.0077505456,-2.3841858e-05,0.0,0.0,-0.001,0
10580000,0.02846675,-0.0076323263,-1.835823e-05,0.0,0.0,-0.001,0
10604000,0.028282743,-0.007961296,9.536743e-07,0.0,0.0,-0.001,0
10624000,0.028311178,-0.008194776,-9.059906e-06,0.0,0.0,-0.001,0
10640000,0.028294912,-0.00845795,-4.839897e-05,0.0,0.0,-0.001,0
10664000,0.027812846,-0.008293983,2.5749207e-05,0.0,0.0,-0.001,0
10684000,0.027681686,-0.00872104,-3.0517578e-05,0.0,0.0,-0.001,0
10700000,0.027944993,-0.00856553,-1.4305115e-05,0.0,0.0,-0.001,0
10724000,0.027936706,-0.008147097,3.2663345e-05,0.0,0.0,-0.001,0
10744000,0.028041638,-0.008236725,-4.2915344e-06,0.0,0.0,-0.001,0
10764000,0.02811201,-0.007903712,-2.2411346e-05,0.0,0.0,-0.001,0
10784000,0.027950555,-0.007390399,-1.4305115e-05,0.0,0.0,-0.001,0
10804000,0.027575893,-0.0071655926,-2.193451e-05,0.0,0.0,-0.001,0
10820000,0.027491583,-0.006728975,2.3841858e-05,0.0,0.0,-0.001,0
10844000,0.02744023,-0.0067428397,-6.723404e-05,0.0,0.0,-0.001,0
10860000,0.027691675,-0.006560749,2.8848648e-05,0.0,0.0,-0.001,0
10884000,0.027932825,-0.0066414615,3.2901764e-05,0.0,0.0,-0.001,0
10900000,0.027774118,-0.007076399,6.341934e-05,0.0,0.0,-0.001,0
10924000,0.0273543,-0.0077221226,-3.671646e-05,0.0,0.0,-0.001,0
10944000,0.027024655,-0.007772514,-1.7881393e-05,0.0,0.0,-0.001,0
10964000,0.026849065,-0.008455569,-3.1471252e-05,0.0,0.0,-0.001,0
10984000,0.027014464,-0.008486351,-6.9618225e-05,0.0,0.0,-0.001,0
11004000,0.026865518,-0.008757257,-4.6491623e-05,0.0,0.0,-0.001,0
11024000,0.026726484,-0.008691061,-1.5974045e-05,0.0,0.0,-0.001,0
11040000,0.02645154,-0.008317061,5.722046e-06,0.0,0.0,-0.001,0
11060000,0.026340159,-0.008229187,5.4836273e-06,0.0,0.0,-0.001,0
11080000,0.026450451,-0.008171317,3.671646e-05,0.0,0.0,-0.001,0
11100000,0.02649932,-0.008074319,-1.66893e-06,0.0,0.0,-0.001,0
11124000,0.026869465,-0.008048493,2.4557114e-05,0.0,0.0,-0.001,0
11140000,0.027140044,-0.008184189,-1.50203705e-05,0.0,0.0,-0.001,0
11164000,0.027155701,-0.007902036,2.3126602e-05,0.0,0.0,-0.001,0
11184000,0.027096786,-0.0073194494,7.081032e-05,0.0,0.0,-0.001,0
11204000,0.026935626,-0.0076680426,-8.583069e-06,0.0,0.0,-0.001,0
11220000,0.027017243,-0.00814419,-1.1920929e-06,0.0,0.0,-0.001,0
11240000,0.027174966,-0.008118546,-4.529953e-06,0.0,0.0,-0.001,0
11260000,0.027684871,-0.008072229,-3.9577484e-05,0.0,0.0,-0.001,0
11284000,0.027959246,-0.007920822,-3.0755997e-05,0.0,0.0,-0.001,0
11304000,0.028272685,-0.0076353033,5.0783157e-05,0.0,0.0,-0.001,0
11324000,0.027854018,-0.007767158,-5.2452087e-06,0.0,0.0,-0.001,0
11344000,0.027883254,-0.007839476,-4.053116e-06,0.0,0.0,-0.001,0
11364000,0.02798213,-0.008153912,2.2172928e-05,0.0,0.0,-0.001,0
11384000,0.028156908,-0.008938697,2.336502e-05,0.0,0.0,-0.001,0
11400000,0.028173057,-0.008866838,5.9604645e-06,0.0,0.0,-0.001,0
11420000,0.028114207,-0.008891903,-7.1525574e-06,0.0,0.0,-0.001,0
11444000,0.028060723,-0.009070462,-2.527237e-05,0.0,0.0,-0.001,0
11464000,0.0282034,-0.009860357,-3.671646e-05,0.0,0.0,-0.001,0
11480000,0.028021146,-0.009762456,-5.9604645e-06,0.0,0.0,-0.001,0
11500000,0.027964845,-0.010287399,-6.842613e-05,0.0,0.0,-0.001,0
11524000,0.02804371,-0.010533797,-1.835823e-05,0.0,0.0,-0.001,0
11544000,0.027855285,-0.010297892,-8.821487e-06,0.0,0.0,-0.001,0
11564000,0.027673706,-0.010744844,1.5258789e-05,0.0,0.0,-0.001,0
11580000,0.027454888,-0.01017605,-3.7670135e-05,0.0,0.0,-0.001,0
11600000,0.027574096,-0.010189259,-3.504753e-05,0.0,0.0,-0.001,0
11620000,0.027510937,-0.010038201,-4.172325e-05,0.0,0.0,-0.001,0
11644000,0.027440619,-0.00982097,-7.6293945e-06,0.0,0.0,-0.001,0
11660000,0.027660824,-0.00985949,2.861023e-05,0.0,0.0,-0.001,0
11684000,0.0277089,-0.010147179,-1.0251999e-05,0.0,0.0,-0.001,0
11700000,0.027568005,-0.009728638,1.7404556e-05,0.0,0.0,-0.001,0
11720000,0.027810521,-0.009326636,1.9073486e-06,0.0,0.0,-0.001,0
11740000,0.02788919,-0.009386027,2.2411346e-05,0.0,0.0,-0.001,0
11764000,0.027671508,-0.00923936,2.7894974e-05,0.0,0.0,-0.001,0
11784000,0.027590776,-0.009032143,-1.66893e-05,0.0,0.0,-0.001,0
11800000,0.0275851,-0.009089023,3.528595e-05,0.0,0.0,-0.001,0
11820000,0.02745073,-0.009316364,5.00679e-06,0.0,0.0,-0.001,0
11844000,0.02727884,-0.009409708,-3.2424927e-05,0.0,0.0,-0.001,0
11860000,0.027197074,-0.009404777,4.506111e-05,0.0,0.0,-0.001,0
11884000,0.0276023,-0.009934184,1.2874603e-05,0.0,0.0,-0.001,0
11900000,0.027838275,-0.0098618055,-3.33786e-06,0.0,0.0,-0.001,0
11924000,0.028014138,-0.009982282,1.9073486e-06,0.0,0.0,-0.001,0
11940000,0.028232519,-0.01021565,1.1920929e-06,0.0,0.0,-0.001,0
11964000,0.027928498,-0.010648935,1.50203705e-05,0.0,0.0,-0.001,0
11980000,0.027725358,-0.011174014,2.026558e-05,0.0,0.0,-0.001,0
12004000,0.027931081,-0.011899424,-2.9802322e-05,0.0,0.0,-0.001,0
12024000,0.02805445,-0.01197749,-2.4318695e-05,0.0,0.0,-0.001,0
12044000,0.02797571,-0.011925253,2.503395e-05,0.0,0.0,-0.001,0
12060000,0.027846962,-0.012396895,4.7683716e-06,0.0,0.0,-0.001,0
12084000,0.02781391,-0.012731111,2.8133392e-05,0.0,0.0,-0.001,0
12104000,0.02786869,-0.012622918,4.529953e-06,0.0,0.0,-0.001,0
12124000,0.027838312,-0.0125458455,3.385544e-05,0.0,0.0,-0.001,0
12140000,0.02750406,-0.012734605,1.0967255e-05,0.0,0.0,-0.001,0
12164000,0.027205825,-0.012731373,-3.5762787e-06,0.0,0.0,-0.001,0
12184000,0.027211362,-0.013266031,-2.3126602e-05,0.0,0.0,-0.001,0
12204000,0.02722774,-0.013632173,-2.0742416e-05,0.0,0.0,-0.001,0
12220000,0.027022028,-0.013662539,1.1920929e-06,0.0,0.0,-0.001,0
12240000,0.026832111,-0.013601124,-3.2663345e-05,0.0,0.0,-0.001,0
12264000,0.026709221,-0.013659156,-2.5749207e-05,0.0,0.0,-0.001,0
12280000,0.026662316,-0.013748054,-2.7179718e-05,0.0,0.0,-0.001,0
12300000,0.026549121,-0.013726715,4.029274e-05,0.0,0.0,-0.001,0
12324000,0.026522081,-0.013389533,3.1232834e-05,0.0,0.0,-0.001,0
12344000,0.026159732,-0.012943755,3.33786e-06,0.0,0.0,-0.001,0
12364000,0.025926532,-0.012508404,-3.1232834e-05,0.0,0.0,-0.001,0
12380000,0.025970977,-0.012262476,2.7179718e-05,0.0,0.0,-0.001,0
12404000,0.02606377,-0.011596024,2.8133392e-05,0.0,0.0,-0.001,0
12420000,0.025798548,-0.0111662345,2.8133392e-05,0.0,0.0,-0.001,0
12444000,0.02564643,-0.011043454,2.861023e-06,0.0,0.0,-0.001,0
12460000,0.025753673,-0.010610222,2.4318695e-05,0.0,0.0,-0.001,0
12480000,0.025769435,-0.009942274,6.198883e-06,0.0,0.0,-0.001,0
12504000,0.02580886,-0.009700641,3.5762787e-06,0.0,0.0,-0.001,0
12520000,0.025528817,-0.010126783,-1.4543533e-05,0.0,0.0,-0.001,0
12540000,0.025749216,-0.009604969,-2.3841858e-05,0.0,0.0,-0.001,0
12564000,0.02577795,-0.00970258,-9.894371e-05,0.0,0.0,-0.001,0
12580000,0.025548931,-0.009496178,4.053116e-06,0.0,0.0,-0.001,0
12604000,0.025509,-0.009361596,7.247925e-05,0.0,0.0,-0.001,0
12620000,0.025532851,-0.009805112,2.69413e-05,0.0,0.0,-0.001,0
12640000,0.02561948,-0.009326952,1.9073486e-06,0.0,0.0,-0.001,0
12660000,0.025613379,-0.008953925,-6.914139e-05,0.0,0.0,-0.001,0
12684000,0.025993478,-0.00858764,-1.66893e-05,0.0,0.0,-0.001,0
12700000,0.0262735,-0.008926664,5.2452087e-06,0.0,0.0,-0.001,0
12720000,0.02651832,-0.009359092,-6.914139e-06,0.0,0.0,-0.001,0
12740000,0.026656969,-0.009465768,2.7894974e-05,0.0,0.0,-0.001,0
12760000,0.026974928,-0.009729643,3.5762787e-06,0.0,0.0,-0.001,0
12780000,0.02718523,-0.009601402,-2.1219254e-05,0.0,0.0,-0.001,0
12804000,0.026916824,-0.009675612,7.033348e-05,0.0,0.0,-0.001,0
12820000,0.02696146,-0.009933597,5.4836273e-06,0.0,0.0,-0.001,0
12844000,0.026863966,-0.0099474685,-2.861023e-05,0.0,0.0,-0.001,0
12860000,0.027095135,-0.010141676,1.1920929e-05,0.0,0.0,-0.001,0
12884000,0.027435469,-0.010211421,5.2928925e-05,0.0,0.0,-0.001,0
12904000,0.027364291,-0.009470743,4.1007996e-05,0.0,0.0,-0.001,0
12924000,0.027347775,-0.009658598,1.50203705e-05,0.0,0.0,-0.001,0
12944000,0.027558535,-0.01009739,-7.867813e-06,0.0,0.0,-0.001,0
12960000,0.027517965,-0.009694643,-1.692772e-05,0.0,0.0,-0.001,0
12980000,0.027639093,-0.009948088,-2.2172928e-05,0.0,0.0,-0.001,0
13004000,0.027240004,-0.009699404,5.054474e-05,0.0,0.0,-0.001,0
13020000,0.027078958,-0.010017756,5.364418e-05,0.0,0.0,-0.001,0
13044000,0.026794074,-0.010142102,1.6450882e-05,0.0,0.0,-0.001,0
13064000,0.026698872,-0.009658903,-9.059906e-06,0.0,0.0,-0.001,0
13084000,0.026616517,-0.009655592,2.4557114e-05,0.0,0.0,-0.001,0
13100000,0.026446562,-0.009475697,-5.1021576e-05,0.0,0.0,-0.001,0
13124000,0.025912285,-0.009756034,2.0742416e-05,0.0,0.0,-0.001,0
13140000,0.025731074,-0.0099684335,3.7908554e-05,0.0,0.0,-0.001,0
13160000,0.02572543,-0.009781561,-7.390976e-06,0.0,0.0,-0.001,0
13180000,0.025668286,-0.009870727,4.529953e-06,0.0,0.0,-0.001,0
13204000,0.025478818,-0.009871207,-3.0755997e-05,0.0,0.0,-0.001,0
13224000,0.02590902,-0.009733535,-2.3841858e-06,0.0,0.0,-0.001,0
13240000,0.025880389,-0.009867751,-3.671646e-05,0.0,0.0,-0.001,0
13260000,0.026043817,-0.010235437,-6.532669e-05,0.0,0.0,-0.001,0
13284000,0.026007732,-0.010116809,3.3140182e-05,0.0,0.0,-0.001,0
13300000,0.0254784,-0.010302022,-9.1552734e-05,0.0,0.0,-0.001,0
13324000,0.02537336,-0.009874031,7.390976e-06,0.0,0.0,-0.001,0
13344000,0.025250008,-0.009633229,-9.059906e-06,0.0,0.0,-0.001,0
13364000,0.025244055,-0.010148578,2.9087067e-05,0.0,0.0,-0.001,0
13380000,0.02506832,-0.01024156,-4.887581e-05,0.0,0.0,-0.001,0
13404000,0.025332995,-0.010386194,1.1920929e-06,0.0,0.0,-0.001,0
13420000,0.025331873,-0.010445698,-1.21593475e-05,0.0,0.0,-0.001,0
13440000,0.025425054,-0.010803325,-3.7431717e-05,0.0,0.0,-0.001,0
13464000,0.025586389,-0.010617411,-8.583069e-06,0.0,0.0,-0.001,0
13484000,0.02562067,-0.010420563,7.6532364e-05,0.0,0.0,-0.001,0
13500000,0.02551039,-0.010469887,2.861023e-06,0.0,0.0,-0.001,0
13520000,0.02566103,-0.010706299,3.671646e-05,0.0,0.0,-0.001,0
13540000,0.025936747,-0.010758454,1.0967255e-05,0.0,0.0,-0.001,0
13564000,0.025874306,-0.010955002,-3.4809113e-05,0.0,0.0,-0.001,0
13580000,0.02612431,-0.011798521,4.839897e-05,0.0,0.0,-0.001,0
13600000,0.025876136,-0.0118661625,-8.106232e-06,0.0,0.0,-0.001,0
13620000,0.026060492,-0.011494161,1.1920929e-06,0.0,0.0,-0.001,0
13644000,0.026422102,-0.011757673,-2.1457672e-06,0.0,0.0,-0.001,0
13660000,0.026381796,-0.011965735,-4.029274e-05,0.0,0.0,-0.001,0
13680000,0.026482614,-0.011746459,-1.4305115e-05,0.0,0.0,-0.001,0
13700000,0.026321925,-0.011654346,-2.4557114e-05,0.0,0.0,-0.001,0
13724000,0.026320606,-0.0111686615,-4.7683716e-07,0.0,0.0,-0.001,0
13744000,0.026556581,-0.011233751,-4.053116e-06,0.0,0.0,-0.001,0
13760000,0.026398707,-0.011036554,-0.00012946129,0.0,0.0,-0.001,0
13780000,0.026031692,-0.011297986,-1.7642975e-05,0.0,0.0,-0.001,0
13804000,0.025791729,-0.011421947,-4.553795e-05,0.0,0.0,-0.001,0
13820000,0.025489315,-0.011378989,-5.8412552e-05,0.0,0.0,-0.001,0
13844000,0.025320206,-0.011277409,6.9856644e-05,0.0,0.0,-0.001,0
13860000,0.025161799,-0.011137336,-3.9339066e-05,0.0,0.0,-0.001,0
13884000,0.024983753,-0.011003688,-1.2874603e-05,0.0,0.0,-0.001,0
13904000,0.025183773,-0.010918077,-3.6239624e-05,0.0,0.0,-0.001,0
13924000,0.025077112,-0.0110204015,-5.6743622e-05,0.0,0.0,-0.001,0
13940000,0.02518155,-0.010966411,-1.1444092e-05,0.0,0.0,-0.001,0
13964000,0.02535709,-0.010838015,2.6464462e-05,0.0,0.0,-0.001,0
13980000,0.025661161,-0.010916505,6.198883e-06,0.0,0.0,-0.001,0
14004000,0.025942216,-0.01123397,-3.695488e-05,0.0,0.0,-0.001,0
14020000,0.02592927,-0.011016409,1.66893e-05,0.0,0.0,-0.001,0
14044000,0.02564499,-0.010861014,4.2915344e-05,0.0,0.0,-0.001,0
14060000,0.02562087,-0.010898991,8.34465e-06,0.0,0.0,-0.001,0
14084000,0.026072936,-0.010998922,-2.527237e-05,0.0,0.0,-0.001,0
14100000,0.026324892,-0.011021137,-1.8835068e-05,0.0,0.0,-0.001,0
14124000,0.026193488,-0.010961218,1.168251e-05,0.0,0.0,-0.001,0
14140000,0.025927022,-0.010784026,-6.389618e-05,0.0,0.0,-0.001,0
14164000,0.026062757,-0.010935906,-4.36306e-05,0.0,0.0,-0.001,0
14180000,0.026149593,-0.0111510195,-1.4305115e-05,0.0,0.0,-0.001,0
14204000,0.025807157,-0.011120459,-3.6239624e-05,0.0,0.0,-0.001,0
14220000,0.025641788,-0.011212248,-4.529953e-05,0.0,0.0,-0.001,0
14244000,0.026128631,-0.011244921,1.3828278e-05,0.0,0.0,-0.001,0
14264000,0.025894739,-0.011813528,-1.66893e-06,0.0,0.0,-0.001,0
14280000,0.02597965,-0.01173115,5.4836273e-06,0.0,0.0,-0.001,0
14304000,0.02566184,-0.011615692,1.66893e-05,0.0,0.0,-0.001,0
14324000,0.025731793,-0.011570231,-1.3113022e-05,0.0,0.0,-0.001,0
14344000,0.02569491,-0.011721145,1.4066696e-05,0.0,0.0,-0.001,0
14364000,0.025647476,-0.011719995,3.528595e-05,0.0,0.0,-0.001,0
14384000,0.025377259,-0.011225354,2.1219254e-05,0.0,0.0,-0.001,0
14404000,0.025117582,-0.011308371,-1.21593475e-05,0.0,0.0,-0.001,0
14420000,0.025401598,-0.011305221,2.7894974e-05,0.0,0.0,-0.001,0
14444000,0.025651062,-0.011723053,-1.7642975e-05,0.0,0.0,-0.001,0
14460000,0.025909916,-0.011945674,2.193451e-05,0.0,0.0,-0.001,0
14480000,0.02594216,-0.012447888,7.390976e-06,0.0,0.0,-0.001,0
14500000,0.025650762,-0.012723038,4.887581e-05,0.0,0.0,-0.001,0
14520000,0.025993682,-0.013001222,6.4373016e-06,0.0,0.0,-0.001,0
14540000,0.026064748,-0.012942765,3.862381e-05,0.0,0.0,-0.001,0
14564000,0.025719443,-0.013110179,8.106232e-06,0.0,0.0,-0.001,0
14580000,0.025656847,-0.0132793775,2.861023e-06,0.0,0.0,-0.001,0
14604000,0.025669783,-0.013010835,3.5762787e-06,0.0,0.0,-0.001,0
14624000,0.025935411,-0.012972016,2.861023e-06,0.0,0.0,-0.001,0
14640000,0.02600092,-0.012966623,3.33786e-05,0.0,0.0,-0.001,0
14660000,0.025748882,-0.013521023,-2.7179718e-05,0.0,0.0,-0.001,0
14684000,0.026047468,-0.013388347,-2.002716e-05,0.0,0.0,-0.001,0
14700000,0.025769146,-0.013322334,2.9563904e-05,0.0,0.0,-0.001,0
14724000,0.025722638,-0.01355273,-6.9618225e-05,0.0,0.0,-0.001,0
14744000,0.025853612,-0.014234197,-7.081032e-05,0.0,0.0,-0.001,0
14764000,0.025942154,-0.014270367,-1.2874603e-05,0.0,0.0,-0.001,0
14780000,0.02596765,-0.014382326,-2.4795532e-05,0.0,0.0,-0.001,0
14804000,0.025761843,-0.014262034,2.6226044e-05,0.0,0.0,-0.001,0
14824000,0.025866644,-0.014115347,-2.336502e-05,0.0,0.0,-0.001,0
14840000,0.025881145,-0.01399163,-1.3589859e-05,0.0,0.0,-0.001,0
14860000,0.025748538,-0.013794906,-3.8146973e-05,0.0,0.0,-0.001,0
14884000,0.025791839,-0.01415886,-7.2956085e-05,0.0,0.0,-0.001,0
14904000,0.025730994,-0.0141254775,4.0769577e-05,0.0,0.0,-0.001,0
14924000,0.025454348,-0.014320189,-1.66893e-05,0.0,0.0,-0.001,0
14940000,0.025542364,-0.014286031,-2.6464462e-05,0.0,0.0,-0.001,0
14960000,0.025664583,-0.014972888,4.553795e-05,0.0,0.0,-0.001,0
14984000,0.025894754,-0.014534516,-2.503395e-05,0.0,0.0,-0.001,0
15004000,0.026072383,-0.014260792,-4.339218e-05,0.0,0.0,-0.001,0
15020000,0.025869077,-0.01436119,3.0994415e-06,0.0,0.0,-0.001,0
15044000,0.02540376,-0.014341425,-5.722046e-06,0.0,0.0,-0.001,0
15060000,0.02554063,-0.013892068,5.507469e-05,0.0,0.0,-0.001,0
15080000,0.025769724,-0.013364199,1.0728836e-05,0.0,0.0,-0.001,0
15100000,0.025780166,-0.013381239,-2.2411346e-05,0.0,0.0,-0.001,0
15124000,0.025424713,-0.013631528,-2.7656555e-05,0.0,0.0,-0.001,0
15140000,0.025330048,-0.013424946,3.5762787e-06,0.0,0.0,-0.001,0
15160000,0.025462613,-0.013515193,0.000115156174,0.0,0.0,-0.001,0
15180000,0.02552054,-0.013363772,2.3126602e-05,0.0,0.0,-0.001,0
15200000,0.025468739,-0.013405127,-1.3589859e-05,0.0,0.0,-0.001,0
15220000,0.025446147,-0.013237733,-7.534027e-05,0.0,0.0,-0.001,0
15240000,0.025431996,-0.013572738,2.6226044e-06,0.0,0.0,-0.001,0
15260000,0.025164798,-0.013400057,-5.4836273e-06,0.0,0.0,-0.001,0
15284000,0.025230626,-0.01404887,5.2690506e-05,0.0,0.0,-0.001,0
15300000,0.025303084,-0.014227826,-3.6478043e-05,0.0,0.0,-0.001,0
15324000,0.025289385,-0.014385445,1.9788742e-05,0.0,0.0,-0.001,0
15340000,0.025140598,-0.01457901,1.4543533e-05,0.0,0.0,-0.001,0
15360000,0.024642326,-0.015029269,-2.1457672e-06,0.0,0.0,-0.001,0
15380000,0.024231503,-0.015391953,9.012222e-05,0.0,0.0,-0.001,0
15404000,0.024366174,-0.015429368,3.361702e-05,0.0,0.0,-0.001,0
15420000,0.02432641,-0.01504614,7.6293945e-06,0.0,0.0,-0.001,0
15440000,0.024065487,-0.015380128,1.6450882e-05,0.0,0.0,-0.001,0
15460000,0.024198797,-0.015643435,-2.503395e-05,0.0,0.0,-0.001,0
15484000,0.024307223,-0.015752245,2.7179718e-05,0.0,0.0,-0.001,0
15504000,0.024312695,-0.01607416,-1.7404556e-05,0.0,0.0,-0.001,0
15524000,0.023854386,-0.016187726,-5.865097e-05,0.0,0.0,-0.001,0
15540000,0.023546983,-0.016119502,-4.4107437e-05,0.0,0.0,-0.001,0
15564000,0.023636963,-0.016227309,-9.536743e-07,0.0,0.0,-0.001,0
15580000,0.02360129,-0.016331224,-5.197525e-05,0.0,0.0,-0.001,0
15604000,0.023504127,-0.016802745,-5.1498413e-05,0.0,0.0,-0.001,0
15620000,0.02336139,-0.016925802,-6.198883e-06,0.0,0.0,-0.001,0
15644000,0.023515057,-0.017404662,-3.385544e-05,0.0,0.0,-0.001,0
15660000,0.023567926,-0.017832398,5.7458878e-05,0.0,0.0,-0.001,0
15684000,0.023357712,-0.018287983,9.536743e-06,0.0,0.0,-0.001,0
15700000,0.023379844,-0.018194413,-2.503395e-05,0.0,0.0,-0.001,0
15724000,0.023129815,-0.01851528,-5.4836273e-05,0.0,0.0,-0.001,0
15744000,0.023203194,-0.018813519,1.5974045e-05,0.0,0.0,-0.001,0
15760000,0.023417156,-0.01885894,3.0994415e-06,0.0,0.0,-0.001,0
15784000,0.023392111,-0.018987691,5.00679e-06,0.0,0.0,-0.001,0
15804000,0.023166798,-0.018530194,-3.4809113e-05,0.0,0.0,-0.001,0
15820000,0.023300972,-0.018966375,2.7656555e-05,0.0,0.0,-0.001,0
15844000,0.023409193,-0.01924511,-4.9591064e-05,0.0,0.0,-0.001,0
15860000,0.023579527,-0.019457951,-7.1525574e-06,0.0,0.0,-0.001,0
15884000,0.023179697,-0.01948146,9.298325e-06,0.0,0.0,-0.001,0
15904000,0.023051659,-0.019719651,-1.1205673e-05,0.0,0.0,-0.001,0
15924000,0.023179315,-0.019766236,-5.6266785e-05,0.0,0.0,-0.001,0
15944000,0.023178915,-0.019853082,-1.2397766e-05,0.0,0.0,-0.001,0
15964000,0.022763338,-0.019711262,-2.527237e-05,0.0,0.0,-0.001,0
15984000,0.022555573,-0.019646887,-1.66893e-06,0.0,0.0,-0.001,0
16004000,0.022557722,-0.019583307,1.5258789e-05,0.0,0.0,-0.001,0
16024000,0.022615485,-0.019828752,-2.169609e-05,0.0,0.0,-0.001,0
16044000,0.022698749,-0.020047413,1.335144e-05,0.0,0.0,-0.001,0
16060000,0.023019472,-0.020289674,-1.4781952e-05,0.0,0.0,-0.001,0
16080000,0.02318765,-0.02020377,-1.835823e-05,0.0,0.0,-0.001,0
16100000,0.02336901,-0.020507894,-4.029274e-05,0.0,0.0,-0.001,0
16120000,0.023323886,-0.020550257,-1.001358e-05,0.0,0.0,-0.001,0
16144000,0.023437146,-0.020614116,-1.5497208e-05,0.0,0.0,-0.001,0
16164000,0.023386406,-0.021152163,7.033348e-05,0.0,0.0,-0.001,0
16184000,0.023646465,-0.021450762,6.914139e-06,0.0,0.0,-0.001,0
16204000,0.023538088,-0.021824598,-2.6464462e-05,0.0,0.0,-0.001,0
16224000,0.023445979,-0.022028197,-1.9073486e-05,0.0,0.0,-0.001,0
16244000,0.023422979,-0.022608073,-5.7935715e-05,0.0,0.0,-0.001,0
16260000,0.02378669,-0.022368155,3.886223e-05,0.0,0.0,-0.001,0
16284000,0.024240406,-0.022662463,2.169609e-05,0.0,0.0,-0.001,0
16300000,0.02406377,-0.022400986,1.5497208e-05,0.0,0.0,-0.001,0
16324000,0.02364919,-0.022365976,2.3841858e-07,0.0,0.0,-0.001,0
16340000,0.023811636,-0.022345457,-4.6491623e-05,0.0,0.0,-0.001,0
16364000,0.024365356,-0.02265641,-2.5510788e-05,0.0,0.0,-0.001,0
16380000,0.024271755,-0.022268858,6.151199e-05,0.0,0.0,-0.001,0
16404000,0.024589412,-0.022720415,4.4822693e-05,0.0,0.0,-0.001,0
16420000,0.02456625,-0.022327133,4.529953e-05,0.0,0.0,-0.001,0
16444000,0.024835471,-0.022082444,9.059906e-06,0.0,0.0,-0.001,0
16460000,0.024931826,-0.02211008,-1.4305115e-06,0.0,0.0,-0.001,0
16480000,0.024794022,-0.022267744,-3.2663345e-05,0.0,0.0,-0.001,0
16504000,0.024839338,-0.022582423,5.030632e-05,0.0,0.0,-0.001,0
16524000,0.024598697,-0.022925677,-4.529953e-06,0.0,0.0,-0.001,0
16544000,0.02452817,-0.022797285,5.4836273e-06,0.0,0.0,-0.001,0
16564000,0.024264522,-0.023110477,-1.5735626e-05,0.0,0.0,-0.001,0
16580000,0.023965212,-0.022977328,1.0251999e-05,0.0,0.0,-0.001,0
16604000,0.024287041,-0.02298676,-3.9815903e-05,0.0,0.0,-0.001,0
16620000,0.024513457,-0.022880074,-4.4107437e-05,0.0,0.0,-0.001,0
16640000,0.024635449,-0.023191268,-1.21593475e-05,0.0,0.0,-0.001,0
16660000,0.02476868,-0.023905631,-5.8412552e-05,0.0,0.0,-0.001,0
16680000,0.02450974,-0.023774287,1.4066696e-05,0.0,0.0,-0.001,0
16700000,0.024448652,-0.023494033,-1.9073486e-05,0.0,0.0,-0.001,0
16724000,0.024484552,-0.023391495,-2.193451e-05,0.0,0.0,-0.001,0
16744000,0.024374057,-0.023238383,-1.1920929e-05,0.0,0.0,-0.001,0
16764000,0.024279963,-0.022947159,-1.5258789e-05,0.0,0.0,-0.001,0
16784000,0.024219314,-0.023221925,-1.04904175e-05,0.0,0.0,-0.001,0
16804000,0.02421727,-0.02320411,2.861023e-06,0.0,0.0,-0.001,0
16820000,0.024538739,-0.023046305,-2.336502e-05,0.0,0.0,-0.001,0
16844000,0.024843141,-0.022522649,6.914139e-06,0.0,0.0,-0.001,0
16864000,0.02482096,-0.02255945,-3.6478043e-05,0.0,0.0,-0.001,0
16880000,0.02494702,-0.022844609,9.6559525e-05,0.0,0.0,-0.001,0
16904000,0.025044495,-0.02289515,2.6226044e-06,0.0,0.0,-0.001,0
16924000,0.025177784,-0.022447672,3.671646e-05,0.0,0.0,-0.001,0
16940000,0.025354745,-0.022503283,-2.7894974e-05,0.0,0.0,-0.001,0
16964000,0.02554502,-0.023005808,-2.670288e-05,0.0,0.0,-0.001,0
16980000,0.02555145,-0.02281806,-3.9100647e-05,0.0,0.0,-0.001,0
17004000,0.025757795,-0.022668336,-8.1539154e-05,0.0,0.0,-0.001,0
17020000,0.025913704,-0.022811761,1.001358e-05,0.0,0.0,-0.001,0
17044000,0.026216242,-0.022632208,-3.1232834e-05,0.0,0.0,-0.001,0
17064000,0.02614325,-0.022836993,-3.886223e-05,0.0,0.0,-0.001,0
17080000,0.026447996,-0.02268831,-1.1920929e-05,0.0,0.0,-0.001,0
17100000,0.026379403,-0.023000253,-1.1205673e-05,0.0,0.0,-0.001,0
17124000,0.026407486,-0.023104195,-2.6464462e-05,0.0,0.0,-0.001,0
17144000,0.026557423,-0.02300399,-1.9073486e-05,0.0,0.0,-0.001,0
17160000,0.026514918,-0.023247883,6.67572e-06,0.0,0.0,-0.001,0
17180000,0.026558075,-0.023479631,6.914139e-06,0.0,0.0,-0.001,0
17200000,0.026455805,-0.023585439,-4.553795e-05,0.0,0.0,-0.001,0
17224000,0.026279382,-0.023332395,-7.390976e-06,0.0,0.0,-0.001,0
17244000,0.026452042,-0.023425445,-2.670288e-05,0.0,0.0,-0.001,0
17264000,0.026397707,-0.02360552,-5.3167343e-05,0.0,0.0,-0.001,0
17284000,0.02636548,-0.023631634,-4.029274e-05,0.0,0.0,-0.001,0
17300000,0.026357977,-0.023905367,-3.838539e-05,0.0,0.0,-0.001,0
17324000,0.026177395,-0.023929462,3.0994415e-06,0.0,0.0,-0.001,0
17340000,0.026062232,-0.024377668,6.4373016e-06,0.0,0.0,-0.001,0
17364000,0.02574306,-0.023872865,2.3841858e-07,0.0,0.0,-0.001,0
17380000,0.02601017,-0.023476366,-5.38826e-05,0.0,0.0,-0.001,0
17400000,0.02580706,-0.023681536,-1.335144e-05,0.0,0.0,-0.001,0
17420000,0.025870616,-0.023099154,-1.2397766e-05,0.0,0.0,-0.001,0
17444000,0.025992714,-0.023547081,-7.1525574e-07,0.0,0.0,-0.001,0
17464000,0.026298603,-0.02392817,-3.8146973e-05,0.0,0.0,-0.001,0
17484000,0.026413305,-0.023984458,-2.2172928e-05,0.0,0.0,-0.001,0
17500000,0.026527412,-0.024225296,8.106232e-06,0.0,0.0,-0.001,0
17524000,0.027043039,-0.023661874,-5.8412552e-05,0.0,0.0,-0.001,0
17540000,0.026977807,-0.023856664,4.6253204e-05,0.0,0.0,-0.001,0
17560000,0.026748516,-0.023815567,-4.1484833e-05,0.0,0.0,-0.001,0
17580000,0.026614835,-0.023650428,5.4836273e-06,0.0,0.0,-0.001,0
17604000,0.026506778,-0.023518657,-1.7881393e-05,0.0,0.0,-0.001,0
17620000,0.026029915,-0.023983072,4.339218e-05,0.0,0.0,-0.001,0
17644000,0.025601175,-0.023903163,-2.8133392e-05,0.0,0.0,-0.001,0
17660000,0.02530415,-0.023654932,-2.8133392e-05,0.0,0.0,-0.001,0
17684000,0.025124107,-0.0234812,-1.7881393e-05,0.0,0.0,-0.001,0
17700000,0.0246512,-0.023727808,4.196167e-05,0.0,0.0,-0.001,0
17724000,0.024670977,-0.023406511,2.336502e-05,0.0,0.0,-0.001,0
17744000,0.0244409,-0.022934971,2.861023e-05,0.0,0.0,-0.001,0
17760000,0.024301289,-0.02298509,-2.2649765e-05,0.0,0.0,-0.001,0
17784000,0.024293866,-0.023346445,4.053116e-06,0.0,0.0,-0.001,0
17804000,0.024105351,-0.023582095,-7.581711e-05,0.0,0.0,-0.001,0
17824000,0.024164148,-0.023719395,-7.1525574e-06,0.0,0.0,-0.001,0
17840000,0.02406029,-0.023738917,-4.2915344e-05,0.0,0.0,-0.001,0
17860000,0.024114473,-0.02366297,-1.5258789e-05,0.0,0.0,-0.001,0
17880000,0.023848806,-0.023858102,-2.169609e-05,0.0,0.0,-0.001,0
17904000,0.023948051,-0.023853853,2.7894974e-05,0.0,0.0,-0.001,0
17924000,0.02410267,-0.024251172,-6.508827e-05,0.0,0.0,-0.001,0
17944000,0.024169998,-0.02437217,-7.2956085e-05,0.0,0.0,-0.001,0
17960000,0.024074653,-0.024684237,-3.361702e-05,0.0,0.0,-0.001,0
17984000,0.023905208,-0.024799833,-3.4809113e-05,0.0,0.0,-0.001,0
18000000,0.023781825,-0.024766644,-7.1525574e-06,0.0,0.0,-0.001,0
18024000,0.023681708,-0.024776854,-1.3828278e-05,0.0,0.0,-0.001,0
18044000,0.023602586,-0.024829388,-6.246567e-05,0.0,0.0,-0.001,0
18064000,0.023532815,-0.024954632,-1.5974045e-05,0.0,0.0,-0.001,0
18084000,0.023685506,-0.02529003,-1.5497208e-05,0.0,0.0,-0.001,0
18104000,0.023771862,-0.025670776,-1.66893e-06,0.0,0.0,-0.001,0
18124000,0.023950182,-0.025673812,-1.9073486e-05,0.0,0.0,-0.001,0
18144000,0.024181537,-0.025448037,1.9788742e-05,0.0,0.0,-0.001,0
18160000,0.024368066,-0.025432773,-2.169609e-05,0.0,0.0,-0.001,0
18184000,0.024749868,-0.025021322,7.867813e-06,0.0,0.0,-0.001,0
18204000,0.0249211,-0.024951292,-5.9604645e-06,0.0,0.0,-0.001,0
18220000,0.024886487,-0.025139201,-4.6253204e-05,0.0,0.0,-0.001,0
18244000,0.024835106,-0.024999332,-3.886223e-05,0.0,0.0,-0.001,0
18260000,0.02465149,-0.02469717,3.838539e-05,0.0,0.0,-0.001,0
18280000,0.024794038,-0.024752373,7.1525574e-06,0.0,0.0,-0.001,0
18304000,0.024591595,-0.02522898,-7.390976e-06,0.0,0.0,-0.001,0
18324000,0.025032438,-0.025055625,-9.059906e-05,0.0,0.0,-0.001,0
18340000,0.025220664,-0.025406213,2.861023e-05,0.0,0.0,-0.001,0
18364000,0.025001843,-0.025375344,-2.360344e-05,0.0,0.0,-0.001,0
18384000,0.024994086,-0.025574537,-5.888939e-05,0.0,0.0,-0.001,0
18404000,0.024751041,-0.025775494,-2.193451e-05,0.0,0.0,-0.001,0
18420000,0.024302704,-0.025596103,1.1920929e-06,0.0,0.0,-0.001,0
18444000,0.024168726,-0.0259032,-2.0980835e-05,0.0,0.0,-0.001,0
18464000,0.023812762,-0.026178397,-1.2874603e-05,0.0,0.0,-0.001,0
18484000,0.023703353,-0.026163694,-4.529953e-06,0.0,0.0,-0.001,0
18500000,0.023904106,-0.026295193,3.33786e-06,0.0,0.0,-0.001,0
18520000,0.023840334,-0.025974639,-3.2901764e-05,0.0,0.0,-0.001,0
18540000,0.023622204,-0.025484543,-3.8146973e-06,0.0,0.0,-0.001,0
18564000,0.023649622,-0.025195869,-3.2901764e-05,0.0,0.0,-0.001,0
18580000,0.023705047,-0.025096647,6.1273575e-05,0.0,0.0,-0.001,0
18600000,0.023757316,-0.02547921,-3.2424927e-05,0.0,0.0,-0.001,0
18620000,0.02392195,-0.025565755,-6.484985e-05,0.0,0.0,-0.001,0
18644000,0.024173949,-0.025165383,-4.36306e-05,0.0,0.0,-0.001,0
18660000,0.024518512,-0.025362095,-3.6478043e-05,0.0,0.0,-0.001,0
18680000,0.024418771,-0.025504941,-3.33786e-05,0.0,0.0,-0.001,0
18704000,0.02460867,-0.026096106,-3.0040741e-05,0.0,0.0,-0.001,0
18720000,0.024753127,-0.02623333,8.34465e-06,0.0,0.0,-0.001,0
18740000,0.024950162,-0.026327934,-2.8848648e-05,0.0,0.0,-0.001,0
18764000,0.024514686,-0.02674877,6.198883e-06,0.0,0.0,-0.001,0
18780000,0.024785586,-0.026904069,-1.66893e-06,0.0,0.0,-0.001,0
18800000,0.024760375,-0.027236627,-4.1246414e-05,0.0,0.0,-0.001,0
18820000,0.024777615,-0.02717275,-6.651878e-05,0.0,0.0,-0.001,0
18844000,0.024995018,-0.02769092,4.7683716e-07,0.0,0.0,-0.001,0
18860000,0.024941225,-0.027983345,-2.8133392e-05,0.0,0.0,-0.001,0
18880000,0.025155578,-0.028402843,1.168251e-05,0.0,0.0,-0.001,0
18900000,0.024913017,-0.02839609,-4.3153763e-05,0.0,0.0,-0.001,0
18924000,0.024893284,-0.028442936,-2.2649765e-05,0.0,0.0,-0.001,0
18940000,0.025100699,-0.028554268,-2.0503998e-05,0.0,0.0,-0.001,0
18960000,0.025175838,-0.028125005,-3.361702e-05,0.0,0.0,-0.001,0
18980000,0.025053483,-0.028234826,1.7404556e-05,0.0,0.0,-0.001,0
19004000,0.025028743,-0.028114278,1.8835068e-05,0.0,0.0,-0.001,0
19020000,0.024796586,-0.028108772,-2.336502e-05,0.0,0.0,-0.001,0
19044000,0.024864173,-0.028341677,-2.1457672e-06,0.0,0.0,-0.001,0
19064000,0.025375597,-0.028545512,1.04904175e-05,0.0,0.0,-0.001,0
19084000,0.025197474,-0.02880276,9.202957e-05,0.0,0.0,-0.001,0
19100000,0.025022175,-0.028802248,-2.1219254e-05,0.0,0.0,-0.001,0
19124000,0.024985773,-0.02885557,1.692772e-05,0.0,0.0,-0.001,0
19144000,0.024930555,-0.028779695,-1.3828278e-05,0.0,0.0,-0.001,0
19164000,0.024790443,-0.02839323,-4.2915344e-05,0.0,0.0,-0.001,0
19180000,0.024780788,-0.028245525,-4.220009e-05,0.0,0.0,-0.001,0
19204000,0.025004439,-0.028656924,1.9550323e-05,0.0,0.0,-0.001,0
19224000,0.02493632,-0.028076012,-2.7179718e-05,0.0,0.0,-0.001,0
19240000,0.024948904,-0.028272936,-1.4066696e-05,0.0,0.0,-0.001,0
19264000,0.024679147,-0.028459527,-3.7670135e-05,0.0,0.0,-0.001,0
19280000,0.024951313,-0.028564448,-3.6478043e-05,0.0,0.0,-0.001,0
19304000,0.025135,-0.02893507,2.2411346e-05,0.0,0.0,-0.001,0
19324000,0.025213642,-0.029317563,5.7935715e-05,0.0,0.0,-0.001,0
19344000,0.02537864,-0.029828783,7.6293945e-06,0.0,0.0,-0.001,0
19364000,0.025414921,-0.029814627,-4.0769577e-05,0.0,0.0,-0.001,0
19380000,0.025586557,-0.029736817,2.861023e-06,0.0,0.0,-0.001,0
19404000,0.025391027,-0.030382926,6.1035156e-05,0.0,0.0,-0.001,0
19420000,0.025232509,-0.030427787,2.1219254e-05,0.0,0.0,-0.001,0
19440000,0.02545911,-0.030407947,-2.7894974e-05,0.0,0.0,-0.001,0
19464000,0.025874201,-0.030655166,1.5974045e-05,0.0,0.0,-0.001,0
19484000,0.025666637,-0.030716686,4.220009e-05,0.0,0.0,-0.001,0
19504000,0.025664855,-0.03055289,-1.2636185e-05,0.0,0.0,-0.001,0
19524000,0.025603771,-0.030027825,-4.7922134e-05,0.0,0.0,-0.001,0
19540000,0.025254548,-0.030258304,3.4093857e-05,0.0,0.0,-0.001,0
19564000,0.025385505,-0.030088108,-3.7908554e-05,0.0,0.0,-0.001,0
19580000,0.025193207,-0.029635925,-5.9366226e-05,0.0,0.0,-0.001,0
19604000,0.02511894,-0.029658701,-4.887581e-05,0.0,0.0,-0.001,0
19620000,0.025156988,-0.02985044,-7.200241e-05,0.0,0.0,-0.001,0
19640000,0.025066081,-0.030042965,-4.7445297e-05,0.0,0.0,-0.001,0
19660000,0.024703817,-0.029894173,3.6478043e-05,0.0,0.0,-0.001,0
19680000,0.024778109,-0.02986264,-1.692772e-05,0.0,0.0,-0.001,0
19700000,0.024940053,-0.030116213,-2.8133392e-05,0.0,0.0,-0.001,0
19724000,0.025272511,-0.03055335,1.5735626e-05,0.0,0.0,-0.001,0
19740000,0.025449192,-0.030613841,-2.7418137e-05,0.0,0.0,-0.001,0
19760000,0.025330741,-0.030511828,-4.3153763e-05,0.0,0.0,-0.001,0
19780000,0.025611168,-0.030644475,-2.9325485e-05,0.0,0.0,-0.001,0
19804000,0.02602281,-0.030670984,-2.9325485e-05,0.0,0.0,-0.001,0
19820000,0.025939219,-0.030994473,-4.2915344e-05,0.0,0.0,-0.001,0
19840000,0.026124224,-0.030816235,1.5974045e-05,0.0,0.0,-0.001,0
19864000,0.026204491,-0.030635098,-2.026558e-05,0.0,0.0,-0.001,0
19884000,0.026260607,-0.030403754,7.6293945e-06,0.0,0.0,-0.001,0
19904000,0.026649173,-0.030766223,-5.9604645e-05,0.0,0.0,-0.001,0
19924000,0.026259508,-0.031371154,-1.0251999e-05,0.0,0.0,-0.001,0
19944000,0.026193578,-0.031295147,-1.9788742e-05,0.0,0.0,-0.001,0
19964000,0.02626159,-0.031223925,8.106232e-06,0.0,0.0,-0.001,0
19980000,0.026505899,-0.031582404,-1.3828278e-05,0.0,0.0,-0.001,0
20000000,0.026300931,-0.03160879,-1.8835068e-05,0.0,0.0,-0.001,0
20020000,0.025763905,-0.031456385,-0.00010752678,0.0,0.0,-0.001,0
20044000,0.025798813,-0.031097893,2.503395e-05,0.0,0.0,-0.001,0
20060000,0.026037034,-0.031471577,-1.9550323e-05,0.0,0.0,-0.001,0
20084000,0.025621,-0.03180669,-8.034706e-05,0.0,0.0,-0.001,0
20104000,0.025501031,-0.031674776,-1.2874603e-05,0.0,0.0,-0.001,0
20124000,0.025937945,-0.031731192,-4.36306e-05,0.0,0.0,-0.001,0
20144000,0.025985822,-0.031597458,-2.0742416e-05,0.0,0.0,-0.001,0
20164000,0.026042677,-0.031607892,-6.508827e-05,0.0,0.0,-0.001,0
20180000,0.026242081,-0.032027494,-3.0517578e-05,0.0,0.0,-0.001,0
20204000,0.025874712,-0.032064885,3.552437e-05,0.0,0.0,-0.001,0
20220000,0.025718715,-0.03261709,-6.1035156e-05,0.0,0.0,-0.001,0
20244000,0.025104156,-0.032854084,-1.8119812e-05,0.0,0.0,-0.001,0
20264000,0.025118198,-0.032920912,-1.8835068e-05,0.0,0.0,-0.001,0
20280000,0.024941958,-0.03297448,-4.506111e-05,0.0,0.0,-0.001,0
20304000,0.024746887,-0.03325267,-5.197525e-05,0.0,0.0,-0.001,0
20320000,0.024526818,-0.03357374,-4.529953e-06,0.0,0.0,-0.001,0
20340000,0.024478862,-0.03319275,-4.553795e-05,0.0,0.0,-0.001,0
20364000,0.024501514,-0.032997858,3.8146973e-06,0.0,0.0,-0.001,0
20380000,0.024154432,-0.033319872,1.859665e-05,0.0,0.0,-0.001,0
20400000,0.02388875,-0.03355755,-3.862381e-05,0.0,0.0,-0.001,0
20424000,0.023516053,-0.033629473,-1.0251999e-05,0.0,0.0,-0.001,0
20440000,0.02339698,-0.03370818,-3.1471252e-05,0.0,0.0,-0.001,0
20460000,0.0233213,-0.03378653,2.8848648e-05,0.0,0.0,-0.001,0
20484000,0.023549575,-0.034402017,4.529953e-06,0.0,0.0,-0.001,0
20500000,0.02371876,-0.034451757,-5.507469e-05,0.0,0.0,-0.001,0
20520000,0.023615796,-0.034426685,-2.4795532e-05,0.0,0.0,-0.001,0
20540000,0.02329887,-0.03440036,2.5749207e-05,0.0,0.0,-0.001,0
20560000,0.022929281,-0.034334525,-2.8133392e-05,0.0,0.0,-0.001,0
20584000,0.02341349,-0.033958964,5.221367e-05,0.0,0.0,-0.001,0
20600000,0.023799676,-0.033722483,1.4305115e-06,0.0,0.0,-0.001,0
20620000,0.023768056,-0.033717558,1.2397766e-05,0.0,0.0,-0.001,0
20644000,0.023766447,-0.03384738,-5.054474e-05,0.0,0.0,-0.001,0
20660000,0.02367381,-0.033816013,1.335144e-05,0.0,0.0,-0.001,0
20684000,0.023286276,-0.033701204,-2.2888184e-05,0.0,0.0,-0.001,0
20700000,0.023115318,-0.033805165,-8.34465e-06,0.0,0.0,-0.001,0
20724000,0.023179548,-0.034199163,1.21593475e-05,0.0,0.0,-0.001,0
20744000,0.023393558,-0.033711784,-1.4066696e-05,0.0,0.0,-0.001,0
20764000,0.023647135,-0.033642277,-4.0769577e-05,0.0,0.0,-0.001,0
20780000,0.023591012,-0.033569533,1.692772e-05,0.0,0.0,-0.001,0
20804000,0.023563255,-0.033357713,-2.6226044e-05,0.0,0.0,-0.001,0
20824000,0.023556978,-0.03305442,-8.106232e-06,0.0,0.0,-0.001,0
20840000,0.023317441,-0.03271048,-1.50203705e-05,0.0,0.0,-0.001,0
20864000,0.02319125,-0.032258287,-2.527237e-05,0.0,0.0,-0.001,0
20884000,0.023100188,-0.032150406,-4.005432e-05,0.0,0.0,-0.001,0
20904000,0.02315674,-0.03230937,-2.861023e-06,0.0,0.0,-0.001,0
20924000,0.02310125,-0.03247384,-5.9127808e-05,0.0,0.0,-0.001,0
20940000,0.023191642,-0.032525595,1.3589859e-05,0.0,0.0,-0.001,0
20964000,0.023056136,-0.0327582,-6.1035156e-05,0.0,0.0,-0.001,0
20980000,0.022876857,-0.032466482,2.670288e-05,0.0,0.0,-0.001,0
21000000,0.023094099,-0.033398576,-1.835823e-05,0.0,0.0,-0.001,0
21024000,0.02352748,-0.03377466,1.5974045e-05,0.0,0.0,-0.001,0
21040000,0.02341903,-0.03374496,2.5749207e-05,0.0,0.0,-0.001,0
21064000,0.023843274,-0.03414197,-4.529953e-05,0.0,0.0,-0.001,0
21084000,0.02412099,-0.034189947,-7.8201294e-05,0.0,0.0,-0.001,0
21104000,0.024288256,-0.034180343,-3.862381e-05,0.0,0.0,-0.001,0
21120000,0.024103176,-0.034217954,5.2452087e-06,0.0,0.0,-0.001,0
21140000,0.024403915,-0.03476733,-6.67572e-06,0.0,0.0,-0.001,0
21164000,0.024355417,-0.035087284,-0.000118255615,0.0,0.0,-0.001,0
21180000,0.024071401,-0.03519243,-3.2186508e-05,0.0,0.0,-0.001,0
21200000,0.023909561,-0.035149727,-2.7656555e-05,0.0,0.0,-0.001,0
21220000,0.023901962,-0.034489393,-1.04904175e-05,0.0,0.0,-0.001,0
21240000,0.023713252,-0.033712707,-1.5735626e-05,0.0,0.0,-0.001,0
21260000,0.023403153,-0.03354352,-3.1471252e-05,0.0,0.0,-0.001,0
21284000,0.023245525,-0.033427954,-2.4318695e-05,0.0,0.0,-0.001,0
21304000,0.023420822,-0.033411697,-1.5258789e-05,0.0,0.0,-0.001,0
21324000,0.023347858,-0.032926694,4.9829483e-05,0.0,0.0,-0.001,0
21340000,0.023290196,-0.032932464,-3.4093857e-05,0.0,0.0,-0.001,0
21360000,0.023411445,-0.032866593,-2.3841858e-06,0.0,0.0,-0.001,0
21380000,0.023264997,-0.033338465,-4.053116e-06,0.0,0.0,-0.001,0
21404000,0.023383863,-0.033649094,4.4822693e-05,0.0,0.0,-0.001,0
21424000,0.023480931,-0.033893656,-2.5749207e-05,0.0,0.0,-0.001,0
21440000,0.023814835,-0.033912566,4.4345856e-05,0.0,0.0,-0.001,0
21464000,0.023922699,-0.033772282,2.6226044e-06,0.0,0.0,-0.001,0
21480000,0.024033876,-0.033584684,-1.3589859e-05,0.0,0.0,-0.001,0
21500000,0.024235535,-0.033145364,3.6239624e-05,0.0,0.0,-0.001,0
21524000,0.024461854,-0.03341787,2.861023e-06,0.0,0.0,-0.001,0
21540000,0.024456393,-0.03327959,-2.4318695e-05,0.0,0.0,-0.001,0
21564000,0.02413511,-0.03293395,-6.41346e-05,0.0,0.0,-0.001,0
21580000,0.024154339,-0.032283515,-7.3194504e-05,0.0,0.0,-0.001,0
21604000,0.024277924,-0.031834252,5.6266785e-05,0.0,0.0,-0.001,0
21624000,0.024082603,-0.031726666,-7.867813e-06,0.0,0.0,-0.001,0
21640000,0.024080645,-0.03169033,-1.5497208e-05,0.0,0.0,-0.001,0
21664000,0.024360973,-0.031376254,-7.6532364e-05,0.0,0.0,-0.001,0
21684000,0.024674406,-0.030510455,-4.196167e-05,0.0,0.0,-0.001,0
21700000,0.024688141,-0.030412437,-1.9788742e-05,0.0,0.0,-0.001,0
21720000,0.024767231,-0.030568669,-2.6464462e-05,0.0,0.0,-0.001,0
21744000,0.024608377,-0.030538857,-4.6253204e-05,0.0,0.0,-0.001,0
21760000,0.024508795,-0.030402524,4.7445297e-05,0.0,0.0,-0.001,0
21780000,0.02471014,-0.030520307,1.5735626e-05,0.0,0.0,-0.001,0
21804000,0.025029061,-0.029838221,-3.1232834e-05,0.0,0.0,-0.001,0
21820000,0.024837755,-0.029676415,-7.033348e-05,0.0,0.0,-0.001,0
21844000,0.024871755,-0.02970417,-3.0755997e-05,0.0,0.0,-0.001,0
21864000,0.024879713,-0.02960207,-8.821487e-06,0.0,0.0,-0.001,0
21884000,0.024846885,-0.029877866,6.914139e-06,0.0,0.0,-0.001,0
21900000,0.02466674,-0.030331377,-1.168251e-05,0.0,0.0,-0.001,0
21924000,0.024309251,-0.02999651,-5.7935715e-05,0.0,0.0,-0.001,0
21940000,0.024282197,-0.029987372,-9.775162e-06,0.0,0.0,-0.001,0
21964000,0.02442929,-0.030090883,9.775162e-06,0.0,0.0,-0.001,0
21980000,0.024312112,-0.02976666,-2.1219254e-05,0.0,0.0,-0.001,0
22004000,0.023988029,-0.030026266,-3.5762787e-06,0.0,0.0,-0.001,0
22020000,0.023771133,-0.030109456,-3.9339066e-05,0.0,0.0,-0.001,0
22044000,0.02369698,-0.029888652,-3.4093857e-05,0.0,0.0,-0.001,0
