timestamp,timestamp_sample,lat,lon,alt,alt_ellipsoid,delta_alt,eph,epv,terrain_alt,lat_lon_reset_counter,alt_reset_counter,terrain_alt_valid,dead_reckoning
8684000,8684000,36.660767902848306,126.34209919398393,30.140911,30.145002,0.013004914,1.7320508,1.4142135,nan,2,2,0,0
8692000,8692000,36.66076790308751,126.34209919500752,30.14111,30.1452,0.013004914,1.7320541,1.4142181,nan,2,2,0,0
8700000,8700000,36.66076790326473,126.34209919607477,30.141312,30.145403,0.013004914,1.7320641,1.4142319,nan,2,2,0,0
8708000,8708000,36.66076790338598,126.34209919717776,30.141518,30.145609,0.013004914,1.7320807,1.4142549,nan,2,2,0,0
8716000,8716000,36.66076790346921,126.34209919836135,30.141726,30.145817,0.013004914,1.7321041,1.4142869,nan,2,2,0,0
8724000,8724000,36.66076790355283,126.34209919961688,30.141935,30.146027,0.013004914,1.732134,1.4143282,nan,2,2,0,0
8732000,8732000,36.6607679036182,126.3420992009088,30.142282,30.146374,0.013004914,1.7321706,1.3874192,nan,2,2,0,0
8740000,8740000,36.660767903652285,126.3420992022282,30.14263,30.14672,0.013004914,1.7322139,1.3874757,nan,2,2,0,0
8748000,8748000,36.660767903661096,126.3420992035819,30.142977,30.147068,0.013004914,1.7322638,1.3875417,nan,2,2,0,0
8756000,8756000,36.660767903679705,126.34209920495366,30.143328,30.147419,0.013004914,1.7323204,1.3876168,nan,2,2,0,0
8764000,8764000,36.66076790369733,126.34209920633526,30.143679,30.14777,0.013004914,1.7323836,1.3877014,nan,2,2,0,0
8772000,8772000,36.66076790372348,126.342099207713,30.144024,30.148115,0.013004914,1.7324536,1.3877953,nan,2,2,0,0
8780000,8780000,36.660767903755726,126.34209920910894,30.144361,30.148453,0.013004914,1.7325301,1.3878986,nan,2,2,0,0
8788000,8788000,36.66076790376993,126.3420992104894,30.144693,30.148785,0.013004914,1.7326133,1.3880111,nan,2,2,0,0
8796000,8796000,36.6607679037408,126.34209921182979,30.144932,30.149023,0.013004914,1.7327032,1.3644487,nan,2,2,0,0
8804000,8804000,36.66076790367936,126.34209921315241,30.145168,30.14926,0.013004914,1.7327998,1.3645732,nan,2,2,0,0
8812000,8812000,36.66076790361519,126.34209921445799,30.145401,30.149492,0.013004914,1.7329029,1.3647072,nan,2,2,0,0
8820000,8820000,36.66076790354218,126.34209921574843,30.145632,30.149723,0.013004914,1.7330128,1.3648506,nan,2,2,0,0
8828000,8828000,36.660767903482046,126.34209921704276,30.14586,30.149952,0.013004914,1.7331293,1.3650036,nan,2,2,0,0
8836000,8836000,36.66076790343264,126.34209921831035,30.146088,30.150179,0.013004914,1.7332525,1.3651661,nan,2,2,0,0
8844000,8844000,36.66076790339808,126.3420992195508,30.146315,30.150406,0.013004914,1.7333823,1.365338,nan,2,2,0,0
8852000,8852000,36.66076790334806,126.34209922077405,30.146471,30.150562,0.013004914,1.7335188,1.3444887,nan,2,2,0,0
8860000,8860000,36.66076790325803,126.3420992220076,30.146624,30.150715,0.013004914,1.733662,1.3446702,nan,2,2,0,0
8868000,8868000,36.660767903167034,126.34209922324699,30.146774,30.150866,0.013004914,1.7338117,1.3448613,nan,2,2,0,0
8876000,8876000,36.66076790308887,126.34209922446065,30.146923,30.151014,0.013004914,1.7339681,1.3450619,nan,2,2,0,0
8884000,8884000,36.66076790303451,126.34209922565245,30.147072,30.151163,0.013004914,1.7341312,1.3452722,nan,2,2,0,0
8892000,8892000,36.66076790299492,126.34209922682415,30.147217,30.151308,0.013004914,1.734301,1.3454921,nan,2,2,0,0
8900000,8900000,36.6607679029227,126.34209922799919,30.147362,30.151453,0.013004914,1.7344773,1.3457216,nan,2,2,0,0
8908000,8908000,36.66076790281851,126.34209922917408,30.147507,30.151598,0.013004914,1.7346604,1.3459607,nan,2,2,0,0
8916000,8916000,36.66076790271005,126.34209923035506,30.147755,30.151846,0.013004914,1.73485,1.3273218,nan,2,2,0,0
8924000,8924000,36.66076790260038,126.34209923151708,30.147997,30.152088,0.013004914,1.7350463,1.3275678,nan,2,2,0,0
8932000,8932000,36.660767902490605,126.34209923263998,30.14824,30.15233,0.013004914,1.7352494,1.3278235,nan,2,2,0,0
8940000,8940000,36.660767902392806,126.34209923377288,30.14848,30.15257,0.013004914,1.735459,1.3280889,nan,2,2,0,0
8948000,8948000,36.660767902281414,126.34209923492718,30.14872,30.152811,0.013004914,1.7356753,1.328364,nan,2,2,0,0
8956000,8956000,36.66076790214841,126.34209923607773,30.148956,30.153048,0.013004914,1.7358983,1.3286488,nan,2,2,0,0
8964000,8964000,36.66076790201127,126.34209923724546,30.14919,30.153282,0.013004914,1.7361277,1.3289434,nan,2,2,0,0
8972000,8972000,36.660767901886,126.34209923845627,30.149115,30.153206,0.013004914,1.736364,1.3121485,nan,2,2,0,0
8980000,8980000,36.660767901759854,126.34209923969763,30.149044,30.153135,0.013004914,1.7366068,1.312448,nan,2,2,0,0
8988000,8988000,36.66076790159602,126.34209924093607,30.148981,30.153072,0.013004914,1.7368563,1.3127575,nan,2,2,0,0
8996000,8996000,36.66076790140101,126.34209924218052,30.148926,30.153017,0.013004914,1.7371124,1.3130766,nan,2,2,0,0
9004000,9004000,36.66076790119214,126.34209924342112,30.148876,30.152967,0.013004914,1.7373751,1.3134056,nan,2,2,0,0
9012000,9012000,36.66076790096162,126.34209924464861,30.148832,30.152924,0.013004914,1.7376446,1.3137443,nan,2,2,0,0
9020000,9020000,36.660767900720685,126.34209924586541,30.148794,30.152885,0.013004914,1.7379206,1.3140929,nan,2,2,0,0
9028000,9028000,36.66076790047798,126.34209924706593,30.148762,30.152853,0.013004914,1.7382033,1.3144512,nan,2,2,0,0
9036000,9036000,36.66076790023922,126.34209924823034,30.148773,30.152864,0.013004914,1.7384925,1.2991726,nan,2,2,0,0
9044000,9044000,36.66076789997615,126.34209924938018,30.14879,30.152882,0.013004914,1.7387885,1.2995337,nan,2,2,0,0
9052000,9052000,36.660767899687016,126.34209925050774,30.148813,30.152905,0.013004914,1.7390909,1.2999048,nan,2,2,0,0
9060000,9060000,36.66076789937285,126.34209925162453,30.148838,30.15293,0.013004914,1.7394001,1.3002857,nan,2,2,0,0
9068000,9068000,36.66076789905763,126.34209925274445,30.148867,30.152958,0.013004914,1.7397159,1.3006765,nan,2,2,0,0
9076000,9076000,36.66076789876566,126.3420992538358,30.1489,30.15299,0.013004914,1.7400383,1.301077,nan,2,2,0,0
9084000,9084000,36.66076789936833,126.34209925408274,30.148853,30.152512,0.013004914,1.4167638,1.185614,nan,2,2,0,0
9092000,9092000,36.66076789997,126.3420992543359,30.148779,30.152437,0.013004914,1.4168675,1.1802502,nan,2,2,0,0
9100000,9100000,36.66076790056616,126.34209925459545,30.14871,30.152369,0.013004914,1.4169753,1.18039,nan,2,2,0,0
9108000,9108000,36.66076790118599,126.34209925490437,30.148643,30.152302,0.013004914,1.4170871,1.1805352,nan,2,2,0,0
9116000,9116000,36.66076790184278,126.34209925527641,30.148575,30.152233,0.013004914,1.417203,1.1806859,nan,2,2,0,0
9124000,9124000,36.6607679024882,126.34209925566643,30.148506,30.152164,0.013004914,1.417323,1.180842,nan,2,2,0,0
9132000,9132000,36.66076790311259,126.34209925608394,30.14844,30.152098,0.013004914,1.417447,1.1810036,nan,2,2,0,0
9140000,9140000,36.660767903750305,126.34209925652752,30.148378,30.152037,0.013004914,1.4175751,1.1811705,nan,2,2,0,0
9148000,9148000,36.66076790439485,126.34209925696891,30.14832,30.151978,0.013004914,1.4177073,1.181343,nan,2,2,0,0
9156000,9156000,36.660767905035385,126.3420992574383,30.148315,30.151974,0.013004914,1.4178435,1.1762649,nan,2,2,0,0
9164000,9164000,36.66076790565118,126.34209925794589,30.148314,30.151972,0.013004914,1.4179838,1.1764433,nan,2,2,0,0
9172000,9172000,36.66076790626901,126.34209925848835,30.148312,30.15197,0.013004914,1.418128,1.1766272,nan,2,2,0,0
9180000,9180000,36.66076790687618,126.34209925903914,30.14831,30.151968,0.013004914,1.4182764,1.1768163,nan,2,2,0,0
9188000,9188000,36.66076790749004,126.34209925958847,30.148312,30.15197,0.013004914,1.4184289,1.1770111,nan,2,2,0,0
9196000,9196000,36.66076790813218,126.34209926013583,30.148314,30.151972,0.013004914,1.4185854,1.1772113,nan,2,2,0,0
9204000,9204000,36.66076790877962,126.34209926068677,30.148317,30.151976,0.013004914,1.418746,1.1774168,nan,2,2,0,0
9212000,9212000,36.660767909414496,126.34209926123566,30.148344,30.152002,0.013004914,1.4189107,1.1725935,nan,2,2,0,0
9220000,9220000,36.66076791005614,126.34209926177928,30.14837,30.152029,0.013004914,1.4190794,1.1728044,nan,2,2,0,0
9228000,9228000,36.6607679107114,126.34209926233534,30.1484,30.152058,0.013004914,1.4192523,1.1730206,nan,2,2,0,0
9236000,9236000,36.66076791136887,126.34209926295364,30.148432,30.15209,0.013004914,1.4194292,1.1732423,nan,2,2,0,0
9244000,9244000,36.66076791202813,126.34209926358278,30.148466,30.152124,0.013004914,1.4196101,1.1734694,nan,2,2,0,0
9252000,9252000,36.660767912705445,126.34209926418364,30.148502,30.15216,0.013004914,1.4197952,1.173702,nan,2,2,0,0
9260000,9260000,36.66076791337017,126.3420992647945,30.14854,30.152199,0.013004914,1.4199842,1.1739401,nan,2,2,0,0
9268000,9268000,36.66076791400754,126.34209926542697,30.148579,30.152237,0.013004914,1.4201775,1.1741835,nan,2,2,0,0
9276000,9276000,36.66076791461039,126.34209926607784,30.148645,30.152304,0.013004914,1.4203746,1.1695765,nan,2,2,0,0
9284000,9284000,36.66076791520577,126.3420992667168,30.14871,30.152369,0.013004914,1.4205759,1.1698244,nan,2,2,0,0
9292000,9292000,36.66076791580151,126.34209926735268,30.148779,30.152437,0.013004914,1.4207813,1.1700776,nan,2,2,0,0
9300000,9300000,36.66076791639952,126.34209926797952,30.148848,30.152506,0.013004914,1.4209907,1.1703364,nan,2,2,0,0
9308000,9308000,36.66076791697147,126.34209926863358,30.148916,30.152575,0.013004914,1.4212043,1.1706004,nan,2,2,0,0
9316000,9316000,36.660767917498525,126.34209926931838,30.14899,30.152649,0.013004914,1.4214219,1.1708701,nan,2,2,0,0
9324000,9324000,36.66076791795737,126.3420992699963,30.149065,30.152723,0.013004914,1.4216436,1.1711451,nan,2,2,0,0
9332000,9332000,36.66076791836829,126.3420992706673,30.149206,30.152864,0.013004914,1.4218693,1.1667347,nan,2,2,0,0
9340000,9340000,36.6607679187616,126.34209927134668,30.149351,30.15301,0.013004914,1.4220991,1.1670133,nan,2,2,0,0
9348000,9348000,36.660767919168286,126.34209927202761,30.149498,30.153156,0.013004914,1.422333,1.1672975,nan,2,2,0,0
9356000,9356000,36.66076791958502,126.34209927273263,30.149643,30.153301,0.013004914,1.4225711,1.167587,nan,2,2,0,0
9364000,9364000,36.66076791998782,126.34209927346767,30.149788,30.153446,0.013004914,1.422813,1.1678821,nan,2,2,0,0
9372000,9372000,36.66076792036058,126.34209927416782,30.149935,30.153593,0.013004914,1.4230591,1.1681825,nan,2,2,0,0
9380000,9380000,36.66076792073987,126.3420992748523,30.150084,30.153742,0.013004914,1.4233094,1.1684884,nan,2,2,0,0
9388000,9388000,36.66076792113059,126.34209927556009,30.150232,30.15389,0.013004914,1.4235637,1.1687996,nan,2,2,0,0
9396000,9396000,36.66076792154508,126.34209927623436,30.150312,30.15397,0.013004914,1.423822,1.1645504,nan,2,2,0,0
9404000,9404000,36.66076792198062,126.34209927690436,30.15039,30.154049,0.013004914,1.4240847,1.1648645,nan,2,2,0,0
9412000,9412000,36.660767922407516,126.34209927757848,30.150469,30.154127,0.013004914,1.4243511,1.165184,nan,2,2,0,0
9420000,9420000,36.66076792280032,126.3420992782119,30.150545,30.154203,0.013004914,1.4246218,1.165509,nan,2,2,0,0
9428000,9428000,36.660767923199565,126.34209927882402,30.150621,30.15428,0.013004914,1.4248966,1.1658393,nan,2,2,0,0
9436000,9436000,36.660767923629834,126.34209927948062,30.150696,30.154354,0.013004914,1.4251753,1.1661752,nan,2,2,0,0
9444000,9444000,36.66076792404648,126.34209928016011,30.150774,30.154432,0.013004914,1.4254582,1.1665164,nan,2,2,0,0
9452000,9452000,36.66076792445011,126.34209928084164,30.150845,30.154503,0.013004914,1.4257451,1.1624173,nan,2,2,0,0
9460000,9460000,36.660767924867116,126.34209928154517,30.150913,30.154572,0.013004914,1.4260362,1.1627607,nan,2,2,0,0
9468000,9468000,36.660767925293264,126.34209928226574,30.150986,30.154644,0.013004914,1.4263314,1.1631095,nan,2,2,0,0
9476000,9476000,36.660767925682144,126.3420992829683,30.151062,30.15472,0.013004914,1.4266306,1.1634637,nan,2,2,0,0
9484000,9484000,36.66076792603268,126.34209928368847,30.151142,30.1548,0.013004914,1.4269339,1.1638234,nan,2,2,0,0
9492000,9492000,36.660767924925764,126.34209928297724,30.151197,30.154457,0.013004914,1.295888,1.1211567,nan,2,2,0,0
9500000,9500000,36.66076792383806,126.34209928227169,30.151258,30.154518,0.013004914,1.2960387,1.1213483,nan,2,2,0,0
9508000,9508000,36.66076792278988,126.34209928154768,30.151318,30.154577,0.013004914,1.2961926,1.1215435,nan,2,2,0,0
9516000,9516000,36.66076792175984,126.34209928084843,30.151367,30.154627,0.013004914,1.2963494,1.1193651,nan,2,2,0,0
9524000,9524000,36.66076792074533,126.34209928014248,30.151419,30.154678,0.013004914,1.2965091,1.1195642,nan,2,2,0,0
9532000,9532000,36.66076791972539,126.34209927943373,30.151474,30.154734,0.013004914,1.2966719,1.119767,nan,2,2,0,0
9540000,9540000,36.66076791869717,126.34209927875035,30.15153,30.154789,0.013004914,1.2968376,1.1199735,nan,2,2,0,0
9548000,9548000,36.66076791768707,126.34209927808837,30.151587,30.154846,0.013004914,1.2970062,1.120184,nan,2,2,0,0
9556000,9556000,36.66076791671853,126.3420992774118,30.151644,30.154903,0.013004914,1.2971779,1.1203979,nan,2,2,0,0
9564000,9564000,36.660767915754434,126.34209927673936,30.151703,30.154963,0.013004914,1.2973527,1.1206158,nan,2,2,0,0
9572000,9572000,36.66076791478712,126.3420992761208,30.15173,30.15499,0.013004914,1.2975302,1.118495,nan,2,2,0,0
9580000,9580000,36.660767913833716,126.34209927557822,30.151758,30.155018,0.013004914,1.2977109,1.1187161,nan,2,2,0,0
9588000,9588000,36.6607679129089,126.34209927508313,30.15179,30.15505,0.013004914,1.2978946,1.1189411,nan,2,2,0,0
9596000,9596000,36.660767912021235,126.34209927456355,30.151829,30.155088,0.013004914,1.2980812,1.1191697,nan,2,2,0,0
9604000,9604000,36.66076791117975,126.34209927401322,30.151873,30.155132,0.013004914,1.2982708,1.1194022,nan,2,2,0,0
9612000,9612000,36.66076791037742,126.34209927348031,30.151915,30.155174,0.013004914,1.2984635,1.1196383,nan,2,2,0,0
9620000,9620000,36.66076790960666,126.3420992729817,30.151957,30.155216,0.013004914,1.2986591,1.1198782,nan,2,2,0,0
9628000,9628000,36.66076790883184,126.34209927251729,30.152002,30.155262,0.013004914,1.2988577,1.1201218,nan,2,2,0,0
9636000,9636000,36.660767908049046,126.3420992720907,30.152023,30.155283,0.013004914,1.2990593,1.118045,nan,2,2,0,0
9644000,9644000,36.66076790728687,126.34209927169869,30.152042,30.155302,0.013004914,1.2992641,1.1182916,nan,2,2,0,0
9652000,9652000,36.660767906532605,126.34209927132086,30.152067,30.155327,0.013004914,1.2994716,1.1185418,nan,2,2,0,0
9660000,9660000,36.660767905805606,126.3420992709681,30.152096,30.155355,0.013004914,1.2996824,1.1187959,nan,2,2,0,0
9668000,9668000,36.66076790510379,126.34209927063432,30.152126,30.155386,0.013004914,1.299896,1.1190536,nan,2,2,0,0
9676000,9676000,36.66076790444065,126.34209927035502,30.152157,30.155416,0.013004914,1.3001128,1.119315,nan,2,2,0,0
9684000,9684000,36.66076790377788,126.34209927010109,30.15219,30.155449,0.013004914,1.3003325,1.1195803,nan,2,2,0,0
9692000,9692000,36.66076790309876,126.34209926988328,30.152254,30.155514,0.013004914,1.3005552,1.117545,nan,2,2,0,0
9700000,9700000,36.660767902438344,126.34209926968916,30.152323,30.155582,0.013004914,1.300781,1.1178128,nan,2,2,0,0
9708000,9708000,36.66076790181137,126.34209926950577,30.152395,30.155655,0.013004914,1.3010099,1.1180842,nan,2,2,0,0
9716000,9716000,36.660767901198646,126.34209926936605,30.152473,30.155733,0.013004914,1.3012418,1.1183594,nan,2,2,0,0
9724000,9724000,36.66076790057641,126.34209926928388,30.152554,30.155813,0.013004914,1.3014765,1.1186383,nan,2,2,0,0
9732000,9732000,36.660767899974466,126.34209926922343,30.152634,30.155893,0.013004914,1.3017143,1.1189209,nan,2,2,0,0
9740000,9740000,36.66076789939711,126.34209926916351,30.152714,30.155973,0.013004914,1.3019552,1.1192073,nan,2,2,0,0
9748000,9748000,36.66076789881608,126.34209926908485,30.152796,30.156055,0.013004914,1.3021992,1.1194973,nan,2,2,0,0
9756000,9756000,36.66076789824155,126.34209926901097,30.152826,30.156086,0.013004914,1.3024462,1.1174895,nan,2,2,0,0
9764000,9764000,36.660767897657195,126.34209926894394,30.152859,30.156118,0.013004914,1.3026963,1.1177815,nan,2,2,0,0
9772000,9772000,36.66076789704262,126.3420992688672,30.152893,30.156153,0.013004914,1.3029494,1.1180773,nan,2,2,0,0
9780000,9780000,36.6607678964199,126.34209926881161,30.152927,30.156187,0.013004914,1.3032056,1.1183769,nan,2,2,0,0
9788000,9788000,36.66076789580699,126.34209926879818,30.152964,30.156223,0.013004914,1.3034649,1.1186801,nan,2,2,0,0
9796000,9796000,36.66076789517788,126.34209926881408,30.153,30.15626,0.013004914,1.3037271,1.1189871,nan,2,2,0,0
9804000,9804000,36.66076789452432,126.34209926883558,30.15304,30.1563,0.013004914,1.3039925,1.1192977,nan,2,2,0,0
9812000,9812000,36.660767893855,126.34209926886311,30.153076,30.156336,0.013004914,1.304261,1.1173176,nan,2,2,0,0
9820000,9820000,36.660767893177976,126.34209926890283,30.153116,30.156376,0.013004914,1.3045323,1.1176298,nan,2,2,0,0
9828000,9828000,36.660767892506314,126.34209926895639,30.153164,30.156424,0.013004914,1.304807,1.1179459,nan,2,2,0,0
9836000,9836000,36.66076789182488,126.34209926902906,30.153215,30.156475,0.013004914,1.3050846,1.1182656,nan,2,2,0,0
9844000,9844000,36.66076789113329,126.34209926914797,30.153267,30.156527,0.013004914,1.3053652,1.118589,nan,2,2,0,0
9852000,9852000,36.660767890449655,126.34209926930248,30.153318,30.156578,0.013004914,1.305649,1.1189162,nan,2,2,0,0
9860000,9860000,36.66076788978077,126.34209926946004,30.15337,30.15663,0.013004914,1.3059359,1.1192471,nan,2,2,0,0
9868000,9868000,36.66076788913028,126.3420992695953,30.153423,30.156683,0.013004914,1.3062258,1.1195816,nan,2,2,0,0
9876000,9876000,36.66076788846704,126.34209926973811,30.153423,30.156683,0.013004914,1.3065187,1.1176136,nan,2,2,0,0
9884000,9884000,36.66076788823975,126.34209926971835,30.153246,30.155846,0.013004914,1.2321106,1.0929501,nan,2,2,0,0
9892000,9892000,36.66076788801012,126.34209926972997,30.153074,30.155674,0.013004914,1.2322851,1.0931612,nan,2,2,0,0
9900000,9900000,36.66076788778486,126.34209926977142,30.152906,30.155506,0.013004914,1.232462,1.0933752,nan,2,2,0,0
9908000,9908000,36.66076788754448,126.34209926983682,30.152744,30.155344,0.013004914,1.2326413,1.0935919,nan,2,2,0,0
9916000,9916000,36.66076788731724,126.34209926994997,30.15258,30.15518,0.013004914,1.232823,1.0938115,nan,2,2,0,0
9924000,9924000,36.6607678871224,126.34209927010241,30.152418,30.155018,0.013004914,1.2330071,1.0940338,nan,2,2,0,0
9932000,9932000,36.660767886926905,126.34209927027472,30.15224,30.15484,0.013004914,1.2331936,1.0928301,nan,2,2,0,0
9940000,9940000,36.660767886756545,126.34209927044743,30.152067,30.154667,0.013004914,1.2333826,1.0930548,nan,2,2,0,0
9948000,9948000,36.660767886582946,126.34209927062076,30.1519,30.1545,0.013004914,1.233574,1.0932823,nan,2,2,0,0
9956000,9956000,36.660767886385656,126.34209927081515,30.151733,30.154333,0.013004914,1.2337679,1.0935127,nan,2,2,0,0
9964000,9964000,36.660767886192076,126.34209927103986,30.151573,30.154173,0.013004914,1.2339641,1.0937458,nan,2,2,0,0
9972000,9972000,36.66076788599768,126.34209927131865,30.151417,30.154016,0.013004914,1.2341628,1.0939817,nan,2,2,0,0
9980000,9980000,36.66076788578936,126.34209927165627,30.151268,30.153868,0.013004914,1.2343639,1.0942206,nan,2,2,0,0
9988000,9988000,36.6607678855463,126.342099272028,30.151123,30.153723,0.013004914,1.2345674,1.0944623,nan,2,2,0,0
9996000,9996000,36.66076788530485,126.34209927240073,30.150988,30.153587,0.013004914,1.2347735,1.0932642,nan,2,2,0,0
10004000,10004000,36.66076788507636,126.34209927273224,30.150856,30.153456,0.013004914,1.234982,1.0935079,nan,2,2,0,0
10012000,10012000,36.66076788484041,126.34209927302686,30.150726,30.153326,0.013004914,1.2351929,1.0937544,nan,2,2,0,0
10020000,10020000,36.66076788462899,126.34209927328784,30.150604,30.153204,0.013004914,1.2354063,1.0940037,nan,2,2,0,0
10028000,10028000,36.66076788443469,126.34209927351891,30.150488,30.153088,0.013004914,1.2356222,1.0942557,nan,2,2,0,0
10036000,10036000,36.66076788424617,126.34209927375147,30.150375,30.152975,0.013004914,1.2358404,1.0945107,nan,2,2,0,0
10044000,10044000,36.66076788404974,126.3420992739678,30.150267,30.152866,0.013004914,1.2360612,1.0947684,nan,2,2,0,0
10052000,10052000,36.66076788385202,126.34209927419857,30.150177,30.152777,0.013004914,1.2362845,1.0935768,nan,2,2,0,0
10060000,10060000,36.66076788364638,126.34209927446055,30.150091,30.15269,0.013004914,1.2365103,1.0938363,nan,2,2,0,0
10068000,10068000,36.660767883414536,126.34209927470067,30.150005,30.152605,0.013004914,1.2367386,1.0940986,nan,2,2,0,0
10076000,10076000,36.66076788317293,126.34209927489248,30.149923,30.152523,0.013004914,1.2369692,1.0943637,nan,2,2,0,0
10084000,10084000,36.660767882921974,126.34209927506208,30.149845,30.152445,0.013004914,1.2372025,1.0946316,nan,2,2,0,0
10092000,10092000,36.66076788265579,126.34209927524007,30.149765,30.152365,0.013004914,1.2374382,1.0949023,nan,2,2,0,0
10100000,10100000,36.66076788237228,126.34209927544325,30.149601,30.1522,0.013004914,1.2376764,1.0937194,nan,2,2,0,0
10108000,10108000,36.66076788208912,126.34209927567818,30.14944,30.15204,0.013004914,1.2379172,1.0939916,nan,2,2,0,0
10116000,10116000,36.66076788180398,126.3420992759055,30.149286,30.151886,0.013004914,1.2381604,1.0942668,nan,2,2,0,0
10124000,10124000,36.66076788151066,126.34209927614943,30.149136,30.151735,0.013004914,1.2384056,1.0945446,nan,2,2,0,0
10132000,10132000,36.6607678812367,126.34209927640049,30.148993,30.151592,0.013004914,1.2386539,1.0948253,nan,2,2,0,0
10140000,10140000,36.66076788096946,126.34209927665636,30.148855,30.151455,0.013004914,1.2389046,1.0951089,nan,2,2,0,0
10148000,10148000,36.66076788069129,126.34209927689281,30.14872,30.15132,0.013004914,1.2391579,1.0953951,nan,2,2,0,0
10156000,10156000,36.66076788039083,126.34209927712925,30.14859,30.15119,0.013004914,1.2394139,1.0956842,nan,2,2,0,0
10164000,10164000,36.660767880054784,126.3420992773606,30.148464,30.151064,0.013004914,1.2396722,1.0944953,nan,2,2,0,0
10172000,10172000,36.66076787969983,126.34209927758299,30.148342,30.150942,0.013004914,1.2399331,1.0947857,nan,2,2,0,0
10180000,10180000,36.66076787930607,126.34209927780154,30.148222,30.150822,0.013004914,1.2401967,1.0950788,nan,2,2,0,0
10188000,10188000,36.66076787887952,126.34209927804511,30.148106,30.150705,0.013004914,1.2404627,1.0953747,nan,2,2,0,0
10196000,10196000,36.66076787843737,126.34209927829824,30.147985,30.150585,0.013004914,1.2407314,1.0956734,nan,2,2,0,0
10204000,10204000,36.66076787795594,126.34209927854576,30.147863,30.150463,0.013004914,1.2410024,1.0959749,nan,2,2,0,0
10212000,10212000,36.660767877459996,126.3420992788016,30.147749,30.150349,0.013004914,1.2412763,1.0962793,nan,2,2,0,0
10220000,10220000,36.66076787698316,126.3420992790858,30.14767,30.15027,0.013004914,1.2415526,1.0950869,nan,2,2,0,0
10228000,10228000,36.6607678764964,126.34209927937792,30.14759,30.15019,0.013004914,1.2418315,1.0953922,nan,2,2,0,0
10236000,10236000,36.660767875995234,126.34209927964707,30.14751,30.15011,0.013004914,1.242113,1.0957003,nan,2,2,0,0
10244000,10244000,36.66076787546495,126.34209927994706,30.147436,30.150036,0.013004914,1.2423971,1.0960112,nan,2,2,0,0
10252000,10252000,36.660767874926435,126.34209928027333,30.14737,30.14997,0.013004914,1.2426838,1.0963248,nan,2,2,0,0
10260000,10260000,36.660767874395304,126.34209928058712,30.147303,30.149902,0.013004914,1.2429731,1.0966412,nan,2,2,0,0
10268000,10268000,36.660767873862696,126.3420992809062,30.147238,30.149837,0.013004914,1.243265,1.0969604,nan,2,2,0,0
10276000,10276000,36.66076787333245,126.34209928123519,30.147171,30.14977,0.013004914,1.2435595,1.0972824,nan,2,2,0,0
10284000,10284000,36.6607678728251,126.34209928158324,30.147078,30.149677,0.013004914,1.2438567,1.0960761,nan,2,2,0,0
10292000,10292000,36.66076787531347,126.34209928176583,30.14697,30.149067,0.013004914,1.1935824,1.0782632,nan,2,2,0,0
10300000,10300000,36.66076787777931,126.34209928194417,30.146868,30.148964,0.013004914,1.1937767,1.0784866,nan,2,2,0,0
10308000,10308000,36.66076788020192,126.34209928209202,30.146769,30.148865,0.013004914,1.1939732,1.0787122,nan,2,2,0,0
10316000,10316000,36.660767882568415,126.34209928220973,30.146675,30.148771,0.013004914,1.1941717,1.07894,nan,2,2,0,0
10324000,10324000,36.66076788490926,126.34209928231408,30.146585,30.148682,0.013004914,1.1943719,1.0791701,nan,2,2,0,0
10332000,10332000,36.660767887221496,126.34209928244339,30.1465,30.148596,0.013004914,1.1945747,1.0794023,nan,2,2,0,0
10340000,10340000,36.66076788950961,126.34209928255687,30.146408,30.148504,0.013004914,1.1947795,1.0786155,nan,2,2,0,0
10348000,10348000,36.66076789177014,126.34209928265142,30.14632,30.148417,0.013004914,1.1949865,1.0788494,nan,2,2,0,0
10356000,10356000,36.6607678939929,126.34209928277411,30.146236,30.148333,0.013004914,1.1951956,1.0790855,nan,2,2,0,0
10364000,10364000,36.660767896182904,126.34209928293161,30.146154,30.14825,0.013004914,1.1954068,1.0793238,nan,2,2,0,0
10372000,10372000,36.660767898347096,126.3420992831032,30.146074,30.14817,0.013004914,1.1956202,1.0795643,nan,2,2,0,0
10380000,10380000,36.660767900479314,126.34209928326781,30.145998,30.148094,0.013004914,1.1958357,1.0798072,nan,2,2,0,0
10388000,10388000,36.66076790256953,126.34209928343977,30.145926,30.148022,0.013004914,1.1960534,1.0800521,nan,2,2,0,0
10396000,10396000,36.660767904627654,126.34209928359533,30.145859,30.147955,0.013004914,1.1962732,1.0802994,nan,2,2,0,0
10404000,10404000,36.66076790664836,126.34209928373477,30.145838,30.147934,0.013004914,1.1964952,1.0795043,nan,2,2,0,0
10412000,10412000,36.66076790865331,126.34209928386825,30.145819,30.147915,0.013004914,1.1967195,1.0797528,nan,2,2,0,0
10420000,10420000,36.66076791062722,126.3420992840008,30.1458,30.147896,0.013004914,1.1969458,1.0800036,nan,2,2,0,0
10428000,10428000,36.6607679125723,126.34209928414438,30.145782,30.147879,0.013004914,1.1971744,1.0802567,nan,2,2,0,0
10436000,10436000,36.660767914491124,126.34209928427626,30.145765,30.147861,0.013004914,1.1974052,1.0805119,nan,2,2,0,0
10444000,10444000,36.660767916375576,126.34209928437112,30.145748,30.147844,0.013004914,1.1976382,1.0807694,nan,2,2,0,0
10452000,10452000,36.660767918222064,126.34209928447557,30.145733,30.14783,0.013004914,1.1978734,1.0810292,nan,2,2,0,0
10460000,10460000,36.66076792005013,126.34209928461225,30.145678,30.147774,0.013004914,1.1981107,1.0802274,nan,2,2,0,0
10468000,10468000,36.660767921862615,126.34209928479491,30.145626,30.147722,0.013004914,1.1983504,1.0804882,nan,2,2,0,0
10476000,10476000,36.66076792365672,126.34209928499934,30.145578,30.147675,0.013004914,1.1985922,1.0807513,nan,2,2,0,0
10484000,10484000,36.66076792542255,126.34209928523337,30.145538,30.147635,0.013004914,1.1988363,1.0810167,nan,2,2,0,0
10492000,10492000,36.66076792716778,126.34209928552053,30.145508,30.147604,0.013004914,1.1990827,1.0812842,nan,2,2,0,0
10500000,10500000,36.66076792888889,126.34209928581221,30.14548,30.147575,0.013004914,1.1993313,1.0815539,nan,2,2,0,0
10508000,10508000,36.66076793057543,126.34209928610373,30.145452,30.147549,0.013004914,1.1995822,1.0818261,nan,2,2,0,0
10516000,10516000,36.660767932221574,126.34209928637438,30.145428,30.147524,0.013004914,1.1998353,1.0821003,nan,2,2,0,0
10524000,10524000,36.66076793380273,126.3420992866359,30.145409,30.147505,0.013004914,1.2000895,1.0812845,nan,2,2,0,0
10532000,10532000,36.66076793535868,126.34209928689437,30.145393,30.14749,0.013004914,1.2003471,1.0815598,nan,2,2,0,0
10540000,10540000,36.66076793688654,126.34209928712092,30.145378,30.147474,0.013004914,1.200607,1.081837,nan,2,2,0,0
10548000,10548000,36.660767938364174,126.3420992873187,30.145357,30.147453,0.013004914,1.2008691,1.0821167,nan,2,2,0,0
10556000,10556000,36.660767939808146,126.34209928752057,30.14534,30.147436,0.013004914,1.2011336,1.0823985,nan,2,2,0,0
10564000,10564000,36.66076794123191,126.34209928775695,30.145325,30.14742,0.013004914,1.2014004,1.0826826,nan,2,2,0,0
10572000,10572000,36.66076794263742,126.34209928801728,30.145311,30.147408,0.013004914,1.2016696,1.0829688,nan,2,2,0,0
10580000,10580000,36.66076794401374,126.3420992882604,30.145294,30.14739,0.013004914,1.201941,1.0821419,nan,2,2,0,0
10588000,10588000,36.66076794535008,126.3420992884941,30.145277,30.147373,0.013004914,1.2022147,1.0824288,nan,2,2,0,0
10596000,10596000,36.66076794667411,126.34209928872745,30.14526,30.147356,0.013004914,1.2024909,1.082718,nan,2,2,0,0
10604000,10604000,36.660767947975295,126.34209928895696,30.14524,30.147337,0.013004914,1.2027694,1.0830095,nan,2,2,0,0
10612000,10612000,36.66076794924845,126.34209928914352,30.145222,30.147318,0.013004914,1.2030501,1.0833031,nan,2,2,0,0
10620000,10620000,36.66076795050272,126.34209928928514,30.145199,30.147295,0.013004914,1.2033334,1.083599,nan,2,2,0,0
10628000,10628000,36.66076795170164,126.34209928941357,30.145172,30.147268,0.013004914,1.2036189,1.0838971,nan,2,2,0,0
10636000,10636000,36.66076795286407,126.34209928950125,30.145147,30.147243,0.013004914,1.2039069,1.0841974,nan,2,2,0,0
10644000,10644000,36.66076795399882,126.3420992895446,30.145119,30.147215,0.013004914,1.2041972,1.0833511,nan,2,2,0,0
10652000,10652000,36.660767955082186,126.34209928959704,30.145088,30.147184,0.013004914,1.20449,1.0836519,nan,2,2,0,0
10660000,10660000,36.66076795613168,126.34209928963615,30.145058,30.147154,0.013004914,1.2047851,1.0839549,nan,2,2,0,0
10668000,10668000,36.660767957147414,126.34209928967523,30.145027,30.147123,0.013004914,1.2050827,1.0842601,nan,2,2,0,0
10676000,10676000,36.660767958141605,126.34209928975065,30.144997,30.147093,0.013004914,1.2053826,1.0845675,nan,2,2,0,0
10684000,10684000,36.660767959118076,126.34209928987012,30.14497,30.147066,0.013004914,1.205685,1.0848773,nan,2,2,0,0
10692000,10692000,36.66076795950376,126.34209929148491,30.144846,30.146185,0.013004914,1.1680194,1.070242,nan,2,2,0,0
10700000,10700000,36.66076795988385,126.34209929308865,30.144735,30.146074,0.013004914,1.1682279,1.0696703,nan,2,2,0,0
10708000,10708000,36.660767960241635,126.34209929467922,30.14463,30.14597,0.013004914,1.1684383,1.0698982,nan,2,2,0,0
10716000,10716000,36.66076796059738,126.34209929622634,30.144527,30.145866,0.013004914,1.1686507,1.0701281,nan,2,2,0,0
10724000,10724000,36.6607679609671,126.34209929778356,30.14443,30.14577,0.013004914,1.1688645,1.0703596,nan,2,2,0,0
10732000,10732000,36.660767961357536,126.34209929934771,30.144337,30.145676,0.013004914,1.1690807,1.0705931,nan,2,2,0,0
10740000,10740000,36.66076796176252,126.34209930089376,30.144249,30.145588,0.013004914,1.1692991,1.0708284,nan,2,2,0,0
10748000,10748000,36.66076796216873,126.34209930245856,30.144163,30.145502,0.013004914,1.1695194,1.0710654,nan,2,2,0,0
10756000,10756000,36.66076796254301,126.34209930403165,30.144081,30.14542,0.013004914,1.1697419,1.0713044,nan,2,2,0,0
10764000,10764000,36.66076796289374,126.34209930560577,30.144001,30.14534,0.013004914,1.1699662,1.0707206,nan,2,2,0,0
10772000,10772000,36.66076796322227,126.34209930717353,30.143925,30.145264,0.013004914,1.1701926,1.0709605,nan,2,2,0,0
10780000,10780000,36.66076796353633,126.34209930872998,30.14385,30.14519,0.013004914,1.170421,1.0712023,nan,2,2,0,0
10788000,10788000,36.660767963829244,126.34209931025373,30.143776,30.145115,0.013004914,1.1706516,1.071446,nan,2,2,0,0
10796000,10796000,36.66076796410412,126.34209931175948,30.143698,30.145037,0.013004914,1.1708841,1.0716914,nan,2,2,0,0
10804000,10804000,36.66076796440521,126.34209931326293,30.143623,30.144962,0.013004914,1.1711187,1.0719388,nan,2,2,0,0
10812000,10812000,36.660767964716385,126.3420993147978,30.143555,30.144894,0.013004914,1.1713554,1.0721879,nan,2,2,0,0
10820000,10820000,36.6607679650137,126.34209931635978,30.143463,30.144802,0.013004914,1.1715941,1.0715936,nan,2,2,0,0
10828000,10828000,36.660767965298255,126.34209931792228,30.143372,30.14471,0.013004914,1.1718351,1.0718436,nan,2,2,0,0
10836000,10836000,36.66076796556582,126.34209931950123,30.143282,30.14462,0.013004914,1.1720779,1.0720954,nan,2,2,0,0
10844000,10844000,36.66076796584733,126.34209932105914,30.143198,30.144537,0.013004914,1.172323,1.0723491,nan,2,2,0,0
10852000,10852000,36.660767966173644,126.34209932260207,30.143112,30.144451,0.013004914,1.1725702,1.0726047,nan,2,2,0,0
10860000,10860000,36.66076796653067,126.34209932414906,30.14303,30.14437,0.013004914,1.1728195,1.072862,nan,2,2,0,0
10868000,10868000,36.66076796692245,126.34209932572885,30.142946,30.144285,0.013004914,1.173071,1.0731212,nan,2,2,0,0
10876000,10876000,36.660767967338124,126.3420993272972,30.142864,30.144203,0.013004914,1.1733245,1.0733823,nan,2,2,0,0
10884000,10884000,36.6607679677436,126.34209932884993,30.142763,30.144102,0.013004914,1.1735803,1.0727717,nan,2,2,0,0
10892000,10892000,36.66076796812121,126.34209933042371,30.142668,30.144007,0.013004914,1.1738381,1.0730335,nan,2,2,0,0
10900000,10900000,36.66076796849069,126.34209933197951,30.142572,30.143911,0.013004914,1.1740983,1.0732969,nan,2,2,0,0
10908000,10908000,36.660767968875774,126.34209933350496,30.142479,30.143818,0.013004914,1.1743605,1.0735623,nan,2,2,0,0
10916000,10916000,36.66076796929555,126.34209933504488,30.14239,30.143728,0.013004914,1.1746249,1.0738295,nan,2,2,0,0
10924000,10924000,36.66076796978872,126.34209933654923,30.142302,30.14364,0.013004914,1.174889,1.0740987,nan,2,2,0,0
10932000,10932000,36.660767970297364,126.34209933804397,30.142214,30.143553,0.013004914,1.1751578,1.0743695,nan,2,2,0,0
10940000,10940000,36.66076797078482,126.34209933955944,30.142113,30.143452,0.013004914,1.1754287,1.0737451,nan,2,2,0,0
10948000,10948000,36.660767971267575,126.34209934106885,30.142014,30.143353,0.013004914,1.175702,1.0740166,nan,2,2,0,0
10956000,10956000,36.660767971731126,126.34209934255287,30.141914,30.143253,0.013004914,1.1759775,1.0742899,nan,2,2,0,0
10964000,10964000,36.660767972188495,126.34209934402273,30.141815,30.143154,0.013004914,1.1762551,1.0745649,nan,2,2,0,0
10972000,10972000,36.660767972636066,126.34209934547786,30.141716,30.143055,0.013004914,1.176535,1.0748419,nan,2,2,0,0
10980000,10980000,36.660767973065326,126.34209934693021,30.141623,30.142962,0.013004914,1.1768173,1.0751207,nan,2,2,0,0
10988000,10988000,36.66076797347925,126.3420993483854,30.14153,30.142868,0.013004914,1.1771017,1.0754013,nan,2,2,0,0
10996000,10996000,36.66076797392124,126.34209934984311,30.141438,30.142776,0.013004914,1.1773887,1.0756838,nan,2,2,0,0
11004000,11004000,36.660767974369655,126.34209935131601,30.141338,30.142677,0.013004914,1.1776778,1.075039,nan,2,2,0,0
11012000,11012000,36.66076797480359,126.34209935277983,30.141237,30.142576,0.013004914,1.1779692,1.0753218,nan,2,2,0,0
11020000,11020000,36.66076797520927,126.34209935420296,30.141136,30.142475,0.013004914,1.178263,1.0756065,nan,2,2,0,0
11028000,11028000,36.660767975577855,126.3420993556005,30.141039,30.142378,0.013004914,1.1785591,1.0758929,nan,2,2,0,0
11036000,11036000,36.66076797594886,126.34209935695635,30.140938,30.142277,0.013004914,1.1788574,1.0761813,nan,2,2,0,0
11044000,11044000,36.66076797635869,126.34209935828076,30.140839,30.142178,0.013004914,1.1791583,1.0764713,nan,2,2,0,0
11052000,11052000,36.66076797673736,126.34209935959892,30.14074,30.142078,0.013004914,1.1794615,1.0767634,nan,2,2,0,0
11060000,11060000,36.660767977085015,126.3420993609046,30.140678,30.142017,0.013004914,1.179767,1.0761014,nan,2,2,0,0
11068000,11068000,36.66076797743963,126.34209936220323,30.140621,30.14196,0.013004914,1.1800748,1.0763936,nan,2,2,0,0
11076000,11076000,36.66076797782172,126.34209936348154,30.140568,30.141907,0.013004914,1.1803852,1.0766876,nan,2,2,0,0
11084000,11084000,36.660767978221465,126.34209936473869,30.140512,30.141851,0.013004914,1.180698,1.0769835,nan,2,2,0,0
11092000,11092000,36.66076797929409,126.34209936432732,30.14025,30.141766,0.013004914,1.1502507,1.0645068,nan,2,2,0,0
11100000,11100000,36.66076798037567,126.34209936392992,30.139988,30.141504,0.013004914,1.1504726,1.064734,nan,2,2,0,0
11108000,11108000,36.660767981442625,126.34209936355973,30.13973,30.141247,0.013004914,1.1506966,1.0649626,nan,2,2,0,0
11116000,11116000,36.66076798249975,126.34209936319726,30.139475,30.140991,0.013004914,1.1509227,1.0651929,nan,2,2,0,0
11124000,11124000,36.66076798356443,126.34209936288369,30.139244,30.14076,0.013004914,1.1511489,1.0647348,nan,2,2,0,0
11132000,11132000,36.66076798462798,126.34209936256862,30.139017,30.140533,0.013004914,1.1513788,1.0649658,nan,2,2,0,0
11140000,11140000,36.66076798571054,126.34209936224507,30.138788,30.140305,0.013004914,1.1516105,1.0651984,nan,2,2,0,0
11148000,11148000,36.66076798679988,126.34209936193398,30.138563,30.14008,0.013004914,1.1518444,1.0654324,nan,2,2,0,0
11156000,11156000,36.66076798787499,126.34209936163434,30.138344,30.13986,0.013004914,1.1520802,1.0656682,nan,2,2,0,0
11164000,11164000,36.660767988943014,126.34209936132916,30.138124,30.13964,0.013004914,1.1523179,1.0659055,nan,2,2,0,0
11172000,11172000,36.66076799004341,126.34209936103055,30.137907,30.139423,0.013004914,1.1525577,1.0661443,nan,2,2,0,0
11180000,11180000,36.660767991127805,126.34209936078135,30.137669,30.139185,0.013004914,1.1527996,1.0656744,nan,2,2,0,0
11188000,11188000,36.66076799217767,126.34209936056614,30.137434,30.13895,0.013004914,1.1530436,1.0659139,nan,2,2,0,0
11196000,11196000,36.660767993224574,126.34209936033314,30.1372,30.138716,0.013004914,1.1532896,1.066155,nan,2,2,0,0
11204000,11204000,36.66076799429338,126.34209936005313,30.136963,30.13848,0.013004914,1.1535378,1.0663975,nan,2,2,0,0
11212000,11212000,36.66076799536638,126.34209935973695,30.136728,30.138245,0.013004914,1.1537879,1.0666417,nan,2,2,0,0
11220000,11220000,36.66076799642667,126.34209935940602,30.136494,30.13801,0.013004914,1.1540401,1.0668874,nan,2,2,0,0
11228000,11228000,36.66076799747772,126.34209935908959,30.136261,30.137777,0.013004914,1.1542945,1.0671346,nan,2,2,0,0
11236000,11236000,36.6607679985364,126.342099358759,30.136032,30.137548,0.013004914,1.154551,1.0673835,nan,2,2,0,0
11244000,11244000,36.660767999598484,126.34209935843519,30.135807,30.137323,0.013004914,1.1548096,1.0668969,nan,2,2,0,0
11252000,11252000,36.66076800066361,126.34209935812548,30.135584,30.1371,0.013004914,1.1550703,1.0671463,nan,2,2,0,0
11260000,11260000,36.66076800171559,126.34209935779327,30.135365,30.13688,0.013004914,1.1553333,1.0673972,nan,2,2,0,0
11268000,11268000,36.66076800275511,126.34209935745817,30.135149,30.136665,0.013004914,1.1555983,1.0676496,nan,2,2,0,0
11276000,11276000,36.66076800379685,126.34209935713857,30.134937,30.136454,0.013004914,1.1558656,1.0679036,nan,2,2,0,0
11284000,11284000,36.660768004855015,126.34209935689245,30.134727,30.136244,0.013004914,1.1561351,1.0681593,nan,2,2,0,0
11292000,11292000,36.66076800588013,126.34209935672202,30.134518,30.136034,0.013004914,1.1564068,1.0684165,nan,2,2,0,0
11300000,11300000,36.66076800687651,126.34209935661056,30.134344,30.13586,0.013004914,1.1566806,1.0679156,nan,2,2,0,0
11308000,11308000,36.660768007879405,126.34209935656861,30.134172,30.135689,0.013004914,1.1569568,1.0681732,nan,2,2,0,0
11316000,11316000,36.660768008881966,126.34209935656077,30.134,30.135517,0.013004914,1.157235,1.0684322,nan,2,2,0,0
11324000,11324000,36.66076800987364,126.34209935654512,30.133823,30.13534,0.013004914,1.1575109,1.0686929,nan,2,2,0,0
11332000,11332000,36.66076801085612,126.34209935650101,30.13365,30.135166,0.013004914,1.1577936,1.0689552,nan,2,2,0,0
11340000,11340000,36.660768011820075,126.34209935641144,30.13348,30.134996,0.013004914,1.1580786,1.069219,nan,2,2,0,0
11348000,11348000,36.66076801278669,126.34209935630727,30.133314,30.13483,0.013004914,1.1583658,1.0694845,nan,2,2,0,0
11356000,11356000,36.660768013744345,126.34209935619957,30.133146,30.134663,0.013004914,1.1586554,1.0697514,nan,2,2,0,0
11364000,11364000,36.66076801471015,126.34209935607196,30.132967,30.134483,0.013004914,1.1589472,1.0692303,nan,2,2,0,0
11372000,11372000,36.66076801567557,126.34209935589836,30.13279,30.134306,0.013004914,1.1592414,1.0694976,nan,2,2,0,0
11380000,11380000,36.660768016656405,126.34209935569388,30.13261,30.134127,0.013004914,1.159538,1.0697663,nan,2,2,0,0
11388000,11388000,36.660768017637196,126.34209935549681,30.13243,30.133945,0.013004914,1.1598369,1.0700366,nan,2,2,0,0
11396000,11396000,36.66076801859727,126.3420993553089,30.132252,30.133768,0.013004914,1.1601381,1.0703086,nan,2,2,0,0
11404000,11404000,36.66076801955103,126.34209935512807,30.132076,30.133593,0.013004914,1.1604418,1.0705822,nan,2,2,0,0
11412000,11412000,36.660768020513856,126.34209935497678,30.131903,30.133419,0.013004914,1.1607478,1.0708572,nan,2,2,0,0
11420000,11420000,36.660768021499415,126.34209935482869,30.131697,30.133213,0.013004914,1.1610563,1.070319,nan,2,2,0,0
11428000,11428000,36.66076802249117,126.34209935468824,30.131495,30.13301,0.013004914,1.161367,1.0705942,nan,2,2,0,0
11436000,11436000,36.66076802347587,126.3420993545315,30.13129,30.132807,0.013004914,1.1616803,1.070871,nan,2,2,0,0
11444000,11444000,36.66076802444956,126.34209935438169,30.131084,30.1326,0.013004914,1.161996,1.0711492,nan,2,2,0,0
11452000,11452000,36.66076802544421,126.34209935423894,30.13088,30.132397,0.013004914,1.1623143,1.0714291,nan,2,2,0,0
11460000,11460000,36.66076802644688,126.34209935410468,30.130678,30.132195,0.013004914,1.162635,1.0717106,nan,2,2,0,0
11468000,11468000,36.66076802745109,126.34209935397985,30.130478,30.131994,0.013004914,1.162958,1.0719936,nan,2,2,0,0
11476000,11476000,36.660768028430944,126.34209935384679,30.13028,30.131796,0.013004914,1.1632837,1.0722783,nan,2,2,0,0
11484000,11484000,36.66076802940048,126.34209935369907,30.130081,30.131598,0.013004914,1.1636119,1.0717168,nan,2,2,0,0
11492000,11492000,36.66076802864662,126.34209935195047,30.130018,30.132193,0.013004914,1.1375034,1.0606458,nan,2,2,0,0
11500000,11500000,36.66076802794885,126.34209935021626,30.129953,30.132128,0.013004914,1.1377398,1.0608691,nan,2,2,0,0
11508000,11508000,36.660768027302126,126.34209934848931,30.12989,30.132065,0.013004914,1.1379781,1.0610938,nan,2,2,0,0
11516000,11516000,36.66076802670872,126.34209934677658,30.129826,30.132,0.013004914,1.1382184,1.0613198,nan,2,2,0,0
11524000,11524000,36.66076802612734,126.34209934507938,30.129757,30.131931,0.013004914,1.1384579,1.0615473,nan,2,2,0,0
11532000,11532000,36.66076802556398,126.34209934337109,30.129684,30.131859,0.013004914,1.1387022,1.0617759,nan,2,2,0,0
11540000,11540000,36.66076802504883,126.34209934168214,30.129622,30.131796,0.013004914,1.1389486,1.0613865,nan,2,2,0,0
11548000,11548000,36.66076802457866,126.34209934006032,30.129555,30.13173,0.013004914,1.139197,1.0616156,nan,2,2,0,0
11556000,11556000,36.660768024110645,126.3420993385331,30.129486,30.13166,0.013004914,1.1394476,1.0618463,nan,2,2,0,0
11564000,11564000,36.660768023649275,126.34209933705738,30.129416,30.13159,0.013004914,1.1397002,1.0620782,nan,2,2,0,0
11572000,11572000,36.66076802320035,126.34209933563824,30.129341,30.131516,0.013004914,1.1399549,1.0623115,nan,2,2,0,0
11580000,11580000,36.660768022742566,126.34209933428626,30.129263,30.131437,0.013004914,1.1402118,1.0625463,nan,2,2,0,0
11588000,11588000,36.66076802231026,126.3420993329608,30.129183,30.131357,0.013004914,1.1404709,1.0627823,nan,2,2,0,0
11596000,11596000,36.660768021905895,126.34209933162143,30.129099,30.131273,0.013004914,1.140732,1.0630198,nan,2,2,0,0
11604000,11604000,36.66076802155073,126.34209933029685,30.128984,30.131159,0.013004914,1.1409954,1.0626137,nan,2,2,0,0
11612000,11612000,36.660768021251016,126.3420993289932,30.12887,30.131044,0.013004914,1.1412609,1.0628515,nan,2,2,0,0
11620000,11620000,36.660768020968305,126.34209932770284,30.128752,30.130926,0.013004914,1.1415286,1.0630907,nan,2,2,0,0
11628000,11628000,36.6607680207122,126.34209932643785,30.128632,30.130806,0.013004914,1.1417985,1.0633312,nan,2,2,0,0
11636000,11636000,36.66076802049222,126.34209932519806,30.128511,30.130686,0.013004914,1.1420707,1.0635731,nan,2,2,0,0
11644000,11644000,36.66076802027955,126.3420993239592,30.128391,30.130566,0.013004914,1.1423451,1.0638164,nan,2,2,0,0
11652000,11652000,36.660768020063884,126.34209932275965,30.128271,30.130445,0.013004914,1.1426216,1.064061,nan,2,2,0,0
11660000,11660000,36.660768019861116,126.34209932160041,30.128136,30.13031,0.013004914,1.1429005,1.0636408,nan,2,2,0,0
11668000,11668000,36.66076801967266,126.34209932047247,30.127998,30.130173,0.013004914,1.1431817,1.0638857,nan,2,2,0,0
11676000,11676000,36.66076801948099,126.34209931935968,30.127861,30.130035,0.013004914,1.1434652,1.0641321,nan,2,2,0,0
11684000,11684000,36.66076801932817,126.3420993182898,30.127718,30.129892,0.013004914,1.1437509,1.0643797,nan,2,2,0,0
11692000,11692000,36.66076801922082,126.34209931724754,30.127573,30.129747,0.013004914,1.144039,1.0646287,nan,2,2,0,0
11700000,11700000,36.660768019147646,126.34209931619561,30.12743,30.129604,0.013004914,1.1443294,1.0648792,nan,2,2,0,0
11708000,11708000,36.660768019104545,126.34209931513482,30.127287,30.129461,0.013004914,1.1446223,1.0651311,nan,2,2,0,0
11716000,11716000,36.66076801909432,126.34209931407851,30.12714,30.129314,0.013004914,1.1449174,1.0653841,nan,2,2,0,0
11724000,11724000,36.66076801912512,126.34209931305284,30.126991,30.129166,0.013004914,1.1452074,1.0649447,nan,2,2,0,0
11732000,11732000,36.66076801919931,126.34209931201181,30.12684,30.129015,0.013004914,1.1455072,1.0651981,nan,2,2,0,0
11740000,11740000,36.66076801928545,126.3420993109837,30.126688,30.128862,0.013004914,1.1458093,1.0654528,nan,2,2,0,0
11748000,11748000,36.66076801938546,126.34209930996056,30.126534,30.128708,0.013004914,1.1461138,1.0657089,nan,2,2,0,0
11756000,11756000,36.660768019532256,126.34209930892375,30.126379,30.128553,0.013004914,1.1464207,1.0659664,nan,2,2,0,0
11764000,11764000,36.66076801971535,126.34209930786447,30.126226,30.1284,0.013004914,1.1467302,1.0662252,nan,2,2,0,0
11772000,11772000,36.660768019909774,126.3420993068096,30.126074,30.128248,0.013004914,1.147042,1.0664854,nan,2,2,0,0
11780000,11780000,36.66076802010595,126.34209930576745,30.125929,30.128103,0.013004914,1.1473564,1.0660297,nan,2,2,0,0
11788000,11788000,36.660768020290526,126.34209930470149,30.125784,30.127958,0.013004914,1.1476732,1.0662899,nan,2,2,0,0
11796000,11796000,36.66076802048229,126.34209930359873,30.125637,30.127811,0.013004914,1.1479926,1.0665516,nan,2,2,0,0
11804000,11804000,36.6607680206817,126.34209930250027,30.12549,30.127665,0.013004914,1.1483146,1.0668145,nan,2,2,0,0
11812000,11812000,36.660768020874976,126.34209930141621,30.12534,30.127514,0.013004914,1.1486391,1.067079,nan,2,2,0,0
11820000,11820000,36.66076802107295,126.342099300357,30.125187,30.127361,0.013004914,1.1489661,1.0673448,nan,2,2,0,0
11828000,11828000,36.66076802128222,126.34209929931947,30.125034,30.127209,0.013004914,1.1492957,1.067612,nan,2,2,0,0
11836000,11836000,36.6607680215034,126.34209929830588,30.124884,30.127058,0.013004914,1.1496279,1.0678806,nan,2,2,0,0
11844000,11844000,36.6607680217389,126.34209929728651,30.12474,30.126915,0.013004914,1.1499627,1.0674028,nan,2,2,0,0
11852000,11852000,36.66076802197741,126.34209929623819,30.1246,30.126774,0.013004914,1.1503001,1.0676714,nan,2,2,0,0
11860000,11860000,36.66076802219822,126.3420992951624,30.124458,30.126633,0.013004914,1.1506402,1.0679413,nan,2,2,0,0
11868000,11868000,36.66076802241736,126.34209929404997,30.124315,30.12649,0.013004914,1.150983,1.0682126,nan,2,2,0,0
11876000,11876000,36.66076802263971,126.34209929294593,30.12417,30.126345,0.013004914,1.1513284,1.0684853,nan,2,2,0,0
11884000,11884000,36.66076802288038,126.34209929184152,30.124023,30.126198,0.013004914,1.1516767,1.0687593,nan,2,2,0,0
11892000,11892000,36.66076802271219,126.34209928996158,30.12428,30.127398,0.013004914,1.1281927,1.0584646,nan,2,2,0,0
11900000,11900000,36.660768022582204,126.34209928809547,30.12453,30.127647,0.013004914,1.1284446,1.0581299,nan,2,2,0,0
11908000,11908000,36.660768022487574,126.34209928622136,30.124775,30.127892,0.013004914,1.1286985,1.0583493,nan,2,2,0,0
11916000,11916000,36.66076802243249,126.34209928436373,30.12501,30.128126,0.013004914,1.1289546,1.05857,nan,2,2,0,0
11924000,11924000,36.660768022395665,126.3420992825017,30.125238,30.128355,0.013004914,1.1292083,1.0587919,nan,2,2,0,0
11932000,11932000,36.66076802236938,126.34209928062945,30.12546,30.128576,0.013004914,1.1294686,1.059015,nan,2,2,0,0
11940000,11940000,36.660768022344094,126.34209927876074,30.125675,30.128792,0.013004914,1.1297309,1.0592393,nan,2,2,0,0
11948000,11948000,36.660768022339205,126.342099276937,30.125887,30.129004,0.013004914,1.1299956,1.0594649,nan,2,2,0,0
11956000,11956000,36.6607680223424,126.34209927516356,30.12609,30.129206,0.013004914,1.1302625,1.0596917,nan,2,2,0,0
11964000,11964000,36.660768022369915,126.34209927340616,30.126291,30.129408,0.013004914,1.1305314,1.0593411,nan,2,2,0,0
11972000,11972000,36.660768022412064,126.34209927165091,30.12649,30.129606,0.013004914,1.1308029,1.0595682,nan,2,2,0,0
11980000,11980000,36.6607680224606,126.34209926991949,30.126678,30.129795,0.013004914,1.1310765,1.0597963,nan,2,2,0,0
11988000,11988000,36.66076802253734,126.34209926821137,30.12686,30.129976,0.013004914,1.1313523,1.0600258,nan,2,2,0,0
11996000,11996000,36.66076802263255,126.34209926652551,30.127037,30.130154,0.013004914,1.1316304,1.0602566,nan,2,2,0,0
12004000,12004000,36.66076802275055,126.3420992648489,30.127209,30.130325,0.013004914,1.1319109,1.0604886,nan,2,2,0,0
12012000,12012000,36.660768022900825,126.34209926313534,30.12737,30.130487,0.013004914,1.1321937,1.0607218,nan,2,2,0,0
12020000,12020000,36.66076802307743,126.34209926138263,30.12754,30.130657,0.013004914,1.1324788,1.0603575,nan,2,2,0,0
12028000,12028000,36.66076802327956,126.34209925959988,30.127707,30.130823,0.013004914,1.1327662,1.0605909,nan,2,2,0,0
12036000,12036000,36.6607680234879,126.34209925784263,30.12787,30.130987,0.013004914,1.1330562,1.0608255,nan,2,2,0,0
12044000,12044000,36.66076802367351,126.34209925608354,30.128029,30.131145,0.013004914,1.1333485,1.0610614,nan,2,2,0,0
12052000,12052000,36.660768023827515,126.34209925431833,30.128183,30.1313,0.013004914,1.1336432,1.0612984,nan,2,2,0,0
12060000,12060000,36.66076802396,126.342099252572,30.128336,30.131453,0.013004914,1.1339401,1.0615367,nan,2,2,0,0
12068000,12068000,36.66076802407969,126.34209925081936,30.128489,30.131605,0.013004914,1.1342397,1.0617763,nan,2,2,0,0
12076000,12076000,36.6607680241976,126.34209924905062,30.128637,30.131754,0.013004914,1.1345416,1.062017,nan,2,2,0,0
12084000,12084000,36.66076802429773,126.34209924729477,30.128778,30.131895,0.013004914,1.1348461,1.0616347,nan,2,2,0,0
12092000,12092000,36.66076802439709,126.34209924554251,30.128916,30.132032,0.013004914,1.135153,1.0618756,nan,2,2,0,0
12100000,12100000,36.66076802450369,126.34209924380332,30.12905,30.132166,0.013004914,1.1354625,1.0621177,nan,2,2,0,0
12108000,12108000,36.66076802461782,126.34209924208612,30.129177,30.132294,0.013004914,1.1357745,1.062361,nan,2,2,0,0
12116000,12116000,36.660768024763186,126.34209924039844,30.1293,30.132416,0.013004914,1.136089,1.0626056,nan,2,2,0,0
12124000,12124000,36.66076802490115,126.34209923884787,30.129412,30.132528,0.013004914,1.1363953,1.0628514,nan,2,2,0,0
12132000,12132000,36.6607680250887,126.34209923726499,30.129519,30.132635,0.013004914,1.1367148,1.0630985,nan,2,2,0,0
12140000,12140000,36.660768025313736,126.34209923566091,30.129602,30.132719,0.013004914,1.1370367,1.0627006,nan,2,2,0,0
12148000,12148000,36.660768025560635,126.34209923402575,30.129679,30.132795,0.013004914,1.1373612,1.0629476,nan,2,2,0,0
12156000,12156000,36.66076802582061,126.34209923237813,30.129751,30.132868,0.013004914,1.1376883,1.0631961,nan,2,2,0,0
12164000,12164000,36.660768026089926,126.3420992307461,30.129818,30.132935,0.013004914,1.138018,1.0634456,nan,2,2,0,0
12172000,12172000,36.66076802635983,126.34209922912126,30.129879,30.132996,0.013004914,1.1383505,1.0636965,nan,2,2,0,0
12180000,12180000,36.66076802663577,126.34209922750615,30.129934,30.13305,0.013004914,1.1386856,1.0639486,nan,2,2,0,0
12188000,12188000,36.66076802693035,126.3420992259526,30.129988,30.133104,0.013004914,1.1390234,1.064202,nan,2,2,0,0
12196000,12196000,36.660768027244174,126.34209922446003,30.130035,30.133152,0.013004914,1.1393639,1.0644565,nan,2,2,0,0
12204000,12204000,36.66076802755677,126.34209922299826,30.130068,30.133184,0.013004914,1.1397071,1.0640382,nan,2,2,0,0
12212000,12212000,36.660768027868905,126.3420992215614,30.130093,30.13321,0.013004914,1.140053,1.0642926,nan,2,2,0,0
12220000,12220000,36.66076802818658,126.34209922011604,30.130116,30.133232,0.013004914,1.1404017,1.0645483,nan,2,2,0,0
12228000,12228000,36.66076802852128,126.34209921865775,30.130135,30.133251,0.013004914,1.1407533,1.0648054,nan,2,2,0,0
12236000,12236000,36.66076802886861,126.34209921720146,30.130156,30.133272,0.013004914,1.1411076,1.0650636,nan,2,2,0,0
12244000,12244000,36.66076802922235,126.3420992157298,30.130177,30.133293,0.013004914,1.1414647,1.0653231,nan,2,2,0,0
12252000,12252000,36.66076802959162,126.34209921423704,30.130196,30.133312,0.013004914,1.1418247,1.065584,nan,2,2,0,0
12260000,12260000,36.66076802998146,126.34209921273535,30.130226,30.133343,0.013004914,1.1421875,1.065148,nan,2,2,0,0
12268000,12268000,36.6607680304055,126.34209921124089,30.130253,30.13337,0.013004914,1.1425532,1.0654086,nan,2,2,0,0
12276000,12276000,36.66076803086765,126.34209920973734,30.130276,30.133392,0.013004914,1.1429218,1.0656705,nan,2,2,0,0
12284000,12284000,36.660768029580225,126.34209921085012,30.13036,30.134136,0.013004914,1.1211103,1.0562122,nan,2,2,0,0
12292000,12292000,36.66076802832863,126.34209921189537,30.130438,30.134214,0.013004914,1.1213769,1.0564259,nan,2,2,0,0
12300000,12300000,36.66076802711412,126.34209921292879,30.130514,30.13429,0.013004914,1.1216458,1.0566407,nan,2,2,0,0
12308000,12308000,36.66076802598667,126.342099213935,30.130583,30.13436,0.013004914,1.1219169,1.0568568,nan,2,2,0,0
12316000,12316000,36.660768024915214,126.342099214879,30.13065,30.134426,0.013004914,1.1221904,1.0570738,nan,2,2,0,0
12324000,12324000,36.660768023942275,126.3420992158815,30.130737,30.134514,0.013004914,1.1224597,1.056763,nan,2,2,0,0
12332000,12332000,36.660768023011016,126.34209921685644,30.130821,30.134598,0.013004914,1.1227375,1.0569804,nan,2,2,0,0
12340000,12340000,36.66076802211992,126.34209921779686,30.130896,30.134672,0.013004914,1.1230177,1.0571988,nan,2,2,0,0
12348000,12348000,36.66076802128792,126.34209921872622,30.130966,30.134743,0.013004914,1.1233002,1.0574183,nan,2,2,0,0
12356000,12356000,36.66076802050781,126.34209921963341,30.131033,30.13481,0.013004914,1.1235851,1.057639,nan,2,2,0,0
12364000,12364000,36.66076801976211,126.34209922052652,30.131092,30.134869,0.013004914,1.1238724,1.0578609,nan,2,2,0,0
12372000,12372000,36.66076801904713,126.34209922136938,30.131147,30.134924,0.013004914,1.1241622,1.0580838,nan,2,2,0,0
12380000,12380000,36.660768018383564,126.34209922216957,30.131172,30.134949,0.013004914,1.1244543,1.05776,nan,2,2,0,0
12388000,12388000,36.66076801777316,126.34209922294144,30.131191,30.134968,0.013004914,1.1247488,1.0579832,nan,2,2,0,0
12396000,12396000,36.66076801718227,126.34209922370137,30.131203,30.13498,0.013004914,1.1250459,1.0582073,nan,2,2,0,0
12404000,12404000,36.6607680165967,126.34209922440796,30.131214,30.13499,0.013004914,1.1253453,1.0584327,nan,2,2,0,0
12412000,12412000,36.66076801604784,126.34209922509511,30.131222,30.134998,0.013004914,1.1256473,1.0586591,nan,2,2,0,0
12420000,12420000,36.660768015539134,126.34209922577443,30.131224,30.135,0.013004914,1.1259518,1.0588866,nan,2,2,0,0
12428000,12428000,36.66076801505215,126.34209922640996,30.13125,30.135027,0.013004914,1.1262589,1.0585524,nan,2,2,0,0
12436000,12436000,36.66076801458462,126.34209922701773,30.131277,30.135054,0.013004914,1.1265684,1.0587801,nan,2,2,0,0
12444000,12444000,36.66076801415279,126.34209922760638,30.131306,30.135082,0.013004914,1.1268805,1.059009,nan,2,2,0,0
12452000,12452000,36.66076801373603,126.34209922816359,30.131329,30.135105,0.013004914,1.1271951,1.0592389,nan,2,2,0,0
12460000,12460000,36.660768013354655,126.34209922866827,30.13135,30.135126,0.013004914,1.1275125,1.0594699,nan,2,2,0,0
12468000,12468000,36.66076801301251,126.34209922916554,30.131369,30.135145,0.013004914,1.1278324,1.0597022,nan,2,2,0,0
12476000,12476000,36.66076801270504,126.3420992296511,30.131384,30.13516,0.013004914,1.1281549,1.0599355,nan,2,2,0,0
12484000,12484000,36.660768012446766,126.3420992301214,30.131393,30.13517,0.013004914,1.1284801,1.06017,nan,2,2,0,0
12492000,12492000,36.66076801225669,126.34209923060017,30.131393,30.13517,0.013004914,1.1288079,1.0598179,nan,2,2,0,0
12500000,12500000,36.66076801211405,126.34209923106455,30.131392,30.135168,0.013004914,1.1291386,1.0600525,nan,2,2,0,0
12508000,12508000,36.66076801199521,126.3420992314892,30.131386,30.135162,0.013004914,1.1294718,1.0602882,nan,2,2,0,0
12516000,12516000,36.660768011906896,126.34209923186502,30.131376,30.135153,0.013004914,1.1298077,1.060525,nan,2,2,0,0
12524000,12524000,36.66076801188464,126.342099232112,30.131363,30.13514,0.013004914,1.1301327,1.0607629,nan,2,2,0,0
12532000,12532000,36.66076801187146,126.34209923233217,30.131348,30.135124,0.013004914,1.1304739,1.061002,nan,2,2,0,0
12540000,12540000,36.66076801188665,126.34209923253943,30.13133,30.135107,0.013004914,1.1308178,1.0612422,nan,2,2,0,0
12548000,12548000,36.66076801192496,126.34209923274048,30.131351,30.135128,0.013004914,1.1311644,1.0608749,nan,2,2,0,0
12556000,12556000,36.66076801197475,126.34209923290618,30.131369,30.135145,0.013004914,1.131514,1.0611151,nan,2,2,0,0
12564000,12564000,36.66076801203688,126.34209923304938,30.131384,30.13516,0.013004914,1.1318662,1.0613564,nan,2,2,0,0
12572000,12572000,36.66076801210747,126.34209923317596,30.131397,30.135174,0.013004914,1.1322213,1.061599,nan,2,2,0,0
12580000,12580000,36.660768012195675,126.34209923331659,30.131405,30.135181,0.013004914,1.1325794,1.0618426,nan,2,2,0,0
12588000,12588000,36.660768012279355,126.34209923344969,30.131405,30.135181,0.013004914,1.1329403,1.0620874,nan,2,2,0,0
12596000,12596000,36.660768012350495,126.3420992335372,30.1314,30.135176,0.013004914,1.1333042,1.0623333,nan,2,2,0,0
12604000,12604000,36.6607680124256,126.34209923358992,30.13139,30.135166,0.013004914,1.1336709,1.0625805,nan,2,2,0,0
12612000,12612000,36.660768012529,126.34209923361036,30.13136,30.135136,0.013004914,1.1340407,1.0621932,nan,2,2,0,0
12620000,12620000,36.66076801264888,126.34209923365108,30.131323,30.1351,0.013004914,1.1344135,1.0624402,nan,2,2,0,0
12628000,12628000,36.660768012747894,126.34209923371981,30.131285,30.135061,0.013004914,1.1347891,1.0626884,nan,2,2,0,0
12636000,12636000,36.6607680128071,126.34209923378465,30.131245,30.135021,0.013004914,1.1351678,1.0629376,nan,2,2,0,0
12644000,12644000,36.660768012846546,126.34209923385541,30.131205,30.134981,0.013004914,1.1355495,1.0631881,nan,2,2,0,0
12652000,12652000,36.66076801288802,126.34209923391573,30.131163,30.13494,0.013004914,1.1359342,1.0634397,nan,2,2,0,0
12660000,12660000,36.66076801293551,126.34209923393502,30.131115,30.134892,0.013004914,1.1363221,1.0636925,nan,2,2,0,0
12668000,12668000,36.660768012986956,126.34209923393858,30.13108,30.134857,0.013004914,1.136713,1.0632883,nan,2,2,0,0
12676000,12676000,36.6607680130199,126.34209923393948,30.131046,30.134823,0.013004914,1.1371071,1.0635409,nan,2,2,0,0
12684000,12684000,36.66076801305242,126.34209923392017,30.131008,30.134785,0.013004914,1.1375043,1.0637946,nan,2,2,0,0
12692000,12692000,36.6607680133984,126.34209923448215,30.131012,30.134998,0.013004914,1.1163201,1.0548377,nan,2,2,0,0
12700000,12700000,36.6607680137723,126.3420992350189,30.13101,30.134996,0.013004914,1.1166058,1.055047,nan,2,2,0,0
12708000,12708000,36.660768014160155,126.3420992355719,30.131004,30.13499,0.013004914,1.1168939,1.0552574,nan,2,2,0,0
