timestamp,roll_body,pitch_body,yaw_body,yaw_sp_move_rate,q_d[0],q_d[1],q_d[2],q_d[3],thrust_body[0],thrust_body[1],thrust_body[2],reset_integral,fw_control_yaw_wheel
3556000,0.0,-0.0,1.5760217,0.0,0.70525694,0.0,0.0,0.70895183,0.0,0.0,-0.001,0,0
3564000,0.0,-0.0,1.5760192,0.0,0.70525783,0.0,0.0,0.70895094,0.0,0.0,-0.001,0,0
3612000,0.0,-0.0,1.575995,0.0,0.7052664,0.0,0.0,0.7089424,0.0,0.0,-0.001,0,0
3660000,0.0,-0.0,1.576039,0.0,0.7052508,0.0,0.0,0.70895797,0.0,0.0,-0.001,0,0
3708000,0.0,-0.0,1.576092,0.0,0.705232,0.0,0.0,0.70897657,0.0,0.0,-0.001,0,0
3756000,0.0,-0.0,1.5761199,0.0,0.70522213,0.0,0.0,0.7089865,0.0,0.0,-0.001,0,0
3812000,0.0,-0.0,1.5769278,0.0,0.70493567,0.0,0.0,0.7092713,0.0,0.0,-0.001,0,0
3852000,0.0,-0.0,1.5761657,0.0,0.7052059,0.0,0.0,0.7090025,0.0,0.0,-0.001,0,0
3908000,0.0,-0.0,1.5745323,0.0,0.7057847,0.0,0.0,0.7084264,0.0,0.0,-0.001,0,0
3956000,0.0,-0.0,1.5729736,0.0,0.7063366,0.0,0.0,0.7078761,0.0,0.0,-0.001,0,0
4012000,0.0,-0.0,1.5714301,0.0,0.7068827,0.0,0.0,0.7073308,0.0,0.0,-0.001,0,0
4060000,0.0,0.0,1.5704309,0.0,0.707236,0.0,0.0,0.70697755,0.0,0.0,-0.001,0,0
4108000,0.0,0.0,1.5693196,0.0,0.7076287,0.0,0.0,0.70658445,0.0,0.0,-0.001,0,0
4156000,0.0,0.0,1.5682598,0.0,0.708003,0.0,0.0,0.7062094,0.0,0.0,-0.001,0,0
4212000,0.0,0.0,1.5672219,0.0,0.7083694,0.0,0.0,0.7058419,0.0,0.0,-0.001,0,0
4260000,0.0,0.0,1.5663512,0.0,0.70867664,0.0,0.0,0.70553344,0.0,0.0,-0.001,0,0
4308000,0.0,0.0,1.5655845,0.0,0.70894706,0.0,0.0,0.7052617,0.0,0.0,-0.001,0,0
4356000,0.0,0.0,1.5651705,0.0,0.709093,0.0,0.0,0.705115,0.0,0.0,-0.001,0,0
4412000,0.0,0.0,1.5649067,0.0,0.709186,0.0,0.0,0.70502144,0.0,0.0,-0.001,0,0
4460000,0.0,0.0,1.564631,0.0,0.7092832,0.0,0.0,0.7049236,0.0,0.0,-0.001,0,0
4508000,0.0,0.0,1.5644168,0.0,0.70935875,0.0,0.0,0.70484763,0.0,0.0,-0.001,0,0
4556000,0.0,0.0,1.5641397,0.0,0.7094563,0.0,0.0,0.70474946,0.0,0.0,-0.001,0,0
4612000,0.0,0.0,1.5638324,0.0,0.7095646,0.0,0.0,0.7046403,0.0,0.0,-0.001,0,0
4660000,0.0,0.0,1.5635715,0.0,0.70965654,0.0,0.0,0.70454776,0.0,0.0,-0.001,0,0
4708000,0.0,0.0,1.5633938,0.0,0.7097191,0.0,0.0,0.7044848,0.0,0.0,-0.001,0,0
4756000,0.0,0.0,1.5634266,0.0,0.70970756,0.0,0.0,0.70449644,0.0,0.0,-0.001,0,0
4812000,0.0,0.0,1.5634876,0.0,0.70968604,0.0,0.0,0.7045181,0.0,0.0,-0.001,0,0
4860000,0.0,0.0,1.563499,0.0,0.70968205,0.0,0.0,0.70452213,0.0,0.0,-0.001,0,0
4908000,0.0,0.0,1.5633619,0.0,0.7097304,0.0,0.0,0.7044735,0.0,0.0,-0.001,0,0
4956000,0.0,0.0,1.5630596,0.0,0.70983684,0.0,0.0,0.70436615,0.0,0.0,-0.001,0,0
5012000,0.0,0.0,1.5624269,0.0,0.71005964,0.0,0.0,0.70414156,0.0,0.0,-0.001,0,0
5052000,0.0,0.0,1.5621057,0.0,0.7101727,0.0,0.0,0.70402753,0.0,0.0,-0.001,0,0
5108000,0.0,0.0,1.5620557,0.0,0.71019024,0.0,0.0,0.70400983,0.0,0.0,-0.001,0,0
5156000,0.0,0.0,1.5621473,0.0,0.71015805,0.0,0.0,0.7040423,0.0,0.0,-0.001,0,0
5212000,0.0,0.0,1.5623198,0.0,0.7100974,0.0,0.0,0.7041036,0.0,0.0,-0.001,0,0
5252000,0.0,0.0,1.5623612,0.0,0.71008277,0.0,0.0,0.70411825,0.0,0.0,-0.001,0,0
5308000,0.0,0.0,1.562311,0.0,0.7101004,0.0,0.0,0.70410043,0.0,0.0,-0.001,0,0
5356000,0.0,0.0,1.5621916,0.0,0.71014243,0.0,0.0,0.70405805,0.0,0.0,-0.001,0,0
5412000,0.0,0.0,1.5620409,0.0,0.7101955,0.0,0.0,0.7040045,0.0,0.0,-0.001,0,0
5452000,0.0,0.0,1.5620921,0.0,0.7101775,0.0,0.0,0.70402277,0.0,0.0,-0.001,0,0
5508000,0.0,0.0,1.5617517,0.0,0.7102973,0.0,0.0,0.7039018,0.0,0.0,-0.001,0,0
5556000,0.0,0.0,1.5618508,0.0,0.7102624,0.0,0.0,0.70393705,0.0,0.0,-0.001,0,0
5604000,0.0,0.0,1.5617597,0.0,0.7102945,0.0,0.0,0.7039046,0.0,0.0,-0.001,0,0
5652000,0.0,0.0,1.5617588,0.0,0.71029484,0.0,0.0,0.7039043,0.0,0.0,-0.001,0,0
5708000,0.0,0.0,1.5617309,0.0,0.7103047,0.0,0.0,0.7038944,0.0,0.0,-0.001,0,0
5756000,0.0,0.0,1.5617073,0.0,0.71031296,0.0,0.0,0.703886,0.0,0.0,-0.001,0,0
5812000,0.0,0.0,1.5615915,0.0,0.7103537,0.0,0.0,0.70384496,0.0,0.0,-0.001,0,0
5860000,0.0,0.0,1.5615649,0.0,0.71036303,0.0,0.0,0.7038355,0.0,0.0,-0.001,0,0
5908000,0.0,0.0,1.5615073,0.0,0.7103833,0.0,0.0,0.703815,0.0,0.0,-0.001,0,0
5956000,0.0,0.0,1.5614433,0.0,0.7104058,0.0,0.0,0.7037922,0.0,0.0,-0.001,0,0
6012000,0.0,0.0,1.561374,0.0,0.71043026,0.0,0.0,0.70376766,0.0,0.0,-0.001,0,0
6060000,0.0,0.0,1.5612317,0.0,0.7104803,0.0,0.0,0.7037171,0.0,0.0,-0.001,0,0
6108000,0.0,0.0,1.5611122,0.0,0.71052235,0.0,0.0,0.70367473,0.0,0.0,-0.001,0,0
6156000,0.0,0.0,1.5611004,0.0,0.71052647,0.0,0.0,0.70367056,0.0,0.0,-0.001,0,0
6212000,0.0,0.0,1.5611558,0.0,0.71050704,0.0,0.0,0.7036902,0.0,0.0,-0.001,0,0
6260000,0.0,0.0,1.5612898,0.0,0.7104599,0.0,0.0,0.70373774,0.0,0.0,-0.001,0,0
6308000,0.0,0.0,1.5612313,0.0,0.71048045,0.0,0.0,0.70371693,0.0,0.0,-0.001,0,0
6356000,0.0,0.0,1.5610995,0.0,0.7105268,0.0,0.0,0.7036702,0.0,0.0,-0.001,0,0
6404000,0.0,0.0,1.5609806,0.0,0.71056867,0.0,0.0,0.7036278,0.0,0.0,-0.001,0,0
6460000,0.0,0.0,1.560965,0.0,0.71057415,0.0,0.0,0.7036223,0.0,0.0,-0.001,0,0
6508000,0.0,0.0,1.5608906,0.0,0.7106003,0.0,0.0,0.70359594,0.0,0.0,-0.001,0,0
6556000,0.0,0.0,1.5608797,0.0,0.71060413,0.0,0.0,0.70359206,0.0,0.0,-0.001,0,0
6604000,0.0,0.0,1.5608093,0.0,0.7106289,0.0,0.0,0.703567,0.0,0.0,-0.001,0,0
6660000,0.0,0.0,1.5608761,0.0,0.71060544,0.0,0.0,0.70359075,0.0,0.0,-0.001,0,0
6708000,0.0,0.0,1.5607854,0.0,0.7106373,0.0,0.0,0.7035587,0.0,0.0,-0.001,0,0
6756000,0.0,0.0,1.560819,0.0,0.71062547,0.0,0.0,0.7035705,0.0,0.0,-0.001,0,0
6812000,0.0,0.0,1.5608889,0.0,0.7106009,0.0,0.0,0.70359534,0.0,0.0,-0.001,0,0
6860000,0.0,0.0,1.5608765,0.0,0.71060526,0.0,0.0,0.7035909,0.0,0.0,-0.001,0,0
6908000,0.0,0.0,1.5608767,0.0,0.71060514,0.0,0.0,0.70359105,0.0,0.0,-0.001,0,0
6956000,0.0,0.0,1.5608985,0.0,0.7105975,0.0,0.0,0.70359874,0.0,0.0,-0.001,0,0
7012000,0.0,0.0,1.5608687,0.0,0.710608,0.0,0.0,0.70358825,0.0,0.0,-0.001,0,0
7060000,0.0,0.0,1.5608318,0.0,0.710621,0.0,0.0,0.703575,0.0,0.0,-0.001,0,0
7108000,0.0,0.0,1.5608333,0.0,0.7106204,0.0,0.0,0.7035757,0.0,0.0,-0.001,0,0
7156000,0.0,0.0,1.5607635,0.0,0.710645,0.0,0.0,0.70355076,0.0,0.0,-0.001,0,0
7212000,0.0,0.0,1.5606952,0.0,0.71066904,0.0,0.0,0.7035265,0.0,0.0,-0.001,0,0
7252000,0.0,0.0,1.5606251,0.0,0.7106937,0.0,0.0,0.7035015,0.0,0.0,-0.001,0,0
7308000,0.0,0.0,1.5603987,0.0,0.71077335,0.0,0.0,0.7034211,0.0,0.0,-0.001,0,0
7356000,0.0,0.0,1.560318,0.0,0.7108017,0.0,0.0,0.70339245,0.0,0.0,-0.001,0,0
7412000,0.0,0.0,1.5603005,0.0,0.71080786,0.0,0.0,0.70338625,0.0,0.0,-0.001,0,0
7460000,0.0,0.0,1.5602124,0.0,0.71083885,0.0,0.0,0.70335495,0.0,0.0,-0.001,0,0
7508000,0.0,0.0,1.5602689,0.0,0.710819,0.0,0.0,0.70337504,0.0,0.0,-0.001,0,0
7556000,0.0,0.0,1.560363,0.0,0.71078587,0.0,0.0,0.7034085,0.0,0.0,-0.001,0,0
7612000,0.0,0.0,1.5605099,0.0,0.7107342,0.0,0.0,0.70346075,0.0,0.0,-0.001,0,0
7652000,0.0,0.0,1.5605056,0.0,0.71073574,0.0,0.0,0.7034591,0.0,0.0,-0.001,0,0
7708000,0.0,0.0,1.5604459,0.0,0.7107567,0.0,0.0,0.703438,0.0,0.0,-0.001,0,0
7756000,0.0,0.0,1.5603423,0.0,0.71079314,0.0,0.0,0.70340115,0.0,0.0,-0.001,0,0
7812000,0.0,0.0,1.5601656,0.0,0.7108553,0.0,0.0,0.70333827,0.0,0.0,-0.001,0,0
7860000,0.0,0.0,1.5601339,0.0,0.71086645,0.0,0.0,0.70332706,0.0,0.0,-0.001,0,0
7908000,0.0,0.0,1.560189,0.0,0.7108471,0.0,0.0,0.7033466,0.0,0.0,-0.001,0,0
7956000,0.0,0.0,1.5602188,0.0,0.7108366,0.0,0.0,0.7033573,0.0,0.0,-0.001,0,0
8012000,0.0,0.0,1.5602528,0.0,0.71082467,0.0,0.0,0.7033693,0.0,0.0,-0.001,0,0
8060000,0.0,0.0,1.5602778,0.0,0.71081585,0.0,0.0,0.70337814,0.0,0.0,-0.001,0,0
8108000,0.0,0.0,1.5601461,0.0,0.71086216,0.0,0.0,0.70333135,0.0,0.0,-0.001,0,0
8156000,0.0,0.0,1.5601671,0.0,0.71085477,0.0,0.0,0.7033389,0.0,0.0,-0.001,0,0
8212000,0.0,0.0,1.5601262,0.0,0.7108692,0.0,0.0,0.7033242,0.0,0.0,-0.001,0,0
8260000,0.0,0.0,1.5600371,0.0,0.7109005,0.0,0.0,0.7032926,0.0,0.0,-0.001,0,0
8308000,0.0,0.0,1.5599022,0.0,0.71094793,0.0,0.0,0.70324475,0.0,0.0,-0.001,0,0
8356000,0.0,0.0,1.5598584,0.0,0.7109633,0.0,0.0,0.7032291,0.0,0.0,-0.001,0,0
8412000,0.0,0.0,1.5599828,0.0,0.7109196,0.0,0.0,0.70327324,0.0,0.0,-0.001,0,0
8460000,0.0,0.0,1.559888,0.0,0.71095294,0.0,0.0,0.70323956,0.0,0.0,-0.001,0,0
8508000,0.0,0.0,1.5600265,0.0,0.71090424,0.0,0.0,0.70328885,0.0,0.0,-0.001,0,0
8556000,0.0,0.0,1.5600106,0.0,0.71090984,0.0,0.0,0.7032832,0.0,0.0,-0.001,0,0
8612000,0.0,0.0,1.5599879,0.0,0.7109178,0.0,0.0,0.70327514,0.0,0.0,-0.001,0,0
8660000,0.0,0.0,1.5601175,0.0,0.71087223,0.0,0.0,0.7033212,0.0,0.0,-0.001,0,0
8708000,0.0,0.0,1.5601542,0.0,0.7108593,0.0,0.0,0.7033343,0.0,0.0,-0.001,0,0
8756000,0.0,0.0,1.5602008,0.0,0.7108429,0.0,0.0,0.7033509,0.0,0.0,-0.001,0,0
8812000,0.0,0.0,1.5602355,0.0,0.71083075,0.0,0.0,0.7033632,0.0,0.0,-0.001,0,0
8860000,0.0,0.0,1.5602155,0.0,0.7108378,0.0,0.0,0.703356,0.0,0.0,-0.001,0,0
8908000,0.0,0.0,1.5602137,0.0,0.7108384,0.0,0.0,0.70335543,0.0,0.0,-0.001,0,0
8956000,0.0,0.0,1.5601901,0.0,0.7108467,0.0,0.0,0.703347,0.0,0.0,-0.001,0,0
9012000,0.0,0.0,1.560079,0.0,0.71088576,0.0,0.0,0.7033075,0.0,0.0,-0.001,0,0
9060000,0.0,0.0,1.5599875,0.0,0.71091795,0.0,0.0,0.70327497,0.0,0.0,-0.001,0,0
9108000,0.0,0.0,1.5599488,0.0,0.71093154,0.0,0.0,0.70326126,0.0,0.0,-0.001,0,0
9156000,0.0,0.0,1.5599712,0.0,0.7109237,0.0,0.0,0.7032692,0.0,0.0,-0.001,0,0
9212000,0.0,0.0,1.5600251,0.0,0.7109047,0.0,0.0,0.7032884,0.0,0.0,-0.001,0,0
9260000,0.0,0.0,1.5600704,0.0,0.7108888,0.0,0.0,0.7033044,0.0,0.0,-0.001,0,0
9308000,0.0,0.0,1.5601447,0.0,0.7108627,0.0,0.0,0.7033309,0.0,0.0,-0.001,0,0
9356000,0.0,0.0,1.5601063,0.0,0.71087617,0.0,0.0,0.7033173,0.0,0.0,-0.001,0,0
9412000,0.0,0.0,1.5599686,0.0,0.71092457,0.0,0.0,0.7032683,0.0,0.0,-0.001,0,0
9460000,0.0,0.0,1.5600573,0.0,0.7108934,0.0,0.0,0.7032998,0.0,0.0,-0.001,0,0
9508000,0.0,0.0,1.5602049,0.0,0.7108415,0.0,0.0,0.7033523,0.0,0.0,-0.001,0,0
9556000,0.0,0.0,1.5602183,0.0,0.71083677,0.0,0.0,0.7033571,0.0,0.0,-0.001,0,0
9612000,0.0,0.0,1.5604286,0.0,0.7107628,0.0,0.0,0.70343184,0.0,0.0,-0.001,0,0
9660000,0.0,0.0,1.5604684,0.0,0.7107488,0.0,0.0,0.70344603,0.0,0.0,-0.001,0,0
9708000,0.0,0.0,1.5604308,0.0,0.710762,0.0,0.0,0.70343256,0.0,0.0,-0.001,0,0
9756000,0.0,0.0,1.5603262,0.0,0.7107988,0.0,0.0,0.7033954,0.0,0.0,-0.001,0,0
9812000,0.0,0.0,1.5603065,0.0,0.7108057,0.0,0.0,0.7033884,0.0,0.0,-0.001,0,0
9860000,0.0,0.0,1.5603106,0.0,0.7108043,0.0,0.0,0.7033898,0.0,0.0,-0.001,0,0
9908000,0.0,0.0,1.5601863,0.0,0.71084803,0.0,0.0,0.70334566,0.0,0.0,-0.001,0,0
9956000,0.0,0.0,1.5600619,0.0,0.7108918,0.0,0.0,0.7033015,0.0,0.0,-0.001,0,0
10012000,0.0,0.0,1.5599682,0.0,0.7109247,0.0,0.0,0.7032682,0.0,0.0,-0.001,0,0
10060000,0.0,0.0,1.559979,0.0,0.71092093,0.0,0.0,0.70327204,0.0,0.0,-0.001,0,0
10108000,0.0,0.0,1.5598414,0.0,0.7109693,0.0,0.0,0.70322305,0.0,0.0,-0.001,0,0
10156000,0.0,0.0,1.5599178,0.0,0.71094245,0.0,0.0,0.7032503,0.0,0.0,-0.001,0,0
10204000,0.0,0.0,1.5599225,0.0,0.71094084,0.0,0.0,0.7032518,0.0,0.0,-0.001,0,0
10260000,0.0,0.0,1.559816,0.0,0.71097827,0.0,0.0,0.703214,0.0,0.0,-0.001,0,0
10308000,0.0,0.0,1.5597589,0.0,0.7109983,0.0,0.0,0.7031937,0.0,0.0,-0.001,0,0
10356000,0.0,0.0,1.5597119,0.0,0.7110148,0.0,0.0,0.7031771,0.0,0.0,-0.001,0,0
10412000,0.0,0.0,1.5597249,0.0,0.7110103,0.0,0.0,0.7031816,0.0,0.0,-0.001,0,0
10460000,0.0,0.0,1.5596564,0.0,0.71103436,0.0,0.0,0.70315725,0.0,0.0,-0.001,0,0
10508000,0.0,0.0,1.5595489,0.0,0.71107215,0.0,0.0,0.70311904,0.0,0.0,-0.001,0,0
10556000,0.0,0.0,1.5595796,0.0,0.7110613,0.0,0.0,0.70313,0.0,0.0,-0.001,0,0
10612000,0.0,0.0,1.5596166,0.0,0.7110483,0.0,0.0,0.7031432,0.0,0.0,-0.001,0,0
10660000,0.0,0.0,1.5596869,0.0,0.71102357,0.0,0.0,0.70316815,0.0,0.0,-0.001,0,0
10708000,0.0,0.0,1.559707,0.0,0.71101654,0.0,0.0,0.70317537,0.0,0.0,-0.001,0,0
10756000,0.0,0.0,1.5596249,0.0,0.7110454,0.0,0.0,0.7031461,0.0,0.0,-0.001,0,0
10812000,0.0,0.0,1.5596497,0.0,0.7110367,0.0,0.0,0.7031549,0.0,0.0,-0.001,0,0
10860000,0.0,0.0,1.5595722,0.0,0.7110639,0.0,0.0,0.7031274,0.0,0.0,-0.001,0,0
10908000,0.0,0.0,1.5594773,0.0,0.7110973,0.0,0.0,0.7030937,0.0,0.0,-0.001,0,0
10956000,0.0,0.0,1.5596043,0.0,0.7110527,0.0,0.0,0.70313877,0.0,0.0,-0.001,0,0
11012000,0.0,0.0,1.5596893,0.0,0.71102273,0.0,0.0,0.703169,0.0,0.0,-0.001,0,0
11060000,0.0,0.0,1.5597348,0.0,0.71100676,0.0,0.0,0.70318514,0.0,0.0,-0.001,0,0
11108000,0.0,0.0,1.5597079,0.0,0.71101624,0.0,0.0,0.7031756,0.0,0.0,-0.001,0,0
11156000,0.0,0.0,1.5596322,0.0,0.7110429,0.0,0.0,0.7031487,0.0,0.0,-0.001,0,0
11212000,0.0,0.0,1.559548,0.0,0.71107244,0.0,0.0,0.70311874,0.0,0.0,-0.001,0,0
11252000,0.0,0.0,1.5595157,0.0,0.71108377,0.0,0.0,0.70310736,0.0,0.0,-0.001,0,0
11308000,0.0,0.0,1.559515,0.0,0.711084,0.0,0.0,0.7031071,0.0,0.0,-0.001,0,0
11356000,0.0,0.0,1.5595042,0.0,0.7110879,0.0,0.0,0.7031032,0.0,0.0,-0.001,0,0
11412000,0.0,0.0,1.5593508,0.0,0.71114177,0.0,0.0,0.70304865,0.0,0.0,-0.001,0,0
11460000,0.0,0.0,1.559394,0.0,0.7111266,0.0,0.0,0.703064,0.0,0.0,-0.001,0,0
11508000,0.0,0.0,1.5595062,0.0,0.71108717,0.0,0.0,0.70310384,0.0,0.0,-0.001,0,0
11556000,0.0,0.0,1.5594919,0.0,0.7110922,0.0,0.0,0.7030988,0.0,0.0,-0.001,0,0
11612000,0.0,0.0,1.5595887,0.0,0.71105814,0.0,0.0,0.7031333,0.0,0.0,-0.001,0,0
11660000,0.0,0.0,1.5596112,0.0,0.7110503,0.0,0.0,0.70314115,0.0,0.0,-0.001,0,0
11708000,0.0,0.0,1.5595821,0.0,0.71106046,0.0,0.0,0.70313084,0.0,0.0,-0.001,0,0
11756000,0.0,0.0,1.5595034,0.0,0.7110881,0.0,0.0,0.70310295,0.0,0.0,-0.001,0,0
11812000,0.0,0.0,1.5594891,0.0,0.7110932,0.0,0.0,0.70309776,0.0,0.0,-0.001,0,0
11860000,0.0,0.0,1.5594332,0.0,0.7111128,0.0,0.0,0.703078,0.0,0.0,-0.001,0,0
11908000,0.0,0.0,1.5594052,0.0,0.7111227,0.0,0.0,0.70306796,0.0,0.0,-0.001,0,0
11956000,0.0,0.0,1.5593317,0.0,0.7111485,0.0,0.0,0.7030419,0.0,0.0,-0.001,0,0
12012000,0.0,0.0,1.5593524,0.0,0.7111412,0.0,0.0,0.70304924,0.0,0.0,-0.001,0,0
12060000,0.0,0.0,1.5593219,0.0,0.71115196,0.0,0.0,0.70303833,0.0,0.0,-0.001,0,0
12108000,0.0,0.0,1.5592599,0.0,0.7111737,0.0,0.0,0.70301634,0.0,0.0,-0.001,0,0
12156000,0.0,0.0,1.5591751,0.0,0.7112036,0.0,0.0,0.70298606,0.0,0.0,-0.001,0,0
12212000,0.0,0.0,1.5591697,0.0,0.7112055,0.0,0.0,0.7029842,0.0,0.0,-0.001,0,0
12260000,0.0,0.0,1.5592773,0.0,0.7111676,0.0,0.0,0.7030225,0.0,0.0,-0.001,0,0
12308000,0.0,0.0,1.559334,0.0,0.71114767,0.0,0.0,0.7030427,0.0,0.0,-0.001,0,0
12356000,0.0,0.0,1.5592833,0.0,0.7111655,0.0,0.0,0.7030246,0.0,0.0,-0.001,0,0
12412000,0.0,0.0,1.5592153,0.0,0.7111894,0.0,0.0,0.7030005,0.0,0.0,-0.001,0,0
12460000,0.0,0.0,1.5591975,0.0,0.7111957,0.0,0.0,0.70299417,0.0,0.0,-0.001,0,0
12508000,0.0,0.0,1.5591419,0.0,0.7112152,0.0,0.0,0.7029744,0.0,0.0,-0.001,0,0
12556000,0.0,0.0,1.5591991,0.0,0.7111951,0.0,0.0,0.7029947,0.0,0.0,-0.001,0,0
12612000,0.0,0.0,1.5591584,0.0,0.7112094,0.0,0.0,0.70298016,0.0,0.0,-0.001,0,0
12660000,0.0,0.0,1.5591599,0.0,0.71120894,0.0,0.0,0.70298064,0.0,0.0,-0.001,0,0
12708000,0.0,0.0,1.5591966,0.0,0.711196,0.0,0.0,0.70299387,0.0,0.0,-0.001,0,0
12756000,0.0,0.0,1.5592265,0.0,0.71118546,0.0,0.0,0.7030044,0.0,0.0,-0.001,0,0
12812000,0.0,0.0,1.559095,0.0,0.7112317,0.0,0.0,0.70295775,0.0,0.0,-0.001,0,0
12860000,0.0,0.0,1.5590367,0.0,0.71125215,0.0,0.0,0.702937,0.0,0.0,-0.001,0,0
12908000,0.0,0.0,1.5589732,0.0,0.71127456,0.0,0.0,0.70291436,0.0,0.0,-0.001,0,0
12956000,0.0,0.0,1.5589322,0.0,0.7112889,0.0,0.0,0.7028998,0.0,0.0,-0.001,0,0
13012000,0.0,0.0,1.5589935,0.0,0.7112674,0.0,0.0,0.7029216,0.0,0.0,-0.001,0,0
13060000,0.0,0.0,1.5589142,0.0,0.71129525,0.0,0.0,0.7028934,0.0,0.0,-0.001,0,0
13108000,0.0,0.0,1.5589582,0.0,0.7112798,0.0,0.0,0.70290905,0.0,0.0,-0.001,0,0
13156000,0.0,0.0,1.5588928,0.0,0.71130276,0.0,0.0,0.70288587,0.0,0.0,-0.001,0,0
13204000,0.0,0.0,1.5588601,0.0,0.71131426,0.0,0.0,0.7028741,0.0,0.0,-0.001,0,0
13260000,0.0,0.0,1.558958,0.0,0.7112798,0.0,0.0,0.70290905,0.0,0.0,-0.001,0,0
13308000,0.0,0.0,1.558973,0.0,0.7112746,0.0,0.0,0.7029143,0.0,0.0,-0.001,0,0
13356000,0.0,0.0,1.5590317,0.0,0.71125394,0.0,0.0,0.70293516,0.0,0.0,-0.001,0,0
13412000,0.0,0.0,1.5590277,0.0,0.7112554,0.0,0.0,0.70293367,0.0,0.0,-0.001,0,0
13460000,0.0,0.0,1.5590228,0.0,0.7112571,0.0,0.0,0.70293206,0.0,0.0,-0.001,0,0
13508000,0.0,0.0,1.5589685,0.0,0.7112761,0.0,0.0,0.70291275,0.0,0.0,-0.001,0,0
13556000,0.0,0.0,1.5588813,0.0,0.7113068,0.0,0.0,0.70288163,0.0,0.0,-0.001,0,0
13612000,0.0,0.0,1.5588449,0.0,0.71131957,0.0,0.0,0.70286876,0.0,0.0,-0.001,0,0
13660000,0.0,0.0,1.5588782,0.0,0.7113079,0.0,0.0,0.7028807,0.0,0.0,-0.001,0,0
13708000,0.0,0.0,1.5589,0.0,0.71130025,0.0,0.0,0.7028883,0.0,0.0,-0.001,0,0
13756000,0.0,0.0,1.5589954,0.0,0.71126676,0.0,0.0,0.7029222,0.0,0.0,-0.001,0,0
13812000,0.0,0.0,1.5591356,0.0,0.71121746,0.0,0.0,0.7029721,0.0,0.0,-0.001,0,0
13860000,0.0,0.0,1.5591371,0.0,0.71121687,0.0,0.0,0.7029727,0.0,0.0,-0.001,0,0
13908000,0.0,0.0,1.559216,0.0,0.71118915,0.0,0.0,0.7030007,0.0,0.0,-0.001,0,0
13956000,0.0,0.0,1.5592214,0.0,0.7111873,0.0,0.0,0.7030026,0.0,0.0,-0.001,0,0
14012000,0.0,0.0,1.5591475,0.0,0.7112133,0.0,0.0,0.7029763,0.0,0.0,-0.001,0,0
14060000,0.0,0.0,1.5590312,0.0,0.7112541,0.0,0.0,0.702935,0.0,0.0,-0.001,0,0
14108000,0.0,0.0,1.558977,0.0,0.7112732,0.0,0.0,0.70291567,0.0,0.0,-0.001,0,0
14156000,0.0,0.0,1.5589811,0.0,0.71127176,0.0,0.0,0.70291716,0.0,0.0,-0.001,0,0
14212000,0.0,0.0,1.5591035,0.0,0.7112287,0.0,0.0,0.70296067,0.0,0.0,-0.001,0,0
14260000,0.0,0.0,1.5591922,0.0,0.7111975,0.0,0.0,0.7029923,0.0,0.0,-0.001,0,0
14308000,0.0,0.0,1.5591626,0.0,0.7112079,0.0,0.0,0.7029817,0.0,0.0,-0.001,0,0
14356000,0.0,0.0,1.5591289,0.0,0.7112198,0.0,0.0,0.7029697,0.0,0.0,-0.001,0,0
14412000,0.0,0.0,1.5590105,0.0,0.7112614,0.0,0.0,0.70292765,0.0,0.0,-0.001,0,0
14460000,0.0,0.0,1.558893,0.0,0.7113027,0.0,0.0,0.7028859,0.0,0.0,-0.001,0,0
14508000,0.0,0.0,1.5587218,0.0,0.71136284,0.0,0.0,0.70282495,0.0,0.0,-0.001,0,0
14556000,0.0,0.0,1.5586784,0.0,0.7113781,0.0,0.0,0.7028095,0.0,0.0,-0.001,0,0
14612000,0.0,0.0,1.5585915,0.0,0.7114087,0.0,0.0,0.70277864,0.0,0.0,-0.001,0,0
14660000,0.0,0.0,1.5584856,0.0,0.71144587,0.0,0.0,0.7027409,0.0,0.0,-0.001,0,0
14708000,0.0,0.0,1.5584714,0.0,0.7114508,0.0,0.0,0.7027359,0.0,0.0,-0.001,0,0
14756000,0.0,0.0,1.5585529,0.0,0.7114222,0.0,0.0,0.7027649,0.0,0.0,-0.001,0,0
14812000,0.0,0.0,1.5585554,0.0,0.7114214,0.0,0.0,0.7027657,0.0,0.0,-0.001,0,0
14860000,0.0,0.0,1.5586953,0.0,0.71137214,0.0,0.0,0.70281553,0.0,0.0,-0.001,0,0
14908000,0.0,0.0,1.5586851,0.0,0.7113758,0.0,0.0,0.70281184,0.0,0.0,-0.001,0,0
14956000,0.0,0.0,1.5587481,0.0,0.7113536,0.0,0.0,0.70283437,0.0,0.0,-0.001,0,0
15012000,0.0,0.0,1.5587624,0.0,0.7113486,0.0,0.0,0.70283943,0.0,0.0,-0.001,0,0
15052000,0.0,0.0,1.5587045,0.0,0.7113689,0.0,0.0,0.7028189,0.0,0.0,-0.001,0,0
15108000,0.0,0.0,1.5585953,0.0,0.7114073,0.0,0.0,0.70278007,0.0,0.0,-0.001,0,0
15156000,0.0,0.0,1.5585492,0.0,0.7114235,0.0,0.0,0.70276356,0.0,0.0,-0.001,0,0
15212000,0.0,0.0,1.5584481,0.0,0.71145904,0.0,0.0,0.70272756,0.0,0.0,-0.001,0,0
15260000,0.0,0.0,1.5584699,0.0,0.71145135,0.0,0.0,0.7027354,0.0,0.0,-0.001,0,0
15308000,0.0,0.0,1.558529,0.0,0.7114306,0.0,0.0,0.70275635,0.0,0.0,-0.001,0,0
15356000,0.0,0.0,1.5585376,0.0,0.71142757,0.0,0.0,0.7027595,0.0,0.0,-0.001,0,0
15412000,0.0,0.0,1.558402,0.0,0.71147525,0.0,0.0,0.7027112,0.0,0.0,-0.001,0,0
15460000,0.0,0.0,1.558345,0.0,0.7114953,0.0,0.0,0.70269096,0.0,0.0,-0.001,0,0
15508000,0.0,0.0,1.5583171,0.0,0.71150506,0.0,0.0,0.702681,0.0,0.0,-0.001,0,0
15556000,0.0,0.0,1.558358,0.0,0.7114907,0.0,0.0,0.70269555,0.0,0.0,-0.001,0,0
15612000,0.0,0.0,1.5584532,0.0,0.71145725,0.0,0.0,0.7027294,0.0,0.0,-0.001,0,0
15660000,0.0,0.0,1.5584103,0.0,0.71147233,0.0,0.0,0.70271415,0.0,0.0,-0.001,0,0
15708000,0.0,0.0,1.5584683,0.0,0.71145195,0.0,0.0,0.70273477,0.0,0.0,-0.001,0,0
15756000,0.0,0.0,1.5584162,0.0,0.71147025,0.0,0.0,0.7027163,0.0,0.0,-0.001,0,0
15804000,0.0,0.0,1.5584161,0.0,0.71147025,0.0,0.0,0.7027163,0.0,0.0,-0.001,0,0
15860000,0.0,0.0,1.558372,0.0,0.71148574,0.0,0.0,0.70270056,0.0,0.0,-0.001,0,0
15908000,0.0,0.0,1.5584157,0.0,0.7114704,0.0,0.0,0.7027161,0.0,0.0,-0.001,0,0
15956000,0.0,0.0,1.5583793,0.0,0.71148324,0.0,0.0,0.70270306,0.0,0.0,-0.001,0,0
16004000,0.0,0.0,1.5582874,0.0,0.7115155,0.0,0.0,0.7026705,0.0,0.0,-0.001,0,0
16060000,0.0,0.0,1.5582826,0.0,0.71151716,0.0,0.0,0.7026688,0.0,0.0,-0.001,0,0
16108000,0.0,0.0,1.5583544,0.0,0.71149194,0.0,0.0,0.70269436,0.0,0.0,-0.001,0,0
16156000,0.0,0.0,1.558288,0.0,0.7115153,0.0,0.0,0.70267063,0.0,0.0,-0.001,0,0
16212000,0.0,0.0,1.5581759,0.0,0.71155465,0.0,0.0,0.70263076,0.0,0.0,-0.001,0,0
16252000,0.0,0.0,1.5581521,0.0,0.71156305,0.0,0.0,0.7026223,0.0,0.0,-0.001,0,0
16308000,0.0,0.0,1.5580205,0.0,0.71160924,0.0,0.0,0.70257545,0.0,0.0,-0.001,0,0
16356000,0.0,0.0,1.5579985,0.0,0.71161693,0.0,0.0,0.7025677,0.0,0.0,-0.001,0,0
16412000,0.0,0.0,1.5578028,0.0,0.7116857,0.0,0.0,0.702498,0.0,0.0,-0.001,0,0
16460000,0.0,0.0,1.5576699,0.0,0.71173245,0.0,0.0,0.7024507,0.0,0.0,-0.001,0,0
16508000,0.0,0.0,1.5576622,0.0,0.7117351,0.0,0.0,0.7024479,0.0,0.0,-0.001,0,0
16556000,0.0,0.0,1.5577193,0.0,0.71171504,0.0,0.0,0.70246834,0.0,0.0,-0.001,0,0
16612000,0.0,0.0,1.5577438,0.0,0.71170646,0.0,0.0,0.702477,0.0,0.0,-0.001,0,0
16652000,0.0,0.0,1.5577495,0.0,0.7117045,0.0,0.0,0.702479,0.0,0.0,-0.001,0,0
16708000,0.0,0.0,1.557833,0.0,0.71167517,0.0,0.0,0.70250875,0.0,0.0,-0.001,0,0
16756000,0.0,0.0,1.557829,0.0,0.7116765,0.0,0.0,0.70250744,0.0,0.0,-0.001,0,0
16812000,0.0,0.0,1.5577977,0.0,0.71168756,0.0,0.0,0.7024961,0.0,0.0,-0.001,0,0
16860000,0.0,0.0,1.5577924,0.0,0.7116894,0.0,0.0,0.70249426,0.0,0.0,-0.001,0,0
16908000,0.0,0.0,1.5577288,0.0,0.71171176,0.0,0.0,0.7024716,0.0,0.0,-0.001,0,0
16956000,0.0,0.0,1.5577404,0.0,0.71170765,0.0,0.0,0.7024757,0.0,0.0,-0.001,0,0
17012000,0.0,0.0,1.5577823,0.0,0.7116929,0.0,0.0,0.70249075,0.0,0.0,-0.001,0,0
17060000,0.0,0.0,1.5578595,0.0,0.71166575,0.0,0.0,0.7025182,0.0,0.0,-0.001,0,0
17108000,0.0,0.0,1.5579257,0.0,0.71164256,0.0,0.0,0.70254177,0.0,0.0,-0.001,0,0
17156000,0.0,0.0,1.5579073,0.0,0.711649,0.0,0.0,0.7025353,0.0,0.0,-0.001,0,0
17212000,0.0,0.0,1.5579182,0.0,0.7116452,0.0,0.0,0.7025391,0.0,0.0,-0.001,0,0
17260000,0.0,0.0,1.5579332,0.0,0.7116399,0.0,0.0,0.70254445,0.0,0.0,-0.001,0,0
17308000,0.0,0.0,1.5579858,0.0,0.71162146,0.0,0.0,0.70256317,0.0,0.0,-0.001,0,0
17356000,0.0,0.0,1.5578926,0.0,0.71165425,0.0,0.0,0.70252997,0.0,0.0,-0.001,0,0
17412000,0.0,0.0,1.5579079,0.0,0.71164876,0.0,0.0,0.70253545,0.0,0.0,-0.001,0,0
17460000,0.0,0.0,1.5578126,0.0,0.71168226,0.0,0.0,0.70250154,0.0,0.0,-0.001,0,0
17508000,0.0,0.0,1.5578262,0.0,0.7116775,0.0,0.0,0.70250636,0.0,0.0,-0.001,0,0
17556000,0.0,0.0,1.5578232,0.0,0.71167856,0.0,0.0,0.7025053,0.0,0.0,-0.001,0,0
17612000,0.0,0.0,1.5578184,0.0,0.7116803,0.0,0.0,0.7025035,0.0,0.0,-0.001,0,0
17660000,0.0,0.0,1.5577753,0.0,0.71169543,0.0,0.0,0.7024882,0.0,0.0,-0.001,0,0
17708000,0.0,0.0,1.5576962,0.0,0.71172315,0.0,0.0,0.70246017,0.0,0.0,-0.001,0,0
17756000,0.0,0.0,1.5575289,0.0,0.7117819,0.0,0.0,0.7024006,0.0,0.0,-0.001,0,0
17812000,0.0,0.0,1.557553,0.0,0.71177346,0.0,0.0,0.70240915,0.0,0.0,-0.001,0,0
17852000,0.0,0.0,1.5575279,0.0,0.7117823,0.0,0.0,0.70240027,0.0,0.0,-0.001,0,0
17908000,0.0,0.0,1.5575045,0.0,0.7117905,0.0,0.0,0.7023918,0.0,0.0,-0.001,0,0
17956000,0.0,0.0,1.5576116,0.0,0.7117529,0.0,0.0,0.70242995,0.0,0.0,-0.001,0,0
18012000,0.0,0.0,1.5577717,0.0,0.7116967,0.0,0.0,0.7024869,0.0,0.0,-0.001,0,0
18060000,0.0,0.0,1.5578252,0.0,0.71167785,0.0,0.0,0.702506,0.0,0.0,-0.001,0,0
18108000,0.0,0.0,1.5578667,0.0,0.71166325,0.0,0.0,0.7025208,0.0,0.0,-0.001,0,0
18156000,0.0,0.0,1.5577958,0.0,0.7116882,0.0,0.0,0.7024955,0.0,0.0,-0.001,0,0
18212000,0.0,0.0,1.5577835,0.0,0.7116925,0.0,0.0,0.7024911,0.0,0.0,-0.001,0,0
18252000,0.0,0.0,1.5577773,0.0,0.71169466,0.0,0.0,0.70248896,0.0,0.0,-0.001,0,0
18308000,0.0,0.0,1.5576929,0.0,0.71172434,0.0,0.0,0.70245886,0.0,0.0,-0.001,0,0
18356000,0.0,0.0,1.5577272,0.0,0.71171224,0.0,0.0,0.7024712,0.0,0.0,-0.001,0,0
18412000,0.0,0.0,1.5577898,0.0,0.7116903,0.0,0.0,0.70249337,0.0,0.0,-0.001,0,0
18460000,0.0,0.0,1.5577078,0.0,0.7117191,0.0,0.0,0.70246416,0.0,0.0,-0.001,0,0
18508000,0.0,0.0,1.5576123,0.0,0.71175265,0.0,0.0,0.7024302,0.0,0.0,-0.001,0,0
18556000,0.0,0.0,1.5576347,0.0,0.7117447,0.0,0.0,0.7024382,0.0,0.0,-0.001,0,0
18612000,0.0,0.0,1.5575402,0.0,0.711778,0.0,0.0,0.70240456,0.0,0.0,-0.001,0,0
18652000,0.0,0.0,1.557631,0.0,0.7117461,0.0,0.0,0.70243686,0.0,0.0,-0.001,0,0
18708000,0.0,0.0,1.557638,0.0,0.7117436,0.0,0.0,0.70243937,0.0,0.0,-0.001,0,0
18756000,0.0,0.0,1.5576067,0.0,0.7117546,0.0,0.0,0.7024282,0.0,0.0,-0.001,0,0
18812000,0.0,0.0,1.557648,0.0,0.71174014,0.0,0.0,0.7024428,0.0,0.0,-0.001,0,0
18860000,0.0,0.0,1.5577165,0.0,0.71171606,0.0,0.0,0.70246726,0.0,0.0,-0.001,0,0
18908000,0.0,0.0,1.5577319,0.0,0.7117107,0.0,0.0,0.70247275,0.0,0.0,-0.001,0,0
18956000,0.0,0.0,1.5577631,0.0,0.7116997,0.0,0.0,0.70248383,0.0,0.0,-0.001,0,0
19012000,0.0,0.0,1.5575917,0.0,0.7117599,0.0,0.0,0.7024229,0.0,0.0,-0.001,0,0
19060000,0.0,0.0,1.5575677,0.0,0.71176827,0.0,0.0,0.7024144,0.0,0.0,-0.001,0,0
19108000,0.0,0.0,1.5573775,0.0,0.7118351,0.0,0.0,0.7023466,0.0,0.0,-0.001,0,0
19156000,0.0,0.0,1.5573155,0.0,0.7118569,0.0,0.0,0.70232457,0.0,0.0,-0.001,0,0
19212000,0.0,0.0,1.5572596,0.0,0.7118765,0.0,0.0,0.70230466,0.0,0.0,-0.001,0,0
19252000,0.0,0.0,1.5572699,0.0,0.7118729,0.0,0.0,0.7023084,0.0,0.0,-0.001,0,0
19308000,0.0,0.0,1.5572282,0.0,0.71188754,0.0,0.0,0.7022935,0.0,0.0,-0.001,0,0
19356000,0.0,0.0,1.5570769,0.0,0.71194065,0.0,0.0,0.70223963,0.0,0.0,-0.001,0,0
19412000,0.0,0.0,1.5569413,0.0,0.7119883,0.0,0.0,0.70219135,0.0,0.0,-0.001,0,0
19460000,0.0,0.0,1.556865,0.0,0.7120151,0.0,0.0,0.7021642,0.0,0.0,-0.001,0,0
19508000,0.0,0.0,1.5567235,0.0,0.71206474,0.0,0.0,0.70211387,0.0,0.0,-0.001,0,0
19556000,0.0,0.0,1.5567381,0.0,0.7120596,0.0,0.0,0.702119,0.0,0.0,-0.001,0,0
19612000,0.0,0.0,1.556864,0.0,0.7120154,0.0,0.0,0.7021639,0.0,0.0,-0.001,0,0
19660000,0.0,0.0,1.5569078,0.0,0.7120001,0.0,0.0,0.70217943,0.0,0.0,-0.001,0,0
19708000,0.0,0.0,1.5569388,0.0,0.71198916,0.0,0.0,0.70219046,0.0,0.0,-0.001,0,0
19756000,0.0,0.0,1.5568755,0.0,0.7120114,0.0,0.0,0.702168,0.0,0.0,-0.001,0,0
19812000,0.0,0.0,1.5570111,0.0,0.7119638,0.0,0.0,0.7022162,0.0,0.0,-0.001,0,0
19860000,0.0,0.0,1.5569465,0.0,0.7119864,0.0,0.0,0.7021932,0.0,0.0,-0.001,0,0
19908000,0.0,0.0,1.5569824,0.0,0.71197385,0.0,0.0,0.7022061,0.0,0.0,-0.001,0,0
19956000,0.0,0.0,1.5570453,0.0,0.71195173,0.0,0.0,0.7022284,0.0,0.0,-0.001,0,0
20012000,0.0,0.0,1.557036,0.0,0.711955,0.0,0.0,0.7022251,0.0,0.0,-0.001,0,0
20060000,0.0,0.0,1.5570942,0.0,0.71193457,0.0,0.0,0.70224583,0.0,0.0,-0.001,0,0
20108000,0.0,0.0,1.5572153,0.0,0.71189207,0.0,0.0,0.70228887,0.0,0.0,-0.001,0,0
20156000,0.0,0.0,1.5572047,0.0,0.71189576,0.0,0.0,0.70228523,0.0,0.0,-0.001,0,0
20212000,0.0,0.0,1.557195,0.0,0.7118992,0.0,0.0,0.70228165,0.0,0.0,-0.001,0,0
20260000,0.0,0.0,1.5571883,0.0,0.71190155,0.0,0.0,0.70227927,0.0,0.0,-0.001,0,0
20308000,0.0,0.0,1.5572805,0.0,0.7118691,0.0,0.0,0.7023122,0.0,0.0,-0.001,0,0
20356000,0.0,0.0,1.5572407,0.0,0.7118831,0.0,0.0,0.702298,0.0,0.0,-0.001,0,0
20412000,0.0,0.0,1.5571985,0.0,0.71189797,0.0,0.0,0.7022829,0.0,0.0,-0.001,0,0
20460000,0.0,0.0,1.5571901,0.0,0.7119009,0.0,0.0,0.7022799,0.0,0.0,-0.001,0,0
20508000,0.0,0.0,1.557167,0.0,0.711909,0.0,0.0,0.70227176,0.0,0.0,-0.001,0,0
20556000,0.0,0.0,1.5571231,0.0,0.71192443,0.0,0.0,0.7022561,0.0,0.0,-0.001,0,0
20612000,0.0,0.0,1.5570434,0.0,0.7119524,0.0,0.0,0.70222783,0.0,0.0,-0.001,0,0
20660000,0.0,0.0,1.5570133,0.0,0.711963,0.0,0.0,0.70221704,0.0,0.0,-0.001,0,0
20708000,0.0,0.0,1.5570682,0.0,0.7119437,0.0,0.0,0.7022366,0.0,0.0,-0.001,0,0
20756000,0.0,0.0,1.5570823,0.0,0.71193874,0.0,0.0,0.70224166,0.0,0.0,-0.001,0,0
20812000,0.0,0.0,1.5570203,0.0,0.71196055,0.0,0.0,0.7022195,0.0,0.0,-0.001,0,0
20860000,0.0,0.0,1.5570368,0.0,0.7119548,0.0,0.0,0.7022253,0.0,0.0,-0.001,0,0
20908000,0.0,0.0,1.5569508,0.0,0.71198493,0.0,0.0,0.70219475,0.0,0.0,-0.001,0,0
20956000,0.0,0.0,1.5569258,0.0,0.7119937,0.0,0.0,0.70218587,0.0,0.0,-0.001,0,0
21012000,0.0,0.0,1.5568981,0.0,0.7120034,0.0,0.0,0.702176,0.0,0.0,-0.001,0,0
21060000,0.0,0.0,1.5567598,0.0,0.712052,0.0,0.0,0.70212686,0.0,0.0,-0.001,0,0
21108000,0.0,0.0,1.5569043,0.0,0.71200126,0.0,0.0,0.7021782,0.0,0.0,-0.001,0,0
21156000,0.0,0.0,1.5569226,0.0,0.7119948,0.0,0.0,0.70218474,0.0,0.0,-0.001,0,0
21212000,0.0,0.0,1.556997,0.0,0.7119687,0.0,0.0,0.70221114,0.0,0.0,-0.001,0,0
21260000,0.0,0.0,1.5571393,0.0,0.7119188,0.0,0.0,0.70226187,0.0,0.0,-0.001,0,0
21308000,0.0,0.0,1.5570583,0.0,0.7119472,0.0,0.0,0.702233,0.0,0.0,-0.001,0,0
21356000,0.0,0.0,1.5569769,0.0,0.71197575,0.0,0.0,0.70220405,0.0,0.0,-0.001,0,0
21412000,0.0,0.0,1.5568796,0.0,0.7120099,0.0,0.0,0.7021695,0.0,0.0,-0.001,0,0
21460000,0.0,0.0,1.5568341,0.0,0.7120259,0.0,0.0,0.70215327,0.0,0.0,-0.001,0,0
21508000,0.0,0.0,1.5567571,0.0,0.71205294,0.0,0.0,0.7021258,0.0,0.0,-0.001,0,0
21556000,0.0,0.0,1.5567843,0.0,0.7120434,0.0,0.0,0.70213544,0.0,0.0,-0.001,0,0
21612000,0.0,0.0,1.556753,0.0,0.7120544,0.0,0.0,0.70212436,0.0,0.0,-0.001,0,0
21660000,0.0,0.0,1.5567173,0.0,0.71206695,0.0,0.0,0.70211166,0.0,0.0,-0.001,0,0
21708000,0.0,0.0,1.5568063,0.0,0.71203566,0.0,0.0,0.7021434,0.0,0.0,-0.001,0,0
21756000,0.0,0.0,1.5567967,0.0,0.71203905,0.0,0.0,0.7021399,0.0,0.0,-0.001,0,0
21812000,0.0,0.0,1.5567086,0.0,0.7120699,0.0,0.0,0.7021086,0.0,0.0,-0.001,0,0
21860000,0.0,0.0,1.5567635,0.0,0.7120507,0.0,0.0,0.70212805,0.0,0.0,-0.001,0,0
21908000,0.0,0.0,1.5566564,0.0,0.7120883,0.0,0.0,0.7020899,0.0,0.0,-0.001,0,0
21956000,0.0,0.0,1.5566497,0.0,0.7120906,0.0,0.0,0.70208764,0.0,0.0,-0.001,0,0
22012000,0.0,0.0,1.5566635,0.0,0.7120858,0.0,0.0,0.70209247,0.0,0.0,-0.001,0,0
22060000,0.0,0.0,1.5567421,0.0,0.71205825,0.0,0.0,0.70212036,0.0,0.0,-0.001,0,0
22108000,0.0,0.0,1.5567921,0.0,0.71204066,0.0,0.0,0.70213825,0.0,0.0,-0.001,0,0
22156000,0.0,0.0,1.556685,0.0,0.7120782,0.0,0.0,0.70210016,0.0,0.0,-0.001,0,0
22212000,0.0,0.0,1.5567042,0.0,0.71207154,0.0,0.0,0.7021069,0.0,0.0,-0.001,0,0
22260000,0.0,0.0,1.5566547,0.0,0.7120889,0.0,0.0,0.70208937,0.0,0.0,-0.001,0,0
22308000,0.0,0.0,1.5567149,0.0,0.7120678,0.0,0.0,0.7021107,0.0,0.0,-0.001,0,0
22356000,0.0,0.0,1.5566458,0.0,0.71209204,0.0,0.0,0.7020862,0.0,0.0,-0.001,0,0
22412000,0.0,0.0,1.556478,0.0,0.7121509,0.0,0.0,0.70202655,0.0,0.0,-0.001,0,0
22460000,0.0,0.0,1.5564994,0.0,0.7121434,0.0,0.0,0.70203406,0.0,0.0,-0.001,0,0
22508000,0.0,0.0,1.5565425,0.0,0.7121283,0.0,0.0,0.7020494,0.0,0.0,-0.001,0,0
22556000,0.0,0.0,1.5565758,0.0,0.71211654,0.0,0.0,0.7020613,0.0,0.0,-0.001,0,0
22612000,0.0,0.0,1.5565948,0.0,0.71210986,0.0,0.0,0.7020681,0.0,0.0,-0.001,0,0
22660000,0.0,0.0,1.5564743,0.0,0.71215224,0.0,0.0,0.7020251,0.0,0.0,-0.001,0,0
22708000,0.0,0.0,1.5565267,0.0,0.7121338,0.0,0.0,0.7020438,0.0,0.0,-0.001,0,0
22756000,0.0,0.0,1.556518,0.0,0.7121369,0.0,0.0,0.7020406,0.0,0.0,-0.001,0,0
22812000,0.0,0.0,1.5565832,0.0,0.712114,0.0,0.0,0.7020639,0.0,0.0,-0.001,0,0
22860000,0.0,0.0,1.5566131,0.0,0.7121035,0.0,0.0,0.7020745,0.0,0.0,-0.001,0,0
22908000,0.0,0.0,1.5565628,0.0,0.7121212,0.0,0.0,0.7020566,0.0,0.0,-0.001,0,0
22956000,0.0,0.0,1.5565102,0.0,0.7121396,0.0,0.0,0.7020379,0.0,0.0,-0.001,0,0
23012000,0.0,0.0,1.556376,0.0,0.7121867,0.0,0.0,0.7019901,0.0,0.0,-0.001,0,0
23060000,0.0,0.0,1.5562948,0.0,0.71221524,0.0,0.0,0.70196116,0.0,0.0,-0.001,0,0
23108000,0.0,0.0,1.5562992,0.0,0.71221364,0.0,0.0,0.70196277,0.0,0.0,-0.001,0,0
23156000,0.0,0.0,1.556395,0.0,0.71218,0.0,0.0,0.701997,0.0,0.0,-0.001,0,0
23212000,0.0,0.0,1.5563788,0.0,0.7121857,0.0,0.0,0.7019912,0.0,0.0,-0.001,0,0
23260000,0.0,0.0,1.5564244,0.0,0.7121697,0.0,0.0,0.7020074,0.0,0.0,-0.001,0,0
23308000,0.0,0.0,1.5564169,0.0,0.7121724,0.0,0.0,0.7020047,0.0,0.0,-0.001,0,0
23356000,0.0,0.0,1.5564157,0.0,0.7121728,0.0,0.0,0.70200425,0.0,0.0,-0.001,0,0
23412000,0.0,0.0,1.5564377,0.0,0.712165,0.0,0.0,0.7020121,0.0,0.0,-0.001,0,0
23460000,0.0,0.0,1.5565119,0.0,0.712139,0.0,0.0,0.7020385,0.0,0.0,-0.001,0,0
23508000,0.0,0.0,1.5564772,0.0,0.7121512,0.0,0.0,0.70202607,0.0,0.0,-0.001,0,0
23556000,0.0,0.0,1.5564373,0.0,0.7121652,0.0,0.0,0.702012,0.0,0.0,-0.001,0,0
23604000,0.0,0.0,1.5563904,0.0,0.7121817,0.0,0.0,0.7019952,0.0,0.0,-0.001,0,0
23660000,0.0,0.0,1.5562364,0.0,0.71223575,0.0,0.0,0.70194036,0.0,0.0,-0.001,0,0
23708000,0.0,0.0,1.5562509,0.0,0.7122306,0.0,0.0,0.7019456,0.0,0.0,-0.001,0,0
23756000,0.0,0.0,1.5562782,0.0,0.712221,0.0,0.0,0.7019553,0.0,0.0,-0.001,0,0
23812000,0.0,0.0,1.5562698,0.0,0.712224,0.0,0.0,0.7019522,0.0,0.0,-0.001,0,0
23860000,0.0,0.0,1.556335,0.0,0.7122011,0.0,0.0,0.7019755,0.0,0.0,-0.001,0,0
23908000,0.0,0.0,1.5562007,0.0,0.7122482,0.0,0.0,0.7019277,0.0,0.0,-0.001,0,0
23956000,0.0,0.0,1.556149,0.0,0.7122664,0.0,0.0,0.7019093,0.0,0.0,-0.001,0,0
24012000,0.0,0.0,1.5561666,0.0,0.7122602,0.0,0.0,0.70191556,0.0,0.0,-0.001,0,0
24060000,0.0,0.0,1.5561526,0.0,0.71226513,0.0,0.0,0.7019106,0.0,0.0,-0.001,0,0
24108000,0.0,0.0,1.5561634,0.0,0.7122613,0.0,0.0,0.70191437,0.0,0.0,-0.001,0,0
24156000,0.0,0.0,1.5561236,0.0,0.71227527,0.0,0.0,0.70190024,0.0,0.0,-0.001,0,0
24212000,0.0,0.0,1.5561659,0.0,0.7122604,0.0,0.0,0.7019154,0.0,0.0,-0.001,0,0
24260000,0.0,0.0,1.556038,0.0,0.7123053,0.0,0.0,0.7018698,0.0,0.0,-0.001,0,0
24308000,0.0,0.0,1.5560299,0.0,0.71230817,0.0,0.0,0.70186687,0.0,0.0,-0.001,0,0
24356000,0.0,0.0,1.5560889,0.0,0.7122875,0.0,0.0,0.7018879,0.0,0.0,-0.001,0,0
24412000,0.0,0.0,1.556201,0.0,0.71224815,0.0,0.0,0.7019278,0.0,0.0,-0.001,0,0
24460000,0.0,0.0,1.5561577,0.0,0.71226335,0.0,0.0,0.7019124,0.0,0.0,-0.001,0,0
24508000,0.0,0.0,1.5561303,0.0,0.71227294,0.0,0.0,0.7019026,0.0,0.0,-0.001,0,0
24556000,0.0,0.0,1.5560719,0.0,0.71229345,0.0,0.0,0.7018819,0.0,0.0,-0.001,0,0
24612000,0.0,0.0,1.5560588,0.0,0.71229804,0.0,0.0,0.7018771,0.0,0.0,-0.001,0,0
24660000,0.0,0.0,1.5560778,0.0,0.71229136,0.0,0.0,0.701884,0.0,0.0,-0.001,0,0
24708000,0.0,0.0,1.5561064,0.0,0.7122813,0.0,0.0,0.7018941,0.0,0.0,-0.001,0,0
24756000,0.0,0.0,1.5560502,0.0,0.7123011,0.0,0.0,0.7018741,0.0,0.0,-0.001,0,0
24812000,0.0,0.0,1.5560534,0.0,0.71229994,0.0,0.0,0.7018752,0.0,0.0,-0.001,0,0
24860000,0.0,0.0,1.5560366,0.0,0.71230584,0.0,0.0,0.70186925,0.0,0.0,-0.001,0,0
24908000,0.0,0.0,1.5560169,0.0,0.71231276,0.0,0.0,0.7018622,0.0,0.0,-0.001,0,0
24956000,0.0,0.0,1.556043,0.0,0.7123036,0.0,0.0,0.70187163,0.0,0.0,-0.001,0,0
25004000,0.0,0.0,1.5560479,0.0,0.71230185,0.0,0.0,0.7018733,0.0,0.0,-0.001,0,0
25060000,0.0,0.0,1.5560485,0.0,0.7123017,0.0,0.0,0.7018735,0.0,0.0,-0.001,0,0
25108000,0.0,0.0,1.5560263,0.0,0.7123094,0.0,0.0,0.70186555,0.0,0.0,-0.001,0,0
25156000,0.0,0.0,1.5560688,0.0,0.7122945,0.0,0.0,0.7018807,0.0,0.0,-0.001,0,0
25212000,0.0,0.0,1.5560037,0.0,0.71231735,0.0,0.0,0.7018576,0.0,0.0,-0.001,0,0
25252000,0.0,0.0,1.5560163,0.0,0.71231294,0.0,0.0,0.70186204,0.0,0.0,-0.001,0,0
25308000,0.0,0.0,1.5559956,0.0,0.7123202,0.0,0.0,0.7018547,0.0,0.0,-0.001,0,0
25356000,0.0,0.0,1.5561295,0.0,0.71227324,0.0,0.0,0.70190233,0.0,0.0,-0.001,0,0
25412000,0.0,0.0,1.5561372,0.0,0.7122705,0.0,0.0,0.70190513,0.0,0.0,-0.001,0,0
25460000,0.0,0.0,1.5561904,0.0,0.7122519,0.0,0.0,0.701924,0.0,0.0,-0.001,0,0
25508000,0.0,0.0,1.5563154,0.0,0.712208,0.0,0.0,0.7019685,0.0,0.0,-0.001,0,0
25556000,0.0,0.0,1.5563782,0.0,0.7121859,0.0,0.0,0.70199096,0.0,0.0,-0.001,0,0
25604000,0.0,0.0,1.5563953,0.0,0.7121799,0.0,0.0,0.7019971,0.0,0.0,-0.001,0,0
25660000,0.0,0.0,1.5563442,0.0,0.7121979,0.0,0.0,0.70197874,0.0,0.0,-0.001,0,0
25708000,0.0,0.0,1.5562733,0.0,0.71222275,0.0,0.0,0.70195353,0.0,0.0,-0.001,0,0
25756000,0.0,0.0,1.5562673,0.0,0.71222484,0.0,0.0,0.70195144,0.0,0.0,-0.001,0,0
25812000,0.0,0.0,1.5561887,0.0,0.7122525,0.0,0.0,0.7019233,0.0,0.0,-0.001,0,0
25860000,0.0,0.0,1.55626,0.0,0.71222746,0.0,0.0,0.7019488,0.0,0.0,-0.001,0,0
25908000,0.0,0.0,1.5562378,0.0,0.7122352,0.0,0.0,0.7019409,0.0,0.0,-0.001,0,0
25956000,0.0,0.0,1.5562508,0.0,0.7122306,0.0,0.0,0.7019456,0.0,0.0,-0.001,0,0
26004000,0.0,0.0,1.5561767,0.0,0.71225667,0.0,0.0,0.7019191,0.0,0.0,-0.001,0,0
26060000,0.0,0.0,1.5559833,0.0,0.7123245,0.0,0.0,0.70185035,0.0,0.0,-0.001,0,0
26108000,0.0,0.0,1.5560118,0.0,0.71231455,0.0,0.0,0.7018604,0.0,0.0,-0.001,0,0
26156000,0.0,0.0,1.5559671,0.0,0.7123302,0.0,0.0,0.7018445,0.0,0.0,-0.001,0,0
26212000,0.0,0.0,1.5560431,0.0,0.7123035,0.0,0.0,0.70187163,0.0,0.0,-0.001,0,0
26260000,0.0,0.0,1.5560627,0.0,0.71229666,0.0,0.0,0.70187855,0.0,0.0,-0.001,0,0
26308000,0.0,0.0,1.5561119,0.0,0.7122794,0.0,0.0,0.7018962,0.0,0.0,-0.001,0,0
26356000,0.0,0.0,1.5561593,0.0,0.71226275,0.0,0.0,0.701913,0.0,0.0,-0.001,0,0
26412000,0.0,0.0,1.556186,0.0,0.7122534,0.0,0.0,0.7019225,0.0,0.0,-0.001,0,0
26460000,0.0,0.0,1.5561712,0.0,0.7122586,0.0,0.0,0.70191723,0.0,0.0,-0.001,0,0
26508000,0.0,0.0,1.5561157,0.0,0.71227807,0.0,0.0,0.7018974,0.0,0.0,-0.001,0,0
26556000,0.0,0.0,1.5561333,0.0,0.71227187,0.0,0.0,0.70190376,0.0,0.0,-0.001,0,0
26612000,0.0,0.0,1.5561678,0.0,0.71225977,0.0,0.0,0.701916,0.0,0.0,-0.001,0,0
26660000,0.0,0.0,1.5560818,0.0,0.71229,0.0,0.0,0.7018853,0.0,0.0,-0.001,0,0
26708000,0.0,0.0,1.5560306,0.0,0.71230793,0.0,0.0,0.7018671,0.0,0.0,-0.001,0,0
26756000,0.0,0.0,1.5559787,0.0,0.71232617,0.0,0.0,0.7018486,0.0,0.0,-0.001,0,0
26812000,0.0,0.0,1.5558708,0.0,0.712364,0.0,0.0,0.70181024,0.0,0.0,-0.001,0,0
26852000,0.0,0.0,1.5559465,0.0,0.71233743,0.0,0.0,0.70183724,0.0,0.0,-0.001,0,0
26908000,0.0,0.0,1.5559279,0.0,0.712344,0.0,0.0,0.7018305,0.0,0.0,-0.001,0,0
26956000,0.0,0.0,1.5560669,0.0,0.7122952,0.0,0.0,0.70188,0.0,0.0,-0.001,0,0
27012000,0.0,0.0,1.5561306,0.0,0.7122728,0.0,0.0,0.70190275,0.0,0.0,-0.001,0,0
27060000,0.0,0.0,1.556192,0.0,0.7122513,0.0,0.0,0.70192456,0.0,0.0,-0.001,0,0
27108000,0.0,0.0,1.5562388,0.0,0.7122349,0.0,0.0,0.70194125,0.0,0.0,-0.001,0,0
27156000,0.0,0.0,1.556204,0.0,0.71224713,0.0,0.0,0.7019288,0.0,0.0,-0.001,0,0
27212000,0.0,0.0,1.5561316,0.0,0.71227247,0.0,0.0,0.7019031,0.0,0.0,-0.001,0,0
27260000,0.0,0.0,1.5562012,0.0,0.712248,0.0,0.0,0.7019279,0.0,0.0,-0.001,0,0
27308000,0.0,0.0,1.5562198,0.0,0.71224153,0.0,0.0,0.70193446,0.0,0.0,-0.001,0,0
27356000,0.0,0.0,1.5561467,0.0,0.71226716,0.0,0.0,0.70190847,0.0,0.0,-0.001,0,0
27412000,0.0,0.0,1.5561143,0.0,0.71227854,0.0,0.0,0.7018969,0.0,0.0,-0.001,0,0
27452000,0.0,0.0,1.5560366,0.0,0.71230584,0.0,0.0,0.70186925,0.0,0.0,-0.001,0,0
27508000,0.0,0.0,1.5560458,0.0,0.7123026,0.0,0.0,0.70187247,0.0,0.0,-0.001,0,0
27556000,0.0,0.0,1.5560391,0.0,0.71230495,0.0,0.0,0.7018702,0.0,0.0,-0.001,0,0
27612000,0.0,0.0,1.5560647,0.0,0.71229595,0.0,0.0,0.70187926,0.0,0.0,-0.001,0,0
27660000,0.0,0.0,1.5560523,0.0,0.7123003,0.0,0.0,0.7018749,0.0,0.0,-0.001,0,0
27708000,0.0,0.0,1.5560372,0.0,0.7123056,0.0,0.0,0.7018695,0.0,0.0,-0.001,0,0
27756000,0.0,0.0,1.5560337,0.0,0.71230686,0.0,0.0,0.7018682,0.0,0.0,-0.001,0,0
27812000,0.0,0.0,1.5560602,0.0,0.71229756,0.0,0.0,0.70187765,0.0,0.0,-0.001,0,0
27860000,0.0,0.0,1.5562105,0.0,0.7122448,0.0,0.0,0.7019312,0.0,0.0,-0.001,0,0
27908000,0.0,0.0,1.5562761,0.0,0.71222174,0.0,0.0,0.70195466,0.0,0.0,-0.001,0,0
27956000,0.0,0.0,1.5563604,0.0,0.71219224,0.0,0.0,0.7019845,0.0,0.0,-0.001,0,0
28012000,0.0,0.0,1.556326,0.0,0.7122043,0.0,0.0,0.7019723,0.0,0.0,-0.001,0,0
28060000,0.0,0.0,1.5563371,0.0,0.71220034,0.0,0.0,0.70197636,0.0,0.0,-0.001,0,0
28108000,0.0,0.0,1.5563164,0.0,0.7122076,0.0,0.0,0.70196897,0.0,0.0,-0.001,0,0
28156000,0.0,0.0,1.5562941,0.0,0.7122155,0.0,0.0,0.7019609,0.0,0.0,-0.001,0,0
28212000,0.0,0.0,1.556274,0.0,0.7122225,0.0,0.0,0.70195377,0.0,0.0,-0.001,0,0
28260000,0.0,0.0,1.5563895,0.0,0.712182,0.0,0.0,0.7019949,0.0,0.0,-0.001,0,0
28308000,0.0,0.0,1.5563958,0.0,0.7121798,0.0,0.0,0.7019972,0.0,0.0,-0.001,0,0
28356000,0.0,0.0,1.5563887,0.0,0.7121823,0.0,0.0,0.7019946,0.0,0.0,-0.001,0,0
28412000,0.0,0.0,1.556275,0.0,0.71222216,0.0,0.0,0.7019541,0.0,0.0,-0.001,0,0
28452000,0.0,0.0,1.556115,0.0,0.7122783,0.0,0.0,0.70189714,0.0,0.0,-0.001,0,0
28508000,0.0,0.0,1.5561261,0.0,0.71227443,0.0,0.0,0.7019011,0.0,0.0,-0.001,0,0
28556000,0.0,0.0,1.5560509,0.0,0.7123008,0.0,0.0,0.7018744,0.0,0.0,-0.001,0,0
28612000,0.0,0.0,1.5560728,0.0,0.7122931,0.0,0.0,0.7018822,0.0,0.0,-0.001,0,0
28660000,0.0,0.0,1.5560488,0.0,0.71230155,0.0,0.0,0.7018736,0.0,0.0,-0.001,0,0
28708000,0.0,0.0,1.5560827,0.0,0.71228963,0.0,0.0,0.70188564,0.0,0.0,-0.001,0,0
28756000,0.0,0.0,1.5561087,0.0,0.7122805,0.0,0.0,0.701895,0.0,0.0,-0.001,0,0
28812000,0.0,0.0,1.5561237,0.0,0.71227527,0.0,0.0,0.70190024,0.0,0.0,-0.001,0,0
28852000,0.0,0.0,1.556154,0.0,0.7122646,0.0,0.0,0.7019111,0.0,0.0,-0.001,0,0
28908000,0.0,0.0,1.5560722,0.0,0.7122933,0.0,0.0,0.701882,0.0,0.0,-0.001,0,0
28956000,0.0,0.0,1.5559661,0.0,0.7123306,0.0,0.0,0.7018441,0.0,0.0,-0.001,0,0
29012000,0.0,0.0,1.5558296,0.0,0.71237844,0.0,0.0,0.7017955,0.0,0.0,-0.001,0,0
29060000,0.0,0.0,1.5558081,0.0,0.712386,0.0,0.0,0.7017879,0.0,0.0,-0.001,0,0
29108000,0.0,0.0,1.5556866,0.0,0.7124286,0.0,0.0,0.70174456,0.0,0.0,-0.001,0,0
29156000,0.0,0.0,1.5557499,0.0,0.71240646,0.0,0.0,0.7017671,0.0,0.0,-0.001,0,0
29212000,0.0,0.0,1.5558466,0.0,0.71237254,0.0,0.0,0.70180154,0.0,0.0,-0.001,0,0
29260000,0.0,0.0,1.5557528,0.0,0.71240544,0.0,0.0,0.70176816,0.0,0.0,-0.001,0,0
29308000,0.0,0.0,1.5557584,0.0,0.7124035,0.0,0.0,0.7017701,0.0,0.0,-0.001,0,0
29356000,0.0,0.0,1.5556563,0.0,0.7124393,0.0,0.0,0.7017338,0.0,0.0,-0.001,0,0
29412000,0.0,0.0,1.5555934,0.0,0.71246135,0.0,0.0,0.7017115,0.0,0.0,-0.001,0,0
29460000,0.0,0.0,1.5555109,0.0,0.71249026,0.0,0.0,0.70168203,0.0,0.0,-0.001,0,0
29508000,0.0,0.0,1.5553724,0.0,0.7125389,0.0,0.0,0.7016327,0.0,0.0,-0.001,0,0
29556000,0.0,0.0,1.5553482,0.0,0.7125474,0.0,0.0,0.70162404,0.0,0.0,-0.001,0,0
29612000,0.0,0.0,1.5553848,0.0,0.71253455,0.0,0.0,0.701637,0.0,0.0,-0.001,0,0
29660000,0.0,0.0,1.5554221,0.0,0.7125215,0.0,0.0,0.7016504,0.0,0.0,-0.001,0,0
29708000,0.0,0.0,1.5554004,0.0,0.71252906,0.0,0.0,0.70164263,0.0,0.0,-0.001,0,0
29756000,0.0,0.0,1.5554559,0.0,0.7125096,0.0,0.0,0.7016624,0.0,0.0,-0.001,0,0
29812000,0.0,0.0,1.5554253,0.0,0.7125203,0.0,0.0,0.70165145,0.0,0.0,-0.001,0,0
29860000,0.0,0.0,1.5554014,0.0,0.71252865,0.0,0.0,0.70164305,0.0,0.0,-0.001,0,0
29908000,0.0,0.0,1.5553886,0.0,0.7125332,0.0,0.0,0.70163846,0.0,0.0,-0.001,0,0
29956000,0.0,0.0,1.5553703,0.0,0.7125396,0.0,0.0,0.70163184,0.0,0.0,-0.001,0,0
30012000,0.0,0.0,1.5554438,0.0,0.71251386,0.0,0.0,0.70165807,0.0,0.0,-0.001,0,0
30052000,0.0,0.0,1.5554444,0.0,0.7125136,0.0,0.0,0.7016583,0.0,0.0,-0.001,0,0
30108000,0.0,0.0,1.5555503,0.0,0.7124765,0.0,0.0,0.70169604,0.0,0.0,-0.001,0,0
30156000,0.0,0.0,1.5555466,0.0,0.71247774,0.0,0.0,0.7016948,0.0,0.0,-0.001,0,0
30204000,0.0,0.0,1.5555911,0.0,0.7124622,0.0,0.0,0.7017105,0.0,0.0,-0.001,0,0
30252000,0.0,0.0,1.5554684,0.0,0.71250516,0.0,0.0,0.70166695,0.0,0.0,-0.001,0,0
30308000,0.0,0.0,1.555412,0.0,0.712525,0.0,0.0,0.70164675,0.0,0.0,-0.001,0,0
30356000,0.0,0.0,1.5554307,0.0,0.71251845,0.0,0.0,0.7016534,0.0,0.0,-0.001,0,0
30412000,0.0,0.0,1.5555236,0.0,0.71248585,0.0,0.0,0.70168656,0.0,0.0,-0.001,0,0
30460000,0.0,0.0,1.5554987,0.0,0.71249455,0.0,0.0,0.7016776,0.0,0.0,-0.001,0,0
30508000,0.0,0.0,1.5554545,0.0,0.7125101,0.0,0.0,0.7016619,0.0,0.0,-0.001,0,0
30556000,0.0,0.0,1.5553958,0.0,0.7125307,0.0,0.0,0.701641,0.0,0.0,-0.001,0,0
30612000,0.0,0.0,1.5553786,0.0,0.7125367,0.0,0.0,0.7016349,0.0,0.0,-0.001,0,0
30660000,0.0,0.0,1.5555757,0.0,0.7124675,0.0,0.0,0.7017051,0.0,0.0,-0.001,0,0
30708000,0.0,0.0,1.5555527,0.0,0.71247566,0.0,0.0,0.7016968,0.0,0.0,-0.001,0,0
30756000,0.0,0.0,1.5555811,0.0,0.7124657,0.0,0.0,0.70170695,0.0,0.0,-0.001,0,0
30812000,0.0,0.0,1.5554789,0.0,0.71250147,0.0,0.0,0.70167065,0.0,0.0,-0.001,0,0
30860000,0.0,0.0,1.5552965,0.0,0.7125655,0.0,0.0,0.7016056,0.0,0.0,-0.001,0,0
30908000,0.0,0.0,1.555343,0.0,0.71254915,0.0,0.0,0.7016222,0.0,0.0,-0.001,0,0
30956000,0.0,0.0,1.5553979,0.0,0.7125299,0.0,0.0,0.70164174,0.0,0.0,-0.001,0,0
31012000,0.0,0.0,1.5554417,0.0,0.7125145,0.0,0.0,0.7016574,0.0,0.0,-0.001,0,0
31052000,0.0,0.0,1.5554217,0.0,0.71252155,0.0,0.0,0.7016503,0.0,0.0,-0.001,0,0
31108000,0.0,0.0,1.5554761,0.0,0.7125025,0.0,0.0,0.7016697,0.0,0.0,-0.001,0,0
31156000,0.0,0.0,1.5554539,0.0,0.7125103,0.0,0.0,0.7016617,0.0,0.0,-0.001,0,0
31212000,0.0,0.0,1.5555199,0.0,0.7124871,0.0,0.0,0.70168525,0.0,0.0,-0.001,0,0
31260000,0.0,0.0,1.5554376,0.0,0.712516,0.0,0.0,0.7016559,0.0,0.0,-0.001,0,0
31308000,0.0,0.0,1.5553464,0.0,0.712548,0.0,0.0,0.7016234,0.0,0.0,-0.001,0,0
31356000,0.0,0.0,1.5553473,0.0,0.71254766,0.0,0.0,0.7016237,0.0,0.0,-0.001,0,0
31412000,0.0,0.0,1.5552453,0.0,0.7125835,0.0,0.0,0.70158744,0.0,0.0,-0.001,0,0
31460000,0.0,0.0,1.5551692,0.0,0.7126101,0.0,0.0,0.7015603,0.0,0.0,-0.001,0,0
31508000,0.0,0.0,1.5551695,0.0,0.71261007,0.0,0.0,0.7015603,0.0,0.0,-0.001,0,0
31556000,0.0,0.0,1.555147,0.0,0.71261793,0.0,0.0,0.70155233,0.0,0.0,-0.001,0,0
31604000,0.0,0.0,1.5551848,0.0,0.7126047,0.0,0.0,0.7015658,0.0,0.0,-0.001,0,0
31660000,0.0,0.0,1.5552157,0.0,0.71259385,0.0,0.0,0.70157677,0.0,0.0,-0.001,0,0
31708000,0.0,0.0,1.5551546,0.0,0.7126153,0.0,0.0,0.701555,0.0,0.0,-0.001,0,0
31756000,0.0,0.0,1.5551094,0.0,0.71263117,0.0,0.0,0.7015389,0.0,0.0,-0.001,0,0
31812000,0.0,0.0,1.5550404,0.0,0.71265537,0.0,0.0,0.7015143,0.0,0.0,-0.001,0,0
31852000,0.0,0.0,1.5550358,0.0,0.7126569,0.0,0.0,0.7015128,0.0,0.0,-0.001,0,0
31908000,0.0,0.0,1.5548661,0.0,0.71271646,0.0,0.0,0.7014523,0.0,0.0,-0.001,0,0
31956000,0.0,0.0,1.5549912,0.0,0.7126726,0.0,0.0,0.70149684,0.0,0.0,-0.001,0,0
32012000,0.0,0.0,1.5551763,0.0,0.71260774,0.0,0.0,0.70156276,0.0,0.0,-0.001,0,0
32060000,0.0,0.0,1.5552841,0.0,0.71256983,0.0,0.0,0.7016012,0.0,0.0,-0.001,0,0
32108000,0.0,0.0,1.5552878,0.0,0.7125686,0.0,0.0,0.7016025,0.0,0.0,-0.001,0,0
32156000,0.0,0.0,1.5553579,0.0,0.71254396,0.0,0.0,0.70162743,0.0,0.0,-0.001,0,0
32204000,0.0,0.0,1.5553048,0.0,0.7125626,0.0,0.0,0.7016085,0.0,0.0,-0.001,0,0
32252000,0.0,0.0,1.5554161,0.0,0.7125236,0.0,0.0,0.7016482,0.0,0.0,-0.001,0,0
32308000,0.0,0.0,1.5554272,0.0,0.71251965,0.0,0.0,0.70165217,0.0,0.0,-0.001,0,0
32356000,0.0,0.0,1.5552773,0.0,0.7125723,0.0,0.0,0.70159876,0.0,0.0,-0.001,0,0
32412000,0.0,0.0,1.5552708,0.0,0.7125745,0.0,0.0,0.70159644,0.0,0.0,-0.001,0,0
32452000,0.0,0.0,1.5551856,0.0,0.71260446,0.0,0.0,0.70156604,0.0,0.0,-0.001,0,0
32508000,0.0,0.0,1.5551056,0.0,0.7126325,0.0,0.0,0.70153755,0.0,0.0,-0.001,0,0
32556000,0.0,0.0,1.5549951,0.0,0.7126712,0.0,0.0,0.7014982,0.0,0.0,-0.001,0,0
32612000,0.0,0.0,1.5550216,0.0,0.7126619,0.0,0.0,0.7015077,0.0,0.0,-0.001,0,0
32660000,0.0,0.0,1.5550227,0.0,0.71266156,0.0,0.0,0.70150805,0.0,0.0,-0.001,0,0
32708000,0.0,0.0,1.5550126,0.0,0.7126651,0.0,0.0,0.7015045,0.0,0.0,-0.001,0,0
32756000,0.0,0.0,1.5551857,0.0,0.71260434,0.0,0.0,0.70156616,0.0,0.0,-0.001,0,0
32812000,0.0,0.0,1.5554003,0.0,0.71252906,0.0,0.0,0.70164263,0.0,0.0,-0.001,0,0
32860000,0.0,0.0,1.5554459,0.0,0.7125131,0.0,0.0,0.7016589,0.0,0.0,-0.001,0,0
32908000,0.0,0.0,1.5555072,0.0,0.71249163,0.0,0.0,0.7016806,0.0,0.0,-0.001,0,0
32956000,0.0,0.0,1.5554748,0.0,0.712503,0.0,0.0,0.70166904,0.0,0.0,-0.001,0,0
33012000,0.0,0.0,1.5554259,0.0,0.7125201,0.0,0.0,0.70165175,0.0,0.0,-0.001,0,0
33052000,0.0,0.0,1.5553087,0.0,0.7125612,0.0,0.0,0.70160997,0.0,0.0,-0.001,0,0
33108000,0.0,0.0,1.5553975,0.0,0.7125301,0.0,0.0,0.70164156,0.0,0.0,-0.001,0,0
33156000,0.0,0.0,1.5554746,0.0,0.712503,0.0,0.0,0.70166904,0.0,0.0,-0.001,0,0
33212000,0.0,0.0,1.5556049,0.0,0.7124573,0.0,0.0,0.70171547,0.0,0.0,-0.001,0,0
33260000,0.0,0.0,1.5555416,0.0,0.7124795,0.0,0.0,0.70169294,0.0,0.0,-0.001,0,0
33308000,0.0,0.0,1.5555477,0.0,0.7124774,0.0,0.0,0.70169514,0.0,0.0,-0.001,0,0
33356000,0.0,0.0,1.555601,0.0,0.71245867,0.0,0.0,0.7017141,0.0,0.0,-0.001,0,0
33412000,0.0,0.0,1.5554373,0.0,0.7125161,0.0,0.0,0.7016558,0.0,0.0,-0.001,0,0
33460000,0.0,0.0,1.5552782,0.0,0.7125719,0.0,0.0,0.7015991,0.0,0.0,-0.001,0,0
33508000,0.0,0.0,1.5552325,0.0,0.71258795,0.0,0.0,0.7015828,0.0,0.0,-0.001,0,0
33556000,0.0,0.0,1.555303,0.0,0.7125632,0.0,0.0,0.70160794,0.0,0.0,-0.001,0,0
33604000,0.0,0.0,1.555414,0.0,0.7125243,0.0,0.0,0.70164746,0.0,0.0,-0.001,0,0
33660000,0.0,0.0,1.5555788,0.0,0.7124664,0.0,0.0,0.7017063,0.0,0.0,-0.001,0,0
33708000,0.0,0.0,1.5556326,0.0,0.7124476,0.0,0.0,0.7017254,0.0,0.0,-0.001,0,0
33756000,0.0,0.0,1.5556053,0.0,0.7124572,0.0,0.0,0.7017157,0.0,0.0,-0.001,0,0
33812000,0.0,0.0,1.5556917,0.0,0.71242684,0.0,0.0,0.70174646,0.0,0.0,-0.001,0,0
33860000,0.0,0.0,1.5556875,0.0,0.71242833,0.0,0.0,0.70174485,0.0,0.0,-0.001,0,0
33908000,0.0,0.0,1.5556179,0.0,0.71245277,0.0,0.0,0.7017201,0.0,0.0,-0.001,0,0
33956000,0.0,0.0,1.5555071,0.0,0.71249163,0.0,0.0,0.7016806,0.0,0.0,-0.001,0,0
34012000,0.0,0.0,1.5555104,0.0,0.71249044,0.0,0.0,0.70168185,0.0,0.0,-0.001,0,0
34052000,0.0,0.0,1.5554498,0.0,0.71251166,0.0,0.0,0.70166034,0.0,0.0,-0.001,0,0
34108000,0.0,0.0,1.5554974,0.0,0.712495,0.0,0.0,0.70167714,0.0,0.0,-0.001,0,0
34156000,0.0,0.0,1.5554934,0.0,0.71249646,0.0,0.0,0.7016757,0.0,0.0,-0.001,0,0
34212000,0.0,0.0,1.5554279,0.0,0.7125194,0.0,0.0,0.7016524,0.0,0.0,-0.001,0,0
34260000,0.0,0.0,1.5554612,0.0,0.7125078,0.0,0.0,0.70166427,0.0,0.0,-0.001,0,0
34308000,0.0,0.0,1.5555253,0.0,0.71248525,0.0,0.0,0.7016871,0.0,0.0,-0.001,0,0
34356000,0.0,0.0,1.5555309,0.0,0.7124832,0.0,0.0,0.7016892,0.0,0.0,-0.001,0,0
34412000,0.0,0.0,1.5555494,0.0,0.7124768,0.0,0.0,0.7016957,0.0,0.0,-0.001,0,0
34460000,0.0,0.0,1.5556005,0.0,0.7124588,0.0,0.0,0.701714,0.0,0.0,-0.001,0,0
34508000,0.0,0.0,1.5554821,0.0,0.7125004,0.0,0.0,0.7016717,0.0,0.0,-0.001,0,0
34556000,0.0,0.0,1.5553739,0.0,0.71253836,0.0,0.0,0.70163316,0.0,0.0,-0.001,0,0
34612000,0.0,0.0,1.5553107,0.0,0.71256053,0.0,0.0,0.70161074,0.0,0.0,-0.001,0,0
34660000,0.0,0.0,1.5553614,0.0,0.7125427,0.0,0.0,0.70162874,0.0,0.0,-0.001,0,0
34708000,0.0,0.0,1.555298,0.0,0.71256495,0.0,0.0,0.70160615,0.0,0.0,-0.001,0,0
34756000,0.0,0.0,1.5553222,0.0,0.71255654,0.0,0.0,0.7016148,0.0,0.0,-0.001,0,0
34812000,0.0,0.0,1.5553755,0.0,0.71253777,0.0,0.0,0.7016338,0.0,0.0,-0.001,0,0
34860000,0.0,0.0,1.5553366,0.0,0.7125514,0.0,0.0,0.7016199,0.0,0.0,-0.001,0,0
34908000,0.0,0.0,1.555406,0.0,0.7125271,0.0,0.0,0.7016446,0.0,0.0,-0.001,0,0
34956000,0.0,0.0,1.5553705,0.0,0.71253955,0.0,0.0,0.7016319,0.0,0.0,-0.001,0,0
35012000,0.0,0.0,1.5553259,0.0,0.71255517,0.0,0.0,0.7016161,0.0,0.0,-0.001,0,0
35060000,0.0,0.0,1.5553274,0.0,0.7125547,0.0,0.0,0.7016166,0.0,0.0,-0.001,0,0
35108000,0.0,0.0,1.5553553,0.0,0.7125449,0.0,0.0,0.70162654,0.0,0.0,-0.001,0,0
35156000,0.0,0.0,1.5553888,0.0,0.7125331,0.0,0.0,0.7016385,0.0,0.0,-0.001,0,0
35212000,0.0,0.0,1.5554984,0.0,0.71249473,0.0,0.0,0.70167744,0.0,0.0,-0.001,0,0
35252000,0.0,0.0,1.5555204,0.0,0.7124869,0.0,0.0,0.7016854,0.0,0.0,-0.001,0,0
35308000,0.0,0.0,1.5554465,0.0,0.71251285,0.0,0.0,0.7016591,0.0,0.0,-0.001,0,0
35356000,0.0,0.0,1.555572,0.0,0.71246886,0.0,0.0,0.7017037,0.0,0.0,-0.001,0,0
35412000,0.0,0.0,1.5554965,0.0,0.7124954,0.0,0.0,0.70167685,0.0,0.0,-0.001,0,0
35460000,0.0,0.0,1.5553955,0.0,0.71253073,0.0,0.0,0.70164096,0.0,0.0,-0.001,0,0
35508000,0.0,0.0,1.5553435,0.0,0.712549,0.0,0.0,0.70162237,0.0,0.0,-0.001,0,0
35556000,0.0,0.0,1.5553827,0.0,0.71253526,0.0,0.0,0.70163625,0.0,0.0,-0.001,0,0
35612000,0.0,0.0,1.5553379,0.0,0.712551,0.0,0.0,0.70162034,0.0,0.0,-0.001,0,0
35660000,0.0,0.0,1.5555134,0.0,0.7124894,0.0,0.0,0.70168287,0.0,0.0,-0.001,0,0
35708000,0.0,0.0,1.5555824,0.0,0.71246517,0.0,0.0,0.7017076,0.0,0.0,-0.001,0,0
35756000,0.0,0.0,1.5555742,0.0,0.7124681,0.0,0.0,0.70170456,0.0,0.0,-0.001,0,0
35812000,0.0,0.0,1.5556206,0.0,0.7124518,0.0,0.0,0.701721,0.0,0.0,-0.001,0,0
35852000,0.0,0.0,1.5557228,0.0,0.71241593,0.0,0.0,0.70175743,0.0,0.0,-0.001,0,0
35908000,0.0,0.0,1.5558661,0.0,0.7123656,0.0,0.0,0.7018085,0.0,0.0,-0.001,0,0
35956000,0.0,0.0,1.5558895,0.0,0.71235746,0.0,0.0,0.70181686,0.0,0.0,-0.001,0,0
36012000,0.0,0.0,1.5557642,0.0,0.71240145,0.0,0.0,0.7017722,0.0,0.0,-0.001,0,0
36060000,0.0,0.0,1.5557108,0.0,0.71242017,0.0,0.0,0.70175314,0.0,0.0,-0.001,0,0
36108000,0.0,0.0,1.5556419,0.0,0.71244437,0.0,0.0,0.7017286,0.0,0.0,-0.001,0,0
36156000,0.0,0.0,1.555768,0.0,0.7124001,0.0,0.0,0.7017736,0.0,0.0,-0.001,0,0
36212000,0.0,0.0,1.5557152,0.0,0.7124186,0.0,0.0,0.70175475,0.0,0.0,-0.001,0,0
36260000,0.0,0.0,1.555655,0.0,0.7124397,0.0,0.0,0.7017333,0.0,0.0,-0.001,0,0
36308000,0.0,0.0,1.5556339,0.0,0.71244717,0.0,0.0,0.7017258,0.0,0.0,-0.001,0,0
36356000,0.0,0.0,1.5555958,0.0,0.7124605,0.0,0.0,0.7017122,0.0,0.0,-0.001,0,0
36412000,0.0,0.0,1.5555164,0.0,0.71248835,0.0,0.0,0.701684,0.0,0.0,-0.001,0,0
36460000,0.0,0.0,1.5554397,0.0,0.7125153,0.0,0.0,0.7016566,0.0,0.0,-0.001,0,0
36508000,0.0,0.0,1.5554361,0.0,0.71251655,0.0,0.0,0.7016553,0.0,0.0,-0.001,0,0
36556000,0.0,0.0,1.5554869,0.0,0.7124987,0.0,0.0,0.7016734,0.0,0.0,-0.001,0,0
36612000,0.0,0.0,1.5556425,0.0,0.7124441,0.0,0.0,0.7017288,0.0,0.0,-0.001,0,0
36660000,0.0,0.0,1.5556457,0.0,0.712443,0.0,0.0,0.70173,0.0,0.0,-0.001,0,0
36708000,0.0,0.0,1.5556774,0.0,0.71243185,0.0,0.0,0.70174134,0.0,0.0,-0.001,0,0
36756000,0.0,0.0,1.5557429,0.0,0.7124089,0.0,0.0,0.7017646,0.0,0.0,-0.001,0,0
36812000,0.0,0.0,1.5557237,0.0,0.71241564,0.0,0.0,0.70175785,0.0,0.0,-0.001,0,0
36860000,0.0,0.0,1.5557728,0.0,0.7123984,0.0,0.0,0.70177525,0.0,0.0,-0.001,0,0
36908000,0.0,0.0,1.5557047,0.0,0.7124223,0.0,0.0,0.70175105,0.0,0.0,-0.001,0,0
36956000,0.0,0.0,1.5557098,0.0,0.7124205,0.0,0.0,0.7017528,0.0,0.0,-0.001,0,0
37012000,0.0,0.0,1.5557516,0.0,0.71240586,0.0,0.0,0.7017678,0.0,0.0,-0.001,0,0
37052000,0.0,0.0,1.5558072,0.0,0.7123863,0.0,0.0,0.7017876,0.0,0.0,-0.001,0,0
37108000,0.0,0.0,1.5557373,0.0,0.71241087,0.0,0.0,0.7017626,0.0,0.0,-0.001,0,0
37156000,0.0,0.0,1.5557408,0.0,0.7124096,0.0,0.0,0.7017639,0.0,0.0,-0.001,0,0
37212000,0.0,0.0,1.5557803,0.0,0.7123958,0.0,0.0,0.70177794,0.0,0.0,-0.001,0,0
37260000,0.0,0.0,1.555759,0.0,0.71240324,0.0,0.0,0.7017704,0.0,0.0,-0.001,0,0
37308000,0.0,0.0,1.5556579,0.0,0.71243876,0.0,0.0,0.7017343,0.0,0.0,-0.001,0,0
37356000,0.0,0.0,1.5556989,0.0,0.71242434,0.0,0.0,0.7017489,0.0,0.0,-0.001,0,0
37412000,0.0,0.0,1.5556989,0.0,0.71242434,0.0,0.0,0.7017489,0.0,0.0,-0.001,0,0
37460000,0.0,0.0,1.5557139,0.0,0.7124191,0.0,0.0,0.7017543,0.0,0.0,-0.001,0,0
37508000,0.0,0.0,1.5556724,0.0,0.71243364,0.0,0.0,0.7017396,0.0,0.0,-0.001,0,0
37556000,0.0,0.0,1.555746,0.0,0.7124078,0.0,0.0,0.70176566,0.0,0.0,-0.001,0,0
37612000,0.0,0.0,1.5557348,0.0,0.71241176,0.0,0.0,0.70176166,0.0,0.0,-0.001,0,0
37660000,0.0,0.0,1.5558639,0.0,0.71236646,0.0,0.0,0.7018077,0.0,0.0,-0.001,0,0
37708000,0.0,0.0,1.5558411,0.0,0.71237445,0.0,0.0,0.7017996,0.0,0.0,-0.001,0,0
37756000,0.0,0.0,1.555884,0.0,0.71235937,0.0,0.0,0.7018149,0.0,0.0,-0.001,0,0
37812000,0.0,0.0,1.5558671,0.0,0.7123653,0.0,0.0,0.7018089,0.0,0.0,-0.001,0,0
37852000,0.0,0.0,1.5558462,0.0,0.71237266,0.0,0.0,0.70180136,0.0,0.0,-0.001,0,0
37908000,0.0,0.0,1.5559969,0.0,0.71231973,0.0,0.0,0.7018551,0.0,0.0,-0.001,0,0
37956000,0.0,0.0,1.55608,0.0,0.7122906,0.0,0.0,0.70188475,0.0,0.0,-0.001,0,0
38004000,0.0,0.0,1.5560595,0.0,0.7122978,0.0,0.0,0.7018774,0.0,0.0,-0.001,0,0
38060000,0.0,0.0,1.5560257,0.0,0.71230966,0.0,0.0,0.7018653,0.0,0.0,-0.001,0,0
38108000,0.0,0.0,1.556046,0.0,0.7123025,0.0,0.0,0.7018726,0.0,0.0,-0.001,0,0
38156000,0.0,0.0,1.5559838,0.0,0.7123244,0.0,0.0,0.7018505,0.0,0.0,-0.001,0,0
38212000,0.0,0.0,1.5559701,0.0,0.71232915,0.0,0.0,0.7018456,0.0,0.0,-0.001,0,0
38260000,0.0,0.0,1.5560203,0.0,0.71231157,0.0,0.0,0.7018634,0.0,0.0,-0.001,0,0
38308000,0.0,0.0,1.5560565,0.0,0.7122988,0.0,0.0,0.70187634,0.0,0.0,-0.001,0,0
38356000,0.0,0.0,1.5560402,0.0,0.7123046,0.0,0.0,0.70187056,0.0,0.0,-0.001,0,0
38412000,0.0,0.0,1.555937,0.0,0.7123408,0.0,0.0,0.7018338,0.0,0.0,-0.001,0,0
38452000,0.0,0.0,1.5560267,0.0,0.7123093,0.0,0.0,0.7018657,0.0,0.0,-0.001,0,0
38508000,0.0,0.0,1.556086,0.0,0.7122885,0.0,0.0,0.70188683,0.0,0.0,-0.001,0,0
38556000,0.0,0.0,1.5561016,0.0,0.712283,0.0,0.0,0.70189244,0.0,0.0,-0.001,0,0
38612000,0.0,0.0,1.5561159,0.0,0.712278,0.0,0.0,0.7018975,0.0,0.0,-0.001,0,0
38652000,0.0,0.0,1.5561817,0.0,0.7122549,0.0,0.0,0.701921,0.0,0.0,-0.001,0,0
38708000,0.0,0.0,1.556137,0.0,0.7122706,0.0,0.0,0.701905,0.0,0.0,-0.001,0,0
38756000,0.0,0.0,1.5560008,0.0,0.71231836,0.0,0.0,0.7018565,0.0,0.0,-0.001,0,0
38812000,0.0,0.0,1.5559763,0.0,0.712327,0.0,0.0,0.70184773,0.0,0.0,-0.001,0,0
38852000,0.0,0.0,1.5560571,0.0,0.71229863,0.0,0.0,0.7018765,0.0,0.0,-0.001,0,0
38908000,0.0,0.0,1.556006,0.0,0.7123166,0.0,0.0,0.70185834,0.0,0.0,-0.001,0,0
38956000,0.0,0.0,1.5560465,0.0,0.7123023,0.0,0.0,0.70187277,0.0,0.0,-0.001,0,0
39012000,0.0,0.0,1.5560001,0.0,0.71231866,0.0,0.0,0.7018562,0.0,0.0,-0.001,0,0
39060000,0.0,0.0,1.5559009,0.0,0.71235347,0.0,0.0,0.7018209,0.0,0.0,-0.001,0,0
39108000,0.0,0.0,1.5558878,0.0,0.71235806,0.0,0.0,0.70181626,0.0,0.0,-0.001,0,0
39156000,0.0,0.0,1.5558592,0.0,0.7123681,0.0,0.0,0.70180607,0.0,0.0,-0.001,0,0
39212000,0.0,0.0,1.5557822,0.0,0.71239513,0.0,0.0,0.7017786,0.0,0.0,-0.001,0,0
39260000,0.0,0.0,1.5557544,0.0,0.71240485,0.0,0.0,0.7017687,0.0,0.0,-0.001,0,0
39308000,0.0,0.0,1.5557595,0.0,0.71240306,0.0,0.0,0.7017706,0.0,0.0,-0.001,0,0
39356000,0.0,0.0,1.5557512,0.0,0.712406,0.0,0.0,0.7017677,0.0,0.0,-0.001,0,0
39412000,0.0,0.0,1.5557525,0.0,0.7124055,0.0,0.0,0.7017681,0.0,0.0,-0.001,0,0
39460000,0.0,0.0,1.555775,0.0,0.71239763,0.0,0.0,0.70177615,0.0,0.0,-0.001,0,0
39508000,0.0,0.0,1.5557301,0.0,0.7124134,0.0,0.0,0.7017601,0.0,0.0,-0.001,0,0
39556000,0.0,0.0,1.5558001,0.0,0.7123888,0.0,0.0,0.70178497,0.0,0.0,-0.001,0,0
39612000,0.0,0.0,1.5557159,0.0,0.7124184,0.0,0.0,0.70175505,0.0,0.0,-0.001,0,0
39660000,0.0,0.0,1.5556495,0.0,0.7124417,0.0,0.0,0.7017314,0.0,0.0,-0.001,0,0
39708000,0.0,0.0,1.555556,0.0,0.71247447,0.0,0.0,0.70169806,0.0,0.0,-0.001,0,0
39756000,0.0,0.0,1.555574,0.0,0.7124681,0.0,0.0,0.70170456,0.0,0.0,-0.001,0,0
39804000,0.0,0.0,1.5555896,0.0,0.71246266,0.0,0.0,0.7017101,0.0,0.0,-0.001,0,0
39860000,0.0,0.0,1.5555707,0.0,0.7124693,0.0,0.0,0.70170337,0.0,0.0,-0.001,0,0
39908000,0.0,0.0,1.5555233,0.0,0.7124859,0.0,0.0,0.7016865,0.0,0.0,-0.001,0,0
39956000,0.0,0.0,1.5554898,0.0,0.7124977,0.0,0.0,0.70167446,0.0,0.0,-0.001,0,0
40012000,0.0,0.0,1.5555367,0.0,0.71248126,0.0,0.0,0.70169115,0.0,0.0,-0.001,0,0
40060000,0.0,0.0,1.5555916,0.0,0.712462,0.0,0.0,0.7017107,0.0,0.0,-0.001,0,0
40108000,0.0,0.0,1.5556355,0.0,0.71244663,0.0,0.0,0.7017263,0.0,0.0,-0.001,0,0
40156000,0.0,0.0,1.5556637,0.0,0.7124367,0.0,0.0,0.7017364,0.0,0.0,-0.001,0,0
40212000,0.0,0.0,1.5556327,0.0,0.7124476,0.0,0.0,0.7017254,0.0,0.0,-0.001,0,0
40260000,0.0,0.0,1.5557604,0.0,0.71240276,0.0,0.0,0.70177084,0.0,0.0,-0.001,0,0
40308000,0.0,0.0,1.5558357,0.0,0.7123763,0.0,0.0,0.7017977,0.0,0.0,-0.001,0,0
40356000,0.0,0.0,1.5559313,0.0,0.7123428,0.0,0.0,0.70183176,0.0,0.0,-0.001,0,0
40412000,0.0,0.0,1.5560073,0.0,0.7123161,0.0,0.0,0.7018589,0.0,0.0,-0.001,0,0
40460000,0.0,0.0,1.5561125,0.0,0.7122792,0.0,0.0,0.70189637,0.0,0.0,-0.001,0,0
40508000,0.0,0.0,1.556287,0.0,0.7122179,0.0,0.0,0.7019584,0.0,0.0,-0.001,0,0
40556000,0.0,0.0,1.55623,0.0,0.712238,0.0,0.0,0.70193803,0.0,0.0,-0.001,0,0
40612000,0.0,0.0,1.556197,0.0,0.7122496,0.0,0.0,0.7019263,0.0,0.0,-0.001,0,0
40660000,0.0,0.0,1.5561521,0.0,0.7122653,0.0,0.0,0.7019103,0.0,0.0,-0.001,0,0
40708000,0.0,0.0,1.5561465,0.0,0.7122673,0.0,0.0,0.70190835,0.0,0.0,-0.001,0,0
40756000,0.0,0.0,1.5560874,0.0,0.712288,0.0,0.0,0.7018873,0.0,0.0,-0.001,0,0
40812000,0.0,0.0,1.5559398,0.0,0.7123398,0.0,0.0,0.70183474,0.0,0.0,-0.001,0,0
40860000,0.0,0.0,1.5558456,0.0,0.71237284,0.0,0.0,0.70180124,0.0,0.0,-0.001,0,0
40908000,0.0,0.0,1.555794,0.0,0.71239096,0.0,0.0,0.7017828,0.0,0.0,-0.001,0,0
40956000,0.0,0.0,1.5557755,0.0,0.71239746,0.0,0.0,0.7017763,0.0,0.0,-0.001,0,0
41012000,0.0,0.0,1.5557634,0.0,0.7124017,0.0,0.0,0.70177203,0.0,0.0,-0.001,0,0
41060000,0.0,0.0,1.5557641,0.0,0.71240145,0.0,0.0,0.7017723,0.0,0.0,-0.001,0,0
41108000,0.0,0.0,1.5557538,0.0,0.7124051,0.0,0.0,0.7017685,0.0,0.0,-0.001,0,0
