timestamp,unallocated_torque[0],unallocated_torque[1],unallocated_torque[2],unallocated_thrust[0],unallocated_thrust[1],unallocated_thrust[2],handled_motor_failure_mask,torque_setpoint_achieved,thrust_setpoint_achieved,actuator_saturation[0],actuator_saturation[1],actuator_saturation[2],actuator_saturation[3],actuator_saturation[4],actuator_saturation[5],actuator_saturation[6],actuator_saturation[7],actuator_saturation[8],actuator_saturation[9],actuator_saturation[10],actuator_saturation[11],actuator_saturation[12],actuator_saturation[13],actuator_saturation[14],actuator_saturation[15]
3560000,-2.3283064e-10,-2.3283064e-10,0.00044645485,0.0,0.0,0.0029814453,0,1,0,0,0,0,-2,-2,2,2,2,2,2,2,2,2,2,2,2
3568000,1.1641532e-10,0.0,-0.00032524424,0.0,0.0,0.000877131,0,1,1,0,-2,0,0,-2,2,2,2,2,2,2,2,2,2,2,2
3760000,-4.656613e-10,-1.1641532e-10,5.820766e-11,0.0,0.0,0.0016380568,0,1,0,0,0,0,0,-2,2,2,2,2,2,2,2,2,2,2,2
3960000,-2.7939677e-09,1.7462298e-10,6.8394e-10,0.0,0.0,0.005571552,0,1,0,0,0,0,0,-2,2,2,2,2,2,2,2,2,2,2,2
4160000,-1.8626451e-09,-4.0745363e-10,-9.183257e-05,0.0,0.0,0.004542297,0,1,0,-2,0,0,0,-2,2,2,2,2,2,2,2,2,2,2,2
4360000,-1.8626451e-09,0.0,0.0,0.0,0.0,0.003384809,0,1,0,0,0,0,0,-2,2,2,2,2,2,2,2,2,2,2,2
4560000,-1.8626451e-09,-3.6379788e-10,3.142516e-05,0.0,0.0,0.0042982763,0,1,0,0,0,0,-2,-2,2,2,2,2,2,2,2,2,2,2,2
4760000,-9.313226e-10,1.1641532e-10,1.7462298e-10,0.0,0.0,0.004772542,0,1,0,0,0,0,0,-2,2,2,2,2,2,2,2,2,2,2,2
4960000,-9.313226e-10,0.0,0.0006433206,0.0,0.0,0.005381568,0,1,0,0,0,0,-2,-2,2,2,2,2,2,2,2,2,2,2,2
5160000,-9.313226e-10,1.1641532e-10,-0.00023958407,0.0,0.0,0.0038899668,0,1,0,-2,0,0,0,-2,2,2,2,2,2,2,2,2,2,2,2
5360000,-1.8626451e-09,2.3283064e-10,2.6193447e-10,0.0,0.0,0.0046657636,0,1,0,0,0,0,0,-2,2,2,2,2,2,2,2,2,2,2,2
5560000,-9.313226e-10,-3.4924597e-10,3.783498e-10,0.0,0.0,0.0036850804,0,1,0,0,0,0,0,-2,2,2,2,2,2,2,2,2,2,2,2
5760000,-1.8626451e-09,0.0,-4.7748472e-11,0.0,0.0,0.0044928244,0,1,0,0,0,0,0,-2,2,2,2,2,2,2,2,2,2,2,2
5960000,-1.8626451e-09,1.7462298e-10,0.00050766714,0.0,0.0,0.0048054806,0,1,0,0,0,0,-2,-2,2,2,2,2,2,2,2,2,2,2,2
6160000,-9.313226e-10,-2.0372681e-10,2.3283064e-10,0.0,0.0,0.0034445655,0,1,0,0,0,0,0,-2,2,2,2,2,2,2,2,2,2,2,2
6360000,-1.8626451e-09,-2.910383e-10,-0.0003472174,0.0,0.0,0.004454649,0,1,0,-2,0,0,0,-2,2,2,2,2,2,2,2,2,2,2,2
6560000,-9.313226e-10,-4.802132e-10,-0.00096644496,0.0,0.0,0.003807859,0,1,0,-2,0,0,0,-2,2,2,2,2,2,2,2,2,2,2,2
6760000,-2.7939677e-09,0.0,3.783498e-10,0.0,0.0,0.004336464,0,1,0,0,0,0,0,-2,2,2,2,2,2,2,2,2,2,2,2
6960000,-9.313226e-10,0.0,-0.0007128927,0.0,0.0,0.002373931,0,1,0,-2,0,0,0,-2,2,2,2,2,2,2,2,2,2,2,2
7160000,-9.313226e-10,1.1641532e-10,-0.0003694094,0.0,0.0,0.0041415473,0,1,0,-2,0,0,0,-2,2,2,2,2,2,2,2,2,2,2,2
7360000,-1.8626451e-09,-3.4924597e-10,-0.0005835531,0.0,0.0,0.0053221276,0,1,0,-2,0,0,0,-2,2,2,2,2,2,2,2,2,2,2,2
7560000,-9.313226e-10,-1.1641532e-10,4.656613e-10,0.0,0.0,0.0042869146,0,1,0,0,0,0,0,-2,2,2,2,2,2,2,2,2,2,2,2
7760000,-9.313226e-10,-2.3283064e-10,0.00039914687,0.0,0.0,0.005005162,0,1,0,0,0,0,-2,-2,2,2,2,2,2,2,2,2,2,2,2
7960000,-1.8626451e-09,2.910383e-10,2.910383e-11,0.0,0.0,0.004501227,0,1,0,0,0,0,0,-2,2,2,2,2,2,2,2,2,2,2,2
8160000,-2.7939677e-09,2.3283064e-10,4.3655746e-10,0.0,0.0,0.0051447544,0,1,0,0,0,0,0,-2,2,2,2,2,2,2,2,2,2,2,2
8360000,-1.8626451e-09,-4.4383341e-10,0.00075990835,0.0,0.0,0.0035292911,0,1,0,0,0,0,-2,-2,2,2,2,2,2,2,2,2,2,2,2
8560000,-1.3969839e-09,1.1641532e-10,-6.974981e-05,0.0,0.0,0.0034794803,0,1,0,-2,0,0,0,-2,2,2,2,2,2,2,2,2,2,2,2
8760000,-9.313226e-10,-3.4924597e-10,5.3842086e-10,0.0,0.0,0.0034733033,0,1,0,0,0,0,0,-2,2,2,2,2,2,2,2,2,2,2,2
8960000,-1.8626451e-09,1.1641532e-10,2.910383e-10,0.0,0.0,0.0039086724,0,1,0,0,0,0,0,-2,2,2,2,2,2,2,2,2,2,2,2
9160000,0.0,2.3283064e-10,-2.910383e-11,0.0,0.0,0.0031521064,0,1,0,0,0,0,0,-2,2,2,2,2,2,2,2,2,2,2,2
9360000,-9.313226e-10,1.1641532e-10,0.0010419361,0.0,0.0,0.0031070542,0,0,0,0,0,0,-2,-2,2,2,2,2,2,2,2,2,2,2,2
9560000,-2.7939677e-09,-3.4924597e-10,-0.0009163175,0.0,0.0,0.0052070804,0,1,0,-2,0,0,0,-2,2,2,2,2,2,2,2,2,2,2,2
9760000,-9.313226e-10,-2.3283064e-10,3.3469405e-10,0.0,0.0,0.0039425413,0,1,0,0,0,0,0,-2,2,2,2,2,2,2,2,2,2,2,2
9960000,-9.313226e-10,0.0,5.820766e-10,0.0,0.0,0.0043776045,0,1,0,0,0,0,0,-2,2,2,2,2,2,2,2,2,2,2,2
10160000,-4.656613e-10,0.0,2.937668e-10,0.0,0.0,0.00440312,0,1,0,0,0,0,0,-2,2,2,2,2,2,2,2,2,2,2,2
10360000,-1.8626451e-09,2.3283064e-10,-0.0002996505,0.0,0.0,0.0054153856,0,1,0,-2,0,0,0,-2,2,2,2,2,2,2,2,2,2,2,2
10560000,-2.7939677e-09,2.3283064e-10,-0.00015232417,0.0,0.0,0.0065523633,0,1,0,-2,0,0,0,-2,2,2,2,2,2,2,2,2,2,2,2
10760000,-9.313226e-10,3.0559022e-10,-0.00010752826,0.0,0.0,0.003300794,0,1,0,-2,0,0,0,-2,2,2,2,2,2,2,2,2,2,2,2
10960000,-9.313226e-10,4.656613e-10,-0.0006742726,0.0,0.0,0.006212288,0,1,0,-2,0,0,0,-2,2,2,2,2,2,2,2,2,2,2,2
11160000,0.0,-2.3283064e-10,3.783498e-10,0.0,0.0,0.0033263946,0,1,0,0,0,0,0,-2,2,2,2,2,2,2,2,2,2,2,2
11360000,-1.8626451e-09,0.0,3.2014214e-10,0.0,0.0,0.0051669786,0,1,0,0,0,0,0,-2,2,2,2,2,2,2,2,2,2,2,2
11560000,-3.7252903e-09,-4.656613e-10,1.1641532e-10,0.0,0.0,0.0062926416,0,1,0,0,0,0,0,-2,2,2,2,2,2,2,2,2,2,2,2
11760000,-1.3969839e-09,1.5279511e-10,1.1641532e-10,0.0,0.0,0.0027694944,0,1,0,0,0,0,0,-2,2,2,2,2,2,2,2,2,2,2,2
11960000,-1.3969839e-09,0.0,4.0745363e-10,0.0,0.0,0.00585183,0,1,0,0,0,0,0,-2,2,2,2,2,2,2,2,2,2,2,2
12160000,-1.8626451e-09,1.1641532e-10,3.4924597e-10,0.0,0.0,0.0037999507,0,1,0,0,0,0,0,-2,2,2,2,2,2,2,2,2,2,2,2
12360000,-9.313226e-10,-1.1641532e-10,-0.000512102,0.0,0.0,0.0038515292,0,1,0,-2,0,0,0,-2,2,2,2,2,2,2,2,2,2,2,2
12560000,-9.313226e-10,2.3283064e-10,-0.0011390512,0.0,0.0,0.004590985,0,0,0,-2,0,0,0,-2,2,2,2,2,2,2,2,2,2,2,2
12760000,-4.656613e-10,-2.3283064e-10,1.1641532e-10,0.0,0.0,0.0039789206,0,1,0,0,0,0,0,-2,2,2,2,2,2,2,2,2,2,2,2
12960000,-9.313226e-10,2.3283064e-10,0.00018015738,0.0,0.0,0.004275795,0,1,0,0,0,0,-2,-2,2,2,2,2,2,2,2,2,2,2,2
13160000,-1.8626451e-09,-2.910383e-10,3.4924597e-10,0.0,0.0,0.0039754864,0,1,0,0,0,0,0,-2,2,2,2,2,2,2,2,2,2,2,2
13360000,-4.656613e-10,-1.1641532e-10,5.2386895e-10,0.0,0.0,0.00353079,0,1,0,0,0,0,0,-2,2,2,2,2,2,2,2,2,2,2,2
13560000,-1.3969839e-09,1.1641532e-10,-8.8660796e-05,0.0,0.0,0.0040276037,0,1,0,-2,0,0,0,-2,2,2,2,2,2,2,2,2,2,2,2
13760000,-9.313226e-10,1.7462298e-10,-0.0010910499,0.0,0.0,0.0030988716,0,0,0,-2,0,0,0,-2,2,2,2,2,2,2,2,2,2,2,2
13960000,-9.313226e-10,0.0,5.820766e-10,0.0,0.0,0.0037763417,0,1,0,0,0,0,0,-2,2,2,2,2,2,2,2,2,2,2,2
14160000,-9.313226e-10,2.3283064e-10,-0.00011010491,0.0,0.0,0.005433742,0,1,0,-2,0,0,0,-2,2,2,2,2,2,2,2,2,2,2,2
14360000,-9.313226e-10,0.0,-6.559903e-05,0.0,0.0,0.0050207605,0,1,0,-2,0,0,0,-2,2,2,2,2,2,2,2,2,2,2,2
14560000,-1.3969839e-09,4.656613e-10,-8.23005e-05,0.0,0.0,0.005260033,0,1,0,-2,0,0,0,-2,2,2,2,2,2,2,2,2,2,2,2
14760000,-4.656613e-10,-1.1641532e-10,6.1118044e-10,0.0,0.0,0.003510133,0,1,0,0,0,0,0,-2,2,2,2,2,2,2,2,2,2,2,2
14960000,-4.656613e-10,-2.3283064e-10,-5.820766e-11,0.0,0.0,0.0048688236,0,1,0,0,0,0,0,-2,2,2,2,2,2,2,2,2,2,2,2
15160000,-1.8626451e-09,6.4028427e-10,0.0005892861,0.0,0.0,0.0047404445,0,1,0,0,0,0,-2,-2,2,2,2,2,2,2,2,2,2,2,2
15360000,-4.656613e-10,-2.3283064e-10,4.3655746e-10,0.0,0.0,0.0033333483,0,1,0,0,0,0,0,-2,2,2,2,2,2,2,2,2,2,2,2
15560000,-9.313226e-10,4.656613e-10,2.3283064e-10,0.0,0.0,0.005582423,0,1,0,0,0,0,0,-2,2,2,2,2,2,2,2,2,2,2,2
15760000,-9.313226e-10,0.0,-1.9881361e-05,0.0,0.0,0.004978027,0,1,0,-2,0,0,0,-2,2,2,2,2,2,2,2,2,2,2,2
15960000,-9.313226e-10,-4.656613e-10,4.3655746e-10,0.0,0.0,0.0035657636,0,1,0,0,0,0,0,-2,2,2,2,2,2,2,2,2,2,2,2
16160000,0.0,0.0,5.820766e-11,0.0,0.0,0.0054624835,0,1,0,0,0,0,0,-2,2,2,2,2,2,2,2,2,2,2,2
16360000,-1.8626451e-09,4.656613e-10,-0.00044161562,0.0,0.0,0.0047350433,0,1,0,-2,0,0,0,-2,2,2,2,2,2,2,2,2,2,2,2
16560000,-9.313226e-10,0.0,-0.00065047434,0.0,0.0,0.0053950823,0,1,0,-2,0,0,0,-2,2,2,2,2,2,2,2,2,2,2,2
16760000,-9.313226e-10,0.0,-0.00028890657,0.0,0.0,0.0055445544,0,1,0,-2,0,0,0,-2,2,2,2,2,2,2,2,2,2,2,2
16960000,-9.313226e-10,4.656613e-10,-0.00085108797,0.0,0.0,0.005996268,0,1,0,-2,0,0,0,-2,2,2,2,2,2,2,2,2,2,2,2
17160000,-1.8626451e-09,-4.656613e-10,3.4924597e-10,0.0,0.0,0.005946867,0,1,0,0,0,0,0,-2,2,2,2,2,2,2,2,2,2,2,2
17360000,-1.8626451e-09,2.3283064e-10,4.0745363e-10,0.0,0.0,0.0035121879,0,1,0,0,0,0,0,-2,2,2,2,2,2,2,2,2,2,2,2
17560000,-1.8626451e-09,-4.656613e-10,-0.0005591178,0.0,0.0,0.0063100904,0,1,0,-2,0,0,0,-2,2,2,2,2,2,2,2,2,2,2,2
17760000,-9.313226e-10,0.0,-0.00027466443,0.0,0.0,0.004545693,0,1,0,-2,0,0,0,-2,2,2,2,2,2,2,2,2,2,2,2
17960000,-1.8626451e-09,4.656613e-10,-8.154235e-05,0.0,0.0,0.0057250913,0,1,0,-2,0,0,0,-2,2,2,2,2,2,2,2,2,2,2,2
18160000,-1.8626451e-09,-4.656613e-10,-0.00013153645,0.0,0.0,0.005039797,0,1,0,-2,0,0,0,-2,2,2,2,2,2,2,2,2,2,2,2
18360000,-1.8626451e-09,4.656613e-10,-0.000247082,0.0,0.0,0.0058625736,0,1,0,-2,0,0,0,-2,2,2,2,2,2,2,2,2,2,2,2
18560000,-9.313226e-10,-4.656613e-10,-0.0010803016,0.0,0.0,0.0048105996,0,0,0,-2,0,0,0,-2,2,2,2,2,2,2,2,2,2,2,2
18760000,-4.656613e-10,4.656613e-10,5.820766e-11,0.0,0.0,0.0047329124,0,1,0,0,0,0,0,-2,2,2,2,2,2,2,2,2,2,2,2
18960000,-9.313226e-10,2.3283064e-10,-0.0002153519,0.0,0.0,0.004601358,0,1,0,-2,0,0,0,-2,2,2,2,2,2,2,2,2,2,2,2
19160000,-9.313226e-10,-2.3283064e-10,8.731149e-11,0.0,0.0,0.0048832595,0,1,0,0,0,0,0,-2,2,2,2,2,2,2,2,2,2,2,2
19360000,-9.313226e-10,0.0,1.4551915e-10,0.0,0.0,0.0054590837,0,1,0,0,0,0,0,-2,2,2,2,2,2,2,2,2,2,2,2
19560000,-9.313226e-10,0.0,-0.00038591123,0.0,0.0,0.0068540117,0,1,0,-2,0,0,0,-2,2,2,2,2,2,2,2,2,2,2,2
19760000,-9.313226e-10,0.0,-0.00038593545,0.0,0.0,0.0067121154,0,1,0,-2,0,0,0,-2,2,2,2,2,2,2,2,2,2,2,2
19960000,-1.8626451e-09,0.0,-4.91268e-05,0.0,0.0,0.006657982,0,1,0,-2,0,0,0,-2,2,2,2,2,2,2,2,2,2,2,2
20160000,-9.313226e-10,2.3283064e-10,-0.00073692726,0.0,0.0,0.0057034157,0,1,0,-2,0,0,0,-2,2,2,2,2,2,2,2,2,2,2,2
20360000,-9.313226e-10,-4.656613e-10,3.0559022e-10,0.0,0.0,0.009107932,0,1,0,0,0,0,0,-2,2,2,2,2,2,2,2,2,2,2,2
20560000,-1.8626451e-09,-2.3283064e-10,-0.00058153627,0.0,0.0,0.005405834,0,1,0,-2,0,0,0,-2,2,2,2,2,2,2,2,2,2,2,2
20760000,-9.313226e-10,-9.313226e-10,-0.001107092,0.0,0.0,0.009714284,0,0,0,-2,0,0,0,-2,2,2,2,2,2,2,2,2,2,2,2
20960000,0.0,0.0,-0.00054137985,0.0,0.0,0.007321737,0,1,0,-2,0,0,0,-2,2,2,2,2,2,2,2,2,2,2,2
21160000,-4.656613e-10,-4.656613e-10,-0.001915613,0.0,0.0,0.007828415,0,0,0,-2,0,0,0,-2,2,2,2,2,2,2,2,2,2,2,2
21360000,0.0,0.0,1.4551915e-10,0.0,0.0,0.0066798185,0,1,0,0,0,0,0,-2,2,2,2,2,2,2,2,2,2,2,2
21560000,-1.8626451e-09,0.0,-0.00048006454,0.0,0.0,0.006328399,0,1,0,-2,0,0,0,-2,2,2,2,2,2,2,2,2,2,2,2
21760000,-1.3969839e-09,-4.656613e-10,4.0745363e-10,0.0,0.0,0.0067976387,0,1,0,0,0,0,0,-2,2,2,2,2,2,2,2,2,2,2,2
21960000,-9.313226e-10,0.0,-6.176219e-05,0.0,0.0,0.0071204826,0,1,0,-2,0,0,0,-2,2,2,2,2,2,2,2,2,2,2,2
22160000,-9.313226e-10,0.0,-0.00016879493,0.0,0.0,0.0065269717,0,1,0,-2,0,0,0,-2,2,2,2,2,2,2,2,2,2,2,2
22360000,-1.3969839e-09,4.656613e-10,-0.0005185956,0.0,0.0,0.0052829715,0,1,0,-2,0,0,0,-2,2,2,2,2,2,2,2,2,2,2,2
22560000,-9.313226e-10,-9.313226e-10,-0.0007918676,0.0,0.0,0.007055424,0,1,0,-2,0,0,0,-2,2,2,2,2,2,2,2,2,2,2,2
22760000,-4.656613e-10,6.9849193e-10,-0.00057820126,0.0,0.0,0.004248739,0,1,0,-2,0,0,0,-2,2,2,2,2,2,2,2,2,2,2,2
22960000,0.0,0.0,4.947651e-10,0.0,0.0,0.006077667,0,1,0,0,0,0,0,-2,2,2,2,2,2,2,2,2,2,2,2
23160000,-9.313226e-10,9.313226e-10,7.2759576e-11,0.0,0.0,0.006961898,0,1,0,0,0,0,0,-2,2,2,2,2,2,2,2,2,2,2,2
23360000,-1.3969839e-09,4.656613e-10,-1.4551915e-10,0.0,0.0,0.0045159874,0,1,0,0,0,0,0,-2,2,2,2,2,2,2,2,2,2,2,2
23560000,-1.8626451e-09,4.656613e-10,-0.00010162693,0.0,0.0,0.0041381177,0,1,0,-2,0,0,0,-2,2,2,2,2,2,2,2,2,2,2,2
23760000,-9.313226e-10,-9.313226e-10,1.7462298e-10,0.0,0.0,0.0053905584,0,1,0,0,0,0,0,-2,2,2,2,2,2,2,2,2,2,2,2
23960000,-1.3969839e-09,4.656613e-10,9.913492e-11,0.0,0.0,0.0049981955,0,1,0,0,0,0,0,-2,2,2,2,2,2,2,2,2,2,2,2
24160000,-9.313226e-10,-4.656613e-10,-0.00014667842,0.0,0.0,0.007910097,0,1,0,-2,0,0,0,-2,2,2,2,2,2,2,2,2,2,2,2
24360000,-9.313226e-10,4.656613e-10,-0.0012832716,0.0,0.0,0.0069449013,0,0,0,-2,0,0,0,-2,2,2,2,2,2,2,2,2,2,2,2
24560000,-1.3969839e-09,4.656613e-10,-0.0006064105,0.0,0.0,0.0058629913,0,1,0,-2,0,0,0,-2,2,2,2,2,2,2,2,2,2,2,2
24760000,-4.656613e-10,0.0,-5.820766e-11,0.0,0.0,0.005195706,0,1,0,0,0,0,0,-2,2,2,2,2,2,2,2,2,2,2,2
24960000,-9.313226e-10,0.0,-8.698869e-05,0.0,0.0,0.0055721053,0,1,0,-2,0,0,0,-2,2,2,2,2,2,2,2,2,2,2,2
25160000,-9.313226e-10,0.0,-0.0003969661,0.0,0.0,0.0059698625,0,1,0,-2,0,0,0,-2,2,2,2,2,2,2,2,2,2,2,2
25360000,-4.656613e-10,-2.3283064e-10,-0.00042428944,0.0,0.0,0.0025608595,0,1,0,-2,0,0,0,-2,2,2,2,2,2,2,2,2,2,2,2
25560000,-9.313226e-10,-2.3283064e-10,4.947651e-10,0.0,0.0,0.0044515696,0,1,0,0,0,0,0,-2,2,2,2,2,2,2,2,2,2,2,2
25760000,-4.656613e-10,0.0,2.6011548e-10,0.0,0.0,0.0044303522,0,1,0,0,0,0,0,-2,2,2,2,2,2,2,2,2,2,2,2
25960000,-9.313226e-10,9.313226e-10,1.7462298e-10,0.0,0.0,0.0059411805,0,1,0,0,0,0,0,-2,2,2,2,2,2,2,2,2,2,2,2
26160000,-4.656613e-10,0.0,2.910383e-10,0.0,0.0,0.0041036317,0,1,0,0,0,0,0,-2,2,2,2,2,2,2,2,2,2,2,2
26360000,0.0,0.0,-0.00028618294,0.0,0.0,0.00315639,0,1,0,-2,0,0,0,-2,2,2,2,2,2,2,2,2,2,2,2
26560000,-9.313226e-10,9.313226e-10,2.3283064e-10,0.0,0.0,0.0053203558,0,1,0,0,0,0,0,-2,2,2,2,2,2,2,2,2,2,2,2
26760000,-4.656613e-10,0.0,-0.00014112868,0.0,0.0,0.006568709,0,1,0,-2,0,0,0,-2,2,2,2,2,2,2,2,2,2,2,2
26960000,-9.313226e-10,2.3283064e-10,-0.0007713638,0.0,0.0,0.0036732769,0,1,0,-2,0,0,0,-2,2,2,2,2,2,2,2,2,2,2,2
27160000,-4.656613e-10,0.0,-2.3283064e-10,0.0,0.0,0.006526116,0,1,0,0,0,0,0,-2,2,2,2,2,2,2,2,2,2,2,2
27360000,0.0,4.656613e-10,2.4738256e-10,0.0,0.0,0.004478964,0,1,0,0,0,0,0,-2,2,2,2,2,2,2,2,2,2,2,2
27560000,-1.3969839e-09,2.3283064e-10,1.7462298e-10,0.0,0.0,0.004742055,0,1,0,0,0,0,0,-2,2,2,2,2,2,2,2,2,2,2,2
27760000,-4.656613e-10,4.656613e-10,4.0745363e-10,0.0,0.0,0.0033414871,0,1,0,0,0,0,0,-2,2,2,2,2,2,2,2,2,2,2,2
27960000,-1.8626451e-09,0.0,3.783498e-10,0.0,0.0,0.0055599213,0,1,0,0,0,0,0,-2,2,2,2,2,2,2,2,2,2,2,2
28160000,-6.9849193e-10,4.656613e-10,-0.00068620214,0.0,0.0,0.0048279543,0,1,0,-2,0,0,0,-2,2,2,2,2,2,2,2,2,2,2,2
28360000,-4.656613e-10,0.0,2.910383e-11,0.0,0.0,0.003713191,0,1,0,0,0,0,0,-2,2,2,2,2,2,2,2,2,2,2,2
28560000,-1.3969839e-09,0.0,4.0745363e-10,0.0,0.0,0.004419226,0,1,0,0,0,0,0,-2,2,2,2,2,2,2,2,2,2,2,2
28760000,-1.3969839e-09,4.656613e-10,-0.00020657832,0.0,0.0,0.006216611,0,1,0,-2,0,0,0,-2,2,2,2,2,2,2,2,2,2,2,2
28960000,-4.656613e-10,4.656613e-10,-8.731149e-11,0.0,0.0,0.0054474333,0,1,0,0,0,0,0,-2,2,2,2,2,2,2,2,2,2,2,2
29160000,-9.313226e-10,0.0,-0.0011038472,0.0,0.0,0.004824981,0,0,0,-2,0,0,0,-2,2,2,2,2,2,2,2,2,2,2,2
29360000,-9.313226e-10,9.313226e-10,0.0,0.0,0.0,0.0073640663,0,1,0,0,0,0,0,-2,2,2,2,2,2,2,2,2,2,2,2
29560000,-9.313226e-10,0.0,-0.0008964301,0.0,0.0,0.005958697,0,1,0,-2,0,0,0,-2,2,2,2,2,2,2,2,2,2,2,2
29760000,-1.3969839e-09,0.0,3.2014214e-10,0.0,0.0,0.0041631614,0,1,0,0,0,0,0,-2,2,2,2,2,2,2,2,2,2,2,2
29960000,-4.656613e-10,-4.656613e-10,-0.0007512304,0.0,0.0,0.0070986236,0,1,0,-2,0,0,0,-2,2,2,2,2,2,2,2,2,2,2,2
30160000,-9.313226e-10,4.656613e-10,-0.00072197686,0.0,0.0,0.0043274653,0,1,0,-2,0,0,0,-2,2,2,2,2,2,2,2,2,2,2,2
30360000,0.0,0.0,6.1118044e-10,0.0,0.0,0.0066696815,0,1,0,0,0,0,0,-2,2,2,2,2,2,2,2,2,2,2,2
30560000,-1.8626451e-09,0.0,-4.3655746e-11,0.0,0.0,0.007217086,0,1,0,0,0,0,0,-2,2,2,2,2,2,2,2,2,2,2,2
30760000,-4.656613e-10,-2.3283064e-10,3.4924597e-10,0.0,0.0,0.004811219,0,1,0,0,0,0,0,-2,2,2,2,2,2,2,2,2,2,2,2
30960000,-1.8626451e-09,4.656613e-10,8.0035534e-11,0.0,0.0,0.0073172413,0,1,0,0,0,0,0,-2,2,2,2,2,2,2,2,2,2,2,2
31160000,-1.8626451e-09,2.3283064e-10,4.3655746e-10,0.0,0.0,0.0063595646,0,1,0,0,0,0,0,-2,2,2,2,2,2,2,2,2,2,2,2
31360000,-9.313226e-10,-4.656613e-10,-0.00028606626,0.0,0.0,0.004146449,0,1,0,-2,0,0,0,-2,2,2,2,2,2,2,2,2,2,2,2
31560000,-9.313226e-10,0.0,-0.0010600109,0.0,0.0,0.0046419236,0,0,0,-2,0,0,0,-2,2,2,2,2,2,2,2,2,2,2,2
31760000,-9.313226e-10,4.656613e-10,5.820766e-10,0.0,0.0,0.0067511844,0,1,0,0,0,0,0,-2,2,2,2,2,2,2,2,2,2,2,2
31960000,-1.8626451e-09,0.0,-0.00014353619,0.0,0.0,0.005692798,0,1,0,-2,0,0,0,-2,2,2,2,2,2,2,2,2,2,2,2
32160000,-9.313226e-10,-3.4924597e-10,4.802132e-10,0.0,0.0,0.0045518866,0,1,0,0,0,0,0,-2,2,2,2,2,2,2,2,2,2,2,2
32360000,-9.313226e-10,0.0,4.231424e-10,0.0,0.0,0.005352507,0,1,0,0,0,0,0,-2,2,2,2,2,2,2,2,2,2,2,2
32560000,-1.8626451e-09,0.0,3.7317513e-05,0.0,0.0,0.0038446216,0,1,0,0,0,0,-2,-2,2,2,2,2,2,2,2,2,2,2,2
32760000,-9.313226e-10,0.0,-0.00019070345,0.0,0.0,0.0055677798,0,1,0,-2,0,0,0,-2,2,2,2,2,2,2,2,2,2,2,2
32960000,-1.8626451e-09,4.656613e-10,1.364242e-10,0.0,0.0,0.0067845546,0,1,0,0,0,0,0,-2,2,2,2,2,2,2,2,2,2,2,2
33160000,-1.8626451e-09,3.4924597e-10,-0.0003847594,0.0,0.0,0.003382239,0,1,0,-2,0,0,0,-2,2,2,2,2,2,2,2,2,2,2,2
33360000,-4.656613e-10,4.656613e-10,2.0372681e-10,0.0,0.0,0.0040860707,0,1,0,0,0,0,0,-2,2,2,2,2,2,2,2,2,2,2,2
33560000,-1.8626451e-09,0.0,3.783498e-10,0.0,0.0,0.0038382886,0,1,0,0,0,0,0,-2,2,2,2,2,2,2,2,2,2,2,2
33760000,-1.8626451e-09,1.1641532e-10,-0.00017404766,0.0,0.0,0.002856296,0,1,0,-2,0,0,0,-2,2,2,2,2,2,2,2,2,2,2,2
33960000,-1.3969839e-09,2.3283064e-10,3.4924597e-10,0.0,0.0,0.0047096694,0,1,0,0,0,0,0,-2,2,2,2,2,2,2,2,2,2,2,2
34160000,-2.7939677e-09,-4.656613e-10,1.1641532e-10,0.0,0.0,0.0058902577,0,1,0,0,0,0,0,-2,2,2,2,2,2,2,2,2,2,2,2
34360000,-4.656613e-10,-6.9849193e-10,3.929017e-10,0.0,0.0,0.0053472263,0,1,0,0,0,0,0,-2,2,2,2,2,2,2,2,2,2,2,2
34560000,-2.3283064e-10,1.1641532e-10,-0.00023490051,0.0,0.0,0.0014872941,0,1,0,-2,0,0,0,-2,2,2,2,2,2,2,2,2,2,2,2
34760000,-1.8626451e-09,0.0,3.4924597e-10,0.0,0.0,0.0053045056,0,1,0,0,0,0,0,-2,2,2,2,2,2,2,2,2,2,2,2
34960000,-1.8626451e-09,0.0,-0.00034181122,0.0,0.0,0.0060179126,0,1,0,-2,0,0,0,-2,2,2,2,2,2,2,2,2,2,2,2
35160000,-1.3969839e-09,0.0,-0.0010586749,0.0,0.0,0.0061239493,0,0,0,-2,0,0,0,-2,2,2,2,2,2,2,2,2,2,2,2
35360000,-2.7939677e-09,2.3283064e-10,-0.00026766706,0.0,0.0,0.0057088723,0,1,0,-2,0,0,0,-2,2,2,2,2,2,2,2,2,2,2,2
35560000,-9.313226e-10,-4.656613e-10,1.7462298e-10,0.0,0.0,0.0060780607,0,1,0,0,0,0,0,-2,2,2,2,2,2,2,2,2,2,2,2
35760000,-9.313226e-10,2.3283064e-10,-0.00021918167,0.0,0.0,0.005474472,0,1,0,-2,0,0,0,-2,2,2,2,2,2,2,2,2,2,2,2
35960000,-9.313226e-10,2.3283064e-10,5.2386895e-10,0.0,0.0,0.0055621606,0,1,0,0,0,0,0,-2,2,2,2,2,2,2,2,2,2,2,2
36160000,-1.8626451e-09,0.0,-0.0001967961,0.0,0.0,0.0055100373,0,1,0,-2,0,0,0,-2,2,2,2,2,2,2,2,2,2,2,2
36360000,-1.8626451e-09,4.656613e-10,3.1286618e-10,0.0,0.0,0.0061146333,0,1,0,0,0,0,0,-2,2,2,2,2,2,2,2,2,2,2,2
36560000,-1.3969839e-09,0.0,6.693881e-10,0.0,0.0,0.0037807077,0,1,0,0,0,0,0,-2,2,2,2,2,2,2,2,2,2,2,2
36760000,-4.656613e-10,4.656613e-10,3.4924597e-10,0.0,0.0,0.0057661496,0,1,0,0,0,0,0,-2,2,2,2,2,2,2,2,2,2,2,2
36960000,-2.7939677e-09,9.313226e-10,-0.0009398865,0.0,0.0,0.0070045013,0,1,0,-2,0,0,0,-2,2,2,2,2,2,2,2,2,2,2,2
37160000,-1.3969839e-09,0.0,-7.275958e-12,0.0,0.0,0.0048969155,0,1,0,0,0,0,0,-2,2,2,2,2,2,2,2,2,2,2,2
37360000,-4.656613e-10,2.3283064e-10,-0.0003136425,0.0,0.0,0.0045303586,0,1,0,-2,0,0,0,-2,2,2,2,2,2,2,2,2,2,2,2
37560000,-1.3969839e-09,4.656613e-10,-1.24027665e-05,0.0,0.0,0.005738492,0,1,0,-2,0,0,0,-2,2,2,2,2,2,2,2,2,2,2,2
37760000,-9.313226e-10,1.1641532e-09,-0.00071800686,0.0,0.0,0.004916596,0,1,0,-2,0,0,0,-2,2,2,2,2,2,2,2,2,2,2,2
37960000,-9.313226e-10,-4.656613e-10,1.382432e-10,0.0,0.0,0.0070450064,0,1,0,0,0,0,0,-2,2,2,2,2,2,2,2,2,2,2,2
38160000,-9.313226e-10,2.3283064e-10,-0.0007199455,0.0,0.0,0.0020584273,0,1,0,-2,0,0,0,-2,2,2,2,2,2,2,2,2,2,2,2
38360000,-9.313226e-10,0.0,-0.00025976833,0.0,0.0,0.0050354637,0,1,0,-2,0,0,0,-2,2,2,2,2,2,2,2,2,2,2,2
38560000,-9.313226e-10,2.3283064e-10,-0.0003735467,0.0,0.0,0.0034541404,0,1,0,-2,0,0,0,-2,2,2,2,2,2,2,2,2,2,2,2
38760000,-9.313226e-10,0.0,-0.0013051748,0.0,0.0,0.0049046692,0,0,0,-2,0,0,0,-2,2,2,2,2,2,2,2,2,2,2,2
38960000,-9.313226e-10,0.0,5.2386895e-10,0.0,0.0,0.0034166179,0,1,0,0,0,0,0,-2,2,2,2,2,2,2,2,2,2,2,2
39160000,-9.313226e-10,3.4924597e-10,5.2386895e-10,0.0,0.0,0.003813506,0,1,0,0,0,0,0,-2,2,2,2,2,2,2,2,2,2,2,2
39360000,-1.3969839e-09,0.0,2.910383e-11,0.0,0.0,0.0059271213,0,1,0,0,0,0,0,-2,2,2,2,2,2,2,2,2,2,2,2
39560000,-9.313226e-10,0.0,0.0,0.0,0.0,0.004434578,0,1,0,0,0,0,0,-2,2,2,2,2,2,2,2,2,2,2,2
39760000,-9.313226e-10,-1.1641532e-10,4.656613e-10,0.0,0.0,0.0029891422,0,1,0,0,0,0,0,-2,2,2,2,2,2,2,2,2,2,2,2
39960000,-1.3969839e-09,-2.3283064e-10,3.4924597e-10,0.0,0.0,0.0045822454,0,1,0,0,0,0,0,-2,2,2,2,2,2,2,2,2,2,2,2
40160000,-4.656613e-10,-4.656613e-10,6.9849193e-10,0.0,0.0,0.0044526835,0,1,0,0,0,0,0,-2,2,2,2,2,2,2,2,2,2,2,2
40360000,-4.656613e-10,1.1641532e-10,-0.00023020143,0.0,0.0,0.0025765682,0,1,0,-2,0,0,0,-2,2,2,2,2,2,2,2,2,2,2,2
40560000,-9.313226e-10,-1.1641532e-10,0.0,0.0,0.0,0.002910792,0,1,0,0,0,0,0,-2,2,2,2,2,2,2,2,2,2,2,2
40760000,-9.313226e-10,1.1641532e-10,-0.00019401593,0.0,0.0,0.002297672,0,1,0,-2,0,0,0,-2,2,2,2,2,2,2,2,2,2,2,2
40960000,0.0,0.0,2.3283064e-10,0.0,0.0,0.003604066,0,1,0,0,0,0,0,-2,2,2,2,2,2,2,2,2,2,2,2
41160000,-4.656613e-10,0.0,-0.000664276,0.0,0.0,0.002524796,0,1,0,-2,0,0,0,-2,2,2,2,2,2,2,2,2,2,2,2
41360000,-2.3283064e-10,-5.820766e-11,-8.571734e-05,0.0,0.0,0.00018414133,0,1,1,-2,0,0,0,-2,2,2,2,2,2,2,2,2,2,2,2
41560000,-2.3283064e-10,1.1641532e-10,2.3283064e-10,0.0,0.0,0.0013362871,0,1,0,0,0,0,0,-2,2,2,2,2,2,2,2,2,2,2,2
41760000,-6.9849193e-10,0.0,3.2014214e-10,0.0,0.0,0.002378276,0,1,0,0,0,0,0,-2,2,2,2,2,2,2,2,2,2,2,2
41960000,-2.3283064e-10,-2.3283064e-10,1.7462298e-10,0.0,0.0,0.0029333965,0,1,0,0,0,0,0,-2,2,2,2,2,2,2,2,2,2,2,2
42160000,-4.656613e-10,-1.1641532e-10,-0.00019370076,0.0,0.0,0.0031078737,0,1,0,-2,0,0,0,-2,2,2,2,2,2,2,2,2,2,2,2
42360000,-3.4924597e-10,-2.910383e-11,-0.00015778333,0.0,0.0,3.2449723e-05,0,1,1,-2,0,0,0,-2,2,2,2,2,2,2,2,2,2,2,2
42560000,-4.656613e-10,-3.0559022e-10,-2.3700733e-05,0.0,0.0,0.0018187003,0,1,0,-2,0,0,0,-2,2,2,2,2,2,2,2,2,2,2,2
42760000,-4.656613e-10,1.1641532e-10,-0.00054035947,0.0,0.0,0.0019161158,0,1,0,-2,0,0,0,-2,2,2,2,2,2,2,2,2,2,2,2
42960000,-2.3283064e-10,-2.910383e-11,2.910383e-11,0.0,0.0,-1.1641532e-10,0,1,1,0,0,0,0,-2,2,2,2,2,2,2,2,2,2,2,2
43160000,-9.313226e-10,-1.7462298e-10,1.891749e-10,0.0,0.0,0.0014575078,0,1,0,0,0,0,0,-2,2,2,2,2,2,2,2,2,2,2,2
43360000,-2.910383e-11,1.1641532e-10,-0.0010582772,0.0,0.0,0.00015564996,0,0,1,-2,0,0,0,-2,2,2,2,2,2,2,2,2,2,2,2
43560000,-4.656613e-10,2.910383e-11,-0.00021197363,0.0,0.0,0.0007297185,0,1,1,-2,0,0,0,-2,2,2,2,2,2,2,2,2,2,2,2
43760000,-1.1641532e-10,2.910383e-11,-4.3655746e-11,0.0,0.0,-1.1641532e-10,0,1,1,0,0,0,0,-2,2,2,2,2,2,2,2,2,2,2,2
43960000,-4.656613e-10,-1.1641532e-10,-0.0009084492,0.0,0.0,0.0016537047,0,1,0,-2,0,0,0,-2,2,2,2,2,2,2,2,2,2,2,2
44160000,-9.313226e-10,1.4551915e-10,-0.0003984747,0.0,0.0,0.000920285,0,1,1,-2,0,0,0,-2,2,2,2,2,2,2,2,2,2,2,2
44360000,-2.3283064e-10,-5.820766e-11,2.0372681e-10,0.0,0.0,-1.1641532e-10,0,1,1,0,0,0,0,-2,2,2,2,2,2,2,2,2,2,2,2
44560000,2.3283064e-10,2.910383e-11,-4.3655746e-11,0.0,0.0,-1.1641532e-10,0,1,1,0,0,0,0,-2,2,2,2,2,2,2,2,2,2,2,2
44760000,-2.3283064e-10,7.2759576e-11,-4.0017767e-11,0.0,0.0,-1.1641532e-10,0,1,1,0,0,0,0,-2,2,2,2,2,2,2,2,2,2,2,2
44960000,-4.656613e-10,-2.910383e-11,-0.00054346013,0.0,0.0,0.0,0,1,1,-2,0,0,0,-2,2,2,2,2,2,2,2,2,2,2,2
45160000,-9.313226e-10,8.731149e-11,4.7293724e-11,0.0,0.0,0.0012490571,0,1,0,0,0,0,0,-2,2,2,2,2,2,2,2,2,2,2,2
45360000,-4.656613e-10,0.0,2.3283064e-10,0.0,0.0,0.0019296723,0,1,0,0,0,0,0,-2,2,2,2,2,2,2,2,2,2,2,2
45560000,-1.1641532e-10,5.820766e-11,-0.00019750299,0.0,0.0,8.071691e-05,0,1,1,-2,0,0,0,-2,2,2,2,2,2,2,2,2,2,2,2
45760000,-3.4924597e-10,0.0,-0.00089239824,0.0,0.0,0.00081900717,0,1,1,-2,0,0,0,-2,2,2,2,2,2,2,2,2,2,2,2
45960000,-4.656613e-10,-1.1641532e-10,2.910383e-11,0.0,0.0,0.0009054496,0,1,1,0,0,0,0,-2,2,2,2,2,2,2,2,2,2,2,2
46160000,0.0,0.0,-0.00022718176,0.0,0.0,0.0006917794,0,1,1,-2,0,0,0,-2,2,2,2,2,2,2,2,2,2,2,2
46360000,-4.656613e-10,5.820766e-11,0.0006001509,0.0,0.0,0.0009739917,0,1,1,0,0,0,-2,-2,2,2,2,2,2,2,2,2,2,2,2
46560000,-5.820766e-11,-1.1641532e-10,-0.0002678174,0.0,0.0,-1.1641532e-10,0,1,1,-2,0,0,0,-2,2,2,2,2,2,2,2,2,2,2,2
46760000,-6.9849193e-10,0.0,-0.0006708395,0.0,0.0,0.0018524233,0,1,0,-2,0,0,0,-2,2,2,2,2,2,2,2,2,2,2,2
46960000,-4.656613e-10,3.4924597e-10,-0.00046392114,0.0,0.0,0.0013761652,0,1,0,-2,0,0,0,-2,2,2,2,2,2,2,2,2,2,2,2
47160000,1.1641532e-10,5.820766e-11,-3.1437162e-06,0.0,0.0,-1.1641532e-10,0,1,1,0,-2,0,0,-2,2,2,2,2,2,2,2,2,2,2,2
47360000,1.7462298e-10,2.910383e-11,0.00021886715,0.0,0.0,-1.1641532e-10,0,1,1,0,0,-2,0,-2,2,2,2,2,2,2,2,2,2,2,2
47560000,-6.9849193e-10,0.0,3.4924597e-10,0.0,0.0,0.002226009,0,1,0,0,0,0,0,-2,2,2,2,2,2,2,2,2,2,2,2
47760000,-2.3283064e-10,-5.820766e-11,2.910383e-10,0.0,0.0,0.00053952413,0,1,1,0,0,0,0,-2,2,2,2,2,2,2,2,2,2,2,2
47960000,-2.3283064e-10,5.0931703e-11,-0.00039920546,0.0,0.0,0.00047454238,0,1,1,-2,0,0,0,-2,2,2,2,2,2,2,2,2,2,2,2
48160000,0.0,0.0,0.00056688907,0.0,0.0,0.00021900784,0,1,1,0,0,-2,0,-2,2,2,2,2,2,2,2,2,2,2,2
48360000,2.3283064e-10,-5.820766e-11,-2.910383e-11,0.0,0.0,-1.1641532e-10,0,1,1,0,0,0,0,-2,2,2,2,2,2,2,2,2,2,2,2
48560000,0.0,-5.820766e-11,0.00041454606,0.0,0.0,-1.1641532e-10,0,1,1,0,0,0,-2,-2,2,2,2,2,2,2,2,2,2,2,2
48760000,-1.200533e-10,1.1641532e-10,1.6370905e-11,0.0,0.0,-1.1641532e-10,0,1,1,0,0,0,0,-2,2,2,2,2,2,2,2,2,2,2,2
48960000,2.3283064e-10,0.0,-2.3283064e-10,0.0,0.0,0.0012259198,0,1,0,0,0,0,0,-2,2,2,2,2,2,2,2,2,2,2,2
49160000,-5.820766e-11,2.910383e-11,-8.731149e-11,0.0,0.0,-1.1641532e-10,0,1,1,0,0,0,0,-2,2,2,2,2,2,2,2,2,2,2,2
49360000,1.1641532e-10,1.1641532e-10,0.00016514862,0.0,0.0,0.00031911454,0,1,1,0,0,-2,0,-2,2,2,2,2,2,2,2,2,2,2,2
49560000,-3.4924597e-10,-5.820766e-11,0.00073740754,0.0,0.0,3.8716826e-05,0,1,1,0,0,0,-2,-2,2,2,2,2,2,2,2,2,2,2,2
49760000,1.1641532e-10,5.820766e-11,7.2759576e-11,0.0,0.0,-1.1641532e-10,0,1,1,0,0,0,0,-2,2,2,2,2,2,2,2,2,2,2,2
49960000,-2.910383e-11,1.1641532e-10,0.0013343303,0.0,0.0,0.00012362131,0,0,1,0,0,0,-2,-2,2,2,2,2,2,2,2,2,2,2,2
50160000,9.313226e-10,0.0,2.0372681e-10,0.0,0.0,0.0040710163,0,1,0,0,0,0,0,-2,2,2,2,2,2,2,2,2,2,2,2
50360000,5.820766e-11,5.820766e-11,0.0,0.0,0.0,-1.1641532e-10,0,1,1,0,0,0,0,-2,2,2,2,2,2,2,2,2,2,2,2
50560000,2.3283064e-10,5.820766e-11,0.0004437873,0.0,0.0,0.00048510474,0,1,1,0,0,-2,0,-2,2,2,2,2,2,2,2,2,2,2,2
50760000,4.656613e-10,-2.3283064e-10,-1.6007107e-10,0.0,0.0,0.0020272518,0,1,0,0,0,0,0,-2,2,2,2,2,2,2,2,2,2,2,2
50960000,4.656613e-10,-1.7462298e-10,-0.00039209903,0.0,0.0,0.0008386503,0,1,1,0,-2,0,0,-2,2,2,2,2,2,2,2,2,2,2,2
51160000,2.3283064e-10,0.0,-0.0004964109,0.0,0.0,0.000849708,0,1,1,0,-2,0,0,-2,2,2,2,2,2,2,2,2,2,2,2
51360000,5.820766e-11,0.0,-2.910383e-11,0.0,0.0,0.00028032204,0,1,1,0,0,0,0,-2,2,2,2,2,2,2,2,2,2,2,2
51560000,6.9849193e-10,-2.3283064e-10,-2.764864e-10,0.0,0.0,0.0012370903,0,1,0,0,0,0,0,-2,2,2,2,2,2,2,2,2,2,2,2
51760000,5.0931703e-11,-1.1641532e-10,0.00021674627,0.0,0.0,0.0001661625,0,1,1,0,0,-2,0,-2,2,2,2,2,2,2,2,2,2,2,2
51960000,1.1641532e-10,-5.820766e-11,6.185711e-05,0.0,0.0,-1.1641532e-10,0,1,1,0,0,-2,0,-2,2,2,2,2,2,2,2,2,2,2,2
52160000,9.313226e-10,-1.1641532e-10,-1.4551915e-10,0.0,0.0,0.0020491239,0,1,0,0,0,0,0,-2,2,2,2,2,2,2,2,2,2,2,2
52360000,8.731149e-11,-2.3283064e-10,-8.0035534e-11,0.0,0.0,0.0009283627,0,1,1,0,0,0,0,-2,2,2,2,2,2,2,2,2,2,2,2
52560000,4.656613e-10,6.548362e-11,-0.00010085321,0.0,0.0,0.00071676564,0,1,1,0,-2,0,0,-2,2,2,2,2,2,2,2,2,2,2,2
52760000,4.3655746e-11,0.0,2.910383e-11,0.0,0.0,-1.1641532e-10,0,1,1,0,0,0,0,-2,2,2,2,2,2,2,2,2,2,2,2
52960000,2.3283064e-10,-2.3283064e-10,-0.00038001547,0.0,0.0,0.0013206658,0,1,0,0,-2,0,0,-2,2,2,2,2,2,2,2,2,2,2,2
53160000,-1.7462298e-10,-1.1641532e-10,-1.9481547e-05,0.0,0.0,0.00048959884,0,1,1,-2,0,0,0,-2,2,2,2,2,2,2,2,2,2,2,2
53360000,2.3283064e-10,-1.1641532e-10,-1.6007107e-10,0.0,0.0,0.0016217189,0,1,0,0,0,0,0,-2,2,2,2,2,2,2,2,2,2,2,2
53560000,1.1641532e-10,-1.1641532e-10,0.0,0.0,0.0,0.0007299164,0,1,1,0,0,0,0,-2,2,2,2,2,2,2,2,2,2,2,2
53760000,3.4924597e-10,0.0,-1.9861514e-05,0.0,0.0,0.0011497649,0,1,0,0,-2,0,0,-2,2,2,2,2,2,2,2,2,2,2,2
53960000,-4.656613e-10,2.3283064e-10,1.1641532e-10,0.0,0.0,0.0013517643,0,1,0,0,0,0,0,-2,2,2,2,2,2,2,2,2,2,2,2
54160000,1.1641532e-10,8.731149e-11,-0.00068915565,0.0,0.0,-1.1641532e-10,0,1,1,0,-2,0,0,-2,2,2,2,2,2,2,2,2,2,2,2
54360000,2.3283064e-10,4.3655746e-11,5.820766e-11,0.0,0.0,0.0,0,1,1,0,0,0,0,-2,2,2,2,2,2,2,2,2,2,2,2
54560000,-8.731149e-11,2.910383e-11,6.548362e-11,0.0,0.0,-1.1641532e-10,0,1,1,0,0,0,0,-2,2,2,2,2,2,2,2,2,2,2,2
54760000,3.4924597e-10,2.3283064e-10,2.910383e-11,0.0,0.0,0.0011578925,0,1,0,0,0,0,0,-2,2,2,2,2,2,2,2,2,2,2,2
54960000,2.3283064e-10,2.910383e-11,1.1641532e-10,0.0,0.0,-1.1641532e-10,0,1,1,0,0,0,0,-2,2,2,2,2,2,2,2,2,2,2,2
55160000,-2.1827873e-10,0.0,1.2026125e-05,0.0,0.0,0.0017523443,0,1,0,0,0,0,-2,-2,2,2,2,2,2,2,2,2,2,2,2
55360000,-1.7462298e-10,0.0,-0.0010692707,0.0,0.0,5.3872238e-05,0,0,1,-2,0,0,0,-2,2,2,2,2,2,2,2,2,2,2,2
55560000,-2.910383e-11,5.820766e-11,-5.0916104e-05,0.0,0.0,-1.1641532e-10,0,1,1,0,-2,0,0,-2,2,2,2,2,2,2,2,2,2,2,2
55760000,5.820766e-11,1.1641532e-10,1.7462298e-10,0.0,0.0,0.00017680973,0,1,1,0,0,0,0,-2,2,2,2,2,2,2,2,2,2,2,2
55960000,3.4924597e-10,5.820766e-11,1.1641532e-10,0.0,0.0,0.00028964935,0,1,1,0,0,0,0,-2,2,2,2,2,2,2,2,2,2,2,2
56160000,1.1641532e-10,0.0,0.000549783,0.0,0.0,0.0011657014,0,1,0,0,0,0,-2,-2,2,2,2,2,2,2,2,2,2,2,2
56360000,4.656613e-10,0.0,-0.0005651338,0.0,0.0,0.0015880346,0,1,0,0,-2,0,0,-2,2,2,2,2,2,2,2,2,2,2,2
56560000,4.656613e-10,2.3283064e-10,-2.910383e-11,0.0,0.0,0.0010570852,0,1,0,0,0,0,0,-2,2,2,2,2,2,2,2,2,2,2,2
56760000,3.4924597e-10,0.0,-0.0009543018,0.0,0.0,0.001110356,0,1,0,0,-2,0,0,-2,2,2,2,2,2,2,2,2,2,2,2
56960000,-1.4551915e-11,2.910383e-11,1.1641532e-10,0.0,0.0,-1.1641532e-10,0,1,1,0,0,0,0,-2,2,2,2,2,2,2,2,2,2,2,2
57160000,-1.1641532e-10,1.1641532e-10,0.00023971147,0.0,0.0,0.00097634934,0,1,1,0,0,0,-2,-2,2,2,2,2,2,2,2,2,2,2,2
57360000,1.1641532e-10,5.820766e-11,-0.00073164864,0.0,0.0,0.0003950199,0,1,1,0,-2,0,0,-2,2,2,2,2,2,2,2,2,2,2,2
57560000,-2.3283064e-10,0.0,-0.00047493208,0.0,0.0,0.0011656029,0,1,0,0,-2,0,0,-2,2,2,2,2,2,2,2,2,2,2,2
57760000,4.656613e-10,0.0,1.7462298e-10,0.0,0.0,0.0014993303,0,1,0,0,0,0,0,-2,2,2,2,2,2,2,2,2,2,2,2
57960000,-1.4551915e-10,0.0,0.001072503,0.0,0.0,6.208627e-05,0,0,1,0,0,0,-2,-2,2,2,2,2,2,2,2,2,2,2,2
58160000,1.1641532e-10,2.3283064e-10,0.0,0.0,0.0,0.0014194952,0,1,0,0,0,0,0,-2,2,2,2,2,2,2,2,2,2,2,2
58360000,4.656613e-10,1.1641532e-10,8.731149e-11,0.0,0.0,0.0019465789,0,1,0,0,0,0,0,-2,2,2,2,2,2,2,2,2,2,2,2
58560000,4.656613e-10,1.1641532e-10,-0.0004325327,0.0,0.0,0.0019231288,0,1,0,0,-2,0,0,-2,2,2,2,2,2,2,2,2,2,2,2
58760000,1.1641532e-10,-1.8189894e-11,-8.731149e-11,0.0,0.0,-1.1641532e-10,0,1,1,0,0,0,0,-2,2,2,2,2,2,2,2,2,2,2,2
58960000,-4.656613e-10,2.3283064e-10,2.4738256e-10,0.0,0.0,0.0031245444,0,1,0,0,0,0,0,-2,2,2,2,2,2,2,2,2,2,2,2
59160000,4.656613e-10,5.820766e-11,-0.0008386626,0.0,0.0,0.00157697,0,1,0,0,-2,0,0,-2,2,2,2,2,2,2,2,2,2,2,2
59360000,2.3283064e-10,0.0,-0.0003098325,0.0,0.0,0.0018318832,0,1,0,0,-2,0,0,-2,2,2,2,2,2,2,2,2,2,2,2
59560000,0.0,0.0,-0.0002916428,0.0,0.0,0.0009213274,0,1,1,0,-2,0,0,-2,2,2,2,2,2,2,2,2,2,2,2
59760000,1.8626451e-09,-2.3283064e-10,-1.9499566e-09,0.0,0.0,0.0,0,1,1,0,0,0,0,-2,2,2,2,2,2,2,2,2,2,2,2
59960000,1.8626451e-09,2.7939677e-09,-2.4447218e-09,0.0,0.0,-7.450581e-09,0,1,1,0,0,0,0,-2,2,2,2,2,2,2,2,2,2,2,2
60160000,-1.8626451e-09,-9.313226e-10,2.2700988e-09,0.0,0.0,0.0,0,1,1,0,0,0,0,-2,2,2,2,2,2,2,2,2,2,2,2
60360000,-4.656613e-09,1.3969839e-09,1.3114914e-09,0.0,0.0,0.0,0,1,1,0,0,0,0,-2,2,2,2,2,2,2,2,2,2,2,2
60560000,-5.5879354e-09,3.7252903e-09,1.891749e-09,0.0,0.0,-1.4901161e-08,0,1,1,0,0,0,0,-2,2,2,2,2,2,2,2,2,2,2,2
60760000,1.1641532e-08,-1.9557774e-08,2.2118911e-09,0.0,0.0,-2.9802322e-08,0,1,1,0,0,0,0,-2,2,2,2,2,2,2,2,2,2,2,2
60960000,-1.5832484e-08,2.7939677e-09,1.0957592e-08,0.0,0.0,0.0,0,1,1,0,0,0,0,-2,2,2,2,2,2,2,2,2,2,2,2
61160000,1.8626451e-08,1.21071935e-08,1.0593794e-08,0.0,0.0,-2.9802322e-08,0,1,1,0,0,0,0,-2,2,2,2,2,2,2,2,2,2,2,2
61360000,1.21071935e-08,-1.8626451e-09,1.1641532e-10,0.0,0.0,-2.9802322e-08,0,1,1,0,0,0,0,-2,2,2,2,2,2,2,2,2,2,2,2
61560000,-1.071021e-08,7.450581e-09,-3.434252e-09,0.0,0.0,-2.9802322e-08,0,1,1,0,0,0,0,-2,2,2,2,2,2,2,2,2,2,2,2
61760000,9.313226e-09,4.656613e-09,-8.003553e-09,0.0,0.0,-2.9802322e-08,0,1,1,0,0,0,0,-2,2,2,2,2,2,2,2,2,2,2,2
61960000,4.2724423e-08,9.313226e-10,5.529728e-09,0.0,0.0,0.0,0,1,1,0,0,0,0,-2,2,2,2,2,2,2,2,2,2,2,2
62160000,6.9849193e-10,1.21071935e-08,7.392373e-09,0.0,0.0,-5.9604645e-08,0,1,1,0,0,0,0,-2,2,2,2,2,2,2,2,2,2,2,2
62360000,6.3329935e-08,-1.0128133e-08,2.5225745e-08,0.0,0.0,-5.9604645e-08,0,1,1,0,0,0,0,-2,2,2,2,2,2,2,2,2,2,2,2
62560000,-6.100163e-08,9.546056e-09,4.551839e-08,0.0,0.0,0.0,0,1,1,0,0,0,0,-2,2,2,2,2,2,2,2,2,2,2,2
62760000,4.284084e-08,-2.4912879e-08,2.0372681e-10,0.0,0.0,0.0,0,1,1,0,0,0,0,-2,2,2,2,2,2,2,2,2,2,2,2
62960000,3.2698154e-08,2.0605512e-08,-3.5797711e-09,0.0,0.0,-5.9604645e-08,0,1,1,0,0,0,0,-2,2,2,2,2,2,2,2,2,2,2,2
63160000,-6.0070306e-08,3.823152e-08,1.6356353e-08,0.0,0.0,-5.9604645e-08,0,1,1,0,0,0,0,-2,2,2,2,2,2,2,2,2,2,2,2
63360000,-2.3166649e-08,4.6071364e-08,3.0246156e-08,0.0,0.0,-5.9604645e-08,0,1,1,0,0,0,0,-2,2,2,2,2,2,2,2,2,2,2,2
63560000,6.589107e-08,1.7229468e-08,-9.313226e-09,0.0,0.0,0.0,0,1,1,0,0,0,0,-2,2,2,2,2,2,2,2,2,2,2,2
63760000,5.3318217e-08,-2.9239573e-08,-1.7833372e-08,0.0,0.0,0.0,0,1,1,0,0,0,0,-2,2,2,2,2,2,2,2,2,2,2,2
63960000,-1.2572855e-08,-4.3713953e-08,-1.884473e-08,0.0,0.0,-5.9604645e-08,0,1,1,0,0,0,0,-2,2,2,2,2,2,2,2,2,2,2,2
64160000,4.6624336e-08,-1.4042598e-08,-2.910383e-11,0.0,0.0,-5.9604645e-08,0,1,1,0,0,0,0,-2,2,2,2,2,2,2,2,2,2,2,2
64360000,-2.4796464e-08,1.7695129e-08,1.8495484e-08,0.0,0.0,0.0,0,1,1,0,0,0,0,-2,2,2,2,2,2,2,2,2,2,2,2
64560000,6.090886e-09,2.1769665e-08,1.758599e-08,0.0,0.0,-5.9604645e-08,0,1,1,0,0,0,0,-2,2,2,2,2,2,2,2,2,2,2,2
64760000,-1.5366822e-08,4.773028e-09,7.712515e-10,0.0,0.0,0.0,0,1,1,0,0,0,0,-2,2,2,2,2,2,2,2,2,2,2,2
64960000,6.891787e-08,-1.0477379e-09,5.835318e-09,0.0,0.0,0.0,0,1,1,0,0,0,0,-2,2,2,2,2,2,2,2,2,2,2,2
65160000,-1.0128133e-08,5.995389e-09,-1.9586878e-08,0.0,0.0,-5.9604645e-08,0,1,1,0,0,0,0,-2,2,2,2,2,2,2,2,2,2,2,2
65360000,7.887138e-09,-2.1045707e-08,-3.137393e-08,0.0,0.0,0.0,0,1,1,0,0,0,0,-2,2,2,2,2,2,2,2,2,2,2,2
65560000,-3.306195e-08,-1.5133992e-08,-1.4872057e-08,0.0,0.0,-5.9604645e-08,0,1,1,0,0,0,0,-2,2,2,2,2,2,2,2,2,2,2,2
65760000,-7.194467e-08,-2.3981556e-08,5.9226295e-09,0.0,0.0,-5.9604645e-08,0,1,1,0,0,0,0,-2,2,2,2,2,2,2,2,2,2,2,2
65960000,-9.138603e-09,-4.8894435e-09,-1.4697434e-09,0.0,0.0,-5.9604645e-08,0,1,1,0,0,0,0,-2,2,2,2,2,2,2,2,2,2,2,2
66160000,-2.514571e-08,-1.9092113e-08,9.080395e-09,0.0,0.0,-5.9604645e-08,0,1,1,0,0,0,0,-2,2,2,2,2,2,2,2,2,2,2,2
66360000,-8.8475645e-09,-1.9179424e-08,-1.2398232e-08,0.0,0.0,-5.9604645e-08,0,1,1,0,0,0,0,-2,2,2,2,2,2,2,2,2,2,2,2
66560000,3.3178367e-08,2.2118911e-08,2.4796464e-08,0.0,0.0,-5.9604645e-08,0,1,1,0,0,0,0,-2,2,2,2,2,2,2,2,2,2,2,2
66760000,-2.6542693e-08,5.9371814e-09,-4.132744e-09,0.0,0.0,-5.9604645e-08,0,1,1,0,0,0,0,-2,2,2,2,2,2,2,2,2,2,2,2
66960000,2.4214387e-08,3.0413503e-08,-2.3515895e-08,0.0,0.0,-5.9604645e-08,0,1,1,0,0,0,0,-2,2,2,2,2,2,2,2,2,2,2,2
67160000,-2.4680048e-08,2.0372681e-08,3.6154233e-08,0.0,0.0,0.0,0,1,1,0,0,0,0,-2,2,2,2,2,2,2,2,2,2,2,2
67360000,-1.839362e-08,1.3969839e-08,2.1187589e-08,0.0,0.0,0.0,0,1,1,0,0,0,0,-2,2,2,2,2,2,2,2,2,2,2,2
67560000,1.1990778e-08,2.2817403e-08,-5.5879354e-09,0.0,0.0,-5.9604645e-08,0,1,1,0,0,0,0,-2,2,2,2,2,2,2,2,2,2,2,2
67760000,3.2538082e-08,2.0721927e-08,-4.656613e-09,0.0,0.0,-5.9604645e-08,0,1,1,0,0,0,0,-2,2,2,2,2,2,2,2,2,2,2,2
67960000,-8.8475645e-09,2.7939677e-09,-1.0244548e-08,0.0,0.0,0.0,0,1,1,0,0,0,0,-2,2,2,2,2,2,2,2,2,2,2,2
68160000,4.656613e-10,2.0954758e-08,4.4237822e-09,0.0,0.0,-5.9604645e-08,0,1,1,0,0,0,0,-2,2,2,2,2,2,2,2,2,2,2,2
68360000,-2.537854e-08,1.754961e-08,0.0,0.0,0.0,-5.9604645e-08,0,1,1,0,0,0,0,-2,2,2,2,2,2,2,2,2,2,2,2
68560000,-1.0186341e-08,-1.3969839e-09,3.6496203e-08,0.0,0.0,-5.9604645e-08,0,1,1,0,0,0,0,-2,2,2,2,2,2,2,2,2,2,2,2
68760000,-2.2526365e-08,3.1199306e-08,-1.2674718e-08,0.0,0.0,-5.9604645e-08,0,1,1,0,0,0,0,-2,2,2,2,2,2,2,2,2,2,2,2
68960000,3.585592e-08,-2.5203917e-08,-1.0011718e-08,0.0,0.0,0.0,0,1,1,0,0,0,0,-2,2,2,2,2,2,2,2,2,2,2,2
69160000,-1.3038516e-08,4.5649358e-08,-1.8975697e-08,0.0,0.0,0.0,0,1,1,0,0,0,0,-2,2,2,2,2,2,2,2,2,2,2,2
69360000,2.788147e-08,2.7474016e-08,2.059096e-08,0.0,0.0,-5.9604645e-08,0,1,1,0,0,0,0,-2,2,2,2,2,2,2,2,2,2,2,2
69560000,-1.4202669e-08,-6.9849193e-09,1.5337719e-08,0.0,0.0,-5.9604645e-08,0,1,1,0,0,0,0,-2,2,2,2,2,2,2,2,2,2,2,2
69760000,-3.678724e-08,1.8626451e-08,2.0372681e-10,0.0,0.0,0.0,0,1,1,0,0,0,0,-2,2,2,2,2,2,2,2,2,2,2,2
69960000,3.3411197e-08,-5.005859e-09,-3.8853614e-09,0.0,0.0,0.0,0,1,1,0,0,0,0,-2,2,2,2,2,2,2,2,2,2,2,2
70160000,5.553011e-08,1.5133992e-08,1.573062e-08,0.0,0.0,-5.9604645e-08,0,1,1,0,0,0,0,-2,2,2,2,2,2,2,2,2,2,2,2
70360000,-6.1583705e-08,-9.662472e-09,-2.3457687e-08,0.0,0.0,-5.9604645e-08,0,1,1,0,0,0,0,-2,2,2,2,2,2,2,2,2,2,2,2
70560000,-1.2805685e-08,2.4447218e-08,1.1059456e-09,0.0,0.0,0.0,0,1,1,0,0,0,0,-2,2,2,2,2,2,2,2,2,2,2,2
70760000,-2.73576e-08,-1.36788e-08,2.264278e-08,0.0,0.0,0.0,0,1,1,0,0,0,0,-2,2,2,2,2,2,2,2,2,2,2,2
70960000,2.363231e-08,-1.4784746e-08,-8.4983185e-09,0.0,0.0,-5.9604645e-08,0,1,1,0,0,0,0,-2,2,2,2,2,2,2,2,2,2,2,2
71160000,-1.641456e-08,-1.7575076e-08,-6.4028427e-09,0.0,0.0,0.0,0,1,1,0,0,0,0,-2,2,2,2,2,2,2,2,2,2,2,2
71360000,-3.4691766e-08,3.707828e-08,2.2846507e-08,0.0,0.0,-5.9604645e-08,0,1,1,0,0,0,0,-2,2,2,2,2,2,2,2,2,2,2,2
71560000,-5.6221324e-08,9.080395e-09,1.17579475e-08,0.0,0.0,0.0,0,1,1,0,0,0,0,-2,2,2,2,2,2,2,2,2,2,2,2
71760000,5.180482e-09,-9.138603e-09,-2.1944288e-08,0.0,0.0,-5.9604645e-08,0,1,1,0,0,0,0,-2,2,2,2,2,2,2,2,2,2,2,2
71960000,4.1211024e-08,1.5821115e-08,-9.313226e-09,0.0,0.0,-5.9604645e-08,0,1,1,0,0,0,0,-2,2,2,2,2,2,2,2,2,2,2,2
72160000,-3.6961865e-08,3.6670826e-08,3.3469405e-09,0.0,0.0,0.0,0,1,1,0,0,0,0,-2,2,2,2,2,2,2,2,2,2,2,2
72360000,-2.7066562e-08,1.3620593e-08,1.4544639e-08,0.0,0.0,-5.9604645e-08,0,1,1,0,0,0,0,-2,2,2,2,2,2,2,2,2,2,2,2
72560000,-5.0640665e-08,1.2980308e-08,2.1973392e-09,0.0,0.0,-5.9604645e-08,0,1,1,0,0,0,0,-2,2,2,2,2,2,2,2,2,2,2,2
72760000,2.4447218e-09,1.21071935e-08,3.8708095e-09,0.0,0.0,0.0,0,1,1,0,0,0,0,-2,2,2,2,2,2,2,2,2,2,2,2
72960000,-4.2200554e-08,7.916242e-09,2.2468157e-08,0.0,0.0,-5.9604645e-08,0,1,1,0,0,0,0,-2,2,2,2,2,2,2,2,2,2,2,2
73160000,-7.566996e-09,6.0535967e-09,2.7299393e-08,0.0,0.0,-5.9604645e-08,0,1,1,0,0,0,0,-2,2,2,2,2,2,2,2,2,2,2,2
73360000,4.1443855e-08,2.4680048e-08,3.1432137e-09,0.0,0.0,0.0,0,1,1,0,0,0,0,-2,2,2,2,2,2,2,2,2,2,2,2
73560000,7.799827e-09,1.6065314e-08,-1.8102583e-08,0.0,0.0,-5.9604645e-08,0,1,1,0,0,0,0,-2,2,2,2,2,2,2,2,2,2,2,2
73760000,-1.7884304e-08,2.6077032e-08,1.0099029e-08,0.0,0.0,-5.9604645e-08,0,1,1,0,0,0,0,-2,2,2,2,2,2,2,2,2,2,2,2
73960000,1.3766112e-08,-1.4901161e-08,3.1432137e-09,0.0,0.0,-5.9604645e-08,0,1,1,0,0,0,0,-2,2,2,2,2,2,2,2,2,2,2,2
74160000,2.1769665e-08,5.3085387e-08,3.7107384e-08,0.0,0.0,-5.9604645e-08,0,1,1,0,0,0,0,-2,2,2,2,2,2,2,2,2,2,2,2
74360000,2.6775524e-08,2.7008355e-08,-6.4319465e-09,0.0,0.0,0.0,0,1,1,0,0,0,0,-2,2,2,2,2,2,2,2,2,2,2,2
74560000,-4.9825758e-08,6.9849193e-09,-1.5890691e-08,0.0,0.0,-5.9604645e-08,0,1,1,0,0,0,0,-2,2,2,2,2,2,2,2,2,2,2,2
74760000,-6.024493e-09,1.816079e-08,5.806214e-09,0.0,0.0,0.0,0,1,1,0,0,0,0,-2,2,2,2,2,2,2,2,2,2,2,2
74960000,1.8626451e-08,-2.3283064e-09,8.440111e-10,0.0,0.0,0.0,0,1,1,0,0,0,0,-2,2,2,2,2,2,2,2,2,2,2,2
75160000,2.0489097e-08,-1.7695129e-08,-2.9074727e-08,0.0,0.0,-5.9604645e-08,0,1,1,0,0,0,0,-2,2,2,2,2,2,2,2,2,2,2,2
75360000,-1.7462298e-09,3.1199306e-08,-3.8489816e-09,0.0,0.0,0.0,0,1,1,0,0,0,0,-2,2,2,2,2,2,2,2,2,2,2,2
75560000,-7.0402166e-08,1.3038516e-08,-6.0535967e-09,0.0,0.0,0.0,0,1,1,0,0,0,0,-2,2,2,2,2,2,2,2,2,2,2,2
75760000,3.0733645e-08,-9.313226e-10,-2.8696377e-08,0.0,0.0,0.0,0,1,1,0,0,0,0,-2,2,2,2,2,2,2,2,2,2,2,2
75960000,3.1548552e-08,-4.5169145e-08,-3.0559022e-10,0.0,0.0,-5.9604645e-08,0,1,1,0,0,0,0,-2,2,2,2,2,2,2,2,2,2,2,2
76160000,-5.296897e-08,-2.4680048e-08,1.873559e-08,0.0,0.0,-5.9604645e-08,0,1,1,0,0,0,0,-2,2,2,2,2,2,2,2,2,2,2,2
76360000,3.3760443e-08,-9.080395e-09,-1.4289981e-08,0.0,0.0,-5.9604645e-08,0,1,1,0,0,0,0,-2,2,2,2,2,2,2,2,2,2,2,2
76560000,-4.656613e-08,9.546056e-09,2.1536835e-09,0.0,0.0,0.0,0,1,1,0,0,0,0,-2,2,2,2,2,2,2,2,2,2,2,2
76760000,-3.2479875e-08,1.5832484e-08,-2.1856977e-08,0.0,0.0,-5.9604645e-08,0,1,1,0,0,0,0,-2,2,2,2,2,2,2,2,2,2,2,2
76960000,2.0256266e-08,2.6077032e-08,-6.0535967e-09,0.0,0.0,-5.9604645e-08,0,1,1,0,0,0,0,-2,2,2,2,2,2,2,2,2,2,2,2
77160000,4.377216e-08,1.22818165e-08,1.8626451e-09,0.0,0.0,-5.9604645e-08,0,1,1,0,0,0,0,-2,2,2,2,2,2,2,2,2,2,2,2
77360000,9.383075e-08,-1.0812073e-08,-4.3655746e-10,0.0,0.0,-5.9604645e-08,0,1,1,0,0,0,0,-2,2,2,2,2,2,2,2,2,2,2,2
77560000,-3.0267984e-08,-3.0559022e-09,6.0827006e-09,0.0,0.0,-5.9604645e-08,0,1,1,0,0,0,0,-2,2,2,2,2,2,2,2,2,2,2,2
77760000,-7.450581e-09,-1.7360435e-08,1.8742867e-08,0.0,0.0,0.0,0,1,1,0,0,0,0,-2,2,2,2,2,2,2,2,2,2,2,2
77960000,-3.03844e-08,1.3038516e-08,-7.1013346e-09,0.0,0.0,0.0,0,1,1,0,0,0,0,-2,2,2,2,2,2,2,2,2,2,2,2
78160000,-9.313226e-10,1.6239937e-08,-2.5815098e-08,0.0,0.0,-5.9604645e-08,0,1,1,0,0,0,0,-2,2,2,2,2,2,2,2,2,2,2,2
78360000,4.4965418e-08,4.6216883e-08,1.8742867e-08,0.0,0.0,0.0,0,1,1,0,0,0,0,-2,2,2,2,2,2,2,2,2,2,2,2
78560000,-2.9918738e-08,6.4028427e-10,3.8038706e-08,0.0,0.0,-5.9604645e-08,0,1,1,0,0,0,0,-2,2,2,2,2,2,2,2,2,2,2,2
78760000,-9.837095e-09,8.381903e-09,2.3283064e-09,0.0,0.0,-5.9604645e-08,0,1,1,0,0,0,0,-2,2,2,2,2,2,2,2,2,2,2,2
78960000,-6.4028427e-09,3.236346e-08,4.831236e-09,0.0,0.0,-5.9604645e-08,0,1,1,0,0,0,0,-2,2,2,2,2,2,2,2,2,2,2,2
79160000,1.9266736e-08,6.170012e-09,-1.5541445e-08,0.0,0.0,0.0,0,1,1,0,0,0,0,-2,2,2,2,2,2,2,2,2,2,2,2
79360000,-5.1863026e-08,1.8742867e-08,2.4825567e-08,0.0,0.0,-5.9604645e-08,0,1,1,0,0,0,0,-2,2,2,2,2,2,2,2,2,2,2,2
79560000,7.21775e-09,2.7182978e-08,-9.895302e-10,0.0,0.0,-5.9604645e-08,0,1,1,0,0,0,0,-2,2,2,2,2,2,2,2,2,2,2,2
79760000,3.8009603e-08,6.0535967e-09,5.5064447e-08,0.0,0.0,0.0,0,1,1,0,0,0,0,-2,2,2,2,2,2,2,2,2,2,2,2
79960000,-7.8231096e-08,2.7474016e-08,-1.2514647e-08,0.0,0.0,-5.9604645e-08,0,1,1,0,0,0,0,-2,2,2,2,2,2,2,2,2,2,2,2
80160000,-1.2805685e-08,2.0954758e-09,1.2223609e-09,0.0,0.0,0.0,0,1,1,0,0,0,0,-2,2,2,2,2,2,2,2,2,2,2,2
80360000,5.2852556e-08,3.5157427e-08,-1.3853423e-08,0.0,0.0,0.0,0,1,1,0,0,0,0,-2,2,2,2,2,2,2,2,2,2,2,2
80560000,-2.7939677e-08,0.0,-1.4551915e-08,0.0,0.0,-5.9604645e-08,0,1,1,0,0,0,0,-2,2,2,2,2,2,2,2,2,2,2,2
80760000,4.231697e-08,-4.656613e-10,-9.051291e-09,0.0,0.0,-5.9604645e-08,0,1,1,0,0,0,0,-2,2,2,2,2,2,2,2,2,2,2,2
80960000,1.4784746e-08,-2.2118911e-08,2.3137545e-09,0.0,0.0,-5.9604645e-08,0,1,1,0,0,0,0,-2,2,2,2,2,2,2,2,2,2,2,2
81160000,4.656613e-10,-2.7939677e-08,-1.3562385e-08,0.0,0.0,-5.9604645e-08,0,1,1,0,0,0,0,-2,2,2,2,2,2,2,2,2,2,2,2
81360000,-1.4901161e-08,-8.96398e-09,5.631591e-09,0.0,0.0,-5.9604645e-08,0,1,1,0,0,0,0,-2,2,2,2,2,2,2,2,2,2,2,2
81560000,3.736932e-08,-1.1059456e-08,-4.48199e-09,0.0,0.0,0.0,0,1,1,0,0,0,0,-2,2,2,2,2,2,2,2,2,2,2,2
81760000,2.4912879e-08,2.3894245e-08,-1.3271347e-08,0.0,0.0,-5.9604645e-08,0,1,1,0,0,0,0,-2,2,2,2,2,2,2,2,2,2,2,2
81960000,6.8350346e-08,3.259629e-09,-3.4051482e-09,0.0,0.0,-5.9604645e-08,0,1,1,0,0,0,0,-2,2,2,2,2,2,2,2,2,2,2,2
82160000,-9.546056e-09,9.778887e-09,1.02081685e-08,0.0,0.0,-5.9604645e-08,0,1,1,0,0,0,0,-2,2,2,2,2,2,2,2,2,2,2,2
82360000,3.9231963e-08,-6.0535967e-09,-3.5448465e-08,0.0,0.0,0.0,0,1,1,0,0,0,0,-2,2,2,2,2,2,2,2,2,2,2,2
82560000,-5.60467e-08,1.071021e-08,-1.4770194e-09,0.0,0.0,-5.9604645e-08,0,1,1,0,0,0,0,-2,2,2,2,2,2,2,2,2,2,2,2
82760000,4.8894435e-09,1.8102583e-08,9.158612e-09,0.0,0.0,-5.9604645e-08,0,1,1,0,0,0,0,-2,2,2,2,2,2,2,2,2,2,2,2
82960000,1.6210834e-08,-2.9802322e-08,-1.4377292e-08,0.0,0.0,0.0,0,1,1,0,0,0,0,-2,2,2,2,2,2,2,2,2,2,2,2
83160000,-2.0605512e-08,1.1641532e-09,9.596988e-09,0.0,0.0,-5.9604645e-08,0,1,1,0,0,0,0,-2,2,2,2,2,2,2,2,2,2,2,2
83360000,-1.6152626e-08,-7.683411e-09,3.45608e-10,0.0,0.0,-5.9604645e-08,0,1,1,0,0,0,0,-2,2,2,2,2,2,2,2,2,2,2,2
83560000,-2.1769665e-08,2.2351742e-08,-2.2453605e-08,0.0,0.0,0.0,0,1,1,0,0,0,0,-2,2,2,2,2,2,2,2,2,2,2,2
83760000,6.0827006e-09,-2.6775524e-08,-1.8291757e-08,0.0,0.0,-5.9604645e-08,0,1,1,0,0,0,0,-2,2,2,2,2,2,2,2,2,2,2,2
83960000,6.1118044e-09,2.5844201e-08,0.0,0.0,0.0,0.0,0,1,1,0,0,0,0,-2,2,2,2,2,2,2,2,2,2,2,2
84160000,-3.1897798e-08,6.2282197e-09,2.5698682e-08,0.0,0.0,-5.9604645e-08,0,1,1,0,0,0,0,-2,2,2,2,2,2,2,2,2,2,2,2
84360000,-5.6112185e-08,4.5110937e-08,-1.1830707e-08,0.0,0.0,0.0,0,1,1,0,0,0,0,-2,2,2,2,2,2,2,2,2,2,2,2
84560000,-1.5686965e-08,-1.6705599e-08,-5.2095857e-09,0.0,0.0,-5.9604645e-08,0,1,1,0,0,0,0,-2,2,2,2,2,2,2,2,2,2,2,2
84760000,4.656613e-09,2.2118911e-09,2.264278e-08,0.0,0.0,-5.9604645e-08,0,1,1,0,0,0,0,-2,2,2,2,2,2,2,2,2,2,2,2
84960000,4.0745363e-09,5.2154064e-08,-1.6705599e-08,0.0,0.0,-5.9604645e-08,0,1,1,0,0,0,0,-2,2,2,2,2,2,2,2,2,2,2,2
85160000,4.604226e-08,-1.7986167e-08,-2.1245796e-08,0.0,0.0,-5.9604645e-08,0,1,1,0,0,0,0,-2,2,2,2,2,2,2,2,2,2,2,2
85360000,4.6100467e-08,4.2142347e-08,-2.0692823e-08,0.0,0.0,-5.9604645e-08,0,1,1,0,0,0,0,-2,2,2,2,2,2,2,2,2,2,2,2
85560000,-4.2724423e-08,-4.7730282e-08,-4.7293724e-10,0.0,0.0,-5.9604645e-08,0,1,1,0,0,0,0,-2,2,2,2,2,2,2,2,2,2,2,2
85760000,1.9499566e-09,2.9685907e-08,2.013985e-08,0.0,0.0,-5.9604645e-08,0,1,1,0,0,0,0,-2,2,2,2,2,2,2,2,2,2,2,2
85960000,6.146729e-08,1.1175871e-08,2.7939677e-09,0.0,0.0,0.0,0,1,1,0,0,0,0,-2,2,2,2,2,2,2,2,2,2,2,2
86160000,-4.0978193e-08,-3.934838e-08,-1.8626451e-08,0.0,0.0,-5.9604645e-08,0,1,1,0,0,0,0,-2,2,2,2,2,2,2,2,2,2,2,2
86360000,-3.7252903e-09,1.3038516e-08,1.8626451e-09,0.0,0.0,-5.9604645e-08,0,1,1,0,0,0,0,-2,2,2,2,2,2,2,2,2,2,2,2
86560000,-4.4703484e-08,2.0489097e-08,2.7939677e-09,0.0,0.0,-5.9604645e-08,0,1,1,0,0,0,0,-2,2,2,2,2,2,2,2,2,2,2,2
86760000,-8.1490725e-09,-1.21071935e-08,-1.8626451e-08,0.0,0.0,-5.9604645e-08,0,1,1,0,0,0,0,-2,2,2,2,2,2,2,2,2,2,2,2
86960000,3.4691766e-08,-1.2223609e-09,2.6077032e-08,0.0,0.0,-5.9604645e-08,0,1,1,0,0,0,0,-2,2,2,2,2,2,2,2,2,2,2,2
87160000,-2.8332579e-08,1.3737008e-08,1.8626451e-09,0.0,0.0,-5.9604645e-08,0,1,1,0,0,0,0,-2,2,2,2,2,2,2,2,2,2,2,2
87360000,-1.7462298e-08,-4.656613e-08,-9.313226e-10,0.0,0.0,0.0,0,1,1,0,0,0,0,-2,2,2,2,2,2,2,2,2,2,2,2
87560000,1.2805685e-09,-9.778887e-09,3.4458935e-08,0.0,0.0,-5.9604645e-08,0,1,1,0,0,0,0,-2,2,2,2,2,2,2,2,2,2,2,2
87760000,1.3038516e-08,-2.363231e-08,-1.6298145e-08,0.0,0.0,-5.9604645e-08,0,1,1,0,0,0,0,-2,2,2,2,2,2,2,2,2,2,2,2
87960000,2.2351742e-08,-4.4703484e-08,-4.1909516e-09,0.0,0.0,-5.9604645e-08,0,1,1,0,0,0,0,-2,2,2,2,2,2,2,2,2,2,2,2
88160000,3.3527613e-08,5.122274e-08,-8.381903e-09,0.0,0.0,-5.9604645e-08,0,1,1,0,0,0,0,-2,2,2,2,2,2,2,2,2,2,2,2
88360000,6.519258e-08,3.7252903e-09,-1.9092113e-08,0.0,0.0,0.0,0,1,1,0,0,0,0,-2,2,2,2,2,2,2,2,2,2,2,2
88560000,-4.377216e-08,7.916242e-09,1.792796e-08,3.7252903e-09,0.0,0.0,0,1,1,0,0,0,0,0,2,2,2,2,2,2,2,2,2,2,2
88760000,3.7252903e-08,1.0244548e-08,-1.0244548e-08,7.450581e-09,0.0,-5.9604645e-08,0,1,1,0,0,0,0,0,2,2,2,2,2,2,2,2,2,2,2
88960000,6.565824e-08,-1.3504177e-08,1.8859282e-08,0.0,0.0,-5.9604645e-08,0,1,1,0,0,0,0,0,2,2,2,2,2,2,2,2,2,2,2
89160000,3.259629e-09,-1.5817932e-08,-2.142042e-08,0.0,0.0,-5.9604645e-08,0,1,1,0,0,0,0,0,2,2,2,2,2,2,2,2,2,2,2
89360000,-1.8626451e-09,1.5133992e-08,4.284084e-08,0.0,0.0,-5.9604645e-08,0,1,1,0,0,0,0,0,2,2,2,2,2,2,2,2,2,2,2
89560000,-1.4464604e-08,-1.14087015e-08,1.5366822e-08,1.4901161e-08,0.0,-5.9604645e-08,0,1,1,0,0,0,0,0,2,2,2,2,2,2,2,2,2,2,2
89760000,-8.312054e-08,-1.6298145e-09,-1.6298145e-08,1.4901161e-08,0.0,-5.9604645e-08,0,1,1,0,0,0,0,0,2,2,2,2,2,2,2,2,2,2,2
89960000,-2.8172508e-08,-3.0879164e-08,-1.1641532e-08,1.4901161e-08,0.0,0.0,0,1,1,0,0,0,0,0,2,2,2,2,2,2,2,2,2,2,2
90160000,-3.7252903e-09,2.3283064e-08,-1.4901161e-08,0.0,0.0,0.0,0,1,1,0,0,0,0,0,2,2,2,2,2,2,2,2,2,2,2
90360000,-3.7252903e-09,-5.005859e-09,0.0,1.4901161e-08,0.0,-5.9604645e-08,0,1,1,0,0,0,0,0,2,2,2,2,2,2,2,2,2,2,2
90560000,-3.8184226e-08,1.8335413e-08,1.3038516e-08,0.0,0.0,-5.9604645e-08,0,1,1,0,0,0,0,0,2,2,2,2,2,2,2,2,2,2,2
90760000,-1.8626451e-08,-7.566996e-09,1.3969839e-08,0.0,0.0,-5.9604645e-08,0,1,1,0,0,0,0,0,2,2,2,2,2,2,2,2,2,2,2
90960000,-5.3085387e-08,3.655441e-08,1.44355e-08,1.4901161e-08,0.0,0.0,0,1,1,0,0,0,0,0,2,2,2,2,2,2,2,2,2,2,2
91160000,1.1175871e-08,-7.1013346e-09,-2.5320332e-09,0.0,0.0,-5.9604645e-08,0,1,1,0,0,0,0,0,2,2,2,2,2,2,2,2,2,2,2
91360000,1.8859282e-08,-2.3865141e-08,3.585592e-08,0.0,0.0,-5.9604645e-08,0,1,1,0,0,0,0,0,2,2,2,2,2,2,2,2,2,2,2
91560000,-5.122274e-09,-5.2386895e-09,1.3504177e-08,1.4901161e-08,0.0,-5.9604645e-08,0,1,1,0,0,0,0,0,2,2,2,2,2,2,2,2,2,2,2
91760000,-3.9115548e-08,-1.0011718e-08,-1.1175871e-08,2.9802322e-08,0.0,-5.9604645e-08,0,1,1,0,0,0,0,0,2,2,2,2,2,2,2,2,2,2,2
91960000,-4.5634806e-08,3.0966476e-08,1.8626451e-09,0.0,0.0,-5.9604645e-08,0,1,1,0,0,0,0,0,2,2,2,2,2,2,2,2,2,2,2
92160000,1.3969839e-08,2.561137e-08,-1.8626451e-08,0.0,0.0,0.0,0,1,1,0,0,0,0,0,2,2,2,2,2,2,2,2,2,2,2
92360000,3.9115548e-08,1.0826625e-08,5.5879354e-09,1.4901161e-08,0.0,-5.9604645e-08,0,1,1,0,0,0,0,0,2,2,2,2,2,2,2,2,2,2,2
92560000,-1.6763806e-08,-5.2386895e-09,-3.7252903e-09,1.4901161e-08,0.0,-5.9604645e-08,0,1,1,0,0,0,0,0,2,2,2,2,2,2,2,2,2,2,2
92760000,3.306195e-08,-4.5401976e-09,-1.8626451e-08,0.0,0.0,-5.9604645e-08,0,1,1,0,0,0,0,0,2,2,2,2,2,2,2,2,2,2,2
92960000,-2.6077032e-08,-7.450581e-09,-3.3527613e-08,0.0,0.0,0.0,0,1,1,0,0,0,0,-2,2,2,2,2,2,2,2,2,2,2,2
93160000,3.3527613e-08,-1.8626451e-08,-3.5390258e-08,0.0,0.0,-5.9604645e-08,0,1,1,0,0,0,0,-2,2,2,2,2,2,2,2,2,2,2,2
93360000,-4.0978193e-08,-1.9557774e-08,4.656613e-09,0.0,0.0,0.0,0,1,1,0,0,0,0,-2,2,2,2,2,2,2,2,2,2,2,2
93560000,2.0489097e-08,1.3038516e-08,1.3038516e-08,0.0,0.0,0.0,0,1,1,0,0,0,0,-2,2,2,2,2,2,2,2,2,2,2,2
93760000,-1.3969839e-08,1.816079e-08,1.3038516e-08,0.0,0.0,-5.9604645e-08,0,1,1,0,0,0,0,-2,2,2,2,2,2,2,2,2,2,2,2
93960000,7.962808e-08,-1.8626451e-09,-9.313226e-10,0.0,0.0,0.0,0,1,1,0,0,0,0,-2,2,2,2,2,2,2,2,2,2,2,2
94160000,-1.1641532e-08,-2.0489097e-08,-2.4214387e-08,0.0,0.0,0.0,0,1,1,0,0,0,0,-2,2,2,2,2,2,2,2,2,2,2,2
94360000,-5.122274e-09,1.9092113e-08,1.9557774e-08,0.0,0.0,-5.9604645e-08,0,1,1,0,0,0,0,-2,2,2,2,2,2,2,2,2,2,2,2
94560000,-2.142042e-08,2.4680048e-08,-3.9115548e-08,0.0,0.0,-5.9604645e-08,0,1,1,0,0,0,0,-2,2,2,2,2,2,2,2,2,2,2,2
94760000,-4.0978193e-08,-1.9557774e-08,1.3154931e-08,0.0,0.0,0.0,0,1,1,0,0,0,0,-2,2,2,2,2,2,2,2,2,2,2,2
94960000,-3.562309e-08,3.3527613e-08,7.450581e-09,0.0,0.0,-5.9604645e-08,0,1,1,0,0,0,0,0,2,2,2,2,2,2,2,2,2,2,2
95160000,-1.1175871e-08,-7.916242e-09,-1.3038516e-08,0.0,0.0,0.0,0,1,1,0,0,0,0,0,2,2,2,2,2,2,2,2,2,2,2
95360000,4.4703484e-08,-3.1723175e-08,-1.3969839e-08,7.450581e-09,0.0,0.0,0,1,1,0,0,0,0,0,2,2,2,2,2,2,2,2,2,2,2
95560000,5.342008e-08,2.6542693e-08,1.5366822e-08,1.4901161e-08,0.0,0.0,0,1,1,0,0,0,0,0,2,2,2,2,2,2,2,2,2,2,2
95760000,-8.195639e-08,1.7695129e-08,-3.7252903e-08,1.4901161e-08,0.0,0.0,0,1,1,0,0,0,0,0,2,2,2,2,2,2,2,2,2,2,2
95960000,-4.0978193e-08,-2.142042e-08,-1.4901161e-08,1.4901161e-08,0.0,-2.9802322e-08,0,1,1,0,0,0,0,0,2,2,2,2,2,2,2,2,2,2,2
96160000,-1.4901161e-08,-3.4924597e-09,1.1175871e-08,7.450581e-09,0.0,-5.9604645e-08,0,1,1,0,0,0,0,0,2,2,2,2,2,2,2,2,2,2,2
96360000,7.450581e-09,2.3544999e-08,2.9802322e-08,7.450581e-09,0.0,-5.9604645e-08,0,1,1,0,0,0,0,0,2,2,2,2,2,2,2,2,2,2,2
96560000,5.029142e-08,-1.6007107e-08,0.0,1.4901161e-08,0.0,-5.9604645e-08,0,1,1,0,0,0,0,0,2,2,2,2,2,2,2,2,2,2,2
96760000,-1.3969839e-08,-2.3283064e-10,2.6077032e-08,1.4901161e-08,0.0,-5.9604645e-08,0,1,1,0,0,0,0,0,2,2,2,2,2,2,2,2,2,2,2
96960000,-2.7939677e-08,1.1641532e-08,3.7252903e-09,1.4901161e-08,0.0,-5.9604645e-08,0,1,1,0,0,0,0,0,2,2,2,2,2,2,2,2,2,2,2
97160000,1.5832484e-08,-4.8894435e-09,-1.3038516e-08,1.4901161e-08,0.0,-5.9604645e-08,0,1,1,0,0,0,0,0,2,2,2,2,2,2,2,2,2,2,2
97360000,-7.916242e-09,1.1641532e-10,-6.519258e-09,2.9802322e-08,0.0,0.0,0,1,1,0,0,0,0,0,2,2,2,2,2,2,2,2,2,2,2
97560000,-5.9604645e-08,-1.9441359e-08,1.6763806e-08,2.9802322e-08,0.0,0.0,0,1,1,0,0,0,0,0,2,2,2,2,2,2,2,2,2,2,2
97760000,-6.519258e-09,1.6385457e-08,-1.9092113e-08,2.9802322e-08,0.0,0.0,0,1,1,0,0,0,0,0,2,2,2,2,2,2,2,2,2,2,2
97960000,-4.8428774e-08,-2.6193447e-09,-2.8405339e-08,0.0,0.0,-5.9604645e-08,0,1,1,0,0,0,0,0,2,2,2,2,2,2,2,2,2,2,2
98160000,3.8184226e-08,4.598405e-09,7.21775e-09,2.9802322e-08,0.0,0.0,0,1,1,0,0,0,0,0,2,2,2,2,2,2,2,2,2,2,2
98360000,-5.5879354e-09,-1.5366822e-08,-2.7939677e-09,0.0,0.0,0.0,0,1,1,0,0,0,0,0,2,2,2,2,2,2,2,2,2,2,2
98560000,-4.5169145e-08,-6.519258e-09,-3.958121e-09,0.0,0.0,-2.9802322e-08,0,1,1,0,0,0,0,0,2,2,2,2,2,2,2,2,2,2,2
98760000,-1.6763806e-08,-2.0489097e-08,7.450581e-09,2.9802322e-08,0.0,-2.9802322e-08,0,1,1,0,0,0,0,0,2,2,2,2,2,2,2,2,2,2,2
98960000,1.21071935e-08,-8.381903e-09,3.259629e-09,0.0,0.0,0.0,0,1,1,0,0,0,0,0,2,2,2,2,2,2,2,2,2,2,2
99160000,-1.5366822e-08,9.313226e-10,-3.085006e-09,5.9604645e-08,0.0,0.0,0,1,1,0,0,0,0,0,2,2,2,2,2,2,2,2,2,2,2
99360000,5.122274e-09,-1.8626451e-09,2.386514e-09,5.9604645e-08,0.0,-7.450581e-09,0,1,1,0,0,0,0,0,2,2,2,2,2,2,2,2,2,2,2
99560000,4.0745363e-10,6.9849193e-10,6.730261e-11,5.9604645e-08,0.0,-1.8626451e-09,0,1,1,0,0,0,0,0,2,2,2,2,2,2,2,2,2,2,2
99760000,0.0,0.0,0.0,5.9604645e-08,0.0,0.0,0,1,1,-2,-2,-2,-2,0,2,2,2,2,2,2,2,2,2,2,2
99960000,0.0,0.0,0.0,0.0,0.0,0.0,0,1,1,-2,-2,-2,-2,0,2,2,2,2,2,2,2,2,2,2,2
100160000,0.0,0.0,0.0,2.9802322e-08,0.0,0.0,0,1,1,-2,-2,-2,-2,0,2,2,2,2,2,2,2,2,2,2,2
100360000,0.0,0.0,0.0,2.9802322e-08,0.0,0.0,0,1,1,-2,-2,-2,-2,0,2,2,2,2,2,2,2,2,2,2,2
100560000,0.0,0.0,0.0,0.0,0.0,0.0,0,1,1,-2,-2,-2,-2,0,2,2,2,2,2,2,2,2,2,2,2
100760000,0.0,0.0,0.0,0.0,0.0,0.0,0,1,1,-2,-2,-2,-2,0,2,2,2,2,2,2,2,2,2,2,2
100960000,0.0,0.0,0.0,0.0,0.0,0.0,0,1,1,-2,-2,-2,-2,0,2,2,2,2,2,2,2,2,2,2,2
101160000,0.0,0.0,0.0,2.9802322e-08,0.0,0.0,0,1,1,-2,-2,-2,-2,0,2,2,2,2,2,2,2,2,2,2,2
101360000,0.0,0.0,0.0,0.0,0.0,0.0,0,1,1,-2,-2,-2,-2,0,2,2,2,2,2,2,2,2,2,2,2
101560000,0.0,0.0,0.0,1.4901161e-08,0.0,0.0,0,1,1,-2,-2,-2,-2,0,2,2,2,2,2,2,2,2,2,2,2
101760000,0.0,0.0,0.0,0.0,0.0,0.0,0,1,1,-2,-2,-2,-2,0,2,2,2,2,2,2,2,2,2,2,2
101960000,0.0,0.0,0.0,1.4901161e-08,0.0,0.0,0,1,1,-2,-2,-2,-2,0,2,2,2,2,2,2,2,2,2,2,2
102160000,0.0,0.0,0.0,1.4901161e-08,0.0,0.0,0,1,1,-2,-2,-2,-2,0,2,2,2,2,2,2,2,2,2,2,2
102360000,0.0,0.0,0.0,0.0,0.0,0.0,0,1,1,-2,-2,-2,-2,0,2,2,2,2,2,2,2,2,2,2,2
102560000,0.0,0.0,0.0,0.0,0.0,0.0,0,1,1,-2,-2,-2,-2,0,2,2,2,2,2,2,2,2,2,2,2
102760000,0.0,0.0,0.0,0.0,0.0,0.0,0,1,1,-2,-2,-2,-2,0,2,2,2,2,2,2,2,2,2,2,2
102960000,0.0,0.0,0.0,0.0,0.0,0.0,0,1,1,-2,-2,-2,-2,0,2,2,2,2,2,2,2,2,2,2,2
103160000,0.0,0.0,0.0,0.0,0.0,0.0,0,1,1,-2,-2,-2,-2,0,2,2,2,2,2,2,2,2,2,2,2
103360000,0.0,0.0,0.0,0.0,0.0,0.0,0,1,1,-2,-2,-2,-2,0,2,2,2,2,2,2,2,2,2,2,2
103560000,0.0,0.0,0.0,0.0,0.0,0.0,0,1,1,-2,-2,-2,-2,0,2,2,2,2,2,2,2,2,2,2,2
103760000,0.0,0.0,0.0,0.0,0.0,0.0,0,1,1,-2,-2,-2,-2,0,2,2,2,2,2,2,2,2,2,2,2
103960000,0.0,0.0,0.0,0.0,0.0,0.0,0,1,1,-2,-2,-2,-2,0,2,2,2,2,2,2,2,2,2,2,2
104160000,0.0,0.0,0.0,1.4901161e-08,0.0,0.0,0,1,1,-2,-2,-2,-2,0,2,2,2,2,2,2,2,2,2,2,2
104360000,0.0,0.0,0.0,0.0,0.0,0.0,0,1,1,-2,-2,-2,-2,0,2,2,2,2,2,2,2,2,2,2,2
104560000,0.0,0.0,0.0,2.9802322e-08,0.0,0.0,0,1,1,-2,-2,-2,-2,0,2,2,2,2,2,2,2,2,2,2,2
104760000,0.0,0.0,0.0,0.0,0.0,0.0,0,1,1,-2,-2,-2,-2,0,2,2,2,2,2,2,2,2,2,2,2
104960000,0.0,0.0,0.0,2.9802322e-08,0.0,0.0,0,1,1,-2,-2,-2,-2,0,2,2,2,2,2,2,2,2,2,2,2
105160000,0.0,0.0,0.0,2.9802322e-08,0.0,0.0,0,1,1,-2,-2,-2,-2,0,2,2,2,2,2,2,2,2,2,2,2
105360000,0.0,0.0,0.0,2.9802322e-08,0.0,0.0,0,1,1,-2,-2,-2,-2,0,2,2,2,2,2,2,2,2,2,2,2
105560000,0.0,0.0,0.0,2.9802322e-08,0.0,0.0,0,1,1,-2,-2,-2,-2,0,2,2,2,2,2,2,2,2,2,2,2
105760000,0.0,0.0,0.0,2.9802322e-08,0.0,0.0,0,1,1,-2,-2,-2,-2,0,2,2,2,2,2,2,2,2,2,2,2
105960000,0.0,0.0,0.0,2.9802322e-08,0.0,0.0,0,1,1,-2,-2,-2,-2,0,2,2,2,2,2,2,2,2,2,2,2
106160000,0.0,0.0,0.0,2.9802322e-08,0.0,0.0,0,1,1,-2,-2,-2,-2,0,2,2,2,2,2,2,2,2,2,2,2
106360000,0.0,0.0,0.0,0.0,0.0,0.0,0,1,1,-2,-2,-2,-2,0,2,2,2,2,2,2,2,2,2,2,2
106560000,0.0,0.0,0.0,2.9802322e-08,0.0,0.0,0,1,1,-2,-2,-2,-2,0,2,2,2,2,2,2,2,2,2,2,2
106760000,0.0,0.0,0.0,2.9802322e-08,0.0,0.0,0,1,1,-2,-2,-2,-2,0,2,2,2,2,2,2,2,2,2,2,2
106960000,0.0,0.0,0.0,0.0,0.0,0.0,0,1,1,-2,-2,-2,-2,0,2,2,2,2,2,2,2,2,2,2,2
107160000,0.0,0.0,0.0,0.0,0.0,0.0,0,1,1,-2,-2,-2,-2,0,2,2,2,2,2,2,2,2,2,2,2
107360000,0.0,0.0,0.0,2.9802322e-08,0.0,0.0,0,1,1,-2,-2,-2,-2,0,2,2,2,2,2,2,2,2,2,2,2
107560000,0.0,0.0,0.0,0.0,0.0,0.0,0,1,1,-2,-2,-2,-2,0,2,2,2,2,2,2,2,2,2,2,2
107760000,0.0,0.0,0.0,2.9802322e-08,0.0,0.0,0,1,1,-2,-2,-2,-2,0,2,2,2,2,2,2,2,2,2,2,2
107960000,0.0,0.0,0.0,2.9802322e-08,0.0,0.0,0,1,1,-2,-2,-2,-2,0,2,2,2,2,2,2,2,2,2,2,2
108160000,0.0,0.0,0.0,2.9802322e-08,0.0,0.0,0,1,1,-2,-2,-2,-2,0,2,2,2,2,2,2,2,2,2,2,2
108360000,0.0,0.0,0.0,0.0,0.0,0.0,0,1,1,-2,-2,-2,-2,0,2,2,2,2,2,2,2,2,2,2,2
108560000,0.0,0.0,0.0,2.9802322e-08,0.0,0.0,0,1,1,-2,-2,-2,-2,0,2,2,2,2,2,2,2,2,2,2,2
108760000,0.0,0.0,0.0,2.9802322e-08,0.0,0.0,0,1,1,-2,-2,-2,-2,0,2,2,2,2,2,2,2,2,2,2,2
108960000,0.0,0.0,0.0,2.9802322e-08,0.0,0.0,0,1,1,-2,-2,-2,-2,0,2,2,2,2,2,2,2,2,2,2,2
109160000,0.0,0.0,0.0,2.9802322e-08,0.0,0.0,0,1,1,-2,-2,-2,-2,0,2,2,2,2,2,2,2,2,2,2,2
109360000,0.0,0.0,0.0,0.0,0.0,0.0,0,1,1,-2,-2,-2,-2,0,2,2,2,2,2,2,2,2,2,2,2
109560000,0.0,0.0,0.0,0.0,0.0,0.0,0,1,1,-2,-2,-2,-2,0,2,2,2,2,2,2,2,2,2,2,2
109760000,0.0,0.0,0.0,0.0,0.0,0.0,0,1,1,-2,-2,-2,-2,0,2,2,2,2,2,2,2,2,2,2,2
109960000,0.0,0.0,0.0,2.9802322e-08,0.0,0.0,0,1,1,-2,-2,-2,-2,0,2,2,2,2,2,2,2,2,2,2,2
110160000,0.0,0.0,0.0,2.9802322e-08,0.0,0.0,0,1,1,-2,-2,-2,-2,0,2,2,2,2,2,2,2,2,2,2,2
110360000,0.0,0.0,0.0,2.9802322e-08,0.0,0.0,0,1,1,-2,-2,-2,-2,0,2,2,2,2,2,2,2,2,2,2,2
110560000,0.0,0.0,0.0,2.9802322e-08,0.0,0.0,0,1,1,-2,-2,-2,-2,0,2,2,2,2,2,2,2,2,2,2,2
110760000,0.0,0.0,0.0,0.0,0.0,0.0,0,1,1,-2,-2,-2,-2,0,2,2,2,2,2,2,2,2,2,2,2
110960000,0.0,0.0,0.0,0.0,0.0,0.0,0,1,1,-2,-2,-2,-2,0,2,2,2,2,2,2,2,2,2,2,2
111160000,0.0,0.0,0.0,2.9802322e-08,0.0,0.0,0,1,1,-2,-2,-2,-2,0,2,2,2,2,2,2,2,2,2,2,2
111360000,0.0,0.0,0.0,2.9802322e-08,0.0,0.0,0,1,1,-2,-2,-2,-2,0,2,2,2,2,2,2,2,2,2,2,2
111560000,0.0,0.0,0.0,2.9802322e-08,0.0,0.0,0,1,1,-2,-2,-2,-2,0,2,2,2,2,2,2,2,2,2,2,2
111760000,0.0,0.0,0.0,2.9802322e-08,0.0,0.0,0,1,1,-2,-2,-2,-2,0,2,2,2,2,2,2,2,2,2,2,2
111960000,0.0,0.0,0.0,2.9802322e-08,0.0,0.0,0,1,1,-2,-2,-2,-2,0,2,2,2,2,2,2,2,2,2,2,2
112160000,0.0,0.0,0.0,0.0,0.0,0.0,0,1,1,-2,-2,-2,-2,0,2,2,2,2,2,2,2,2,2,2,2
112360000,0.0,0.0,0.0,2.9802322e-08,0.0,0.0,0,1,1,-2,-2,-2,-2,0,2,2,2,2,2,2,2,2,2,2,2
112560000,0.0,0.0,0.0,0.0,0.0,0.0,0,1,1,-2,-2,-2,-2,0,2,2,2,2,2,2,2,2,2,2,2
112760000,0.0,0.0,0.0,0.0,0.0,0.0,0,1,1,-2,-2,-2,-2,0,2,2,2,2,2,2,2,2,2,2,2
112960000,0.0,0.0,0.0,2.9802322e-08,0.0,0.0,0,1,1,-2,-2,-2,-2,0,2,2,2,2,2,2,2,2,2,2,2
113160000,0.0,0.0,0.0,0.0,0.0,0.0,0,1,1,-2,-2,-2,-2,0,2,2,2,2,2,2,2,2,2,2,2
113360000,0.0,0.0,0.0,0.0,0.0,0.0,0,1,1,-2,-2,-2,-2,0,2,2,2,2,2,2,2,2,2,2,2
113560000,0.0,0.0,0.0,2.9802322e-08,0.0,0.0,0,1,1,-2,-2,-2,-2,0,2,2,2,2,2,2,2,2,2,2,2
113760000,0.0,0.0,0.0,2.9802322e-08,0.0,0.0,0,1,1,-2,-2,-2,-2,0,2,2,2,2,2,2,2,2,2,2,2
113960000,0.0,0.0,0.0,2.9802322e-08,0.0,0.0,0,1,1,-2,-2,-2,-2,0,2,2,2,2,2,2,2,2,2,2,2
114160000,0.0,0.0,0.0,2.9802322e-08,0.0,0.0,0,1,1,-2,-2,-2,-2,0,2,2,2,2,2,2,2,2,2,2,2
114360000,0.0,0.0,0.0,2.9802322e-08,0.0,0.0,0,1,1,-2,-2,-2,-2,0,2,2,2,2,2,2,2,2,2,2,2
114560000,0.0,0.0,0.0,2.9802322e-08,0.0,0.0,0,1,1,-2,-2,-2,-2,0,2,2,2,2,2,2,2,2,2,2,2
114760000,0.0,0.0,0.0,2.9802322e-08,0.0,0.0,0,1,1,-2,-2,-2,-2,0,2,2,2,2,2,2,2,2,2,2,2
114960000,0.0,0.0,0.0,2.9802322e-08,0.0,0.0,0,1,1,-2,-2,-2,-2,0,2,2,2,2,2,2,2,2,2,2,2
