timestamp,rollspeed_integ,pitchspeed_integ,yawspeed_integ,wheel_rate_integ
3564000,0.0,0.0,0.0,0.0
3568000,0.0,0.0,0.0,0.0
3764000,0.0,0.0,0.0,0.0
3964000,0.0,0.0,0.0,0.0
4164000,0.0,0.0,0.0,0.0
4364000,0.0,0.0,0.0,0.0
4564000,0.0,0.0,0.0,0.0
4764000,0.0,0.0,0.0,0.0
4964000,0.0,0.0,0.0,0.0
5164000,0.0,0.0,0.0,0.0
5364000,0.0,0.0,0.0,0.0
5564000,0.0,0.0,0.0,0.0
5764000,0.0,0.0,0.0,0.0
5964000,0.0,0.0,0.0,0.0
6164000,0.0,0.0,0.0,0.0
6364000,0.0,0.0,0.0,0.0
6564000,0.0,0.0,0.0,0.0
6764000,0.0,0.0,0.0,0.0
6964000,0.0,0.0,0.0,0.0
7164000,0.0,0.0,0.0,0.0
7364000,0.0,0.0,0.0,0.0
7564000,0.0,0.0,0.0,0.0
7764000,0.0,0.0,0.0,0.0
7964000,0.0,0.0,0.0,0.0
8164000,0.0,0.0,0.0,0.0
8364000,0.0,0.0,0.0,0.0
8564000,0.0,0.0,0.0,0.0
8764000,0.0,0.0,0.0,0.0
8964000,0.0,0.0,0.0,0.0
9164000,0.0,0.0,0.0,0.0
9364000,0.0,0.0,0.0,0.0
9564000,0.0,0.0,0.0,0.0
9764000,0.0,0.0,0.0,0.0
9964000,0.0,0.0,0.0,0.0
10160000,0.0,0.0,0.0,0.0
10364000,0.0,0.0,0.0,0.0
10564000,0.0,0.0,0.0,0.0
10764000,0.0,0.0,0.0,0.0
10964000,0.0,0.0,0.0,0.0
11164000,0.0,0.0,0.0,0.0
11364000,0.0,0.0,0.0,0.0
11564000,0.0,0.0,0.0,0.0
11764000,0.0,0.0,0.0,0.0
11964000,0.0,0.0,0.0,0.0
12164000,0.0,0.0,0.0,0.0
12364000,0.0,0.0,0.0,0.0
12564000,0.0,0.0,0.0,0.0
12764000,0.0,0.0,0.0,0.0
12964000,0.0,0.0,0.0,0.0
13164000,0.0,0.0,0.0,0.0
13364000,0.0,0.0,0.0,0.0
13564000,0.0,0.0,0.0,0.0
13764000,0.0,0.0,0.0,0.0
13964000,0.0,0.0,0.0,0.0
14164000,0.0,0.0,0.0,0.0
14364000,0.0,0.0,0.0,0.0
14564000,0.0,0.0,0.0,0.0
14764000,0.0,0.0,0.0,0.0
14960000,0.0,0.0,0.0,0.0
15164000,0.0,0.0,0.0,0.0
15360000,0.0,0.0,0.0,0.0
15564000,0.0,0.0,0.0,0.0
15764000,0.0,0.0,0.0,0.0
15964000,0.0,0.0,0.0,0.0
16164000,0.0,0.0,0.0,0.0
16364000,0.0,0.0,0.0,0.0
16564000,0.0,0.0,0.0,0.0
16764000,0.0,0.0,0.0,0.0
16964000,0.0,0.0,0.0,0.0
17164000,0.0,0.0,0.0,0.0
17360000,0.0,0.0,0.0,0.0
17564000,0.0,0.0,0.0,0.0
17760000,0.0,0.0,0.0,0.0
17964000,0.0,0.0,0.0,0.0
18160000,0.0,0.0,0.0,0.0
18364000,0.0,0.0,0.0,0.0
18564000,0.0,0.0,0.0,0.0
18764000,0.0,0.0,0.0,0.0
18964000,0.0,0.0,0.0,0.0
19164000,0.0,0.0,0.0,0.0
19364000,0.0,0.0,0.0,0.0
19564000,0.0,0.0,0.0,0.0
19764000,0.0,0.0,0.0,0.0
19964000,0.0,0.0,0.0,0.0
20164000,0.0,0.0,0.0,0.0
20364000,0.0,0.0,0.0,0.0
20564000,0.0,0.0,0.0,0.0
20764000,0.0,0.0,0.0,0.0
20964000,0.0,0.0,0.0,0.0
21164000,0.0,0.0,0.0,0.0
21364000,0.0,0.0,0.0,0.0
21564000,0.0,0.0,0.0,0.0
21764000,0.0,0.0,0.0,0.0
21964000,0.0,0.0,0.0,0.0
22164000,0.0,0.0,0.0,0.0
22364000,0.0,0.0,0.0,0.0
22564000,0.0,0.0,0.0,0.0
22764000,0.0,0.0,0.0,0.0
22964000,0.0,0.0,0.0,0.0
23164000,0.0,0.0,0.0,0.0
23364000,0.0,0.0,0.0,0.0
23564000,0.0,0.0,0.0,0.0
23764000,0.0,0.0,0.0,0.0
23964000,0.0,0.0,0.0,0.0
24164000,0.0,0.0,0.0,0.0
24364000,0.0,0.0,0.0,0.0
24564000,0.0,0.0,0.0,0.0
24764000,0.0,0.0,0.0,0.0
24964000,0.0,0.0,0.0,0.0
25164000,0.0,0.0,0.0,0.0
25364000,0.0,0.0,0.0,0.0
25564000,0.0,0.0,0.0,0.0
25764000,0.0,0.0,0.0,0.0
25960000,0.0,0.0,0.0,0.0
26164000,0.0,0.0,0.0,0.0
26364000,0.0,0.0,0.0,0.0
26564000,0.0,0.0,0.0,0.0
26764000,0.0,0.0,0.0,0.0
26964000,0.0,0.0,0.0,0.0
27164000,0.0,0.0,0.0,0.0
27364000,0.0,0.0,0.0,0.0
27564000,0.0,0.0,0.0,0.0
27764000,0.0,0.0,0.0,0.0
27964000,0.0,0.0,0.0,0.0
28164000,0.0,0.0,0.0,0.0
28364000,0.0,0.0,0.0,0.0
28564000,0.0,0.0,0.0,0.0
28764000,0.0,0.0,0.0,0.0
28964000,0.0,0.0,0.0,0.0
29160000,0.0,0.0,0.0,0.0
29364000,0.0,0.0,0.0,0.0
29564000,0.0,0.0,0.0,0.0
29764000,0.0,0.0,0.0,0.0
29964000,0.0,0.0,0.0,0.0
30164000,0.0,0.0,0.0,0.0
30364000,0.0,0.0,0.0,0.0
30564000,0.0,0.0,0.0,0.0
30764000,0.0,0.0,0.0,0.0
30964000,0.0,0.0,0.0,0.0
31164000,0.0,0.0,0.0,0.0
31364000,0.0,0.0,0.0,0.0
31564000,0.0,0.0,0.0,0.0
31764000,0.0,0.0,0.0,0.0
31964000,0.0,0.0,0.0,0.0
32164000,0.0,0.0,0.0,0.0
32364000,0.0,0.0,0.0,0.0
32564000,0.0,0.0,0.0,0.0
32760000,0.0,0.0,0.0,0.0
32964000,0.0,0.0,0.0,0.0
33164000,0.0,0.0,0.0,0.0
33364000,0.0,0.0,0.0,0.0
33564000,0.0,0.0,0.0,0.0
33764000,0.0,0.0,0.0,0.0
33964000,0.0,0.0,0.0,0.0
34160000,0.0,0.0,0.0,0.0
34364000,0.0,0.0,0.0,0.0
34564000,0.0,0.0,0.0,0.0
34764000,0.0,0.0,0.0,0.0
34964000,0.0,0.0,0.0,0.0
35164000,0.0,0.0,0.0,0.0
35364000,0.0,0.0,0.0,0.0
35564000,0.0,0.0,0.0,0.0
35764000,0.0,0.0,0.0,0.0
35964000,0.0,0.0,0.0,0.0
36164000,0.0,0.0,0.0,0.0
36364000,0.0,0.0,0.0,0.0
36564000,0.0,0.0,0.0,0.0
36764000,0.0,0.0,0.0,0.0
36964000,0.0,0.0,0.0,0.0
37164000,0.0,0.0,0.0,0.0
37364000,0.0,0.0,0.0,0.0
37564000,0.0,0.0,0.0,0.0
37760000,0.0,0.0,0.0,0.0
37964000,0.0,0.0,0.0,0.0
38164000,0.0,0.0,0.0,0.0
38364000,0.0,0.0,0.0,0.0
38564000,0.0,0.0,0.0,0.0
38764000,0.0,0.0,0.0,0.0
38964000,0.0,0.0,0.0,0.0
39164000,0.0,0.0,0.0,0.0
39364000,0.0,0.0,0.0,0.0
39564000,0.0,0.0,0.0,0.0
39764000,0.0,0.0,0.0,0.0
39964000,0.0,0.0,0.0,0.0
40160000,0.0,0.0,0.0,0.0
40364000,0.0,0.0,0.0,0.0
40564000,0.0,0.0,0.0,0.0
40760000,0.0,0.0,0.0,0.0
40964000,0.0,0.0,0.0,0.0
41164000,0.0,0.0,0.0,0.0
41364000,0.0,0.0,0.0,0.0
41564000,0.0,0.0,0.0,0.0
41764000,0.0,0.0,0.0,0.0
41964000,0.0,0.0,0.0,0.0
42164000,0.0,0.0,0.0,0.0
42364000,0.0,0.0,0.0,0.0
42564000,0.0,0.0,0.0,0.0
42764000,0.0,0.0,0.0,0.0
42964000,0.0,0.0,0.0,0.0
43164000,0.0,0.0,0.0,0.0
43364000,0.0,0.0,0.0,0.0
43564000,0.0,0.0,0.0,0.0
43764000,0.0,0.0,0.0,0.0
43964000,0.0,0.0,0.0,0.0
44164000,0.0,0.0,0.0,0.0
44364000,0.0,0.0,0.0,0.0
44564000,0.0,0.0,0.0,0.0
44764000,0.0,0.0,0.0,0.0
44964000,0.0,0.0,0.0,0.0
45164000,0.0,0.0,0.0,0.0
45364000,0.0,0.0,0.0,0.0
45564000,0.0,0.0,0.0,0.0
45764000,0.0,0.0,0.0,0.0
45964000,0.0,0.0,0.0,0.0
46164000,0.0,0.0,0.0,0.0
46364000,0.0,0.0,0.0,0.0
46564000,0.0,0.0,0.0,0.0
46764000,0.0,0.0,0.0,0.0
46964000,0.0,0.0,0.0,0.0
47160000,0.0,0.0,0.0,0.0
47364000,0.0,0.0,0.0,0.0
47564000,0.0,0.0,0.0,0.0
47764000,0.0,0.0,0.0,0.0
47964000,0.0,0.0,0.0,0.0
48164000,0.0,0.0,0.0,0.0
48364000,0.0,0.0,0.0,0.0
48560000,0.0,0.0,0.0,0.0
48764000,0.0,0.0,0.0,0.0
48964000,0.0,0.0,0.0,0.0
49164000,0.0,0.0,0.0,0.0
49364000,0.0,0.0,0.0,0.0
49564000,0.0,0.0,0.0,0.0
49760000,0.0,0.0,0.0,0.0
49964000,0.0,0.0,0.0,0.0
50164000,0.0,0.0,0.0,0.0
50364000,0.0,0.0,0.0,0.0
50564000,0.0,0.0,0.0,0.0
50764000,0.0,0.0,0.0,0.0
50964000,0.0,0.0,0.0,0.0
51164000,0.0,0.0,0.0,0.0
51364000,0.0,0.0,0.0,0.0
51564000,0.0,0.0,0.0,0.0
51764000,0.0,0.0,0.0,0.0
51964000,0.0,0.0,0.0,0.0
52164000,0.0,0.0,0.0,0.0
52364000,0.0,0.0,0.0,0.0
52564000,0.0,0.0,0.0,0.0
52764000,0.0,0.0,0.0,0.0
52964000,0.0,0.0,0.0,0.0
53164000,0.0,0.0,0.0,0.0
53364000,0.0,0.0,0.0,0.0
53560000,0.0,0.0,0.0,0.0
53764000,0.0,0.0,0.0,0.0
53964000,0.0,0.0,0.0,0.0
54164000,0.0,0.0,0.0,0.0
54364000,0.0,0.0,0.0,0.0
54564000,0.0,0.0,0.0,0.0
54764000,0.0,0.0,0.0,0.0
54960000,0.0,0.0,0.0,0.0
55164000,0.0,0.0,0.0,0.0
55364000,0.0,0.0,0.0,0.0
55560000,0.0,0.0,0.0,0.0
55764000,0.0,0.0,0.0,0.0
55964000,0.0,0.0,0.0,0.0
56164000,0.0,0.0,0.0,0.0
56364000,0.0,0.0,0.0,0.0
56564000,0.0,0.0,0.0,0.0
56764000,0.0,0.0,0.0,0.0
56964000,0.0,0.0,0.0,0.0
57164000,0.0,0.0,0.0,0.0
57360000,0.0,0.0,0.0,0.0
57564000,0.0,0.0,0.0,0.0
57764000,0.0,0.0,0.0,0.0
57964000,0.0,0.0,0.0,0.0
58164000,0.0,0.0,0.0,0.0
58364000,0.0,0.0,0.0,0.0
58564000,0.0,0.0,0.0,0.0
58764000,0.0,0.0,0.0,0.0
58964000,0.0,0.0,0.0,0.0
59164000,0.0,0.0,0.0,0.0
59364000,0.0,0.0,0.0,0.0
59564000,0.0,0.0,0.0,0.0
59764000,0.0,0.0,0.0,0.0
59960000,0.0,0.0,0.0,0.0
60160000,0.0,0.0,0.0,0.0
60364000,-0.00023342884,0.00026638416,-4.272137e-07,0.0
60564000,-0.0012310569,0.0014866141,1.2472051e-05,0.0
60764000,-0.0020685086,0.0029553517,2.5127407e-05,0.0
60964000,-0.002663921,0.004010644,4.3467306e-05,0.0
61164000,-0.00346538,0.0052216533,1.2107675e-05,0.0
61364000,-0.004210047,0.006320481,-8.738562e-06,0.0
61564000,-0.004646857,0.007486072,-1.5291558e-05,0.0
61764000,-0.0048149712,0.0085999835,-1.7728e-05,0.0
61964000,-0.004714667,0.009765974,-3.2454544e-05,0.0
62164000,-0.004042895,0.010953449,-2.345314e-05,0.0
62364000,-0.002735937,0.011084846,-3.571674e-05,0.0
62564000,-0.002312148,0.0072562606,-2.6988295e-05,0.0
62764000,-0.0022899758,0.0051002833,-2.1241356e-05,0.0
62964000,-0.0020495923,0.004332139,8.873846e-07,0.0
63164000,-0.0018321929,0.0035791136,1.9107987e-05,0.0
63364000,-0.0014790184,0.002707741,1.0298496e-05,0.0
63564000,-0.0013331954,0.0020970684,2.4819175e-05,0.0
63764000,-0.0012353138,0.0012531555,3.1341857e-05,0.0
63964000,-0.0009908252,0.0006445308,3.8049664e-05,0.0
64164000,-0.00081839174,0.00014570796,2.1754531e-05,0.0
64364000,-0.00063599634,-0.00012603856,1.3659529e-05,0.0
64564000,-0.00051412586,-0.00048462246,-3.794598e-06,0.0
64764000,-0.0007008634,-0.00035760974,5.859633e-06,0.0
64964000,-0.0008004276,-0.000613708,1.980602e-05,0.0
65164000,-0.0007052095,-0.00094462844,3.258965e-05,0.0
65364000,-0.0007552376,-0.001045194,2.6879827e-05,0.0
65564000,-0.00059389224,-0.0009359935,1.9532456e-05,0.0
65764000,-0.00066418597,-0.0011085197,1.5861306e-05,0.0
65964000,-0.00027216304,-0.0011358742,1.6925087e-05,0.0
66164000,-0.000110562454,-0.0014252526,-9.230016e-06,0.0
66364000,7.287891e-05,-0.0011922783,1.4208435e-05,0.0
66564000,0.00014044964,-0.0011864849,3.0191622e-05,0.0
66764000,7.0245114e-06,-0.0014034292,9.906523e-06,0.0
66964000,-0.0003269726,-0.0014784993,1.4716594e-05,0.0
67164000,-0.0004440133,-0.0015124684,5.2189553e-06,0.0
67364000,-0.00037647766,-0.00147087,1.3543415e-06,0.0
67564000,-0.00029371813,-0.0014903472,1.0076366e-05,0.0
67764000,-0.00020818005,-0.0014297634,3.437553e-05,0.0
67964000,1.6861519e-05,-0.0016353081,1.1407446e-05,0.0
68164000,0.0001289007,-0.0016605053,2.0496494e-05,0.0
68364000,0.00017546087,-0.0015684256,1.1557222e-05,0.0
68564000,0.00012835418,-0.00140985,-1.9173025e-05,0.0
68764000,3.2473035e-05,-0.0015381306,1.1377372e-06,0.0
68964000,-1.928006e-06,-0.0012301682,1.59102e-06,0.0
69164000,-0.00014372446,-0.0010865652,-1.31473635e-05,0.0
69364000,-0.00021196884,-0.00092083553,-3.281004e-06,0.0
69564000,-0.00025190174,-0.00068153936,-1.2068803e-05,0.0
69764000,-0.00019284656,-0.0004713679,-1.7989856e-05,0.0
69964000,-4.7496105e-05,-0.00050939055,-1.5603777e-05,0.0
70164000,9.589653e-05,-0.00043350464,-3.0417583e-05,0.0
70364000,0.00020120737,-0.00029384304,4.0823384e-06,0.0
70564000,0.00019323922,-0.00025026494,-7.197219e-06,0.0
70764000,0.00011763957,-0.0003566771,-1.995782e-05,0.0
70964000,1.0873131e-05,-0.0003252217,-2.5394562e-05,0.0
71164000,3.4604524e-05,-0.00019795242,-1.4877637e-05,0.0
71364000,-2.9879086e-05,-0.00034040937,1.495737e-05,0.0
71564000,-0.00012773507,-0.00029845754,2.3623179e-05,0.0
71764000,-8.6828004e-05,-0.00024359638,2.8953571e-05,0.0
71964000,-1.5789308e-06,-0.0002543417,-9.415336e-06,0.0
72164000,8.633763e-05,-0.00025380036,-1.5274665e-05,0.0
72364000,0.000105718835,-0.0002855394,-1.0600949e-05,0.0
72564000,0.00012313887,-0.00030457383,-1.1229747e-05,0.0
72764000,-0.00047013926,-0.0014592111,-9.409239e-06,0.0
72964000,-0.0004660382,-0.0025313043,1.203979e-05,0.0
73164000,-0.00035502118,-0.003032849,7.298218e-06,0.0
73364000,-0.00017044421,-0.0036531189,1.5209994e-05,0.0
73564000,-9.252466e-05,-0.0039301594,1.1228467e-05,0.0
73764000,1.4406408e-05,-0.0041674776,8.965789e-06,0.0
73964000,-0.00012758488,-0.004361503,4.4092954e-05,0.0
74164000,-0.00023384408,-0.0047384095,2.8905757e-05,0.0
74364000,-0.00027664372,-0.0048210644,1.7823604e-05,0.0
74564000,-0.00020745695,-0.004974017,2.2891227e-05,0.0
74764000,-0.00021484634,-0.005145789,1.7357897e-05,0.0
74964000,-9.981808e-05,-0.0052947663,3.7967266e-06,0.0
75164000,-8.915355e-05,-0.0051657334,1.0217886e-06,0.0
75360000,-6.24195e-05,-0.0052563976,-8.0784e-06,0.0
75564000,-4.2412023e-05,-0.0052541574,1.3969487e-05,0.0
75764000,-0.00011814804,-0.0053441064,1.6484973e-05,0.0
75964000,-0.000118163436,-0.005436331,4.880126e-06,0.0
76164000,8.563079e-06,-0.0055217785,1.0478714e-06,0.0
76364000,0.0001582869,-0.0039071776,-7.805896e-06,0.0
76564000,8.9381574e-05,-0.0028104046,-1.6347232e-05,0.0
76764000,0.00012229764,-0.004040391,-1.0123074e-05,0.0
76964000,0.00012538674,-0.004716802,-3.2671393e-05,0.0
77164000,7.37486e-05,-0.003023577,-1.3916495e-05,0.0
77360000,1.7857044e-05,-0.0021264164,2.7605543e-06,0.0
77564000,8.125543e-05,-0.0018457583,1.2479693e-05,0.0
77764000,-2.2447484e-05,-0.0015446021,1.0638578e-05,0.0
77964000,-0.00011503371,-0.0011760009,7.927358e-06,0.0
78164000,-7.610169e-05,-0.00095348473,1.0688195e-05,0.0
78364000,-0.0001190475,-0.0008341427,1.5571339e-05,0.0
78564000,2.2680084e-05,-0.00068939826,2.2336948e-05,0.0
78764000,4.7586014e-05,-0.0005403448,-4.516432e-06,0.0
78964000,0.00010449468,-0.0005328543,-5.7707607e-06,0.0
79164000,0.00011330911,-0.0004678059,-1.1304579e-05,0.0
79364000,7.930327e-05,-0.00038443526,-1.2606589e-05,0.0
79564000,3.5869467e-05,-0.0002281824,-2.795075e-05,0.0
79760000,-5.409827e-05,-0.00023453226,-2.165936e-05,0.0
79964000,-3.4726836e-05,-0.0005318938,-1.7788792e-05,0.0
80164000,-3.7490627e-05,-0.00043287408,-1.9016652e-05,0.0
80364000,1.966439e-05,-0.00026685616,-7.871895e-06,0.0
80564000,9.15692e-05,-0.00015442335,3.0951683e-06,0.0
80764000,0.00016894672,-0.0002143263,-1.5548483e-05,0.0
80964000,6.9258436e-05,-0.00020132751,8.028005e-06,0.0
81164000,-9.856511e-05,-0.000362578,-2.8855088e-06,0.0
81364000,-4.572943e-05,-0.00023902979,1.5537002e-05,0.0
81564000,0.00010867968,-0.0002646767,2.563447e-05,0.0
81764000,-0.00010784794,-0.00020872949,-4.773812e-06,0.0
81964000,-0.00019926029,-0.00017543184,5.4780406e-07,0.0
82160000,-0.00019254674,-0.0011193333,5.0279205e-06,0.0
82364000,-0.00024158161,-0.0022188337,-1.176819e-05,0.0
82564000,-5.7879755e-05,-0.0015848273,-5.3442386e-06,0.0
82764000,-3.394896e-05,-0.001049173,1.5732066e-05,0.0
82964000,0.00011814241,-0.000688,1.3593974e-05,0.0
83164000,0.00019391213,-0.0009963312,7.823603e-06,0.0
83364000,0.00028335396,-0.0013702775,1.1687978e-05,0.0
83564000,0.00016162562,-0.0012820406,2.998955e-05,0.0
83764000,0.00018107542,-0.0012311821,9.153665e-06,0.0
83964000,1.8673782e-05,-0.0012114093,-1.0733754e-05,0.0
84164000,-4.3484495e-05,-0.001069435,6.677725e-06,0.0
84364000,-1.616415e-05,-0.00077476614,-1.2645105e-05,0.0
84564000,6.196503e-05,-0.0006706972,-2.2114224e-05,0.0
84764000,1.9322542e-05,-0.0005950035,-1.6819708e-05,0.0
84964000,3.4406487e-05,-0.0005077719,7.356774e-07,0.0
85164000,-6.354842e-05,-0.0005691948,2.4555206e-05,0.0
85364000,-0.0001125308,-0.000337878,2.5005185e-05,0.0
85564000,-4.5567496e-05,-0.00027701526,2.5870388e-05,0.0
85764000,1.8655239e-05,-0.0002438174,2.642813e-05,0.0
85964000,-0.0043712836,0.005488258,-0.00050314167,0.0
86164000,-0.003348652,0.0064654076,-0.0022430373,0.0
86364000,-0.000880396,0.0037186227,-0.0037660003,0.0
86564000,0.0016924229,0.0018291045,-0.0046658157,0.0
86764000,0.0022780711,-0.003317363,-0.0053159436,0.0
86960000,0.001658978,-0.0037162523,-0.004235994,0.0
87164000,0.0009781873,-0.00137512,-0.0017061211,0.0
87364000,0.00063224725,-0.0043045804,-0.00041557293,0.0
87564000,0.0002969971,-0.0062455367,7.538929e-05,0.0
87764000,0.0032703867,-0.0045153247,0.00037163103,0.0
87964000,0.0057012606,-0.0025629392,0.00071551447,0.0
88164000,0.00055790576,0.0035002842,0.0010598614,0.0
88364000,-0.0013873517,0.002204148,0.0011797094,0.0
88560000,-0.0012974334,0.006149227,0.0011709179,0.0
88764000,-0.0023826682,0.0017210082,0.0010935945,0.0
88964000,-0.0037869108,0.0010993931,0.001234805,0.0
89164000,-0.0042566257,0.0013666361,0.0014169111,0.0
89364000,-0.004075115,0.0013235809,0.0016632791,0.0
89560000,-0.0035821383,0.0012830729,0.0019009637,0.0
89764000,-0.003474605,0.0012483223,0.0021647231,0.0
89964000,-0.0002834076,0.0011874859,0.0023954953,0.0
90164000,-0.0030050194,0.0012961178,0.00449539,0.0
90364000,-0.005856502,0.0008231717,0.0066675935,0.0
90564000,-0.0070112385,0.0005888003,0.0078806,0.0
90764000,-0.007365583,0.0004418973,0.008319222,0.0
90964000,-0.007800395,0.00027523423,0.008184939,0.0
91164000,-0.007712173,5.9668117e-05,0.007583887,0.0
91364000,-0.007167685,-0.00017589223,0.0067080255,0.0
91564000,-0.0069271848,-0.00042226716,0.005675118,0.0
91764000,-0.006077677,-0.00086982554,0.0031627517,0.0
91964000,-0.004477971,-0.0010465039,0.0005144712,0.0
92164000,-0.0027770076,-0.0013577604,-0.0015884084,0.0
92364000,-0.0054634013,-0.0013753603,-0.003514297,0.0
92564000,-0.007117566,-0.0011746426,-0.0053046867,0.0
92764000,-0.008182461,-0.00074030244,-0.006955507,0.0
92964000,-0.006074206,-0.0035293638,-0.008491288,0.0
93164000,-0.0011445065,0.0105397245,-0.009590428,0.0
93364000,0.0017652195,0.012789775,-0.0100608785,0.0
93564000,0.0013108518,0.0044716164,-0.010360141,0.0
93764000,-0.0007693768,0.0011312041,-0.010441044,0.0
93960000,-0.0009770821,-0.0007355356,-0.010383033,0.0
94164000,-0.0007242501,-0.0034679342,-0.010264166,0.0
94364000,-0.0009963589,-0.007099543,-0.010480411,0.0
94564000,-0.0008768112,-0.0066090035,-0.011248886,0.0
94764000,0.0051445197,-0.0059917923,-0.011379725,0.0
94964000,0.007526486,0.0054662446,-0.009197873,0.0
95164000,0.003939856,0.0050629303,-0.006101632,0.0
95364000,-0.0011638695,0.0024501039,-0.0036096785,0.0
95560000,-0.0031513528,0.0018665126,-0.0026199582,0.0
95764000,-0.00071292714,0.00132969,-0.008066389,0.0
95964000,0.0016565808,0.0011633752,-0.020442346,0.0
96164000,0.0049537867,0.002076076,-0.029341046,0.0
96364000,0.0055066827,0.0022729693,-0.018377837,0.0
96564000,0.0010030938,0.0014517412,-0.0094751455,0.0
96764000,-0.0014769953,0.0007265432,-0.0037502162,0.0
96964000,-0.002678902,0.0003978596,-0.00032511808,0.0
97164000,-0.0033869485,0.00024112202,0.0016560156,0.0
97364000,-0.0037675165,0.00010161485,0.0028124128,0.0
97564000,-0.004145248,-5.3769436e-06,0.0034295402,0.0
97764000,-0.004626641,-9.8372184e-05,0.0037160548,0.0
97964000,-0.0051240283,-0.00016633527,0.0038099685,0.0
98160000,-0.0057301205,-0.00026315553,0.0037946452,0.0
98364000,-0.0065912777,0.0008601064,0.0037626072,0.0
98564000,-0.0077257827,0.0054550446,0.003872491,0.0
98760000,-0.008671395,0.01096668,0.0040634545,0.0
98964000,-0.009699574,0.017427783,0.0041594408,0.0
99164000,-0.010922725,0.024917625,0.0041731554,0.0
99364000,-0.012113941,0.03294092,0.0040290994,0.0
99564000,-0.013399081,0.041409884,0.0037850183,0.0
99764000,-2.0970154e-05,0.00014430318,-6.7792676e-06,0.0
99964000,-1.5783087e-05,0.00013353484,-1.0698468e-05,0.0
100164000,-5.9090494e-06,0.00014270547,-1.1380225e-05,0.0
100364000,-3.265195e-06,0.00014071727,-1.1400988e-05,0.0
100564000,6.22683e-06,0.0001319015,-8.238432e-06,0.0
100764000,1.432704e-05,0.00011316524,-3.865307e-06,0.0
100964000,1.0429281e-05,0.00012907304,-3.103534e-06,0.0
101164000,1.6071854e-05,0.00011083363,9.946048e-07,0.0
101360000,1.7132115e-05,0.00011423556,1.1253804e-06,0.0
101564000,1.4054368e-05,0.000110401044,1.659278e-06,0.0
101760000,1.50418045e-05,0.00010463594,1.3147576e-06,0.0
101964000,8.799534e-06,0.0001070632,7.0404883e-07,0.0
102164000,1.0545548e-05,0.00010712503,-6.547273e-07,0.0
102364000,9.896322e-06,0.000103946804,1.2029337e-06,0.0
102564000,1.6126667e-05,0.00010265102,1.5158412e-06,0.0
102764000,7.185311e-06,0.0001033468,9.334172e-07,0.0
102964000,9.611069e-06,0.00010346249,2.6882915e-06,0.0
103164000,1.0327643e-05,9.918111e-05,2.9953578e-06,0.0
103364000,8.063327e-06,0.00010270919,2.782281e-06,0.0
103564000,8.161158e-07,0.00010645907,1.1945973e-06,0.0
103764000,2.2785528e-06,0.0001035787,2.0077769e-06,0.0
103960000,7.5918415e-06,9.9200704e-05,1.1916045e-06,0.0
104164000,3.8287694e-06,0.00010071391,3.1925301e-06,0.0
104364000,1.4907569e-06,0.00010184394,2.0107857e-06,0.0
104564000,8.725957e-06,9.660051e-05,7.871962e-07,0.0
104764000,3.2342462e-06,0.00010267222,2.9907412e-06,0.0
104964000,5.5032106e-06,9.3949326e-05,6.3450756e-07,0.0
105164000,1.9789156e-06,9.691298e-05,1.3494281e-06,0.0
105364000,1.4521315e-06,9.795977e-05,2.3524522e-06,0.0
105564000,6.0837488e-06,0.00010002963,2.0694767e-06,0.0
105764000,2.596816e-06,9.4726245e-05,1.7997722e-06,0.0
105964000,-2.0126608e-05,9.151194e-05,1.6284289e-06,0.0
106164000,1.6191158e-05,9.0234964e-05,-1.3526465e-05,0.0
106364000,0.00010277727,9.017178e-05,-2.4653036e-05,0.0
106564000,6.369535e-05,8.6600856e-05,-1.9995881e-05,0.0
106764000,3.4998928e-05,9.070427e-05,8.419306e-06,0.0
106964000,1.6335634e-05,0.00010275004,5.3586224e-05,0.0
107164000,1.9567322e-05,0.00011316819,9.557159e-05,0.0
107364000,1.0367349e-05,0.00012033629,0.00013090762,0.0
107564000,8.521615e-06,0.00012910215,0.00014269713,0.0
107764000,1.035149e-05,0.00014314757,0.00012997122,0.0
107964000,4.3631185e-06,0.0001318328,0.00010684253,0.0
108164000,4.7564713e-06,0.00012202467,8.118147e-05,0.0
108364000,-5.6576555e-06,0.00011113711,6.11495e-05,0.0
108564000,-7.710991e-06,0.0001089014,5.5214092e-05,0.0
108764000,-2.082884e-06,0.00010118463,6.665331e-05,0.0
108964000,4.927739e-06,9.9138444e-05,8.5534644e-05,0.0
109164000,1.0009114e-05,8.7524866e-05,0.00010946494,0.0
109360000,-4.6347384e-07,8.745084e-05,0.00011848332,0.0
109564000,1.1728832e-05,8.275634e-05,0.00012143248,0.0
109764000,1.360909e-05,8.124629e-05,0.00010748237,0.0
109964000,-6.3683187e-06,7.18191e-05,8.224779e-05,0.0
110164000,8.879116e-06,6.631777e-05,6.506105e-05,0.0
110364000,-1.910483e-05,5.7928064e-05,4.2850934e-05,0.0
110564000,1.1036634e-06,5.607978e-05,3.492965e-05,0.0
110764000,-7.0251594e-06,5.217573e-05,3.325073e-05,0.0
110964000,-4.3472505e-06,4.506913e-05,3.4326662e-05,0.0
111164000,-5.4321004e-06,4.7423215e-05,3.5987712e-05,0.0
111364000,-2.5268196e-06,4.1783875e-05,2.7687038e-05,0.0
111564000,-1.3607863e-05,4.470835e-05,1.1427685e-05,0.0
111764000,-1.0979182e-05,4.040577e-05,8.652151e-06,0.0
111964000,-1.4479934e-05,3.6130765e-05,4.937783e-07,0.0
112164000,-8.8917695e-06,3.6497673e-05,-4.6716455e-06,0.0
112364000,-1.4455157e-05,3.633083e-05,-9.301216e-06,0.0
112564000,-3.834541e-06,3.6086032e-05,-1.285018e-05,0.0
112764000,-1.0278652e-05,3.6502348e-05,-1.1133324e-05,0.0
112964000,-6.111347e-06,3.8332404e-05,-7.1677987e-06,0.0
113164000,-4.565974e-06,4.8004724e-05,-5.0302942e-06,0.0
113364000,-5.499035e-07,4.2109776e-05,-2.9633048e-07,0.0
113564000,-4.1027715e-06,4.1737618e-05,3.1216166e-06,0.0
113764000,-5.0968947e-06,3.894181e-05,-4.949808e-07,0.0
113964000,2.6223364e-07,3.725744e-05,-1.4211206e-06,0.0
114164000,4.066527e-07,4.3489545e-05,-2.7279948e-06,0.0
114364000,-6.9829525e-07,3.6812235e-05,-6.85736e-06,0.0
114564000,-1.2055187e-06,3.696669e-05,-1.0257842e-05,0.0
114764000,-5.235345e-07,3.9078026e-05,-1.1733849e-05,0.0
114964000,-9.166003e-08,3.5316843e-05,-1.0475487e-05,0.0
115164000,-5.1954194e-06,3.6762533e-05,-1.2870141e-05,0.0
115364000,-2.9306584e-06,3.3240834e-05,-8.324794e-06,0.0
115564000,5.34689e-06,3.5310386e-05,-4.6286027e-06,0.0
115764000,-3.0835206e-06,3.2013937e-05,-3.6075512e-06,0.0
115964000,1.4300645e-07,3.3123968e-05,-4.167848e-06,0.0
116160000,-5.8372593e-06,3.1084528e-05,-1.4597449e-06,0.0
116360000,1.6009391e-06,3.4139197e-05,-2.810234e-06,0.0
116560000,5.1499774e-06,2.5655949e-05,-4.496402e-06,0.0
116764000,3.1946458e-06,2.5473513e-05,-1.9061025e-06,0.0
116964000,2.0711793e-06,3.1673295e-05,-3.867555e-06,0.0
117164000,5.309731e-08,2.8908702e-05,-4.550185e-06,0.0
117364000,-2.033159e-06,2.7936745e-05,-7.0477254e-06,0.0
117564000,1.5809983e-06,2.5756268e-05,2.1842708e-07,0.0
117764000,-1.6846111e-06,2.480513e-05,2.3668629e-07,0.0
117964000,-4.169705e-06,2.3750397e-05,2.373864e-06,0.0
118164000,4.5709003e-06,2.5509093e-05,-6.1114434e-07,0.0
118364000,2.2396912e-06,2.3565824e-05,2.2594077e-06,0.0
118564000,3.540139e-06,2.2143458e-05,-2.3221972e-08,0.0
118764000,6.759777e-06,2.5616353e-05,4.774258e-07,0.0
118964000,1.5366915e-06,2.2276141e-05,-1.5674564e-06,0.0
119164000,-7.625644e-07,2.2752805e-05,-1.3446313e-06,0.0
119364000,1.7772102e-06,2.0002179e-05,-1.1076127e-06,0.0
119564000,3.0033897e-07,1.775338e-05,1.7048042e-06,0.0
119764000,1.9989602e-06,2.6556027e-05,3.2675202e-06,0.0
119964000,2.776879e-06,1.7641967e-05,-6.973042e-07,0.0
120164000,2.4933026e-06,1.8319024e-05,1.0738643e-06,0.0
120364000,5.3712765e-06,1.6937714e-05,4.6746567e-07,0.0
120564000,4.6125763e-07,2.4788917e-05,-1.2696539e-06,0.0
120764000,-6.697133e-06,2.0654776e-05,5.6529785e-07,0.0
120964000,-5.0179265e-06,2.0826812e-05,-4.9454195e-07,0.0
121164000,3.6862795e-07,1.4985273e-05,-3.6838824e-06,0.0
121364000,-2.1490334e-06,1.9724828e-05,-4.9419573e-06,0.0
121564000,-7.343293e-08,1.7843653e-05,-4.873217e-06,0.0
121764000,5.6174163e-06,1.7941453e-05,-1.9888646e-06,0.0
121964000,1.2251734e-06,1.5985723e-05,1.4300284e-06,0.0
122164000,2.7783364e-07,1.2030826e-05,4.124503e-06,0.0
122364000,6.05212e-06,1.8786317e-05,5.137225e-06,0.0
122564000,4.7909793e-06,1.4794937e-05,6.18326e-06,0.0
122764000,1.0349233e-06,1.8189168e-05,4.4974245e-06,0.0
122964000,6.101221e-06,1.6787862e-05,3.6178085e-06,0.0
123164000,-1.1190563e-06,1.4520929e-05,4.220637e-06,0.0
123364000,1.1508524e-06,1.97385e-05,2.50283e-06,0.0
123564000,4.0942264e-06,1.217981e-05,-4.949063e-07,0.0
123764000,3.0338965e-06,1.9134684e-05,7.97677e-07,0.0
123964000,-2.7078713e-06,1.537573e-05,2.1397236e-06,0.0
124164000,-1.9446134e-06,1.6636639e-05,3.220016e-06,0.0
124364000,2.889764e-06,1.5218391e-05,4.35466e-06,0.0
124564000,3.569399e-06,1.1637636e-05,3.6538095e-06,0.0
124764000,-1.598832e-06,1.1366199e-05,3.080579e-06,0.0
124964000,-2.2971853e-06,1.6366062e-05,3.4501568e-06,0.0
125164000,-3.976835e-06,1.0292298e-05,3.925104e-06,0.0
125364000,1.0013997e-06,1.6430544e-05,1.2092985e-06,0.0
125564000,-1.7468213e-06,1.2962489e-05,2.7145652e-06,0.0
125764000,-7.120461e-07,1.1048296e-05,1.1851586e-06,0.0
125964000,-6.3294465e-06,1.035054e-05,2.166898e-06,0.0
126164000,3.6771567e-06,1.2087746e-05,-2.3772643e-07,0.0
126364000,3.3779186e-06,9.925374e-06,1.6085507e-06,0.0
126564000,-2.0877806e-06,1.3433856e-05,4.5967475e-08,0.0
126764000,-1.9761837e-06,1.4283098e-05,4.1457943e-06,0.0
126964000,-2.540358e-06,8.18063e-06,2.4863684e-06,0.0
127164000,-3.1222864e-06,1.1025393e-05,1.7175583e-06,0.0
127364000,-1.655592e-06,1.1972974e-05,-1.7983263e-06,0.0
127564000,3.2527898e-06,8.983472e-06,1.273942e-06,0.0
127764000,-3.5282264e-07,4.592028e-06,-2.0586804e-06,0.0
127964000,2.2735844e-06,9.617514e-06,-3.2241396e-06,0.0
128164000,1.4782149e-06,8.262272e-06,-8.9518915e-07,0.0
128364000,-5.6570884e-06,1.3015312e-05,-1.4684009e-06,0.0
128564000,-1.2578577e-06,1.2572855e-05,-2.2998474e-06,0.0
128760000,1.6783546e-06,1.0743134e-05,-1.927392e-06,0.0
128964000,-8.5805567e-07,1.04912415e-05,-8.162568e-08,0.0
129164000,3.3703623e-06,6.288148e-06,-6.770479e-07,0.0
129364000,-2.265431e-06,1.0217296e-05,1.3752168e-07,0.0
129564000,1.1016006e-06,1.0480388e-05,5.872966e-07,0.0
129764000,2.1702527e-07,6.968142e-06,-1.248506e-06,0.0
129964000,-8.330817e-07,7.511319e-06,-1.0379912e-06,0.0
130164000,-4.9380023e-06,1.0412472e-05,-1.862615e-06,0.0
130364000,2.969553e-07,9.889356e-06,-9.2464614e-07,0.0
130564000,8.734235e-05,5.999654e-06,6.2231097e-06,0.0
130764000,5.114956e-05,9.7776565e-06,2.4997296e-05,0.0
130964000,-9.168866e-05,5.0847375e-06,4.5413388e-05,0.0
131164000,-4.828243e-05,8.119889e-06,4.2084965e-05,0.0
131364000,-2.5805926e-05,5.9124404e-06,1.4964068e-05,0.0
131564000,-2.4376906e-05,1.5321617e-05,-2.1372392e-05,0.0
131764000,-1.8179615e-05,4.3309974e-05,-5.8553444e-05,0.0
131964000,-1.5486115e-05,4.3861928e-05,-8.32451e-05,0.0
132164000,-1.3499262e-05,4.407022e-05,-9.0572816e-05,0.0
132364000,-1.440944e-05,4.2484735e-05,-7.844141e-05,0.0
132564000,-1.2702292e-05,4.5976314e-05,-5.502171e-05,0.0
132764000,-1.8304406e-06,4.15738e-05,-2.6906057e-05,0.0
132964000,-3.139221e-06,3.9012986e-05,-7.3200445e-06,0.0
133164000,4.2481997e-06,2.7542568e-05,-1.2636303e-06,0.0
133364000,-3.780733e-06,2.021806e-05,-1.5071657e-05,0.0
133564000,6.843152e-06,1.5543568e-05,-3.1005267e-05,0.0
133764000,4.9046603e-06,1.4230411e-05,-4.8267182e-05,0.0
133964000,-1.2471447e-05,1.9470492e-05,-6.284768e-05,0.0
134164000,-7.930514e-06,1.4324345e-05,-6.34129e-05,0.0
134364000,8.132167e-06,1.1164348e-05,-5.5596713e-05,0.0
134564000,9.268438e-06,5.1444667e-06,-3.700467e-05,0.0
134764000,5.068179e-06,7.1697e-06,-2.1143824e-05,0.0
134964000,7.407593e-06,-3.0843967e-06,-6.6254784e-06,0.0
135164000,3.848277e-06,1.6175493e-06,-3.085872e-06,0.0
135364000,1.5238817e-05,-3.1156458e-06,-4.634794e-06,0.0
135564000,1.2804014e-05,-4.7030353e-06,-9.771494e-06,0.0
135764000,1.4403236e-05,-4.108476e-06,-1.4313256e-05,0.0
135964000,1.2621995e-05,-1.877308e-07,-1.9432016e-05,0.0
136164000,4.9070327e-06,-3.6570198e-06,-2.5970396e-05,0.0
136364000,1.08389395e-05,-4.940464e-06,-1.590591e-05,0.0
136564000,5.424119e-06,-1.4043807e-06,-4.3086116e-06,0.0
136764000,9.901493e-06,6.169081e-08,2.1022754e-06,0.0
136964000,3.4755012e-06,-5.374762e-06,7.096498e-06,0.0
137164000,3.6377034e-05,-1.1158547e-05,1.2316165e-05,0.0
137364000,9.592056e-07,-3.7732766e-06,3.589652e-05,0.0
137564000,-2.6197049e-05,-9.833348e-06,6.7798996e-05,0.0
137764000,-5.601673e-05,-1.1597769e-05,7.838128e-05,0.0
137964000,-2.9456012e-05,-2.8647896e-06,6.343018e-05,0.0
138164000,-2.1994598e-05,3.8559183e-06,2.7361031e-05,0.0
138364000,-1.5672453e-05,2.5788951e-05,-2.7520166e-05,0.0
138564000,-1.5729709e-05,4.7945116e-05,-8.891728e-05,0.0
138764000,-1.3855623e-05,5.0048147e-05,-0.00011334321,0.0
138964000,-1.5962301e-05,5.344836e-05,-0.00011242054,0.0
139164000,-1.525631e-05,5.6151104e-05,-9.2643444e-05,0.0
139364000,-6.4909345e-06,4.808468e-05,-4.7249334e-05,0.0
139564000,1.028061e-07,2.8097158e-05,5.495667e-07,0.0
139760000,3.1834844e-08,1.8379871e-05,2.1771515e-05,0.0
139964000,5.8613837e-06,1.793607e-05,1.7575987e-05,0.0
140164000,2.801776e-07,1.1306836e-05,-2.6948069e-06,0.0
140364000,-5.3906444e-07,2.8144116e-06,-2.900301e-05,0.0
140564000,-1.02480435e-05,6.617346e-06,-5.8981874e-05,0.0
140764000,6.608764e-06,1.0150102e-05,-7.287998e-05,0.0
140964000,-7.634316e-06,6.954278e-06,-7.494283e-05,0.0
141164000,2.7182098e-06,7.674858e-06,-6.154737e-05,0.0
141364000,3.3215988e-06,-4.9511794e-07,-4.0171926e-05,0.0
141564000,1.7984885e-05,-1.1079132e-06,-1.911016e-05,0.0
141764000,1.4068087e-05,-8.08597e-06,-4.8954607e-06,0.0
141964000,5.3687763e-06,-1.1187922e-05,-6.2862034e-07,0.0
142164000,5.476923e-06,-6.5799054e-06,-1.3969478e-06,0.0
142364000,1.8907129e-05,-1.0251855e-05,-9.081651e-06,0.0
142564000,1.5440311e-05,-1.10842875e-05,-1.7616458e-05,0.0
142764000,1.1330845e-05,-7.353386e-06,-2.8113567e-05,0.0
142964000,9.360943e-06,-7.548778e-06,-2.3062601e-05,0.0
143164000,9.533211e-06,-6.7325145e-06,-1.4757002e-05,0.0
143364000,2.173042e-06,-2.739104e-06,-8.808236e-06,0.0
143564000,6.9007533e-06,-1.2563651e-05,1.5123513e-06,0.0
143764000,1.1562173e-05,-5.1093493e-06,7.4913737e-06,0.0
143964000,1.4027561e-05,-7.223964e-06,1.4011146e-05,0.0
144164000,1.4131558e-05,-6.959216e-06,1.8319392e-05,0.0
144364000,1.2548029e-05,-5.786124e-06,1.2549043e-05,0.0
144564000,1.7199234e-05,-9.906664e-07,9.661039e-06,0.0
144764000,1.07262085e-05,-4.5311976e-06,-7.5368285e-07,0.0
144964000,1.2251256e-05,-2.5488248e-06,-1.9533686e-06,0.0
145164000,4.302765e-06,-5.9905724e-06,-7.362283e-06,0.0
145364000,8.886999e-06,-2.301889e-06,-7.631871e-06,0.0
145564000,5.796061e-06,1.998068e-06,-3.6145748e-06,0.0
145764000,6.4900987e-06,-6.827441e-06,1.3007076e-07,0.0
145964000,5.842933e-06,5.094057e-06,6.1415544e-06,0.0
146164000,2.0267976e-06,-8.463396e-07,1.1763445e-05,0.0
146364000,6.316031e-06,-1.3107326e-06,1.0598135e-05,0.0
146564000,6.917805e-07,-1.8456604e-06,1.2079442e-05,0.0
146764000,8.786551e-06,9.310958e-07,8.941429e-06,0.0
146964000,8.488552e-06,-3.4396705e-06,4.9751143e-06,0.0
147164000,5.2154824e-06,-3.738367e-06,1.8936307e-06,0.0
147364000,-5.73808e-07,-3.6950344e-06,8.1271753e-07,0.0
147564000,-2.553046e-07,-8.518833e-06,-2.9268808e-06,0.0
147764000,9.0597126e-07,-2.1181957e-06,-2.4234307e-06,0.0
147964000,6.1094634e-06,-2.335418e-06,4.4944662e-07,0.0
148164000,-5.4007646e-06,-5.2261153e-06,2.0150585e-06,0.0
148364000,6.3198013e-06,4.834682e-09,4.8985753e-06,0.0
148564000,3.2877583e-06,-6.3238695e-06,5.788368e-06,0.0
148764000,-3.372282e-08,-6.710519e-06,6.6551133e-06,0.0
148964000,1.419635e-06,-3.0059205e-06,3.5802896e-06,0.0
149164000,-1.2018531e-06,-9.9304625e-06,1.7335173e-06,0.0
149364000,4.8296374e-06,-1.3995844e-06,-8.904378e-07,0.0
149564000,1.6617411e-06,-4.568951e-06,-2.1586359e-06,0.0
149764000,-2.5765623e-06,-1.7539578e-06,-3.5469707e-06,0.0
149960000,2.7072838e-06,-8.04069e-06,-9.965105e-07,0.0
150164000,4.5569163e-06,-4.0293166e-06,8.2768787e-07,0.0
150364000,-3.3453005e-06,-4.5840325e-06,-1.1080546e-06,0.0
150564000,1.5776575e-06,5.081914e-06,2.0620294e-06,0.0
150764000,3.6154186e-06,-9.542249e-07,9.761474e-07,0.0
150964000,3.3783972e-06,-6.0495887e-07,3.2058847e-06,0.0
151164000,-2.242804e-06,-1.7929042e-06,7.973165e-08,0.0
151364000,-1.7762747e-07,-1.7905953e-06,-2.4295657e-06,0.0
151564000,-3.8528456e-06,-4.1174e-06,-4.480055e-07,0.0
151764000,2.2041306e-07,-3.47103e-06,8.775753e-07,0.0
151964000,5.1471325e-06,-5.514988e-06,-2.9981907e-06,0.0
152164000,1.354102e-06,-8.3446474e-07,-2.3231792e-06,0.0
152364000,6.0063076e-06,-1.0493631e-05,-2.2760923e-06,0.0
152564000,8.401463e-07,-2.4587084e-06,-1.1117514e-06,0.0
152764000,-4.158553e-06,-2.6861395e-07,6.6646794e-07,0.0
152964000,4.57724e-06,3.3827128e-08,5.8610567e-07,0.0
153164000,6.954658e-06,-2.234128e-06,3.363682e-07,0.0
153364000,6.5568906e-06,-4.461911e-06,3.2600014e-06,0.0
153564000,1.5684591e-08,-3.613463e-06,1.7401507e-07,0.0
153764000,2.4809974e-06,1.2291619e-06,-6.0657123e-07,0.0
153960000,1.6390125e-06,-4.631947e-06,-1.3490522e-06,0.0
154160000,3.5947585e-06,-4.495711e-06,-6.3224576e-07,0.0
154364000,1.4260089e-06,-6.4426263e-06,-7.1569946e-07,0.0
154564000,-2.8614536e-06,-1.2414068e-06,-8.964319e-07,0.0
154764000,-7.174176e-09,-3.339094e-06,3.8386466e-07,0.0
154964000,-7.31296e-05,1.0251287e-06,-1.9817985e-07,0.0
155164000,-1.6299777e-05,-8.33544e-06,-5.7617594e-06,0.0
155364000,2.7851462e-05,1.6685485e-06,-2.3925806e-05,0.0
155564000,9.6127245e-05,-2.4539233e-07,-4.439666e-05,0.0
155764000,5.6369954e-05,-5.215998e-06,-4.519563e-05,0.0
155964000,3.74216e-05,2.4065253e-06,-2.117443e-05,0.0
156164000,2.146092e-05,2.0945541e-05,1.5804417e-05,0.0
156364000,1.2559029e-05,1.9088238e-05,5.851697e-05,0.0
156560000,9.521756e-05,-1.5187265e-08,0.00011420153,0.0
156764000,7.533632e-06,1.8969222e-05,0.00017545126,0.0
156964000,-4.6978917e-06,1.9538475e-05,0.00018829534,0.0
157164000,-2.611275e-05,4.393551e-06,5.4658187e-05,0.0
157364000,-1.509131e-05,-7.359826e-06,1.5384727e-05,0.0
157564000,-2.0876882e-05,-1.8552619e-05,-1.4726569e-05,0.0
157764000,-8.522628e-05,-2.038278e-05,-3.925231e-05,0.0
157964000,-6.204579e-05,6.927014e-07,-6.413332e-05,0.0
158164000,-4.4883716e-05,3.5019548e-05,-0.00010022481,0.0
158364000,-3.043875e-05,3.987646e-05,-0.00011344987,0.0
158564000,-2.3250741e-05,4.14317e-05,-9.4780335e-05,0.0
158764000,-1.730208e-05,4.4678884e-05,-7.5974516e-05,0.0
158964000,-3.2001662e-05,3.325223e-05,-5.4906843e-05,0.0
159164000,-2.39576e-05,2.6088814e-05,-4.250925e-05,0.0
159364000,-1.5490748e-05,1.5945256e-05,-4.1246905e-05,0.0
159564000,-2.1216803e-05,9.2368e-06,-4.640768e-05,0.0
159764000,-7.1881423e-06,8.707908e-06,-6.161857e-05,0.0
159964000,-1.6249902e-05,7.134415e-06,-7.338545e-05,0.0
160164000,-7.8054045e-06,2.1143494e-06,-7.501957e-05,0.0
160364000,-2.0599366e-07,-3.1618288e-06,-6.9493544e-05,0.0
160564000,1.2249363e-05,6.6584647e-07,-5.146541e-05,0.0
160764000,5.4650973e-06,-6.4649726e-06,-1.0875389e-05,0.0
160964000,6.4844644e-06,-6.2465147e-06,1.3166324e-05,0.0
161164000,1.4331463e-05,-7.2209996e-06,2.1738839e-05,0.0
161364000,1.4066524e-05,-1.0838386e-05,2.1784455e-05,0.0
161564000,8.056577e-06,-4.618592e-06,1.6936747e-05,0.0
161764000,7.057864e-06,-1.054617e-05,7.646554e-06,0.0
161964000,5.100485e-06,-9.463715e-06,-1.4776018e-06,0.0
162164000,4.4692847e-06,-6.736944e-06,-1.0174072e-05,0.0
162360000,6.8073505e-06,-1.0230854e-06,-1.3333696e-05,0.0
162564000,4.938e-06,-8.293198e-06,-1.3232468e-05,0.0
162764000,4.4893154e-06,-9.977654e-06,-1.0314283e-05,0.0
162964000,5.18148e-06,-6.07917e-06,-2.7600443e-06,0.0
163164000,-2.846271e-08,-3.8872913e-06,5.83676e-06,0.0
163360000,7.0774927e-06,-2.5553534e-06,8.959494e-06,0.0
163564000,1.8808571e-06,-7.283152e-07,1.3747443e-05,0.0
163764000,6.5170475e-06,-5.9017225e-06,1.2842071e-05,0.0
163964000,3.298335e-06,1.5041663e-06,1.1078837e-05,0.0
164160000,-4.221598e-06,2.8588624e-07,2.522133e-06,0.0
164364000,7.4247424e-07,-4.1623334e-06,7.275462e-07,0.0
164564000,-3.1335408e-06,-1.8972925e-06,-3.4055415e-07,0.0
164764000,-5.2364812e-06,-4.7432636e-08,-2.9054645e-06,0.0
164960000,1.9783017e-06,-5.7113084e-06,-1.6076485e-06,0.0
165164000,-9.689198e-06,1.0088087e-08,5.487941e-06,0.0
165364000,1.0614008e-06,-1.0974071e-06,6.5510217e-06,0.0
165564000,-7.119439e-06,-2.2311426e-06,8.35264e-06,0.0
165764000,-7.2373277e-06,-5.3150507e-07,1.1222718e-05,0.0
165964000,-2.8508273e-06,-1.6521271e-06,9.269496e-06,0.0
166164000,-5.0471867e-06,-3.976331e-06,4.693022e-06,0.0
166364000,-4.4677113e-06,-5.39842e-07,1.132515e-06,0.0
166564000,-5.9952763e-06,-6.506062e-06,-2.880022e-08,0.0
166764000,-2.0870118e-06,-3.1883753e-06,-3.3241604e-06,0.0
166964000,-5.2761006e-06,-6.9116327e-06,-1.3946017e-06,0.0
167164000,5.778596e-07,-1.00728475e-05,-8.331068e-07,0.0
167364000,-7.8227895e-06,-7.94064e-06,-8.881993e-07,0.0
167560000,3.2358519e-06,-5.0765143e-06,2.5708928e-06,0.0
167764000,-2.0336545e-06,-3.09619e-06,2.6790042e-06,0.0
167964000,-1.4673456e-06,-3.9250885e-06,1.1518308e-06,0.0
168164000,-5.978542e-06,-3.6562487e-06,9.773806e-07,0.0
168364000,1.3145089e-05,1.0026951e-05,-3.0786837e-06,0.0
168564000,7.1681984e-06,6.496624e-06,-1.0058251e-05,0.0
168764000,5.115767e-06,8.812883e-06,-9.255755e-06,0.0
168964000,-2.130854e-06,1.2897608e-05,-6.731312e-06,0.0
169164000,6.0271026e-07,6.164651e-06,-9.0658955e-07,0.0
169364000,3.3004453e-06,2.983045e-06,7.4147993e-06,0.0
169564000,-2.7211905e-07,-9.601713e-07,1.128696e-05,0.0
169764000,-9.1971464e-07,8.107688e-06,1.6872162e-05,0.0
169964000,-1.495105e-06,2.6699004e-06,1.14418135e-05,0.0
170164000,-1.4416411e-06,3.8322196e-06,7.215422e-06,0.0
170364000,-1.932086e-06,-3.100615e-06,1.0934888e-06,0.0
170564000,-3.560781e-06,-1.7400384e-07,-4.412265e-06,0.0
170764000,-3.1195573e-06,-3.3297886e-06,-5.502787e-06,0.0
170964000,-4.0908326e-06,-6.7855563e-06,-6.1163555e-06,0.0
171164000,-4.504111e-06,-1.9918439e-06,-4.074964e-06,0.0
171364000,-3.4111445e-06,-5.8479577e-06,-5.9238675e-07,0.0
171564000,-2.9377081e-06,-6.168394e-06,2.337329e-06,0.0
171764000,-5.123884e-07,-6.2436025e-06,4.029385e-06,0.0
171964000,-1.4604629e-07,-4.7331454e-07,6.0666816e-06,0.0
172164000,-3.8652715e-06,-5.09428e-06,3.609258e-06,0.0
172364000,-6.4626506e-06,-2.4434925e-07,-5.342961e-08,0.0
172564000,4.72267e-07,-6.3492516e-06,-1.984083e-06,0.0
172764000,-8.703494e-06,-2.9303962e-06,-3.1926054e-06,0.0
172964000,-6.710765e-06,6.682754e-07,-3.5660032e-06,0.0
173164000,-4.6293108e-06,-5.067485e-06,-4.043827e-06,0.0
173364000,-5.5126948e-06,-3.975375e-06,-8.266687e-07,0.0
173564000,-4.2461907e-06,-8.248189e-06,1.553851e-06,0.0
173764000,-2.6103255e-06,-6.066667e-06,2.0215443e-06,0.0
173964000,-3.7496225e-06,-9.731055e-08,3.169239e-07,0.0
174164000,-3.84513e-06,-6.4427772e-06,-4.925013e-07,0.0
174364000,-7.473052e-07,-5.0491712e-06,1.1355339e-06,0.0
174564000,-5.821827e-06,-6.708911e-06,1.2742879e-07,0.0
174764000,-6.796252e-06,-2.7475382e-06,-4.1084294e-07,0.0
174964000,-5.982646e-06,-5.293785e-06,-2.4113042e-06,0.0
175164000,3.6907497e-07,-3.952469e-06,-1.4521297e-06,0.0
175364000,3.4165384e-07,-1.0860248e-05,-2.455805e-06,0.0
175564000,-4.568264e-06,-7.810423e-06,-1.0227143e-06,0.0
175764000,-1.0751605e-06,-2.2272673e-06,-6.5505503e-07,0.0
175964000,1.7648606e-06,-6.506709e-06,-7.3924065e-07,0.0
176164000,-1.3860106e-06,-3.5688267e-06,1.8624239e-06,0.0
176364000,5.745501e-07,-6.849446e-06,7.167459e-08,0.0
176564000,-5.4279963e-06,-2.7628446e-06,-3.4631737e-06,0.0
176764000,-4.9360747e-06,-9.086061e-06,1.6603108e-06,0.0
176964000,-5.982911e-06,-6.8499107e-06,8.107186e-07,0.0
177164000,-4.1533835e-06,-2.9197656e-06,-2.9946475e-06,0.0
177364000,-2.7616622e-07,-4.8188626e-06,-1.9051664e-06,0.0
177564000,-3.9172474e-07,-5.294748e-06,-1.0840952e-06,0.0
177764000,-3.0055216e-06,-3.5565274e-06,-3.0068782e-06,0.0
177964000,-1.4320433e-06,-8.36379e-06,-1.0947586e-07,0.0
178164000,-4.971647e-06,-8.088984e-06,-4.987061e-07,0.0
178364000,1.947075e-06,-5.2697674e-06,1.4282402e-06,0.0
178564000,-3.970431e-06,-5.6145464e-06,2.920747e-07,0.0
178764000,-1.5837878e-06,-5.352186e-06,1.4580722e-06,0.0
178964000,-2.455443e-06,-6.3873117e-06,1.2010513e-06,0.0
179164000,-2.101147e-06,-4.4669396e-06,5.1588415e-07,0.0
179364000,-1.3969958e-06,-6.9324183e-06,-2.4736746e-06,0.0
179564000,-6.655788e-06,-9.545834e-07,-1.3163326e-06,0.0
179764000,-2.570581e-06,-3.3866543e-06,-4.2347912e-07,0.0
179964000,-8.5741584e-07,-3.0130798e-06,1.3526557e-06,0.0
180164000,3.1062684e-06,-9.713531e-06,1.7276043e-06,0.0
180364000,-4.363895e-06,-4.907864e-06,-7.253706e-07,0.0
180560000,4.882031e-06,-1.0828714e-05,1.646936e-07,0.0
180764000,2.5421232e-06,-2.4026153e-06,4.3801072e-07,0.0
180964000,-3.8614794e-06,-3.844206e-06,2.0741822e-07,0.0
181164000,-8.7177165e-07,-5.1027732e-06,-1.0525941e-06,0.0
181364000,4.9695072e-06,-7.0153997e-06,-3.6836866e-07,0.0
181564000,1.623094e-06,-5.45399e-06,-9.61858e-07,0.0
181764000,3.5291018e-07,-2.0662004e-05,-7.825897e-06,0.0
181964000,1.7403332e-06,-3.133802e-05,-1.6328273e-05,0.0
182164000,-1.818858e-06,-1.1819722e-05,-1.3943439e-05,0.0
182364000,2.2910324e-06,-1.8400746e-05,-1.2073583e-05,0.0
182564000,-1.1386708e-06,-1.655346e-05,-1.1273232e-05,0.0
182764000,1.7046689e-06,-9.733791e-06,-1.0895076e-05,0.0
182964000,5.067268e-06,-1.1002879e-05,-9.090757e-06,0.0
183164000,5.8289693e-06,-3.221867e-06,-3.3559754e-06,0.0
183364000,8.204107e-06,-3.2371602e-06,-4.8632896e-06,0.0
183564000,8.1942535e-06,-2.1615206e-06,-2.6515045e-06,0.0
183764000,8.089864e-06,-2.292311e-06,-1.009786e-06,0.0
183964000,5.889882e-06,1.0248422e-06,-5.9194565e-07,0.0
184164000,-5.27227e-07,-4.8216343e-06,-4.729091e-06,0.0
184364000,9.379348e-06,-3.2000532e-06,-3.1312131e-06,0.0
184564000,5.7904203e-06,-1.3996333e-06,-8.547723e-07,0.0
184764000,-2.6351925e-06,4.3788086e-06,-1.9173733e-06,0.0
184964000,3.916031e-06,3.0147962e-06,-3.3805372e-07,0.0
185160000,8.29986e-06,-6.883025e-07,-2.2221252e-06,0.0
185364000,1.012063e-05,-1.2359171e-06,-2.9354064e-06,0.0
185564000,6.668812e-06,5.999953e-07,-1.6546304e-06,0.0
185764000,3.29212e-06,-3.1489137e-07,-1.9524864e-06,0.0
185964000,4.5433553e-06,-2.5254192e-07,-1.9183033e-06,0.0
186164000,-6.606728e-07,3.0790918e-06,-1.4038977e-06,0.0
186364000,1.836702e-06,4.318685e-06,-1.0352969e-06,0.0
186564000,1.2930647e-06,-4.70686e-07,-4.222682e-06,0.0
186764000,5.6559597e-06,-1.7718673e-07,-2.4076744e-06,0.0
186964000,3.4005914e-06,-4.9674686e-06,-4.00636e-06,0.0
187164000,3.7907676e-06,2.6559796e-06,-6.0296657e-07,0.0
187364000,-1.4873503e-06,2.4632452e-06,-3.1160712e-07,0.0
187564000,1.2984455e-06,6.2260034e-07,1.8478268e-06,0.0
187764000,6.233635e-06,-4.0612977e-06,7.6219436e-07,0.0
187964000,7.245245e-06,3.3484719e-06,7.7438365e-08,0.0
188164000,-2.9413045e-06,1.2888491e-06,-1.2667238e-06,0.0
188364000,2.8688492e-06,3.0842426e-07,-2.7875694e-06,0.0
188564000,1.403278e-06,4.7636117e-06,-6.9004295e-07,0.0
188764000,2.5661332e-06,-1.4221131e-06,-3.2098012e-06,0.0
188964000,2.5162753e-06,-3.9131942e-07,-3.1128548e-06,0.0
189164000,1.2394875e-06,1.2255757e-06,-1.5908953e-06,0.0
189364000,3.6930949e-06,-7.123978e-06,-1.0083555e-06,0.0
189564000,3.5179826e-06,8.3057275e-06,-2.0908526e-06,0.0
189760000,3.236288e-06,-7.846714e-07,-3.0573014e-07,0.0
189964000,-7.917643e-07,2.0580737e-06,-2.7884843e-07,0.0
190164000,-5.8723543e-07,2.317002e-06,2.545178e-07,0.0
190364000,4.0191912e-06,3.6558613e-06,-1.6286666e-06,0.0
190564000,2.3018242e-06,-6.73092e-06,1.6492899e-06,0.0
190764000,3.804594e-06,2.795678e-06,-2.3999494e-06,0.0
190964000,4.658774e-06,-2.3493644e-06,-7.575751e-09,0.0
191164000,3.3113058e-06,-1.9539384e-06,-1.3112427e-07,0.0
191364000,3.9034416e-07,-1.8565236e-06,-2.5653937e-06,0.0
191564000,2.898224e-07,-4.296834e-06,-1.2296019e-06,0.0
191764000,3.9500446e-06,1.5925438e-06,-2.5202432e-06,0.0
191964000,4.980575e-06,-4.0007517e-06,8.948266e-07,0.0
192164000,2.9275354e-06,6.9466836e-07,-1.181197e-06,0.0
192360000,2.9619784e-07,-3.074229e-07,-3.1195186e-06,0.0
192564000,-2.637736e-06,1.098913e-06,-9.3850485e-07,0.0
192764000,2.1693856e-08,-1.3955384e-06,1.4680624e-07,0.0
192964000,5.050066e-06,-1.3700663e-06,5.6117777e-08,0.0
193164000,5.075697e-06,-1.0312468e-06,-1.4858005e-06,0.0
193364000,-9.819187e-07,2.2990612e-06,1.9057625e-06,0.0
193564000,8.0254534e-07,1.1345833e-06,-7.863283e-07,0.0
193764000,4.0318594e-07,3.0473432e-06,-1.7130072e-06,0.0
193964000,8.7253756e-07,2.395564e-06,-6.1167475e-07,0.0
194164000,2.931997e-06,4.292697e-07,1.0240078e-07,0.0
194364000,6.796755e-07,2.641261e-07,-1.4544721e-06,0.0
194564000,1.6135272e-06,-4.4314984e-06,-1.2278734e-06,0.0
194764000,1.6298742e-07,5.422831e-07,-1.7783047e-07,0.0
194964000,-2.1763606e-06,4.2038263e-07,-1.3109621e-06,0.0
195164000,4.7781123e-06,-3.1346084e-07,9.917437e-07,0.0
195360000,-1.3223126e-06,8.1028645e-07,-1.3773856e-06,0.0
195564000,3.0694632e-06,5.243902e-06,-9.787201e-07,0.0
195764000,2.2778686e-06,7.654876e-07,-8.2108977e-07,0.0
195964000,-1.9717292e-07,-2.3651e-06,-6.325842e-08,0.0
196164000,-3.7926397e-06,-1.8231957e-06,-1.748305e-06,0.0
196364000,2.2734737e-06,4.1182938e-07,-2.7192987e-06,0.0
196564000,-3.3059422e-07,2.1834908e-06,-1.5255864e-06,0.0
196764000,8.120888e-07,-2.8309228e-07,-1.4008102e-06,0.0
196960000,1.0036074e-06,2.6573089e-06,-6.46317e-07,0.0
197160000,2.675828e-06,-3.4390616e-06,1.417637e-07,0.0
197364000,-5.0336407e-06,3.053557e-06,-1.0830521e-06,0.0
197564000,1.0467235e-06,-2.8407575e-08,-1.7164946e-07,0.0
197764000,3.215194e-06,-4.1882076e-06,4.6698455e-07,0.0
197964000,-1.4298483e-06,3.2773814e-06,-4.1342977e-07,0.0
198164000,1.4775429e-06,8.742547e-06,4.1326285e-07,0.0
198364000,3.295338e-06,-6.9856645e-07,-1.9472839e-07,0.0
198564000,2.5639376e-06,1.2715548e-06,-3.2626988e-07,0.0
198764000,2.7565618e-06,-3.9333705e-07,-1.4480354e-07,0.0
198964000,4.578126e-06,6.275384e-06,1.3945876e-06,0.0
199164000,7.76333e-07,2.025768e-06,9.464622e-08,0.0
199364000,2.40022e-06,1.4198422e-06,-7.07829e-07,0.0
199564000,-7.9852686e-07,3.1153254e-06,2.0929447e-06,0.0
199764000,-1.14591e-06,1.531136e-06,1.3134e-06,0.0
199964000,5.6661484e-06,4.313648e-07,-3.7168863e-07,0.0
200164000,1.1901826e-06,2.762657e-06,6.9485304e-07,0.0
200364000,3.0364604e-06,-3.917198e-06,2.3981335e-07,0.0
200564000,-9.576269e-07,-2.1692513e-06,1.2870071e-06,0.0
200764000,3.2212904e-06,3.2247085e-06,-4.4856074e-07,0.0
200964000,4.440744e-06,2.230555e-07,-2.0837785e-08,0.0
201164000,5.6586043e-07,-3.4600307e-06,-1.4588651e-06,0.0
201364000,-3.0663552e-06,3.8077847e-06,-1.1500537e-06,0.0
201564000,-1.5031959e-06,-3.0946517e-06,1.1796831e-06,0.0
201764000,2.8583333e-06,-5.7337734e-06,1.2447238e-06,0.0
201964000,3.2833284e-06,-5.848855e-07,-2.7408694e-06,0.0
202164000,-2.8638924e-06,-2.7714993e-06,2.2341776e-06,0.0
202364000,4.3508376e-06,3.0055428e-06,-1.1153161e-06,0.0
202564000,-1.6315073e-06,-5.830736e-07,-5.6405065e-07,0.0
202764000,1.7452242e-08,2.261415e-06,2.0453326e-06,0.0
202964000,9.2766106e-07,5.8225482e-06,1.5229102e-06,0.0
203164000,-1.2041792e-06,-8.791497e-06,-9.807765e-07,0.0
203364000,2.853054e-06,-9.658933e-08,1.5343305e-06,0.0
203564000,-1.2613087e-06,1.838511e-06,7.0767396e-07,0.0
203764000,-3.7996754e-06,3.6671e-06,1.3978539e-06,0.0
203964000,7.407759e-07,5.145629e-06,-2.2025706e-07,0.0
204164000,-2.469028e-06,2.485716e-06,2.1507145e-07,0.0
204364000,-1.6007975e-06,-4.3834152e-07,-1.7139608e-06,0.0
204560000,1.672776e-06,-1.2774974e-06,-1.6988517e-07,0.0
204764000,4.6506005e-07,-2.385661e-06,-1.1162163e-07,0.0
204964000,-6.715146e-06,-3.622164e-06,-2.2955344e-06,0.0
205164000,-4.878102e-06,1.8746374e-06,4.4493083e-07,0.0
205364000,2.899938e-06,3.346895e-06,-1.5846905e-06,0.0
205560000,3.6365122e-06,3.6905901e-06,8.403064e-08,0.0
205764000,3.6867524e-07,-1.384595e-06,2.0531347e-06,0.0
205964000,9.1419764e-07,3.7467764e-06,6.774843e-07,0.0
206164000,-5.284745e-07,-1.6907869e-06,4.9149395e-07,0.0
206364000,4.156923e-06,4.6061282e-07,-2.1708013e-08,0.0
206564000,1.5766717e-06,3.5571234e-06,-1.6967649e-06,0.0
206764000,-2.272606e-07,-3.858499e-06,1.1710285e-06,0.0
206964000,-2.0712255e-06,1.7412005e-06,-3.808439e-07,0.0
207164000,-7.1756654e-07,-5.6575243e-07,-1.3124944e-07,0.0
207364000,9.601385e-07,-1.4248192e-07,-1.0730981e-06,0.0
207564000,-8.5692e-07,3.339412e-06,-6.7239404e-07,0.0
207764000,-4.197653e-06,1.1130244e-06,-8.9003436e-07,0.0
207964000,-2.0528921e-06,-1.3956428e-07,1.5646037e-06,0.0
208164000,2.852632e-06,-6.0170895e-09,-1.5982029e-06,0.0
208364000,-3.8989563e-07,-3.967507e-06,-2.2666798e-06,0.0
208564000,-4.5647257e-06,-3.8207518e-06,-2.4944347e-06,0.0
208764000,-1.5658226e-06,4.2395573e-06,1.986623e-08,0.0
208964000,1.7881711e-06,2.471706e-06,-5.557418e-07,0.0
209164000,-3.501559e-06,2.379456e-06,8.7632526e-07,0.0
209364000,-8.153991e-08,8.37189e-07,3.4397843e-08,0.0
209564000,2.5820348e-06,-3.1152965e-07,-1.3521908e-06,0.0
209764000,-1.4054872e-06,3.588529e-06,-1.1102558e-07,0.0
209964000,-1.4921274e-06,-1.6930102e-06,1.315218e-06,0.0
210164000,-6.0264874e-06,7.8069576e-07,1.4440058e-06,0.0
210364000,1.5896717e-06,4.563573e-06,-1.4253317e-06,0.0
210564000,1.2365728e-06,4.2524853e-06,-1.2521446e-06,0.0
210764000,-2.9706845e-07,5.2875885e-07,-3.9814117e-07,0.0
210964000,-1.9802825e-07,7.861853e-08,8.726596e-07,0.0
211164000,4.916426e-06,-2.313417e-06,5.0866607e-08,0.0
211364000,3.5415368e-07,3.0158067e-06,-1.7599874e-06,0.0
211564000,1.7512193e-06,-3.6986814e-06,-1.6168953e-07,0.0
211764000,3.101032e-06,1.383686e-06,-5.1535363e-07,0.0
211960000,-1.3303608e-06,2.9205285e-06,1.3517438e-06,0.0
212164000,-4.8900533e-06,2.2119252e-06,7.621348e-07,0.0
212364000,-3.033051e-06,1.5343101e-06,-1.5594364e-07,0.0
212564000,-5.4440386e-07,5.873185e-06,1.5941795e-06,0.0
212764000,1.3733495e-06,-4.3882136e-07,-3.98141e-06,0.0
212964000,3.6135317e-11,-3.0144595e-06,-2.1488536e-06,0.0
213164000,-1.3855006e-06,-2.4515389e-06,-3.0842984e-06,0.0
213364000,-4.6981873e-07,-8.423985e-07,-1.9008868e-06,0.0
213564000,2.4345832e-06,1.7436444e-06,3.2749773e-07,0.0
213764000,-1.6970845e-06,1.5213817e-06,1.0355114e-06,0.0
213964000,-1.9753995e-06,4.44206e-06,4.6607258e-07,0.0
214160000,-7.432659e-07,-8.0294615e-07,-2.3117111e-06,0.0
214364000,-1.5649919e-06,-5.367965e-07,3.5691264e-07,0.0
214564000,6.3048736e-07,-1.5704273e-06,-7.421851e-07,0.0
214764000,5.872045e-07,2.9379896e-06,1.6569848e-06,0.0
214964000,-1.8969608e-06,2.368772e-06,9.991765e-07,0.0
215164000,8.2916625e-07,-8.2900533e-07,-9.1522327e-07,0.0
215364000,-8.349755e-08,-3.3697831e-06,-1.0635673e-06,0.0
215564000,4.9930804e-06,6.4015903e-06,2.4976414e-06,0.0
215764000,1.3028167e-06,-6.351889e-07,-4.5431855e-07,0.0
215964000,5.403001e-07,1.1815548e-06,1.8607072e-06,0.0
216164000,-2.574538e-06,-1.2049675e-07,-9.777307e-07,0.0
216364000,1.9927857e-06,5.2235023e-06,-3.190756e-07,0.0
216564000,-0.00013559592,5.6314474e-07,6.1734323e-07,0.0
216764000,5.9364815e-05,-2.5317904e-06,-7.60477e-06,0.0
216964000,3.6491805e-05,-1.471293e-06,-1.6821563e-05,0.0
217164000,1.919359e-05,7.733104e-06,-1.5218534e-05,0.0
217364000,7.857204e-06,9.4562773e-07,-1.0514498e-06,0.0
217564000,1.537168e-06,3.7630543e-06,2.4031637e-05,0.0
217764000,-6.3651596e-06,5.8918176e-06,4.233337e-05,0.0
217964000,-6.9065823e-06,1.1522305e-05,5.3161326e-05,0.0
218164000,-3.2959333e-06,1.1409379e-05,4.986928e-05,0.0
218364000,-3.2038915e-06,-2.0133258e-07,4.1128227e-05,0.0
218564000,4.181312e-06,7.1746115e-07,2.7032556e-05,0.0
218764000,-1.1380745e-05,-1.4896094e-06,1.36659e-05,0.0
218964000,-6.2608406e-06,-1.0419399e-06,1.0888202e-05,0.0
219164000,-9.012343e-06,-3.2235087e-07,3.8401204e-06,0.0
219364000,-1.1493742e-05,-2.640536e-06,4.6702494e-06,0.0
219564000,-7.61473e-06,-1.7648204e-06,1.1609265e-05,0.0
219764000,-1.0967768e-05,-4.274465e-06,1.8100824e-05,0.0
219960000,-6.289969e-06,-4.2881657e-06,1.8734925e-05,0.0
220164000,-6.740138e-06,-6.7595333e-06,1.8808829e-05,0.0
220364000,-5.4852435e-06,-2.6154246e-06,1.2909713e-05,0.0
220564000,-7.650453e-06,-5.187482e-06,-1.722455e-07,0.0
220764000,-4.2828838e-06,-8.231523e-06,-4.8701245e-06,0.0
220964000,-2.3739394e-06,-3.8271896e-06,-1.1858273e-05,0.0
221164000,1.0154664e-06,-9.018018e-06,-1.1409479e-05,0.0
221360000,3.739871e-06,-4.4005096e-06,-9.636905e-06,0.0
221564000,1.6967683e-06,-6.3244834e-06,-7.506758e-06,0.0
221764000,1.6998948e-07,-6.5076506e-06,3.573108e-06,0.0
221964000,-3.310137e-06,-1.5667828e-08,7.2576995e-06,0.0
222164000,-3.331506e-06,-1.2996413e-06,1.1072457e-05,0.0
222364000,1.1977255e-06,-1.5575334e-06,1.0253438e-05,0.0
222564000,-4.3105894e-07,-1.9360355e-06,6.8431655e-06,0.0
222764000,-6.73917e-07,-2.4559504e-06,4.195696e-06,0.0
222964000,-5.8231267e-06,1.7431044e-07,1.4978077e-06,0.0
223164000,-4.3546684e-06,-6.505102e-08,-3.1654824e-06,0.0
223364000,-5.3466424e-06,-2.224931e-06,-1.9765548e-06,0.0
223564000,-6.2775684e-06,-4.009031e-07,1.6360129e-06,0.0
223764000,-5.699817e-06,-7.8062385e-07,4.528973e-06,0.0
223964000,-8.1482385e-06,9.69629e-07,5.843948e-06,0.0
224164000,-1.8336651e-06,-9.472593e-06,7.834567e-06,0.0
224364000,-2.7246679e-06,-4.0528607e-06,1.1711675e-05,0.0
224564000,1.4935733e-07,-9.067011e-07,8.38329e-06,0.0
224764000,-1.6937792e-06,-2.9662565e-06,9.042275e-06,0.0
224964000,4.8639263e-06,-3.7711998e-06,4.878664e-06,0.0
225164000,-3.2128683e-06,-1.8560062e-06,1.8920392e-06,0.0
225364000,-7.5566904e-06,-4.0754767e-06,2.3592747e-06,0.0
225564000,-2.5665936e-06,-2.7932617e-06,2.3067564e-06,0.0
225764000,-3.4559716e-06,2.7019746e-06,4.5908737e-06,0.0
225964000,9.5162545e-07,1.9681718e-06,3.7946577e-06,0.0
226164000,-8.620101e-06,-3.0707065e-06,5.201929e-06,0.0
226364000,-1.8518805e-06,-3.88337e-06,6.209372e-06,0.0
226564000,-1.1339292e-06,1.6686583e-06,5.8891796e-06,0.0
226760000,2.1501419e-06,-1.2402766e-06,4.1517887e-06,0.0
226964000,0.00011848301,-6.751827e-05,0.00010910731,0.0
227164000,0.00052678405,0.0005564985,0.00018637098,0.0
227364000,0.00089115946,0.0017039804,0.0002040645,0.0
227564000,0.0012387782,0.0035767686,0.00023442451,0.0
227764000,0.0015280908,0.0055896174,0.0002622042,0.0
227964000,0.0018266148,0.007891686,0.00030129592,0.0
228164000,0.0020782612,0.010049662,0.00036998474,0.0
228364000,0.0021910048,0.012083246,0.00045070585,0.0
228564000,0.002258902,0.013887651,0.0005426289,0.0
228764000,0.0022502444,0.01559364,0.0006566397,0.0
228964000,0.0021826318,0.017130716,0.0007662463,0.0
229164000,0.0020297545,0.018776286,0.0008212527,0.0
229364000,0.0018215694,0.020135254,0.0008464268,0.0
229564000,0.0014860303,0.021413844,0.0008516473,0.0
229764000,0.0011318857,0.022555457,0.00079457735,0.0
229964000,0.00085465686,0.023552263,0.0007440374,0.0
230164000,0.0005363062,0.024593782,0.00066516607,0.0
230364000,0.00030580995,0.025701389,0.0006271592,0.0
230564000,6.683971e-05,0.026790207,0.0005750575,0.0
230764000,-0.00011455832,0.027743097,0.00056257204,0.0
230964000,-0.0002829196,0.028587509,0.000568214,0.0
231164000,-0.00039859905,0.029195704,0.0005747296,0.0
231364000,-0.0004734032,0.029521475,0.0005842384,0.0
231564000,-0.0005228062,0.029569143,0.00061452924,0.0
231760000,-0.0005208908,0.029340005,0.00063964754,0.0
231964000,-0.000532116,0.0287319,0.00068857137,0.0
232164000,-0.004111663,0.019921152,0.00047336207,0.0
232364000,0.00087322143,0.015355281,-2.2468157e-05,0.0
232564000,0.0026673987,0.026426328,-4.485858e-05,0.0
232760000,0.0026419067,0.025280628,0.0002662988,0.0
232964000,0.0005480079,0.019973256,0.0008058758,0.0
233164000,-0.00017829254,0.01876742,0.0011634416,0.0
233364000,-0.00079488684,0.01747787,0.0013124702,0.0
233564000,-0.0012280057,0.016433077,0.0012476938,0.0
233764000,-0.001520651,0.015829349,0.0010479238,0.0
233964000,-0.0014300451,0.0153437015,0.000780743,0.0
234164000,-0.0016401695,0.015062999,0.00052097585,0.0
234364000,-0.0013813712,0.013419762,0.00026825813,0.0
234564000,-0.0005097741,0.022637168,0.00012640847,0.0
234764000,4.3884607e-05,0.019759044,6.3515035e-05,0.0
234964000,-0.00018799327,0.01844302,0.00013897658,0.0
235164000,-0.0005611497,0.018367406,0.00028281932,0.0
235364000,-0.00077804126,0.014287017,0.00037451374,0.0
235564000,-0.0006507192,0.008653674,0.00046662302,0.0
235764000,-0.00070556515,0.0049622776,0.000544602,0.0
235964000,-0.0006456747,0.0050539095,0.00057317654,0.0
236164000,-0.0006606528,0.0056533404,0.0005689901,0.0
236364000,-0.00035497127,0.00628493,0.0005986565,0.0
236564000,-0.0017770274,0.005837348,0.00056288607,0.0
236764000,-0.00066525413,0.005907803,0.00043385517,0.0
236964000,-5.3272735e-05,0.0053287796,0.0003189398,0.0
237164000,9.009283e-05,0.0043368633,0.00023104889,0.0
237364000,-5.0134386e-06,0.003154832,0.00019680087,0.0
237564000,-0.00013217411,0.0035558215,0.00017828387,0.0
237764000,-0.0004647496,0.0026936582,0.00014627182,0.0
237964000,-0.00023324034,0.0004382381,0.00013113406,0.0
238164000,-0.0002907692,-0.00012160901,0.000119183394,0.0
238364000,-6.341907e-05,2.2942222e-05,0.000110272806,0.0
238564000,0.00017981556,-0.0028848236,0.000106090476,0.0
238764000,-0.00026576134,-0.0069222446,0.00015266982,0.0
238964000,-0.00019482245,0.0025004607,0.00014366089,0.0
239164000,1.3040751e-05,0.0028999965,0.00010097889,0.0
239364000,-0.00013613641,0.0016749372,6.922004e-05,0.0
239564000,-5.1654246e-05,0.0013549944,6.377551e-05,0.0
239764000,-0.00015547466,0.0013588401,6.154193e-05,0.0
239964000,-4.8764763e-05,0.001244877,6.691389e-05,0.0
240164000,-9.07972e-05,0.0010626828,3.285505e-05,0.0
240364000,8.92199e-05,0.0010599433,4.827908e-05,0.0
240564000,-1.1642719e-05,0.0009208681,3.4017205e-05,0.0
240764000,-6.929237e-05,0.0010620634,3.4041386e-05,0.0
240964000,-8.444176e-05,0.0009879945,3.319365e-05,0.0
241164000,8.077572e-05,0.0011044497,4.1652736e-05,0.0
241364000,0.00010841151,0.0009543853,2.0937947e-05,0.0
241564000,0.00020678718,0.000982602,3.156672e-06,0.0
241764000,5.2253063e-06,0.0010989994,1.8137664e-05,0.0
241964000,-2.787141e-05,0.0014751516,1.637834e-05,0.0
242164000,-0.000212358,0.0012293662,1.368437e-05,0.0
242360000,-5.1915e-05,0.001267158,1.5489797e-05,0.0
242564000,-9.366934e-05,0.0012379546,2.7303871e-05,0.0
242764000,7.812302e-05,0.0011931009,3.416605e-05,0.0
242964000,-3.226347e-05,0.0012552212,3.575459e-05,0.0
243164000,8.2773746e-05,0.0013253364,3.281716e-05,0.0
243364000,0.00014645453,0.0011015087,3.6426798e-06,0.0
243564000,0.00010056904,0.001171696,1.0325428e-05,0.0
243764000,-5.6806944e-05,0.0012188681,1.05418085e-05,0.0
243964000,-2.557518e-05,0.0013384239,2.0082698e-05,0.0
244164000,-0.00013773305,0.0010061668,2.1912681e-05,0.0
244364000,-9.453317e-06,0.0011463045,3.10117e-05,0.0
244564000,-8.416256e-05,0.0010426412,4.586609e-05,0.0
244764000,-9.494963e-05,0.0012305033,3.898765e-05,0.0
244964000,2.3514593e-05,0.001106357,1.4441065e-05,0.0
245164000,0.00018072165,0.0011034756,1.5527994e-05,0.0
245364000,9.670356e-05,0.0010937888,8.9515825e-06,0.0
245564000,1.6938433e-05,0.0011758249,-2.703462e-07,0.0
