timestamp,indicated_airspeed_m_s,calibrated_airspeed_m_s,true_airspeed_m_s,calibrated_ground_minus_wind_m_s,true_ground_minus_wind_m_s,airspeed_sensor_measurement_valid,selected_airspeed_index
3884000,1.1845645,1.1854229,1.187192,nan,nan,1,1
3936000,0.69213766,0.69263923,0.6936729,nan,nan,1,1
4036000,-0.873999,-0.87463236,-0.87593275,nan,nan,1,1
4236000,-0.46553418,-0.46587154,-0.46656707,nan,nan,1,1
4436000,-1.1376393,-1.1384637,-1.1401478,nan,nan,1,1
4636000,-1.3082455,-1.3091936,-1.3111409,nan,nan,1,1
4836000,1.2482613,1.2491659,1.2510334,nan,nan,1,1
5036000,0.12309213,0.12318133,0.12336394,nan,nan,1,1
5236000,-1.8093247,-1.8106359,-1.8133337,nan,nan,1,1
5436000,-0.090958394,-0.09102431,-0.09115986,nan,nan,1,1
5636000,-0.8307205,-0.8313225,-0.8325602,nan,nan,1,1
5836000,-1.987473,-1.9889133,-1.9918784,nan,nan,1,1
6036000,0.84437066,0.84498256,0.84624106,nan,nan,1,1
6236000,-1.9656355,-1.96706,-1.9699911,nan,nan,1,1
6436000,1.1184031,1.1192136,1.12088,nan,nan,1,1
6636000,-0.40549228,-0.40578613,-0.40639412,nan,nan,1,1
6836000,0.7331201,0.73365134,0.7347478,nan,nan,1,1
7036000,1.2123909,1.2132695,1.2150779,nan,nan,1,1
7236000,-1.1133356,-1.1141424,-1.1158026,nan,nan,1,1
7436000,0.5627585,0.5631663,0.5640058,nan,nan,1,1
7636000,1.3509842,1.3519633,1.3539777,nan,nan,1,1
7836000,1.3663296,1.3673197,1.3693655,nan,nan,1,1
8036000,-0.974339,-0.9750451,-0.97649884,nan,nan,1,1
8236000,-1.8010354,-1.8023405,-1.8050315,nan,nan,1,1
8436000,-1.1786402,-1.1794944,-1.1812648,nan,nan,1,1
8636000,0.6227299,0.62318116,0.62411076,nan,nan,1,1
8836000,-0.48681068,-0.48716345,-0.48788914,nan,nan,1,1
9036000,1.2539597,1.2548684,1.2567374,nan,nan,1,1
9236000,1.3136826,1.3146346,1.3165979,nan,nan,1,1
9436000,-0.84782505,-0.84843946,-0.84970474,nan,nan,1,1
9636000,-1.0582172,-1.058984,-1.060567,nan,nan,1,1
9836000,-0.64295346,-0.6434194,-0.6443764,nan,nan,1,1
10036000,-0.94902104,-0.94970876,-0.95112664,nan,nan,1,1
10236000,0.7149725,0.71549064,0.7165557,nan,nan,1,1
10436000,0.8559101,0.85653037,0.85780305,nan,nan,1,1
10636000,-1.5634812,-1.5646142,-1.5669471,nan,nan,1,1
10836000,-1.3901258,-1.3911332,-1.3932043,nan,nan,1,1
11036000,1.3566654,1.3576485,1.3596803,nan,nan,1,1
11236000,0.93326074,0.9339371,0.93532944,nan,nan,1,1
11436000,-1.370622,-1.3716153,-1.3736598,nan,nan,1,1
11636000,-0.2816463,-0.28185043,-0.28226992,nan,nan,1,1
11836000,0.5712774,0.5716914,0.57254446,nan,nan,1,1
12036000,-0.35796675,-0.35822615,-0.3587601,nan,nan,1,1
12236000,0.9525659,0.9532562,0.95467937,nan,nan,1,1
12436000,-0.6473395,-0.6478086,-0.648778,nan,nan,1,1
12636000,1.3072529,1.3082002,1.3101538,nan,nan,1,1
12836000,0.75405645,0.7546029,0.7557314,nan,nan,1,1
13036000,1.4057593,1.4067781,1.4088831,nan,nan,1,1
13236000,-0.50224274,-0.5026067,-0.50335777,nan,nan,1,1
13436000,-1.4383745,-1.4394169,-1.4415599,nan,nan,1,1
13636000,-1.3388474,-1.3398176,-1.3418205,nan,nan,1,1
13836000,-0.44214293,-0.44246334,-0.4431236,nan,nan,1,1
14036000,-0.56613797,-0.5665482,-0.56739354,nan,nan,1,1
14236000,-0.98150796,-0.9822192,-0.9836839,nan,nan,1,1
14436000,-0.6175326,-0.6179801,-0.6188982,nan,nan,1,1
14636000,-1.0300921,-1.0308386,-1.0323728,nan,nan,1,1
14836000,-1.3817987,-1.3828001,-1.384867,nan,nan,1,1
15036000,1.0014517,1.0021775,1.0036714,nan,nan,1,1
15236000,0.9835214,0.98423415,0.98570395,nan,nan,1,1
15436000,1.0555466,1.0563116,1.0578797,nan,nan,1,1
15636000,1.4081668,1.4091872,1.411295,nan,nan,1,1
15836000,-0.6234519,-0.6239037,-0.6248331,nan,nan,1,1
16036000,0.47500128,0.4753455,0.47605556,nan,nan,1,1
16236000,1.4370111,1.4380525,1.4401968,nan,nan,1,1
16436000,1.3538853,1.3548664,1.3568791,nan,nan,1,1
16636000,-0.8669666,-0.8675949,-0.86889,nan,nan,1,1
16836000,1.365554,1.3665435,1.3685887,nan,nan,1,1
17036000,-0.563699,-0.5641075,-0.5649473,nan,nan,1,1
17236000,1.2805444,1.2814723,1.2833788,nan,nan,1,1
17436000,1.6507058,1.6519021,1.6543607,nan,nan,1,1
17636000,0.8059336,0.80651766,0.8077212,nan,nan,1,1
17836000,1.0179689,1.0187066,1.0202249,nan,nan,1,1
18036000,0.3243602,0.32459524,0.3250782,nan,nan,1,1
18236000,-1.0964826,-1.0972773,-1.0989177,nan,nan,1,1
18436000,-0.39672083,-0.39700833,-0.39760172,nan,nan,1,1
18636000,1.4185873,1.4196154,1.4217247,nan,nan,1,1
18836000,-1.3535439,-1.3545247,-1.356548,nan,nan,1,1
19036000,0.643572,0.6440384,0.6450029,nan,nan,1,1
19236000,-0.6719737,-0.6724607,-0.67346394,nan,nan,1,1
19436000,0.50663775,0.5070049,0.50776017,nan,nan,1,1
19636000,-0.5104332,-0.5108031,-0.5115663,nan,nan,1,1
19836000,1.5019474,1.5030358,1.5052794,nan,nan,1,1
20036000,-1.4101716,-1.4111935,-1.4132988,nan,nan,1,1
20236000,1.4919796,1.4930608,1.4952757,nan,nan,1,1
20436000,1.1034485,1.1042482,1.1058825,nan,nan,1,1
20636000,-1.1405579,-1.1413844,-1.1430894,nan,nan,1,1
20836000,1.3687412,1.3697331,1.3717757,nan,nan,1,1
21036000,0.90459776,0.9052533,0.90659994,nan,nan,1,1
21236000,1.1728938,1.1737437,1.1754974,nan,nan,1,1
21436000,1.0229611,1.0237025,1.0252326,nan,nan,1,1
21636000,-1.0309099,-1.031657,-1.0331956,nan,nan,1,1
21836000,-0.5640855,-0.56449425,-0.5653343,nan,nan,1,1
22036000,-1.5539261,-1.5550522,-1.5573717,nan,nan,1,1
22236000,-1.3443451,-1.3453193,-1.3473256,nan,nan,1,1
22436000,1.0601655,1.0609338,1.0625145,nan,nan,1,1
22636000,-1.6441102,-1.6453017,-1.6477516,nan,nan,1,1
22836000,1.0663366,1.0671093,1.0687047,nan,nan,1,1
23036000,-0.6845034,-0.6849994,-0.68602455,nan,nan,1,1
23236000,-1.3956527,-1.396664,-1.3987477,nan,nan,1,1
23436000,-0.7367909,-0.73732483,-0.73842686,nan,nan,1,1
23636000,-0.7488062,-0.7493488,-0.750466,nan,nan,1,1
23836000,0.9855889,0.98630315,0.9877757,nan,nan,1,1
24036000,1.2634243,1.2643398,1.2662175,nan,nan,1,1
24236000,1.3118713,1.312822,1.3147755,nan,nan,1,1
24436000,1.3601333,1.3611189,1.3631483,nan,nan,1,1
24636000,0.46574023,0.46607774,0.4667726,nan,nan,1,1
24836000,-1.084268,-1.0850537,-1.086672,nan,nan,1,1
25036000,-1.0543301,-1.0550941,-1.0566694,nan,nan,1,1
25236000,0.50676894,0.50713617,0.50789016,nan,nan,1,1
25436000,1.8697386,1.8710935,1.8738843,nan,nan,1,1
25636000,1.4112016,1.4122243,1.4143333,nan,nan,1,1
25836000,-0.5388809,-0.5392714,-0.54007596,nan,nan,1,1
26036000,1.3653524,1.3663418,1.3683852,nan,nan,1,1
26236000,0.6244883,0.6249409,0.62587065,nan,nan,1,1
26436000,-1.1907054,-1.1915683,-1.193342,nan,nan,1,1
26636000,0.37529472,0.3755667,0.37612665,nan,nan,1,1
26836000,1.1341968,1.1350187,1.1367172,nan,nan,1,1
27036000,-2.0994375,-2.1009588,-2.1040933,nan,nan,1,1
27236000,-1.0964454,-1.09724,-1.0988729,nan,nan,1,1
27436000,-1.3189288,-1.3198847,-1.3218507,nan,nan,1,1
27636000,-1.968482,-1.9699085,-1.9728335,nan,nan,1,1
27836000,-0.80207366,-0.8026549,-0.80385125,nan,nan,1,1
28036000,-1.486539,-1.4876163,-1.4898301,nan,nan,1,1
28236000,1.4025028,1.4035192,1.4056036,nan,nan,1,1
28436000,1.696536,1.6977654,1.7003045,nan,nan,1,1
28636000,0.49233684,0.49269363,0.49342886,nan,nan,1,1
28836000,1.0683143,1.0690885,1.0706826,nan,nan,1,1
29036000,-0.8430488,-0.84365976,-0.8449145,nan,nan,1,1
29236000,1.8555181,1.8568628,1.8596414,nan,nan,1,1
29436000,1.6326464,1.6338296,1.6362761,nan,nan,1,1
29636000,-1.3938038,-1.3948139,-1.3968948,nan,nan,1,1
29836000,1.549673,1.5507959,1.5531186,nan,nan,1,1
30036000,1.1751547,1.1760063,1.177764,nan,nan,1,1
30236000,1.1618934,1.1627353,1.1644704,nan,nan,1,1
30436000,1.0206616,1.0214013,1.0229217,nan,nan,1,1
30636000,-0.8357648,-0.83637047,-0.83761936,nan,nan,1,1
30836000,0.90185034,0.9025039,0.9038504,nan,nan,1,1
31036000,-0.93326235,-0.9339387,-0.9353309,nan,nan,1,1
31236000,1.5722535,1.5733929,1.5757278,nan,nan,1,1
31436000,1.2454829,1.2463855,1.2482501,nan,nan,1,1
31636000,-1.1679173,-1.1687636,-1.1705074,nan,nan,1,1
31836000,1.0709676,1.0717436,1.0733398,nan,nan,1,1
32036000,-0.4688801,-0.46921986,-0.4699218,nan,nan,1,1
32236000,0.95839125,0.95908576,0.9605175,nan,nan,1,1
32436000,0.34812245,0.34837472,0.34889323,nan,nan,1,1
32636000,-1.4639529,-1.4650137,-1.4671992,nan,nan,1,1
32836000,1.585511,1.5866599,1.5890228,nan,nan,1,1
33036000,1.4432337,1.4442796,1.4464397,nan,nan,1,1
33236000,-1.7001947,-1.7014267,-1.7039706,nan,nan,1,1
33436000,-0.87229234,-0.87292445,-0.8742271,nan,nan,1,1
33636000,-1.3619467,-1.3629336,-1.3649608,nan,nan,1,1
33836000,1.5820944,1.583241,1.5855957,nan,nan,1,1
34036000,-1.248533,-1.2494378,-1.2512983,nan,nan,1,1
34236000,-0.23226547,-0.2324338,-0.2327793,nan,nan,1,1
34436000,1.4556276,1.4566824,1.4588563,nan,nan,1,1
34636000,-1.3784853,-1.3794843,-1.3815405,nan,nan,1,1
34836000,1.1499616,1.150795,1.1525091,nan,nan,1,1
35036000,1.0584301,1.0591971,1.0607822,nan,nan,1,1
35236000,-1.3666312,-1.3676215,-1.3696603,nan,nan,1,1
35436000,-0.57216597,-0.5725806,-0.57343465,nan,nan,1,1
35636000,1.6070093,1.6081738,1.6105787,nan,nan,1,1
35836000,0.8045719,0.805155,0.80635685,nan,nan,1,1
36036000,1.402781,1.4037976,1.4058976,nan,nan,1,1
36236000,-1.2537767,-1.2546853,-1.2565564,nan,nan,1,1
36436000,0.984809,0.9855226,0.98698944,nan,nan,1,1
36636000,1.2921644,1.2931008,1.2950311,nan,nan,1,1
36836000,-0.87831324,-0.87894976,-0.8802615,nan,nan,1,1
37036000,1.1433159,1.1441444,1.1458523,nan,nan,1,1
37236000,-0.86600256,-0.86663014,-0.8679214,nan,nan,1,1
37436000,1.1776726,1.178526,1.1802881,nan,nan,1,1
37636000,-0.624165,-0.62461734,-0.6255471,nan,nan,1,1
37836000,0.4423465,0.44266707,0.4433253,nan,nan,1,1
38036000,-1.4845359,-1.4856117,-1.4878246,nan,nan,1,1
38236000,0.6295176,0.6299738,0.6309162,nan,nan,1,1
38436000,1.3280022,1.3289646,1.3309488,nan,nan,1,1
38636000,1.6015079,1.6026685,1.6050597,nan,nan,1,1
38836000,1.4296757,1.4307117,1.4328386,nan,nan,1,1
39036000,1.6500865,1.6512823,1.6537453,nan,nan,1,1
39236000,1.4044166,1.4054343,1.4075297,nan,nan,1,1
39436000,-1.0894344,-1.0902239,-1.0918463,nan,nan,1,1
39636000,1.783156,1.7844483,1.7871122,nan,nan,1,1
39836000,-1.5777586,-1.5789019,-1.5812584,nan,nan,1,1
40036000,-1.0836385,-1.0844238,-1.0860436,nan,nan,1,1
40236000,-1.284247,-1.2851777,-1.2870902,nan,nan,1,1
40436000,-1.0577755,-1.058542,-1.0601163,nan,nan,1,1
40636000,0.4668853,0.46722364,0.46791717,nan,nan,1,1
40836000,1.9603497,1.9617703,1.9646987,nan,nan,1,1
41036000,1.6032243,1.6043861,1.6067866,nan,nan,1,1
41236000,-1.0497794,-1.0505402,-1.0521055,nan,nan,1,1
41436000,1.2140993,1.2149792,1.2167923,nan,nan,1,1
41636000,0.8020951,0.8026764,0.8038701,nan,nan,1,1
41836000,-1.8161985,-1.8175147,-1.8202156,nan,nan,1,1
42036000,1.6304,1.6315814,1.6340195,nan,nan,1,1
42236000,-0.9274419,-0.928114,-0.92949957,nan,nan,1,1
42436000,0.96398747,0.96468604,0.96611965,nan,nan,1,1
42636000,-1.4199183,-1.4209473,-1.4230664,nan,nan,1,1
42836000,-1.2584051,-1.259317,-1.2611995,nan,nan,1,1
43036000,-0.81033486,-0.8109221,-0.8121322,nan,nan,1,1
43236000,-1.7177522,-1.718997,-1.7215555,nan,nan,1,1
43436000,0.99008185,0.9907993,0.9922763,nan,nan,1,1
43636000,0.764939,0.76549333,0.7666326,nan,nan,1,1
43836000,0.90719825,0.9078557,0.909207,nan,nan,1,1
44036000,1.0171098,1.0178468,1.0193622,nan,nan,1,1
44236000,-1.6332182,-1.6344017,-1.6368375,nan,nan,1,1
44436000,-1.8906907,-1.8920609,-1.8948889,nan,nan,1,1
44636000,-1.5311346,-1.5322442,-1.5345203,nan,nan,1,1
44836000,-0.49632043,-0.4966801,-0.49741974,nan,nan,1,1
45036000,-1.7320993,-1.7333544,-1.7359315,nan,nan,1,1
45236000,-0.56486267,-0.56527203,-0.56611764,nan,nan,1,1
45436000,0.45527986,0.4556098,0.45628932,nan,nan,1,1
45636000,1.179069,1.1799235,1.1816854,nan,nan,1,1
45836000,1.1520398,1.1528746,1.154588,nan,nan,1,1
46036000,-1.0777358,-1.0785168,-1.0801232,nan,nan,1,1
46236000,-0.36214173,-0.36240417,-0.36294293,nan,nan,1,1
46436000,1.0740579,1.0748363,1.0764401,nan,nan,1,1
46636000,-0.51119196,-0.5115624,-0.51232445,nan,nan,1,1
46836000,1.1845949,1.1854533,1.1872257,nan,nan,1,1
47036000,-1.452088,-1.4531403,-1.4553051,nan,nan,1,1
47236000,0.77935916,0.7799239,0.7810881,nan,nan,1,1
47436000,-0.5515896,-0.5519893,-0.55280936,nan,nan,1,1
47636000,0.37499878,0.37527052,0.37583038,nan,nan,1,1
47836000,0.78155005,0.7821164,0.78328556,nan,nan,1,1
48036000,-1.217167,-1.218049,-1.219867,nan,nan,1,1
48236000,0.91717243,0.9178371,0.9192027,nan,nan,1,1
48436000,0.8519201,0.8525375,0.8538094,nan,nan,1,1
48636000,0.22434783,0.2245104,0.22484605,nan,nan,1,1
48836000,1.3212965,1.322254,1.3242302,nan,nan,1,1
49036000,-1.6769108,-1.678126,-1.680626,nan,nan,1,1
49236000,-1.1747137,-1.175565,-1.1773124,nan,nan,1,1
49436000,-1.0105295,-1.0112618,-1.012767,nan,nan,1,1
49636000,-1.402882,-1.4038986,-1.4059976,nan,nan,1,1
49836000,-0.90623015,-0.9068869,-0.9082366,nan,nan,1,1
50036000,-0.9094849,-0.91014403,-0.91150546,nan,nan,1,1
50236000,0.9339905,0.9346673,0.93605816,nan,nan,1,1
50436000,-0.9253523,-0.9260228,-0.92740524,nan,nan,1,1
50636000,0.58669406,0.5871192,0.5879957,nan,nan,1,1
50836000,-1.7830133,-1.7843055,-1.7869643,nan,nan,1,1
51036000,-1.1702955,-1.1711435,-1.1728841,nan,nan,1,1
51236000,1.1102315,1.1110361,1.1126902,nan,nan,1,1
51436000,1.2413877,1.2422873,1.2441359,nan,nan,1,1
51636000,1.9464521,1.9478626,1.950774,nan,nan,1,1
51836000,-0.76398635,-0.76454,-0.76567817,nan,nan,1,1
52036000,-0.43179455,-0.43210748,-0.43275112,nan,nan,1,1
52236000,-0.83326817,-0.833872,-0.8351104,nan,nan,1,1
52436000,1.3513144,1.3522937,1.3543155,nan,nan,1,1
52636000,1.8235513,1.8248727,1.8275994,nan,nan,1,1
52836000,1.2045004,1.2053733,1.2071688,nan,nan,1,1
53036000,-1.3881856,-1.3891916,-1.3912647,nan,nan,1,1
53236000,1.4495736,1.4506241,1.452783,nan,nan,1,1
53436000,1.3164939,1.3174479,1.3194109,nan,nan,1,1
53636000,-0.82462335,-0.82522094,-0.8264537,nan,nan,1,1
53836000,1.0917165,1.0925077,1.0941398,nan,nan,1,1
54036000,-0.4425753,-0.44289604,-0.44355726,nan,nan,1,1
54236000,1.446652,1.4477004,1.4498576,nan,nan,1,1
54436000,0.54217666,0.5425696,0.5433803,nan,nan,1,1
54636000,0.49972814,0.5000903,0.500837,nan,nan,1,1
54836000,-1.4278314,-1.4288661,-1.4309986,nan,nan,1,1
55036000,0.30847132,0.30869487,0.30915412,nan,nan,1,1
55236000,0.6281715,0.6286267,0.6295644,nan,nan,1,1
55436000,1.3041737,1.3051188,1.3070637,nan,nan,1,1
55636000,0.42187798,0.4221837,0.42281088,nan,nan,1,1
55836000,1.6122953,1.6134636,1.6158609,nan,nan,1,1
56036000,2.130162,2.1317058,2.1348767,nan,nan,1,1
56236000,-1.4962803,-1.4973646,-1.4995954,nan,nan,1,1
56436000,0.105580434,0.105656944,0.10581487,nan,nan,1,1
56636000,0.22593291,0.22609664,0.22643323,nan,nan,1,1
56836000,-0.4213348,-0.42164013,-0.42226866,nan,nan,1,1
57036000,-0.8385971,-0.83920485,-0.8404574,nan,nan,1,1
57236000,1.241703,1.2426028,1.2444565,nan,nan,1,1
57436000,1.6472298,1.6484236,1.6508758,nan,nan,1,1
57636000,-2.052671,-2.0541584,-2.0572157,nan,nan,1,1
57836000,1.4748169,1.4758856,1.4780809,nan,nan,1,1
58036000,-0.77277905,-0.77333903,-0.774491,nan,nan,1,1
58236000,1.7360741,1.7373322,1.7399231,nan,nan,1,1
58436000,-1.6965272,-1.6977566,-1.7002801,nan,nan,1,1
58636000,-1.5797869,-1.5809318,-1.5832925,nan,nan,1,1
58836000,0.67431647,0.6748051,0.6758106,nan,nan,1,1
59036000,1.6823499,1.6835691,1.686079,nan,nan,1,1
59236000,1.2513752,1.252282,1.2541531,nan,nan,1,1
59436000,-1.5947111,-1.5958667,-1.5982375,nan,nan,1,1
59636000,1.1172515,1.1180612,1.1197275,nan,nan,1,1
59836000,1.0619627,1.0627323,1.0643212,nan,nan,1,1
60036000,-1.3174026,-1.3183572,-1.3203174,nan,nan,1,1
60236000,1.6555414,1.6567411,1.6592134,nan,nan,1,1
60436000,-1.2436329,-1.2445341,-1.246389,nan,nan,1,1
60636000,-0.73672116,-0.73725504,-0.73835677,nan,nan,1,1
60836000,-1.791001,-1.7922988,-1.7949644,nan,nan,1,1
61036000,1.2900246,1.2909595,1.2928835,nan,nan,1,1
61236000,-1.4354678,-1.436508,-1.4386495,nan,nan,1,1
61436000,0.41219088,0.4124896,0.41310602,nan,nan,1,1
61636000,-1.5325395,-1.53365,-1.5359365,nan,nan,1,1
61836000,-0.2065624,-0.2067121,-0.20702113,nan,nan,1,1
62036000,1.3823755,1.3833772,1.3854476,nan,nan,1,1
62236000,-0.68919706,-0.6896965,-0.69072354,nan,nan,1,1
62436000,-1.9316556,-1.9330555,-1.935932,nan,nan,1,1
62636000,-0.5624052,-0.5628128,-0.56365186,nan,nan,1,1
62836000,1.7003899,1.7016221,1.7041571,nan,nan,1,1
63036000,-0.7815925,-0.7821589,-0.7833332,nan,nan,1,1
63236000,-1.0069662,-1.0076959,-1.0092106,nan,nan,1,1
63436000,-0.863123,-0.8637485,-0.8650549,nan,nan,1,1
63636000,0.40817583,0.4084716,0.40909252,nan,nan,1,1
63836000,-0.83267593,-0.8332794,-0.8345576,nan,nan,1,1
64036000,0.62503326,0.6254862,0.6264533,nan,nan,1,1
64236000,1.4051597,1.406178,1.4083735,nan,nan,1,1
64436000,1.0758348,1.0766144,1.0783011,nan,nan,1,1
64636000,1.6769834,1.6781986,1.6808579,nan,nan,1,1
64836000,0.91488117,0.91554415,0.91700774,nan,nan,1,1
65036000,-1.3152006,-1.3161536,-1.3182669,nan,nan,1,1
65236000,1.1922077,1.1930716,1.1950047,nan,nan,1,1
65436000,1.0383422,1.0390947,1.0407943,nan,nan,1,1
65636000,-1.080592,-1.0813751,-1.0831611,nan,nan,1,1
65836000,-0.6842209,-0.68471676,-0.685852,nan,nan,1,1
66036000,0.6807556,0.68124896,0.682386,nan,nan,1,1
66236000,1.4640305,1.4650915,1.4675757,nan,nan,1,1
66436000,0.7173007,0.7178205,0.7190466,nan,nan,1,1
66636000,1.1398994,1.1407254,1.1426842,nan,nan,1,1
66836000,-0.24836886,-0.24854885,-0.24897966,nan,nan,1,1
67036000,-0.67117625,-0.6716626,-0.67283285,nan,nan,1,1
67236000,1.5807627,1.5819082,1.5846955,nan,nan,1,1
67436000,-0.34463036,-0.3448801,-0.3454928,nan,nan,1,1
67636000,-1.2719293,-1.272851,-1.27513,nan,nan,1,1
67836000,0.7006907,0.70119846,0.70245963,nan,nan,1,1
68036000,1.5477062,1.5488279,1.5516504,nan,nan,1,1
68236000,-0.6341359,-0.63459545,-0.6357584,nan,nan,1,1
68436000,0.7490809,0.7496237,0.75100696,nan,nan,1,1
68636000,-1.1087629,-1.1095663,-1.1116357,nan,nan,1,1
68836000,-2.4551725,-2.4569516,-2.4615562,nan,nan,1,1
69036000,-0.19121651,-0.19135508,-0.19171621,nan,nan,1,1
69236000,0.52435863,0.5247386,0.5257348,nan,nan,1,1
69436000,-1.1390986,-1.1399242,-1.1421032,nan,nan,1,1
69636000,-0.352846,-0.3531017,-0.35378507,nan,nan,1,1
69836000,-0.8456327,-0.84624547,-0.84789294,nan,nan,1,1
70036000,-0.6559726,-0.65644795,-0.6577385,nan,nan,1,1
70236000,1.1879737,1.1888347,1.1911812,nan,nan,1,1
70436000,1.8303356,1.831662,1.8353101,nan,nan,1,1
70636000,-1.7924671,-1.793766,-1.7973554,nan,nan,1,1
70836000,1.5137261,1.5148231,1.5179055,nan,nan,1,1
71036000,-1.3602778,-1.3612635,-1.3640602,nan,nan,1,1
71236000,-1.1416527,-1.14248,-1.1448611,nan,nan,1,1
71436000,0.7167957,0.71731514,0.718831,nan,nan,1,1
71636000,-0.9292494,-0.9299228,-0.9319137,nan,nan,1,1
71836000,-0.14157826,-0.14168085,-0.14198604,nan,nan,1,1
72036000,1.5010087,1.5020965,1.5053933,nan,nan,1,1
72236000,1.3699276,1.3709204,1.3739642,nan,nan,1,1
72436000,-1.5649315,-1.5660655,-1.569576,nan,nan,1,1
72636000,-1.6149403,-1.6161106,-1.6198003,nan,nan,1,1
72836000,-1.1496959,-1.150529,-1.1531762,nan,nan,1,1
73036000,1.2706003,1.2715211,1.2744823,nan,nan,1,1
73236000,-0.84662426,-0.84723777,-0.8492379,nan,nan,1,1
73436000,0.70189667,0.70240533,0.7040767,nan,nan,1,1
73636000,0.7353535,0.7358864,0.737654,nan,nan,1,1
73836000,-1.4355491,-1.4365895,-1.4401006,nan,nan,1,1
74036000,1.1626225,1.163465,1.1663345,nan,nan,1,1
74236000,0.72263515,0.72315884,0.7249641,nan,nan,1,1
74436000,-0.30965677,-0.30988118,-0.3106643,nan,nan,1,1
74636000,-1.312293,-1.313244,-1.316588,nan,nan,1,1
74836000,1.1171682,1.1179777,1.1208576,nan,nan,1,1
75036000,-1.6866735,-1.6878958,-1.6922904,nan,nan,1,1
75236000,-1.6861141,-1.687336,-1.6917765,nan,nan,1,1
75436000,1.7185705,1.7198159,1.724396,nan,nan,1,1
75636000,-0.86935186,-0.8699819,-0.87232375,nan,nan,1,1
75836000,-1.9079101,-1.9092927,-1.9144857,nan,nan,1,1
76036000,0.70506555,0.7055765,0.70751524,nan,nan,1,1
76236000,-0.67981017,-0.6803028,-0.68219477,nan,nan,1,1
76436000,-0.90280885,-0.90346307,-0.9060009,nan,nan,1,1
76636000,-0.8943313,-0.89497936,-0.89750814,nan,nan,1,1
76836000,0.47681323,0.47715876,0.4785266,nan,nan,1,1
77036000,-1.0064979,-1.0072273,-1.010142,nan,nan,1,1
77236000,0.93501055,0.93568814,0.9384147,nan,nan,1,1
77436000,-0.9660297,-0.96672976,-0.96958524,nan,nan,1,1
77636000,1.8640977,1.8654486,1.8710111,nan,nan,1,1
77836000,0.9778764,0.97858506,0.9815255,nan,nan,1,1
78036000,1.2602804,1.2611936,1.2650362,nan,nan,1,1
78236000,1.7174847,1.7187294,1.7240006,nan,nan,1,1
78436000,0.19856285,0.19870675,0.19932315,nan,nan,1,1
78636000,1.2568423,1.257753,1.2616972,nan,nan,1,1
78836000,1.3744668,1.3754628,1.3798035,nan,nan,1,1
79036000,0.87600327,0.87663805,0.87942445,nan,nan,1,1
79236000,1.1596591,1.1604996,1.1642355,nan,nan,1,1
79436000,0.89285976,0.89350677,0.8964045,nan,nan,1,1
79636000,-1.4298227,-1.4308589,-1.4355514,nan,nan,1,1
79836000,-0.5230351,-0.52341413,-0.52514476,nan,nan,1,1
80036000,-0.598721,-0.5991549,-0.60115266,nan,nan,1,1
80236000,1.3836344,1.3846371,1.3893037,nan,nan,1,1
80436000,-0.38123035,-0.38150662,-0.38279858,nan,nan,1,1
80636000,2.0257878,2.0272558,2.0341854,nan,nan,1,1
80836000,-1.3951429,-1.3961539,-1.4009644,nan,nan,1,1
81036000,0.46950477,0.469845,0.4714798,nan,nan,1,1
81236000,-0.7656496,-0.7662045,-0.7688899,nan,nan,1,1
81436000,-0.51111484,-0.5114852,-0.51329106,nan,nan,1,1
81636000,0.71451676,0.71503454,0.7175848,nan,nan,1,1
81836000,1.6362865,1.6374723,1.6433545,nan,nan,1,1
82036000,0.87909925,0.8797363,0.8829255,nan,nan,1,1
82236000,1.2595675,1.2604803,1.2650745,nan,nan,1,1
82436000,-1.1217048,-1.1225177,-1.1266363,nan,nan,1,1
82636000,-1.1136649,-1.1144719,-1.118585,nan,nan,1,1
82836000,-0.86762965,-0.8682584,-0.8714804,nan,nan,1,1
83036000,1.2405089,1.2414079,1.2460332,nan,nan,1,1
83236000,1.5473983,1.5485197,1.5543125,nan,nan,1,1
83436000,-1.0404258,-1.0411798,-1.0450945,nan,nan,1,1
83636000,-1.1896987,-1.1905608,-1.1950527,nan,nan,1,1
83836000,-1.4437779,-1.4448242,-1.4502933,nan,nan,1,1
84036000,2.1195936,2.1211298,2.1291842,nan,nan,1,1
84236000,-0.5019427,-0.50230646,-0.5042187,nan,nan,1,1
84436000,-1.27927,-1.2801971,-1.2850809,nan,nan,1,1
84636000,-1.6981124,-1.699343,-1.7058393,nan,nan,1,1
84836000,-0.23082748,-0.23099476,-0.23187926,nan,nan,1,1
85036000,-0.78788745,-0.7884584,-0.7914853,nan,nan,1,1
85236000,1.2678806,1.2687993,1.2736795,nan,nan,1,1
85436000,0.10299372,0.10306836,0.103465095,nan,nan,1,1
85636000,0.33568522,0.3359285,0.33722445,nan,nan,1,1
85836000,-1.2990104,-1.2999518,-1.3049692,nan,nan,1,1
86036000,0.67929924,0.6797915,0.68241686,nan,nan,1,1
86236000,-1.119498,-1.1203092,-1.1246395,nan,nan,1,1
86436000,1.287687,1.2886201,1.2936116,nan,nan,1,1
86636000,-1.2916112,-1.2925472,-1.2975591,nan,nan,1,1
86836000,-0.92900044,-0.9296737,-0.9332795,nan,nan,1,1
87036000,-1.8994875,-1.900864,-1.908227,nan,nan,1,1
87236000,-2.752459,-2.7544537,-2.7651687,nan,nan,1,1
87436000,-2.9086063,-2.9107141,-2.9220228,nan,nan,1,1
87636000,-3.3985379,-3.4010007,-3.4142158,nan,nan,1,1
87836000,-4.1100655,-4.113044,-4.1290245,nan,nan,1,1
88036000,-4.1462235,-4.149228,-4.1653543,nan,nan,1,1
88236000,-3.7115395,-3.714229,-3.7286847,nan,nan,1,1
88436000,-3.534859,-3.5374205,-3.5511758,nan,nan,1,1
88636000,-4.0108204,-4.0137267,-4.0293508,nan,nan,1,1
88836000,-3.0944421,-3.0966847,-3.108732,nan,nan,1,1
89036000,-3.2890618,-3.2914453,-3.3042586,nan,nan,1,1
89236000,-3.3048162,-3.3072112,-3.3201003,nan,nan,1,1
89436000,-3.1169286,-3.1191874,-3.131359,nan,nan,1,1
89636000,-2.8432996,-2.84536,-2.8564358,nan,nan,1,1
89836000,-1.7068979,-1.7081348,-1.7147994,nan,nan,1,1
90036000,-2.0868096,-2.088322,-2.0964715,nan,nan,1,1
90236000,-1.6411606,-1.64235,-1.648754,nan,nan,1,1
90436000,1.2462599,1.247163,1.2520373,nan,nan,1,1
90636000,-1.2101408,-1.2110177,-1.215754,nan,nan,1,1
90836000,-1.1302276,-1.1310467,-1.1354576,nan,nan,1,1
91036000,1.233621,1.234515,1.2393305,nan,nan,1,1
91236000,-1.2088946,-1.2097707,-1.2144955,nan,nan,1,1
91436000,1.8831177,1.8844823,1.8918426,nan,nan,1,1
91636000,2.140324,2.1418753,2.1502333,nan,nan,1,1
91836000,2.9505556,2.9526937,2.9642143,nan,nan,1,1
92036000,3.0959435,3.098187,3.110291,nan,nan,1,1
92236000,3.6450949,3.6477363,3.6619601,nan,nan,1,1
92436000,3.9629676,3.9658394,3.9813275,nan,nan,1,1
92636000,4.3707724,4.3739395,4.3909864,nan,nan,1,1
92836000,4.367924,4.3710895,4.38814,nan,nan,1,1
93036000,3.9714315,3.9743094,3.9897952,nan,nan,1,1
93236000,4.2513375,4.2544184,4.2709985,nan,nan,1,1
93436000,3.9785652,3.9814484,3.996953,nan,nan,1,1
93636000,3.478334,3.4808545,3.4944112,nan,nan,1,1
93836000,1.9934219,1.9948665,2.0026336,nan,nan,1,1
94036000,-0.28770554,-0.28791404,-0.28903753,nan,nan,1,1
94236000,1.000875,1.0016003,1.0055044,nan,nan,1,1
94436000,1.4800373,1.4811099,1.4868866,nan,nan,1,1
94636000,0.27386448,0.27406293,0.27513084,nan,nan,1,1
94836000,-0.45912457,-0.45945728,-0.4612468,nan,nan,1,1
95036000,-1.4065313,-1.4075506,-1.4130313,nan,nan,1,1
95236000,-1.6114885,-1.6126562,-1.6189336,nan,nan,1,1
95436000,-1.5296266,-1.5307351,-1.5366943,nan,nan,1,1
95636000,-1.2160671,-1.2169483,-1.2216815,nan,nan,1,1
95836000,0.892327,0.89297366,0.8964509,nan,nan,1,1
96036000,-0.40953758,-0.40983436,-0.4114271,nan,nan,1,1
96236000,0.9950369,0.995758,0.99963224,nan,nan,1,1
96436000,-0.621863,-0.6223137,-0.6247386,nan,nan,1,1
96636000,-0.9861872,-0.9869019,-0.99073464,nan,nan,1,1
96836000,1.6480148,1.649209,1.6556184,nan,nan,1,1
97036000,-0.52707607,-0.527458,-0.52950937,nan,nan,1,1
97236000,0.6736931,0.67418134,0.67680466,nan,nan,1,1
97436000,1.7843696,1.7856627,1.7925982,nan,nan,1,1
97636000,2.0467265,2.0482097,2.0561786,nan,nan,1,1
97836000,3.1843271,3.1866348,3.1990016,nan,nan,1,1
98036000,3.7597792,3.7625039,3.777108,nan,nan,1,1
98236000,5.0371933,5.0408435,5.0604224,nan,nan,1,1
98436000,6.046444,6.0508256,6.0743456,nan,nan,1,1
98636000,7.3889914,7.3943458,7.423001,nan,nan,1,1
98836000,8.642698,8.648961,8.682427,nan,nan,1,1
99036000,10.073608,10.080909,10.119815,nan,nan,1,1
99236000,11.488564,11.496889,11.541087,nan,nan,1,1
99436000,12.8612585,12.870579,12.919934,nan,nan,1,1
99636000,14.149805,14.160059,14.214197,nan,nan,1,1
99836000,15.437174,15.44836,15.507192,nan,nan,1,1
100036000,16.465466,16.477398,16.539917,nan,nan,1,1
100236000,17.066633,17.079,17.14365,nan,nan,1,1
100436000,17.374292,17.386883,17.452639,nan,nan,1,1
100636000,17.512411,17.525103,17.591288,nan,nan,1,1
100836000,17.505564,17.51825,17.584414,nan,nan,1,1
101036000,17.35077,17.363344,17.429098,nan,nan,1,1
101236000,17.274134,17.286652,17.352133,nan,nan,1,1
101436000,17.017912,17.030245,17.094715,nan,nan,1,1
101636000,16.788254,16.800419,16.864151,nan,nan,1,1
101836000,16.573801,16.585812,16.648886,nan,nan,1,1
102036000,16.356813,16.368668,16.43088,nan,nan,1,1
102236000,16.120024,16.131706,16.193296,nan,nan,1,1
102436000,15.974349,15.985926,16.046913,nan,nan,1,1
102636000,15.628172,15.639497,15.699491,nan,nan,1,1
102836000,15.414307,15.425477,15.484644,nan,nan,1,1
103036000,15.25623,15.267286,15.325956,nan,nan,1,1
103236000,15.099253,15.110195,15.168359,nan,nan,1,1
103436000,15.04593,15.056833,15.114732,nan,nan,1,1
103636000,15.007788,15.018663,15.076494,nan,nan,1,1
103836000,14.7449255,14.75561,14.812458,nan,nan,1,1
104036000,14.719556,14.730223,14.786999,nan,nan,1,1
104236000,14.621651,14.632247,14.688582,nan,nan,1,1
104436000,14.618061,14.6286545,14.685038,nan,nan,1,1
104636000,14.786782,14.797498,14.8545265,nan,nan,1,1
104836000,14.659954,14.670578,14.727164,nan,nan,1,1
105036000,14.683261,14.693901,14.750535,nan,nan,1,1
105236000,14.787296,14.798012,14.855039,nan,nan,1,1
105436000,14.714069,14.724732,14.781317,nan,nan,1,1
105636000,14.808894,14.819626,14.876605,nan,nan,1,1
105836000,14.841514,14.852269,14.909325,nan,nan,1,1
106036000,14.766616,14.777317,14.8340435,nan,nan,1,1
106236000,14.852526,14.863289,14.92038,nan,nan,1,1
106436000,14.898693,14.90949,14.966614,nan,nan,1,1
106636000,14.989252,15.000114,15.057659,nan,nan,1,1
106836000,14.977939,14.988792,15.0460825,nan,nan,1,1
107036000,15.134941,15.145909,15.203774,nan,nan,1,1
107236000,15.194256,15.205267,15.263169,nan,nan,1,1
107436000,15.45676,15.467961,15.526727,nan,nan,1,1
107636000,15.6272955,15.63862,15.6978855,nan,nan,1,1
107836000,15.603737,15.615045,15.674064,nan,nan,1,1
108036000,15.593413,15.604713,15.663543,nan,nan,1,1
108236000,15.675845,15.687205,15.7462635,nan,nan,1,1
108436000,15.888199,15.899713,15.959446,nan,nan,1,1
108636000,15.7782545,15.789689,15.84896,nan,nan,1,1
108836000,15.853445,15.864934,15.924336,nan,nan,1,1
109036000,15.835607,15.847082,15.906291,nan,nan,1,1
109236000,15.929197,15.940741,16.000273,nan,nan,1,1
109436000,15.985621,15.997206,16.056875,nan,nan,1,1
109636000,15.940555,15.952106,16.011763,nan,nan,1,1
109836000,15.839913,15.851392,15.910662,nan,nan,1,1
110036000,15.82211,15.833576,15.892712,nan,nan,1,1
110236000,15.693225,15.704597,15.763242,nan,nan,1,1
110436000,15.586689,15.597984,15.656391,nan,nan,1,1
110636000,15.546179,15.557445,15.615879,nan,nan,1,1
110836000,15.432922,15.444106,15.502213,nan,nan,1,1
111036000,15.240413,15.251457,15.309044,nan,nan,1,1
111236000,15.135908,15.146876,15.204191,nan,nan,1,1
111436000,14.980828,14.991685,15.04858,nan,nan,1,1
111636000,14.783185,14.793898,14.850268,nan,nan,1,1
111836000,14.712834,14.723496,14.779718,nan,nan,1,1
112036000,14.641752,14.652363,14.708391,nan,nan,1,1
112236000,14.454997,14.465472,14.520985,nan,nan,1,1
112436000,14.357692,14.368096,14.423304,nan,nan,1,1
112636000,14.424724,14.435177,14.490728,nan,nan,1,1
112836000,14.485423,14.49592,14.551835,nan,nan,1,1
113036000,14.419423,14.4298725,14.485634,nan,nan,1,1
113236000,14.433227,14.443686,14.499581,nan,nan,1,1
113436000,14.3290205,14.339404,14.394867,nan,nan,1,1
113636000,14.420111,14.43056,14.486484,nan,nan,1,1
113836000,14.382633,14.393056,14.448821,nan,nan,1,1
114036000,14.460495,14.470974,14.527004,nan,nan,1,1
114236000,14.463238,14.473719,14.529881,nan,nan,1,1
114436000,14.457622,14.468099,14.5242195,nan,nan,1,1
114636000,14.471654,14.4821415,14.538362,nan,nan,1,1
114836000,14.526223,14.53675,14.593278,nan,nan,1,1
115036000,14.58435,14.594918,14.65166,nan,nan,1,1
115236000,14.523512,14.534037,14.590504,nan,nan,1,1
115436000,14.655232,14.665853,14.722922,nan,nan,1,1
115636000,14.630302,14.640904,14.697794,nan,nan,1,1
115836000,14.637008,14.6476145,14.704605,nan,nan,1,1
116036000,14.725497,14.736169,14.79355,nan,nan,1,1
116236000,14.754656,14.765348,14.822832,nan,nan,1,1
116436000,14.618113,14.628706,14.685659,nan,nan,1,1
116636000,14.545997,14.556538,14.613314,nan,nan,1,1
116836000,14.735117,14.745795,14.803298,nan,nan,1,1
117036000,14.656992,14.667613,14.724853,nan,nan,1,1
117236000,14.724326,14.734997,14.792554,nan,nan,1,1
117436000,14.776905,14.787614,14.845258,nan,nan,1,1
117636000,14.719612,14.730279,14.7878275,nan,nan,1,1
117836000,14.6289015,14.639503,14.696767,nan,nan,1,1
118036000,14.75023,14.760919,14.818571,nan,nan,1,1
118236000,14.622322,14.632918,14.690127,nan,nan,1,1
118436000,14.7006235,14.711277,14.768853,nan,nan,1,1
118636000,14.751032,14.761722,14.819545,nan,nan,1,1
118836000,14.615058,14.625649,14.682891,nan,nan,1,1
119036000,14.653612,14.664231,14.721632,nan,nan,1,1
119236000,14.593802,14.604378,14.661562,nan,nan,1,1
119436000,14.654056,14.664675,14.722172,nan,nan,1,1
119636000,14.679005,14.689642,14.747323,nan,nan,1,1
119836000,14.641926,14.652536,14.709944,nan,nan,1,1
120036000,14.608566,14.619153,14.676508,nan,nan,1,1
120236000,14.642152,14.652762,14.710223,nan,nan,1,1
120436000,14.756789,14.767483,14.825425,nan,nan,1,1
120636000,14.651175,14.661792,14.719302,nan,nan,1,1
120836000,14.647368,14.657983,14.7155285,nan,nan,1,1
121036000,14.650306,14.660922,14.718497,nan,nan,1,1
121236000,14.6334305,14.644035,14.7016,nan,nan,1,1
121436000,14.799622,14.810347,14.868469,nan,nan,1,1
121636000,14.709788,14.7204485,14.778243,nan,nan,1,1
121836000,14.642549,14.65316,14.710837,nan,nan,1,1
122036000,14.663672,14.674299,14.731899,nan,nan,1,1
122236000,14.687167,14.69781,14.755502,nan,nan,1,1
122436000,14.618632,14.629226,14.686655,nan,nan,1,1
122636000,14.729382,14.740055,14.797939,nan,nan,1,1
122836000,14.745689,14.756375,14.81429,nan,nan,1,1
123036000,14.732035,14.742711,14.800486,nan,nan,1,1
123236000,14.737607,14.748287,14.80615,nan,nan,1,1
123436000,14.673792,14.684425,14.742114,nan,nan,1,1
123636000,14.771809,14.782514,14.84059,nan,nan,1,1
123836000,14.818952,14.829691,14.887883,nan,nan,1,1
124036000,14.658728,14.669351,14.726968,nan,nan,1,1
124236000,14.724624,14.735294,14.793061,nan,nan,1,1
124436000,14.7505245,14.761214,14.81919,nan,nan,1,1
124636000,14.689092,14.699737,14.7574415,nan,nan,1,1
124836000,14.716383,14.727048,14.784911,nan,nan,1,1
125036000,14.771847,14.782552,14.840585,nan,nan,1,1
125236000,14.571514,14.582074,14.639345,nan,nan,1,1
125436000,14.727721,14.738394,14.796271,nan,nan,1,1
125636000,14.706462,14.717119,14.774892,nan,nan,1,1
125836000,14.702554,14.713208,14.770999,nan,nan,1,1
126036000,14.742471,14.753154,14.810996,nan,nan,1,1
126236000,14.701839,14.712494,14.770205,nan,nan,1,1
126436000,14.764068,14.774767,14.832734,nan,nan,1,1
126636000,14.712359,14.7230215,14.7808,nan,nan,1,1
126836000,14.673566,14.684199,14.741712,nan,nan,1,1
127036000,14.757087,14.767781,14.825626,nan,nan,1,1
127236000,14.66677,14.677399,14.735012,nan,nan,1,1
127436000,14.726234,14.736906,14.794707,nan,nan,1,1
127636000,14.63865,14.649259,14.706685,nan,nan,1,1
127836000,14.686124,14.696767,14.754386,nan,nan,1,1
128036000,14.653397,14.664016,14.721453,nan,nan,1,1
128236000,14.577577,14.5881405,14.64533,nan,nan,1,1
128436000,14.824184,14.834928,14.893152,nan,nan,1,1
128636000,14.782769,14.793482,14.851466,nan,nan,1,1
128836000,14.782743,14.793456,14.851335,nan,nan,1,1
129036000,14.626404,14.637003,14.6943445,nan,nan,1,1
129236000,14.800167,14.810892,14.8688545,nan,nan,1,1
129436000,14.796395,14.807117,14.86515,nan,nan,1,1
129636000,14.67952,14.690158,14.747766,nan,nan,1,1
129836000,14.699733,14.710385,14.767902,nan,nan,1,1
130036000,14.789311,14.800029,14.857949,nan,nan,1,1
130236000,14.794595,14.805316,14.863287,nan,nan,1,1
130436000,14.779604,14.790315,14.848292,nan,nan,1,1
130636000,14.813742,14.824477,14.882454,nan,nan,1,1
130836000,14.795041,14.805762,14.863809,nan,nan,1,1
131036000,14.766428,14.777129,14.834867,nan,nan,1,1
131236000,14.724677,14.735348,14.792858,nan,nan,1,1
131436000,14.763938,14.774637,14.832376,nan,nan,1,1
131636000,15.058596,15.069509,15.128299,nan,nan,1,1
131836000,15.0995865,15.110529,15.169383,nan,nan,1,1
132036000,15.180529,15.191529,15.250564,nan,nan,1,1
132236000,15.223265,15.234297,15.293316,nan,nan,1,1
132436000,15.342964,15.354083,15.413516,nan,nan,1,1
132636000,15.274375,15.285444,15.344515,nan,nan,1,1
132836000,15.457752,15.468954,15.528677,nan,nan,1,1
133036000,15.380411,15.391557,15.450913,nan,nan,1,1
133236000,15.5294695,15.540723,15.600578,nan,nan,1,1
133436000,15.397523,15.408681,15.468004,nan,nan,1,1
133636000,15.317228,15.328328,15.387357,nan,nan,1,1
133836000,15.433001,15.444184,15.50369,nan,nan,1,1
134036000,15.40262,15.413782,15.473229,nan,nan,1,1
134236000,15.286001,15.297078,15.355977,nan,nan,1,1
134436000,15.3021345,15.313224,15.372196,nan,nan,1,1
134636000,15.321671,15.332774,15.391938,nan,nan,1,1
134836000,15.160473,15.171459,15.230041,nan,nan,1,1
135036000,15.146253,15.157228,15.215782,nan,nan,1,1
135236000,15.059914,15.0708275,15.129184,nan,nan,1,1
135436000,14.979483,14.990338,15.048454,nan,nan,1,1
135636000,14.85793,14.868697,14.926433,nan,nan,1,1
135836000,14.836352,14.847104,14.904904,nan,nan,1,1
136036000,14.793131,14.803851,14.861501,nan,nan,1,1
136236000,14.77249,14.783195,14.84079,nan,nan,1,1
136436000,14.7376375,14.748318,14.806016,nan,nan,1,1
136636000,14.68207,14.69271,14.750172,nan,nan,1,1
136836000,14.519945,14.530467,14.587286,nan,nan,1,1
137036000,14.605234,14.615818,14.673138,nan,nan,1,1
137236000,14.59288,14.603456,14.6606045,nan,nan,1,1
137436000,14.578121,14.588686,14.645884,nan,nan,1,1
137636000,14.396468,14.406901,14.463389,nan,nan,1,1
137836000,14.320236,14.330614,14.386752,nan,nan,1,1
138036000,14.405296,14.415735,14.472096,nan,nan,1,1
138236000,14.379766,14.390187,14.446224,nan,nan,1,1
138436000,14.619824,14.630419,14.687307,nan,nan,1,1
138636000,14.678894,14.689531,14.746369,nan,nan,1,1
138836000,14.8382635,14.849016,14.906277,15.1050205,15.163268,1,1
139036000,15.046856,15.05776,15.115618,15.218724,15.2772,1,1
139236000,15.25628,15.267336,15.325811,15.307197,15.365826,1,1
139436000,15.265827,15.27689,15.33511,15.357753,15.416282,1,1
139636000,15.3698435,15.380981,15.43956,15.359063,15.417558,1,1
139836000,15.366573,15.377709,15.436055,15.335317,15.393501,1,1
140036000,15.425619,15.436798,15.495233,15.306335,15.364276,1,1
140236000,15.36481,15.375944,15.434041,15.2769375,15.3346615,1,1
140436000,15.378826,15.389971,15.447886,15.243279,15.300642,1,1
140636000,15.404298,15.415461,15.473408,15.199016,15.256149,1,1
140836000,15.370097,15.381235,15.438847,15.144934,15.20166,1,1
141036000,15.30004,15.311128,15.368305,15.07198,15.128264,1,1
141236000,15.206274,15.217294,15.274064,14.98419,15.0400915,1,1
141436000,15.067348,15.078266,15.13434,14.890175,14.945549,1,1
141636000,14.911897,14.922703,14.978025,14.79029,14.845121,1,1
141836000,14.8996315,14.910429,14.9657135,14.6937895,14.74827,1,1
142036000,14.861877,14.872647,14.927682,14.600741,14.654754,1,1
142236000,14.616564,14.627156,14.681169,14.516009,14.569612,1,1
142436000,14.588126,14.598698,14.652415,14.439789,14.492922,1,1
142636000,14.542345,14.552883,14.606374,14.371225,14.424035,1,1
142836000,14.469295,14.47978,14.532814,14.311511,14.363929,1,1
143036000,14.432283,14.442742,14.495635,14.262627,14.31486,1,1
143236000,14.439965,14.45043,14.503075,14.220108,14.271898,1,1
143436000,14.3801,14.390521,14.44284,14.1825905,14.234154,1,1
143636000,14.268611,14.278951,14.330677,14.161152,14.212452,1,1
143836000,14.350277,14.360676,14.412564,14.151174,14.202284,1,1
144036000,14.274301,14.284645,14.336068,14.148941,14.199875,1,1
144236000,14.275515,14.28586,14.337009,14.154223,14.204903,1,1
144436000,14.349072,14.359471,14.410601,14.165673,14.216113,1,1
144636000,14.205455,14.215749,14.266161,14.183781,14.234079,1,1
144836000,14.3432665,14.353661,14.404461,14.202437,14.252704,1,1
145036000,14.330118,14.340503,14.391051,14.222152,14.272251,1,1
145236000,14.437332,14.447795,14.4983015,14.249484,14.299298,1,1
145436000,14.413926,14.424372,14.474654,14.277176,14.326945,1,1
145636000,14.564366,14.574921,14.625508,14.307791,14.357424,1,1
145836000,14.566631,14.577188,14.627512,14.339435,14.388939,1,1
146036000,14.496474,14.50698,14.556745,14.367404,14.41669,1,1
146236000,14.522891,14.533416,14.583159,14.397069,14.44631,1,1
146436000,14.599195,14.609775,14.65943,14.425887,14.474917,1,1
146636000,14.674857,14.685492,14.735125,14.4483,14.49713,1,1
146836000,14.660536,14.67116,14.720572,14.470799,14.519502,1,1
147036000,14.685175,14.695817,14.744879,14.4882,14.536568,1,1
147236000,14.637932,14.64854,14.697305,14.5027685,14.551048,1,1
147436000,14.71712,14.727785,14.776558,14.513334,14.561369,1,1
147636000,14.701559,14.712213,14.760637,14.525617,14.573428,1,1
147836000,14.791357,14.802076,14.850508,14.534062,14.581617,1,1
148036000,14.681355,14.691995,14.739898,14.538169,14.585542,1,1
148236000,14.694772,14.7054205,14.75302,14.5440235,14.591101,1,1
148436000,14.778606,14.789316,14.836958,14.547298,14.594161,1,1
148636000,14.699602,14.710255,14.757346,14.548829,14.595374,1,1
148836000,14.753021,14.763712,14.81077,14.549044,14.595418,1,1
149036000,14.594952,14.605528,14.651772,14.552829,14.5989065,1,1
149236000,14.819637,14.830377,14.877175,14.55366,14.599549,1,1
149436000,14.677131,14.687767,14.733745,14.561719,14.607303,1,1
149636000,14.74962,14.760309,14.806276,14.570276,14.615651,1,1
149836000,14.673051,14.683684,14.729286,14.579897,14.625139,1,1
150036000,14.846076,14.856834,14.902577,14.585371,14.630278,1,1
150236000,14.70893,14.719589,14.764722,14.589759,14.634494,1,1
150436000,14.792525,14.803245,14.848345,14.594691,14.639125,1,1
150636000,14.728909,14.739582,14.784153,14.595521,14.639655,1,1
150836000,14.747999,14.758687,14.80305,14.596131,14.640005,1,1
151036000,14.805793,14.816523,14.8609,14.602387,14.646094,1,1
151236000,14.827156,14.837901,14.881996,14.605111,14.648515,1,1
151436000,14.74703,14.757717,14.801285,14.609355,14.652487,1,1
151636000,14.743968,14.754653,14.798094,14.616415,14.659418,1,1
151836000,14.703562,14.714217,14.757099,14.621044,14.663655,1,1
152036000,14.851479,14.862241,14.905304,14.6285305,14.670917,1,1
152236000,14.816044,14.82678,14.869444,14.636899,14.678978,1,1
152436000,14.779163,14.789873,14.832267,14.647432,14.689418,1,1
152636000,14.841997,14.852753,14.894886,14.65837,14.699952,1,1
152836000,14.829909,14.840656,14.882572,14.669289,14.710682,1,1
153036000,14.787768,14.798485,14.839884,14.674533,14.715585,1,1
153236000,14.797503,14.808227,14.849472,14.684718,14.725619,1,1
153436000,14.9165125,14.927322,14.96867,14.691414,14.732077,1,1
153636000,14.905653,14.916454,14.957466,14.699862,14.740277,1,1
153836000,14.8671255,14.877899,14.918347,14.706157,14.746138,1,1
154036000,14.869282,14.880057,14.920321,14.714956,14.754741,1,1
154236000,14.857595,14.868362,14.908271,14.722791,14.76231,1,1
154436000,14.943612,14.954441,14.994375,14.7269125,14.766239,1,1
154636000,14.857501,14.868268,14.907597,14.737485,14.776429,1,1
154836000,14.933132,14.9439535,14.983226,14.743922,14.782668,1,1
155036000,14.839238,14.849992,14.88881,14.750607,14.789165,1,1
155236000,14.989706,15.000568,15.039503,14.753346,14.791598,1,1
155436000,14.987425,14.998286,15.036774,14.757059,14.794927,1,1
155636000,14.905084,14.915885,14.954013,14.780767,14.81855,1,1
155836000,14.978934,14.989789,15.027804,14.822829,14.860384,1,1
156036000,15.052091,15.062999,15.100774,14.887307,14.924641,1,1
156236000,15.050036,15.060943,15.098343,14.963655,15.00077,1,1
156436000,15.166895,15.177886,15.215124,15.041379,15.078282,1,1
156636000,15.224279,15.235312,15.272278,15.12034,15.157027,1,1
156836000,15.347116,15.358238,15.395082,15.21209,15.248537,1,1
157036000,15.4058695,15.417034,15.453592,15.307994,15.344295,1,1
157236000,15.526084,15.537335,15.573771,15.3703575,15.406404,1,1
157436000,15.511093,15.522333,15.55845,15.401343,15.437139,1,1
157636000,15.449137,15.460332,15.495898,15.428321,15.463815,1,1
157836000,15.5652895,15.57657,15.612142,15.466124,15.501444,1,1
158036000,15.550081,15.56135,15.5966625,15.492244,15.527362,1,1
158236000,15.633357,15.644686,15.679648,15.526349,15.5610485,1,1
158436000,15.607241,15.618551,15.653121,15.586791,15.621291,1,1
158636000,15.794169,15.805615,15.840365,15.61035,15.644635,1,1
158836000,15.700991,15.712369,15.7465,15.619372,15.6533,1,1
159036000,15.813779,15.825238,15.859418,15.621588,15.6553,1,1
159236000,15.887226,15.898739,15.932884,15.61632,15.6498575,1,1
159436000,15.756934,15.7683525,15.802014,15.602962,15.636271,1,1
159636000,15.927564,15.939106,15.9729805,15.573983,15.607065,1,1
159836000,15.806329,15.817783,15.85124,15.530807,15.563656,1,1
160036000,15.688535,15.6999035,15.732948,15.465456,15.498008,1,1
160236000,15.587254,15.598549,15.631311,15.389797,15.422112,1,1
160436000,15.600841,15.612146,15.644932,15.3004875,15.332618,1,1
160636000,15.42602,15.437199,15.469591,15.200168,15.232061,1,1
160836000,15.4060755,15.41724,15.449616,15.090892,15.1225815,1,1
161036000,15.193384,15.204394,15.236273,14.980775,15.012184,1,1
161236000,15.019488,15.030373,15.061838,14.875403,14.906544,1,1
161436000,15.10803,15.1189785,15.150633,14.783107,14.814058,1,1
161636000,14.92096,14.931773,14.963105,14.703969,14.734823,1,1
161836000,14.700266,14.710918,14.741839,14.6334095,14.664167,1,1
162036000,14.727815,14.738487,14.769371,14.580228,14.610779,1,1
162236000,14.712975,14.723637,14.754537,14.534984,14.565489,1,1
162436000,14.522042,14.532566,14.563106,14.5038805,14.53436,1,1
162636000,14.577048,14.587612,14.618094,14.483427,14.513688,1,1
162836000,14.588721,14.599294,14.629867,14.477467,14.507784,1,1
163036000,14.686341,14.696984,14.727678,14.486736,14.516991,1,1
163236000,14.608421,14.619008,14.649441,14.508667,14.538865,1,1
163436000,14.744031,14.754716,14.785388,14.528446,14.558649,1,1
163636000,14.632692,14.643296,14.6737175,14.55423,14.584467,1,1
163836000,14.717254,14.727919,14.758329,14.585404,14.615514,1,1
164036000,14.874083,14.884861,14.915633,14.619288,14.649511,1,1
164236000,14.743233,14.753917,14.784474,14.648494,14.678832,1,1
164436000,14.906061,14.916863,14.94763,14.676174,14.706446,1,1
164636000,14.764827,14.775526,14.805998,14.711327,14.741667,1,1
164836000,14.861665,14.872435,14.903043,14.742344,14.772684,1,1
165036000,15.015181,15.026062,15.056891,14.767884,14.798184,1,1
165236000,14.970828,14.981677,15.012396,14.791246,14.821575,1,1
165436000,15.004507,15.015381,15.046203,14.811938,14.842342,1,1
165636000,15.042851,15.053753,15.084469,14.828051,14.858304,1,1
165836000,15.110214,15.121164,15.1520605,14.837968,14.868286,1,1
166036000,15.110758,15.121708,15.15253,14.843388,14.873643,1,1
166236000,15.004769,15.015643,15.046181,14.838069,14.868244,1,1
166436000,14.945999,14.95683,14.987228,14.834505,14.8646555,1,1
166636000,14.895758,14.906552,14.93689,14.833629,14.863816,1,1
166836000,15.055053,15.065963,15.096596,14.829015,14.859167,1,1
167036000,14.98434,14.995198,15.0257,14.820705,14.850851,1,1
167236000,14.950073,14.960907,14.991331,14.814147,14.844274,1,1
167436000,14.886695,14.897483,14.92778,14.80798,14.838095,1,1
167636000,14.965437,14.976282,15.00665,14.802164,14.83218,1,1
167836000,14.939266,14.950092,14.980546,14.791633,14.821764,1,1
168036000,15.0623665,15.073282,15.103858,14.786982,14.816977,1,1
168236000,14.9747505,14.985602,15.016002,14.787408,14.817407,1,1
168436000,15.031453,15.042346,15.072877,14.816427,14.846499,1,1
168636000,15.0038395,15.014712,15.045205,14.884649,14.914878,1,1
168836000,15.113941,15.124894,15.15558,14.9647875,14.99515,1,1
169036000,15.154549,15.165531,15.196276,15.020947,15.0514,1,1
169236000,15.254152,15.265206,15.296426,15.061395,15.092198,1,1
169436000,15.25228,15.263333,15.294665,15.092007,15.122988,1,1
169636000,15.401482,15.4126425,15.444467,15.111753,15.142957,1,1
169836000,15.205757,15.216776,15.2483225,15.126573,15.157932,1,1
170036000,15.361921,15.373054,15.4049835,15.133869,15.165302,1,1
170236000,15.346057,15.357178,15.389338,15.128694,15.160376,1,1
170436000,15.243511,15.254558,15.286781,15.116367,15.148299,1,1
170636000,15.223632,15.234664,15.267,15.098105,15.130152,1,1
170836000,15.297065,15.30815,15.340865,15.082307,15.114538,1,1
171036000,15.249434,15.260486,15.293455,15.062777,15.095319,1,1
171236000,15.224501,15.235534,15.268647,15.045338,15.078036,1,1
171436000,15.165043,15.176033,15.209366,15.029571,15.062582,1,1
171636000,15.2267065,15.2377405,15.271438,15.016132,15.04934,1,1
171836000,15.226247,15.237281,15.271279,15.00711,15.040594,1,1
172036000,15.1272745,15.138237,15.172283,14.995849,15.029575,1,1
172236000,15.104041,15.114986,15.149341,14.989022,15.023089,1,1
172436000,15.07334,15.084264,15.11874,14.982211,15.016454,1,1
172636000,15.015985,15.026866,15.061668,14.981808,15.016506,1,1
172836000,15.093468,15.104405,15.139668,14.981568,15.016543,1,1
173036000,15.032862,15.043756,15.079167,14.984503,15.019775,1,1
173236000,15.004448,15.015322,15.051096,14.986986,15.022694,1,1
173436000,14.983603,14.994461,15.030464,14.993345,15.0293455,1,1
173636000,15.002602,15.0134735,15.049734,15.003189,15.039425,1,1
173836000,15.090348,15.101284,15.1381235,15.012965,15.049637,1,1
174036000,15.1048975,15.115844,15.153107,15.025561,15.062602,1,1
174236000,14.991382,15.002246,15.039516,15.039555,15.076919,1,1
174436000,15.008126,15.019002,15.056697,15.056159,15.093946,1,1
174636000,15.033135,15.044029,15.082144,15.069735,15.107914,1,1
174836000,15.050943,15.061851,15.100391,15.083943,15.12254,1,1
175036000,15.110753,15.121703,15.160653,15.098,15.136929,1,1
175236000,15.107531,15.118479,15.157918,15.116451,15.155885,1,1
175436000,15.00317,15.014043,15.053478,15.131083,15.170866,1,1
175636000,15.132873,15.143839,15.18412,15.145975,15.186262,1,1
175836000,15.073528,15.084452,15.124712,15.159881,15.200384,1,1
176036000,15.032515,15.043408,15.084188,15.17526,15.216396,1,1
176236000,15.102015,15.112959,15.154183,15.178761,15.220165,1,1
176436000,14.960187,14.971028,15.012128,15.184458,15.226188,1,1
176636000,15.037196,15.048093,15.0899515,15.187047,15.229291,1,1
176836000,15.08866,15.099594,15.141937,15.190208,15.232806,1,1
177036000,14.986353,14.997213,15.039725,15.188063,15.231117,1,1
177236000,15.08862,15.099554,15.142777,15.197534,15.241036,1,1
177436000,14.970297,14.981146,15.024284,15.198661,15.242425,1,1
177636000,15.033219,15.044113,15.087831,15.204739,15.248923,1,1
177836000,15.042999,15.053901,15.098147,15.211754,15.256464,1,1
178036000,15.101573,15.112516,15.157248,15.226129,15.271197,1,1
178236000,15.1386595,15.14963,15.194864,15.2249365,15.270395,1,1
178436000,15.029505,15.040397,15.085713,15.233046,15.278943,1,1
178636000,14.966199,14.977044,15.022531,15.23358,15.279845,1,1
178836000,15.011755,15.022634,15.06881,15.234744,15.281573,1,1
179036000,15.101483,15.112427,15.159121,15.23362,15.28069,1,1
179236000,15.094537,15.105475,15.152625,15.239529,15.287097,1,1
179436000,15.071431,15.082353,15.129864,15.2434845,15.291503,1,1
179636000,15.189758,15.200766,15.249012,15.247655,15.296051,1,1
179836000,15.010756,15.021633,15.069734,15.253281,15.302124,1,1
180036000,15.030456,15.0413475,15.089908,15.258991,15.308253,1,1
180236000,15.117924,15.12888,15.178112,15.263657,15.313327,1,1
180436000,15.062798,15.073713,15.123102,15.271195,15.321232,1,1
180636000,15.066436,15.077354,15.12733,15.2737055,15.324332,1,1
180836000,15.121405,15.132362,15.182881,15.284291,15.335318,1,1
181036000,15.093341,15.104279,15.15509,15.287347,15.338774,1,1
181236000,15.125984,15.136946,15.188346,15.288905,15.340822,1,1
181436000,15.044576,15.055478,15.107009,15.290602,15.342937,1,1
181636000,15.078095,15.089022,15.1411085,15.2894535,15.342231,1,1
181836000,15.145665,15.156641,15.209366,15.257873,15.310949,1,1
182036000,15.058331,15.0692425,15.122027,15.184028,15.237214,1,1
182236000,15.098161,15.109102,15.162402,15.099962,15.15323,1,1
182436000,14.747592,14.758279,14.810647,15.042365,15.095741,1,1
182636000,14.729564,14.740238,14.792881,14.994617,15.048168,1,1
182836000,14.684756,14.695398,14.748052,14.9651785,15.018797,1,1
183036000,14.746243,14.756928,14.810119,14.944796,14.998663,1,1
183236000,14.740549,14.751231,14.804443,14.939441,14.993332,1,1
183436000,14.814765,14.8255005,14.879261,14.939876,14.994051,1,1
183636000,14.766331,14.777032,14.830875,14.953263,15.00775,1,1
183836000,14.795466,14.806189,14.860377,14.968112,15.022893,1,1
184036000,14.750799,14.761489,14.815457,14.993466,15.048284,1,1
184236000,14.755378,14.76607,14.820227,15.009638,15.064688,1,1
184436000,14.813458,14.824193,14.878742,15.031699,15.087011,1,1
184636000,14.919059,14.929871,14.984971,15.056091,15.111658,1,1
184836000,14.898846,14.909642,14.96478,15.082887,15.138663,1,1
185036000,14.926237,14.937054,14.992389,15.107662,15.16363,1,1
185236000,14.906962,14.917765,14.973142,15.132739,15.188915,1,1
185436000,14.927707,14.938524,14.994059,15.147621,15.203932,1,1
185636000,14.946675,14.957507,15.013212,15.167198,15.223683,1,1
185836000,14.977252,14.988106,15.044147,15.186328,15.243111,1,1
186036000,15.038823,15.049722,15.105966,15.203623,15.260443,1,1
186236000,15.147128,15.158105,15.214893,15.213695,15.270691,1,1
186436000,14.946916,14.957747,15.013804,15.224813,15.281872,1,1
186636000,15.069787,15.080708,15.137461,15.227223,15.284529,1,1
186836000,15.028975,15.0398655,15.09646,15.231549,15.288864,1,1
187036000,15.033451,15.044346,15.101138,15.232561,15.290065,1,1
187236000,15.037577,15.048474,15.105293,15.237835,15.295368,1,1
187436000,15.046883,15.057787,15.114713,15.241511,15.299131,1,1
187636000,15.033425,15.04432,15.101272,15.243098,15.300802,1,1
187836000,15.236321,15.247363,15.305275,15.243449,15.301346,1,1
188036000,15.064241,15.075158,15.132394,15.245463,15.303347,1,1
188236000,15.064886,15.075803,15.133154,15.241138,15.299119,1,1
188436000,15.16256,15.173549,15.2313385,15.24089,15.298937,1,1
188636000,15.042774,15.053676,15.111047,15.234189,15.292247,1,1
188836000,15.087525,15.098459,15.156046,15.230861,15.288954,1,1
189036000,15.126989,15.137952,15.195836,15.223144,15.281354,1,1
189236000,15.039128,15.050027,15.10753,15.219419,15.277569,1,1
189436000,15.156529,15.167513,15.225631,15.212427,15.270719,1,1
189636000,15.100215,15.111157,15.169031,15.207344,15.265588,1,1
189836000,15.154143,15.165125,15.22325,15.2044525,15.26273,1,1
190036000,15.097389,15.10833,15.1663685,15.2030735,15.2614765,1,1
190236000,15.116643,15.127598,15.185689,15.19774,15.2561,1,1
190436000,14.9755535,14.986406,15.044071,15.197244,15.255721,1,1
190636000,15.054468,15.065378,15.123392,15.19345,15.251957,1,1
190836000,15.106454,15.117401,15.175547,15.1940975,15.25254,1,1
191036000,15.195245,15.206256,15.264752,15.188549,15.246978,1,1
191236000,15.026333,15.037222,15.0952425,15.188409,15.247011,1,1
191436000,15.088727,15.099662,15.157939,15.184556,15.24316,1,1
191636000,15.0869255,15.097858,15.156058,15.180899,15.239418,1,1
191836000,15.144796,15.155771,15.214232,15.180814,15.239375,1,1
192036000,15.056053,15.066964,15.1251135,15.185219,15.243825,1,1
192236000,15.105974,15.116921,15.175403,15.181501,15.240233,1,1
192436000,15.137178,15.148148,15.20672,15.181679,15.240385,1,1
192636000,15.09324,15.104177,15.162654,15.175887,15.234641,1,1
192836000,15.11419,15.125143,15.183746,15.172182,15.2309675,1,1
193036000,15.08847,15.099404,15.157834,15.167217,15.22591,1,1
193236000,15.171627,15.182622,15.241427,15.164338,15.223073,1,1
193436000,15.105994,15.118474,15.177068,15.158246,15.216993,1,1
193636000,15.11569,15.128178,15.186861,15.152161,15.21094,1,1
193836000,15.205801,15.218363,15.277292,15.144939,15.203584,1,1
194036000,15.146468,15.158981,15.217761,15.143538,15.202259,1,1
194236000,15.185811,15.198357,15.257402,15.140213,15.199037,1,1
194436000,15.136711,15.149216,15.208049,15.136668,15.195454,1,1
194636000,15.111458,15.123941,15.182753,15.133978,15.192828,1,1
194836000,15.258778,15.271383,15.330728,15.128756,15.187548,1,1
195036000,15.179078,15.191618,15.250616,15.126743,15.185491,1,1
195236000,15.152358,15.164876,15.223782,15.123976,15.182721,1,1
195436000,15.174531,15.187067,15.246046,15.120473,15.1791935,1,1
195636000,15.240952,15.253542,15.312782,15.115482,15.174187,1,1
195836000,15.129803,15.142302,15.2011385,15.114533,15.173263,1,1
196036000,15.13581,15.1483135,15.207203,15.112766,15.171516,1,1
196236000,15.229063,15.241644,15.300947,15.112998,15.1718,1,1
196436000,15.233589,15.246174,15.305496,15.111465,15.170265,1,1
196636000,15.195143,15.207696,15.266891,15.110307,15.169126,1,1
196836000,15.150006,15.162522,15.221505,15.108501,15.1672735,1,1
197036000,15.093869,15.1063385,15.165137,15.105481,15.164276,1,1
197236000,15.127162,15.139659,15.1986,15.10312,15.16192,1,1
197436000,15.285155,15.297783,15.357334,15.102471,15.161263,1,1
197636000,15.065428,15.077873,15.136619,15.104848,15.163699,1,1
197836000,15.299486,15.312125,15.37173,15.107321,15.166129,1,1
198036000,15.332629,15.345296,15.405146,15.108437,15.167361,1,1
198236000,15.187841,15.200388,15.259614,15.111125,15.170004,1,1
198436000,15.173922,15.186457,15.245697,15.111282,15.170231,1,1
198636000,15.20789,15.220453,15.279834,15.112139,15.171097,1,1
198836000,15.255725,15.268328,15.3278055,15.110168,15.16903,1,1
199036000,15.199123,15.211679,15.270911,15.108993,15.167827,1,1
199236000,15.309221,15.321869,15.381587,15.108655,15.167541,1,1
199436000,15.179621,15.192161,15.251429,15.110728,15.16968,1,1
199636000,15.29283,15.305464,15.365149,15.107524,15.166437,1,1
199836000,15.216344,15.228914,15.288214,15.107151,15.1659775,1,1
200036000,15.227379,15.239959,15.299468,15.103484,15.162459,1,1
200236000,15.181288,15.19383,15.253112,15.105694,15.164634,1,1
200436000,15.190516,15.203066,15.262379,15.104095,15.163022,1,1
200636000,15.169377,15.181909,15.241148,15.103643,15.162577,1,1
200836000,15.24649,15.259085,15.318565,15.103805,15.16268,1,1
201036000,15.120464,15.132956,15.192118,15.103813,15.162862,1,1
201236000,15.25298,15.265581,15.325109,15.106158,15.165064,1,1
201436000,15.181366,15.193908,15.253168,15.107056,15.1659775,1,1
201636000,15.1532755,15.165794,15.224898,15.107284,15.16616,1,1
201836000,15.0799,15.092358,15.15131,15.111482,15.170509,1,1
202036000,15.207494,15.220057,15.279499,15.120163,15.1792145,1,1
202236000,15.186072,15.198618,15.257975,15.125393,15.1844635,1,1
202436000,15.125089,15.137584,15.196699,15.130824,15.189912,1,1
202636000,15.183457,15.196001,15.255339,15.137083,15.19619,1,1
202836000,15.184579,15.197124,15.256444,15.14621,15.20533,1,1
203036000,15.1943445,15.206897,15.266284,15.148481,15.20764,1,1
203236000,15.179639,15.192179,15.251476,15.1487055,15.207833,1,1
203436000,15.140174,15.152681,15.211783,15.15255,15.211651,1,1
203636000,15.295444,15.30808,15.367919,15.155953,15.2151985,1,1
203836000,15.306014,15.318659,15.378519,15.163206,15.222459,1,1
204036000,15.19311,15.205662,15.265028,15.167843,15.227061,1,1
204236000,15.06457,15.077016,15.135877,15.166927,15.226139,1,1
204436000,15.210224,15.22279,15.282198,15.164849,15.224031,1,1
204636000,15.158455,15.170978,15.230203,15.1676445,15.226857,1,1
204836000,15.192108,15.2046585,15.264041,15.173573,15.232833,1,1
205036000,15.243313,15.255906,15.315552,15.176885,15.236222,1,1
205236000,15.194979,15.207532,15.26692,15.183871,15.243166,1,1
205436000,15.114878,15.127364,15.186426,15.184474,15.243759,1,1
205636000,15.254818,15.26742,15.327022,15.186221,15.245506,1,1
205836000,15.250367,15.262966,15.322521,15.19016,15.249432,1,1
206036000,15.194729,15.207281,15.266538,15.192556,15.251757,1,1
206236000,15.21106,15.223626,15.283027,15.194405,15.253691,1,1
206436000,15.071988,15.084439,15.14342,15.197784,15.257209,1,1
206636000,15.138776,15.151282,15.210409,15.198631,15.257942,1,1
206836000,15.177939,15.190478,15.2498455,15.202674,15.262089,1,1
207036000,15.169173,15.1817045,15.241046,15.204216,15.263647,1,1
207236000,15.178394,15.190933,15.250264,15.203623,15.263002,1,1
207436000,15.164077,15.176604,15.235857,15.203606,15.262963,1,1
207636000,15.271003,15.283619,15.343207,15.206052,15.265339,1,1
207836000,15.15687,15.169392,15.228712,15.208379,15.267852,1,1
208036000,15.096913,15.1093855,15.168392,15.210733,15.270135,1,1
208236000,15.085832,15.098294,15.157214,15.211534,15.270895,1,1
208436000,15.09142,15.103888,15.162871,15.212081,15.271486,1,1
208636000,15.250472,15.263071,15.322616,15.217801,15.27717,1,1
208836000,15.172206,15.18474,15.2440195,15.224291,15.283725,1,1
209036000,15.148652,15.161167,15.22039,15.230846,15.290341,1,1
209236000,15.117407,15.129895,15.188982,15.233185,15.292674,1,1
209436000,15.112411,15.124895,15.183925,15.239053,15.298527,1,1
209636000,15.116689,15.129177,15.188293,15.241249,15.300804,1,1
209836000,15.137146,15.149652,15.208792,15.247119,15.306641,1,1
210036000,15.272723,15.28534,15.345056,15.249684,15.309261,1,1
210236000,15.2289715,15.241552,15.301166,15.253845,15.313507,1,1
210436000,15.139699,15.152206,15.211368,15.258455,15.31803,1,1
210636000,15.157027,15.169549,15.228794,15.26244,15.322047,1,1
210836000,15.218922,15.231494,15.290985,15.263824,15.3234415,1,1
211036000,15.079007,15.091464,15.150388,15.264687,15.3242855,1,1
211236000,15.166765,15.179295,15.238471,15.264258,15.323767,1,1
211436000,15.1089945,15.121476,15.180527,15.268813,15.32844,1,1
211636000,15.179181,15.191721,15.250988,15.268367,15.327931,1,1
