timestamp,unallocated_torque[0],unallocated_torque[1],unallocated_torque[2],unallocated_thrust[0],unallocated_thrust[1],unallocated_thrust[2],handled_motor_failure_mask,torque_setpoint_achieved,thrust_setpoint_achieved,actuator_saturation[0],actuator_saturation[1],actuator_saturation[2],actuator_saturation[3],actuator_saturation[4],actuator_saturation[5],actuator_saturation[6],actuator_saturation[7],actuator_saturation[8],actuator_saturation[9],actuator_saturation[10],actuator_saturation[11],actuator_saturation[12],actuator_saturation[13],actuator_saturation[14],actuator_saturation[15]
3560000,0.0,0.0,0.0,0.0,0.0,0.0,0,1,1,0,0,0,2,2,2,2,2,2,2,2,2,2,2,2,2
3568000,0.0,0.0,0.0,0.0,0.0,0.0,0,1,1,0,0,0,2,2,2,2,2,2,2,2,2,2,2,2,2
3760000,0.0,0.0,0.0,0.0,0.0,0.0,0,1,1,0,0,0,2,2,2,2,2,2,2,2,2,2,2,2,2
3960000,0.0,0.0,0.0,0.0,0.0,0.0,0,1,1,0,0,0,2,2,2,2,2,2,2,2,2,2,2,2,2
4160000,0.0,0.0,0.0,0.0,0.0,0.0,0,1,1,0,0,0,2,2,2,2,2,2,2,2,2,2,2,2,2
4360000,0.0,0.0,0.0,0.0,0.0,0.0,0,1,1,0,0,0,2,2,2,2,2,2,2,2,2,2,2,2,2
4560000,0.0,0.0,0.0,0.0,0.0,0.0,0,1,1,0,0,0,2,2,2,2,2,2,2,2,2,2,2,2,2
4760000,0.0,0.0,0.0,0.0,0.0,0.0,0,1,1,0,0,0,2,2,2,2,2,2,2,2,2,2,2,2,2
4960000,0.0,0.0,0.0,0.0,0.0,0.0,0,1,1,0,0,0,2,2,2,2,2,2,2,2,2,2,2,2,2
5160000,0.0,0.0,0.0,0.0,0.0,0.0,0,1,1,0,0,0,2,2,2,2,2,2,2,2,2,2,2,2,2
5360000,0.0,0.0,0.0,0.0,0.0,0.0,0,1,1,0,0,0,2,2,2,2,2,2,2,2,2,2,2,2,2
5560000,0.0,0.0,0.0,0.0,0.0,0.0,0,1,1,0,0,0,2,2,2,2,2,2,2,2,2,2,2,2,2
5760000,0.0,0.0,0.0,0.0,0.0,0.0,0,1,1,0,0,0,2,2,2,2,2,2,2,2,2,2,2,2,2
5960000,0.0,0.0,0.0,0.0,0.0,0.0,0,1,1,0,0,0,2,2,2,2,2,2,2,2,2,2,2,2,2
6160000,0.0,0.0,0.0,0.0,0.0,0.0,0,1,1,0,0,0,2,2,2,2,2,2,2,2,2,2,2,2,2
6360000,0.0,0.0,0.0,0.0,0.0,0.0,0,1,1,0,0,0,2,2,2,2,2,2,2,2,2,2,2,2,2
6560000,0.0,0.0,0.0,0.0,0.0,0.0,0,1,1,0,0,0,2,2,2,2,2,2,2,2,2,2,2,2,2
6760000,0.0,0.0,0.0,0.0,0.0,0.0,0,1,1,0,0,0,2,2,2,2,2,2,2,2,2,2,2,2,2
6960000,0.0,0.0,0.0,0.0,0.0,0.0,0,1,1,0,0,0,2,2,2,2,2,2,2,2,2,2,2,2,2
7160000,0.0,0.0,0.0,0.0,0.0,0.0,0,1,1,0,0,0,2,2,2,2,2,2,2,2,2,2,2,2,2
7360000,0.0,0.0,0.0,0.0,0.0,0.0,0,1,1,0,0,0,2,2,2,2,2,2,2,2,2,2,2,2,2
7560000,0.0,0.0,0.0,0.0,0.0,0.0,0,1,1,0,0,0,2,2,2,2,2,2,2,2,2,2,2,2,2
7760000,0.0,0.0,0.0,0.0,0.0,0.0,0,1,1,0,0,0,2,2,2,2,2,2,2,2,2,2,2,2,2
7960000,0.0,0.0,0.0,0.0,0.0,0.0,0,1,1,0,0,0,2,2,2,2,2,2,2,2,2,2,2,2,2
8160000,0.0,0.0,0.0,0.0,0.0,0.0,0,1,1,0,0,0,2,2,2,2,2,2,2,2,2,2,2,2,2
8360000,0.0,0.0,0.0,0.0,0.0,0.0,0,1,1,0,0,0,2,2,2,2,2,2,2,2,2,2,2,2,2
8560000,0.0,0.0,0.0,0.0,0.0,0.0,0,1,1,0,0,0,2,2,2,2,2,2,2,2,2,2,2,2,2
8760000,0.0,0.0,0.0,0.0,0.0,0.0,0,1,1,0,0,0,2,2,2,2,2,2,2,2,2,2,2,2,2
8960000,0.0,0.0,0.0,0.0,0.0,0.0,0,1,1,0,0,0,2,2,2,2,2,2,2,2,2,2,2,2,2
9160000,0.0,0.0,0.0,0.0,0.0,0.0,0,1,1,0,0,0,2,2,2,2,2,2,2,2,2,2,2,2,2
9360000,0.0,0.0,0.0,0.0,0.0,0.0,0,1,1,0,0,0,2,2,2,2,2,2,2,2,2,2,2,2,2
9560000,0.0,0.0,0.0,0.0,0.0,0.0,0,1,1,0,0,0,2,2,2,2,2,2,2,2,2,2,2,2,2
9760000,0.0,0.0,0.0,0.0,0.0,0.0,0,1,1,0,0,0,2,2,2,2,2,2,2,2,2,2,2,2,2
9960000,0.0,0.0,0.0,0.0,0.0,0.0,0,1,1,0,0,0,2,2,2,2,2,2,2,2,2,2,2,2,2
10160000,0.0,0.0,0.0,0.0,0.0,0.0,0,1,1,0,0,0,2,2,2,2,2,2,2,2,2,2,2,2,2
10360000,0.0,0.0,0.0,0.0,0.0,0.0,0,1,1,0,0,0,2,2,2,2,2,2,2,2,2,2,2,2,2
10560000,0.0,0.0,0.0,0.0,0.0,0.0,0,1,1,0,0,0,2,2,2,2,2,2,2,2,2,2,2,2,2
10760000,0.0,0.0,0.0,0.0,0.0,0.0,0,1,1,0,0,0,2,2,2,2,2,2,2,2,2,2,2,2,2
10960000,0.0,0.0,0.0,0.0,0.0,0.0,0,1,1,0,0,0,2,2,2,2,2,2,2,2,2,2,2,2,2
11160000,0.0,0.0,0.0,0.0,0.0,0.0,0,1,1,0,0,0,2,2,2,2,2,2,2,2,2,2,2,2,2
11360000,0.0,0.0,0.0,0.0,0.0,0.0,0,1,1,0,0,0,2,2,2,2,2,2,2,2,2,2,2,2,2
11560000,0.0,0.0,0.0,0.0,0.0,0.0,0,1,1,0,0,0,2,2,2,2,2,2,2,2,2,2,2,2,2
11760000,0.0,0.0,0.0,0.0,0.0,0.0,0,1,1,0,0,0,2,2,2,2,2,2,2,2,2,2,2,2,2
11960000,0.0,0.0,0.0,0.0,0.0,0.0,0,1,1,0,0,0,2,2,2,2,2,2,2,2,2,2,2,2,2
12160000,0.0,0.0,0.0,0.0,0.0,0.0,0,1,1,0,0,0,2,2,2,2,2,2,2,2,2,2,2,2,2
12360000,0.0,0.0,0.0,0.0,0.0,0.0,0,1,1,0,0,0,2,2,2,2,2,2,2,2,2,2,2,2,2
12560000,0.0,0.0,0.0,0.0,0.0,0.0,0,1,1,0,0,0,2,2,2,2,2,2,2,2,2,2,2,2,2
12760000,0.0,0.0,0.0,0.0,0.0,0.0,0,1,1,0,0,0,2,2,2,2,2,2,2,2,2,2,2,2,2
12960000,0.0,0.0,0.0,0.0,0.0,0.0,0,1,1,0,0,0,2,2,2,2,2,2,2,2,2,2,2,2,2
13160000,0.0,0.0,0.0,0.0,0.0,0.0,0,1,1,0,0,0,2,2,2,2,2,2,2,2,2,2,2,2,2
13360000,0.0,0.0,0.0,0.0,0.0,0.0,0,1,1,0,0,0,2,2,2,2,2,2,2,2,2,2,2,2,2
13560000,0.0,0.0,0.0,0.0,0.0,0.0,0,1,1,0,0,0,2,2,2,2,2,2,2,2,2,2,2,2,2
13760000,0.0,0.0,0.0,0.0,0.0,0.0,0,1,1,0,0,0,2,2,2,2,2,2,2,2,2,2,2,2,2
13960000,0.0,0.0,0.0,0.0,0.0,0.0,0,1,1,0,0,0,2,2,2,2,2,2,2,2,2,2,2,2,2
14160000,0.0,0.0,0.0,0.0,0.0,0.0,0,1,1,0,0,0,2,2,2,2,2,2,2,2,2,2,2,2,2
14360000,0.0,0.0,0.0,0.0,0.0,0.0,0,1,1,0,0,0,2,2,2,2,2,2,2,2,2,2,2,2,2
14560000,0.0,0.0,0.0,0.0,0.0,0.0,0,1,1,0,0,0,2,2,2,2,2,2,2,2,2,2,2,2,2
14760000,0.0,0.0,0.0,0.0,0.0,0.0,0,1,1,0,0,0,2,2,2,2,2,2,2,2,2,2,2,2,2
14960000,0.0,0.0,0.0,0.0,0.0,0.0,0,1,1,0,0,0,2,2,2,2,2,2,2,2,2,2,2,2,2
15160000,0.0,0.0,0.0,0.0,0.0,0.0,0,1,1,0,0,0,2,2,2,2,2,2,2,2,2,2,2,2,2
15360000,0.0,0.0,0.0,0.0,0.0,0.0,0,1,1,0,0,0,2,2,2,2,2,2,2,2,2,2,2,2,2
15560000,0.0,0.0,0.0,0.0,0.0,0.0,0,1,1,0,0,0,2,2,2,2,2,2,2,2,2,2,2,2,2
15760000,0.0,0.0,0.0,0.0,0.0,0.0,0,1,1,0,0,0,2,2,2,2,2,2,2,2,2,2,2,2,2
15960000,0.0,0.0,0.0,0.0,0.0,0.0,0,1,1,0,0,0,2,2,2,2,2,2,2,2,2,2,2,2,2
16160000,0.0,0.0,0.0,0.0,0.0,0.0,0,1,1,0,0,0,2,2,2,2,2,2,2,2,2,2,2,2,2
16360000,0.0,0.0,0.0,0.0,0.0,0.0,0,1,1,0,0,0,2,2,2,2,2,2,2,2,2,2,2,2,2
16560000,0.0,0.0,0.0,0.0,0.0,0.0,0,1,1,0,0,0,2,2,2,2,2,2,2,2,2,2,2,2,2
16760000,0.0,0.0,0.0,0.0,0.0,0.0,0,1,1,0,0,0,2,2,2,2,2,2,2,2,2,2,2,2,2
16960000,0.0,0.0,0.0,0.0,0.0,0.0,0,1,1,0,0,0,2,2,2,2,2,2,2,2,2,2,2,2,2
17160000,0.0,0.0,0.0,0.0,0.0,0.0,0,1,1,0,0,0,2,2,2,2,2,2,2,2,2,2,2,2,2
17360000,0.0,0.0,0.0,0.0,0.0,0.0,0,1,1,0,0,0,2,2,2,2,2,2,2,2,2,2,2,2,2
17560000,0.0,0.0,0.0,0.0,0.0,0.0,0,1,1,0,0,0,2,2,2,2,2,2,2,2,2,2,2,2,2
17760000,0.0,0.0,0.0,0.0,0.0,0.0,0,1,1,0,0,0,2,2,2,2,2,2,2,2,2,2,2,2,2
17960000,0.0,0.0,0.0,0.0,0.0,0.0,0,1,1,0,0,0,2,2,2,2,2,2,2,2,2,2,2,2,2
18160000,0.0,0.0,0.0,0.0,0.0,0.0,0,1,1,0,0,0,2,2,2,2,2,2,2,2,2,2,2,2,2
18360000,0.0,0.0,0.0,0.0,0.0,0.0,0,1,1,0,0,0,2,2,2,2,2,2,2,2,2,2,2,2,2
18560000,0.0,0.0,0.0,0.0,0.0,0.0,0,1,1,0,0,0,2,2,2,2,2,2,2,2,2,2,2,2,2
18760000,0.0,0.0,0.0,0.0,0.0,0.0,0,1,1,0,0,0,2,2,2,2,2,2,2,2,2,2,2,2,2
18960000,0.0,0.0,0.0,0.0,0.0,0.0,0,1,1,0,0,0,2,2,2,2,2,2,2,2,2,2,2,2,2
19160000,0.0,0.0,0.0,0.0,0.0,0.0,0,1,1,0,0,0,2,2,2,2,2,2,2,2,2,2,2,2,2
19360000,0.0,0.0,0.0,0.0,0.0,0.0,0,1,1,0,0,0,2,2,2,2,2,2,2,2,2,2,2,2,2
19560000,0.0,0.0,0.0,0.0,0.0,0.0,0,1,1,0,0,0,2,2,2,2,2,2,2,2,2,2,2,2,2
19760000,0.0,0.0,0.0,0.0,0.0,0.0,0,1,1,0,0,0,2,2,2,2,2,2,2,2,2,2,2,2,2
19960000,0.0,0.0,0.0,0.0,0.0,0.0,0,1,1,0,0,0,2,2,2,2,2,2,2,2,2,2,2,2,2
20160000,0.0,0.0,0.0,0.0,0.0,0.0,0,1,1,0,0,0,2,2,2,2,2,2,2,2,2,2,2,2,2
20360000,0.0,0.0,0.0,0.0,0.0,0.0,0,1,1,0,0,0,2,2,2,2,2,2,2,2,2,2,2,2,2
20560000,0.0,0.0,0.0,0.0,0.0,0.0,0,1,1,0,0,0,2,2,2,2,2,2,2,2,2,2,2,2,2
20760000,0.0,0.0,0.0,0.0,0.0,0.0,0,1,1,0,0,0,2,2,2,2,2,2,2,2,2,2,2,2,2
20960000,0.0,0.0,0.0,0.0,0.0,0.0,0,1,1,0,0,0,2,2,2,2,2,2,2,2,2,2,2,2,2
21160000,0.0,0.0,0.0,0.0,0.0,0.0,0,1,1,0,0,0,2,2,2,2,2,2,2,2,2,2,2,2,2
21360000,0.0,0.0,0.0,0.0,0.0,0.0,0,1,1,0,0,0,2,2,2,2,2,2,2,2,2,2,2,2,2
21560000,0.0,0.0,0.0,0.0,0.0,0.0,0,1,1,0,0,0,2,2,2,2,2,2,2,2,2,2,2,2,2
21760000,0.0,0.0,0.0,0.0,0.0,0.0,0,1,1,0,0,0,2,2,2,2,2,2,2,2,2,2,2,2,2
21960000,0.0,0.0,0.0,0.0,0.0,0.0,0,1,1,0,0,0,2,2,2,2,2,2,2,2,2,2,2,2,2
22160000,0.0,0.0,0.0,0.0,0.0,0.0,0,1,1,0,0,0,2,2,2,2,2,2,2,2,2,2,2,2,2
22360000,0.0,0.0,0.0,0.0,0.0,0.0,0,1,1,0,0,0,2,2,2,2,2,2,2,2,2,2,2,2,2
22560000,0.0,0.0,0.0,0.0,0.0,0.0,0,1,1,0,0,0,2,2,2,2,2,2,2,2,2,2,2,2,2
22760000,0.0,0.0,0.0,0.0,0.0,0.0,0,1,1,0,0,0,2,2,2,2,2,2,2,2,2,2,2,2,2
22960000,0.0,0.0,0.0,0.0,0.0,0.0,0,1,1,0,0,0,2,2,2,2,2,2,2,2,2,2,2,2,2
23160000,0.0,0.0,0.0,0.0,0.0,0.0,0,1,1,0,0,0,2,2,2,2,2,2,2,2,2,2,2,2,2
23360000,0.0,0.0,0.0,0.0,0.0,0.0,0,1,1,0,0,0,2,2,2,2,2,2,2,2,2,2,2,2,2
23560000,0.0,0.0,0.0,0.0,0.0,0.0,0,1,1,0,0,0,2,2,2,2,2,2,2,2,2,2,2,2,2
23760000,0.0,0.0,0.0,0.0,0.0,0.0,0,1,1,0,0,0,2,2,2,2,2,2,2,2,2,2,2,2,2
23960000,0.0,0.0,0.0,0.0,0.0,0.0,0,1,1,0,0,0,2,2,2,2,2,2,2,2,2,2,2,2,2
24160000,0.0,0.0,0.0,0.0,0.0,0.0,0,1,1,0,0,0,2,2,2,2,2,2,2,2,2,2,2,2,2
24360000,0.0,0.0,0.0,0.0,0.0,0.0,0,1,1,0,0,0,2,2,2,2,2,2,2,2,2,2,2,2,2
24560000,0.0,0.0,0.0,0.0,0.0,0.0,0,1,1,0,0,0,2,2,2,2,2,2,2,2,2,2,2,2,2
24760000,0.0,0.0,0.0,0.0,0.0,0.0,0,1,1,0,0,0,2,2,2,2,2,2,2,2,2,2,2,2,2
24960000,0.0,0.0,0.0,0.0,0.0,0.0,0,1,1,0,0,0,2,2,2,2,2,2,2,2,2,2,2,2,2
25160000,0.0,0.0,0.0,0.0,0.0,0.0,0,1,1,0,0,0,2,2,2,2,2,2,2,2,2,2,2,2,2
25360000,0.0,0.0,0.0,0.0,0.0,0.0,0,1,1,0,0,0,2,2,2,2,2,2,2,2,2,2,2,2,2
25560000,0.0,0.0,0.0,0.0,0.0,0.0,0,1,1,0,0,0,2,2,2,2,2,2,2,2,2,2,2,2,2
25760000,0.0,0.0,0.0,0.0,0.0,0.0,0,1,1,0,0,0,2,2,2,2,2,2,2,2,2,2,2,2,2
25960000,0.0,0.0,0.0,0.0,0.0,0.0,0,1,1,0,0,0,2,2,2,2,2,2,2,2,2,2,2,2,2
26160000,0.0,0.0,0.0,0.0,0.0,0.0,0,1,1,0,0,0,2,2,2,2,2,2,2,2,2,2,2,2,2
26360000,0.0,0.0,0.0,0.0,0.0,0.0,0,1,1,0,0,0,2,2,2,2,2,2,2,2,2,2,2,2,2
26560000,0.0,0.0,0.0,0.0,0.0,0.0,0,1,1,0,0,0,2,2,2,2,2,2,2,2,2,2,2,2,2
26760000,0.0,0.0,0.0,0.0,0.0,0.0,0,1,1,0,0,0,2,2,2,2,2,2,2,2,2,2,2,2,2
26960000,0.0,0.0,0.0,0.0,0.0,0.0,0,1,1,0,0,0,2,2,2,2,2,2,2,2,2,2,2,2,2
27160000,0.0,0.0,0.0,0.0,0.0,0.0,0,1,1,0,0,0,2,2,2,2,2,2,2,2,2,2,2,2,2
27360000,0.0,0.0,0.0,0.0,0.0,0.0,0,1,1,0,0,0,2,2,2,2,2,2,2,2,2,2,2,2,2
27560000,0.0,0.0,0.0,0.0,0.0,0.0,0,1,1,0,0,0,2,2,2,2,2,2,2,2,2,2,2,2,2
27760000,0.0,0.0,0.0,0.0,0.0,0.0,0,1,1,0,0,0,2,2,2,2,2,2,2,2,2,2,2,2,2
27960000,0.0,0.0,0.0,0.0,0.0,0.0,0,1,1,0,0,0,2,2,2,2,2,2,2,2,2,2,2,2,2
28160000,0.0,0.0,0.0,0.0,0.0,0.0,0,1,1,0,0,0,2,2,2,2,2,2,2,2,2,2,2,2,2
28360000,0.0,0.0,0.0,0.0,0.0,0.0,0,1,1,0,0,0,2,2,2,2,2,2,2,2,2,2,2,2,2
28560000,0.0,0.0,0.0,0.0,0.0,0.0,0,1,1,0,0,0,2,2,2,2,2,2,2,2,2,2,2,2,2
28760000,0.0,0.0,0.0,0.0,0.0,0.0,0,1,1,0,0,0,2,2,2,2,2,2,2,2,2,2,2,2,2
28960000,0.0,0.0,0.0,0.0,0.0,0.0,0,1,1,0,0,0,2,2,2,2,2,2,2,2,2,2,2,2,2
29160000,0.0,0.0,0.0,0.0,0.0,0.0,0,1,1,0,0,0,2,2,2,2,2,2,2,2,2,2,2,2,2
29360000,0.0,0.0,0.0,0.0,0.0,0.0,0,1,1,0,0,0,2,2,2,2,2,2,2,2,2,2,2,2,2
29560000,0.0,0.0,0.0,0.0,0.0,0.0,0,1,1,0,0,0,2,2,2,2,2,2,2,2,2,2,2,2,2
29760000,0.0,0.0,0.0,0.0,0.0,0.0,0,1,1,0,0,0,2,2,2,2,2,2,2,2,2,2,2,2,2
29960000,0.0,0.0,0.0,0.0,0.0,0.0,0,1,1,0,0,0,2,2,2,2,2,2,2,2,2,2,2,2,2
30160000,0.0,0.0,0.0,0.0,0.0,0.0,0,1,1,0,0,0,2,2,2,2,2,2,2,2,2,2,2,2,2
30360000,0.0,0.0,0.0,0.0,0.0,0.0,0,1,1,0,0,0,2,2,2,2,2,2,2,2,2,2,2,2,2
30560000,0.0,0.0,0.0,0.0,0.0,0.0,0,1,1,0,0,0,2,2,2,2,2,2,2,2,2,2,2,2,2
30760000,0.0,0.0,0.0,0.0,0.0,0.0,0,1,1,0,0,0,2,2,2,2,2,2,2,2,2,2,2,2,2
30960000,0.0,0.0,0.0,0.0,0.0,0.0,0,1,1,0,0,0,2,2,2,2,2,2,2,2,2,2,2,2,2
31160000,0.0,0.0,0.0,0.0,0.0,0.0,0,1,1,0,0,0,2,2,2,2,2,2,2,2,2,2,2,2,2
31360000,0.0,0.0,0.0,0.0,0.0,0.0,0,1,1,0,0,0,2,2,2,2,2,2,2,2,2,2,2,2,2
31560000,0.0,0.0,0.0,0.0,0.0,0.0,0,1,1,0,0,0,2,2,2,2,2,2,2,2,2,2,2,2,2
31760000,0.0,0.0,0.0,0.0,0.0,0.0,0,1,1,0,0,0,2,2,2,2,2,2,2,2,2,2,2,2,2
31960000,0.0,0.0,0.0,0.0,0.0,0.0,0,1,1,0,0,0,2,2,2,2,2,2,2,2,2,2,2,2,2
32160000,0.0,0.0,0.0,0.0,0.0,0.0,0,1,1,0,0,0,2,2,2,2,2,2,2,2,2,2,2,2,2
32360000,0.0,0.0,0.0,0.0,0.0,0.0,0,1,1,0,0,0,2,2,2,2,2,2,2,2,2,2,2,2,2
32560000,0.0,0.0,0.0,0.0,0.0,0.0,0,1,1,0,0,0,2,2,2,2,2,2,2,2,2,2,2,2,2
32760000,0.0,0.0,0.0,0.0,0.0,0.0,0,1,1,0,0,0,2,2,2,2,2,2,2,2,2,2,2,2,2
32960000,0.0,0.0,0.0,0.0,0.0,0.0,0,1,1,0,0,0,2,2,2,2,2,2,2,2,2,2,2,2,2
33160000,0.0,0.0,0.0,0.0,0.0,0.0,0,1,1,0,0,0,2,2,2,2,2,2,2,2,2,2,2,2,2
33360000,0.0,0.0,0.0,0.0,0.0,0.0,0,1,1,0,0,0,2,2,2,2,2,2,2,2,2,2,2,2,2
33560000,0.0,0.0,0.0,0.0,0.0,0.0,0,1,1,0,0,0,2,2,2,2,2,2,2,2,2,2,2,2,2
33760000,0.0,0.0,0.0,0.0,0.0,0.0,0,1,1,0,0,0,2,2,2,2,2,2,2,2,2,2,2,2,2
33960000,0.0,0.0,0.0,0.0,0.0,0.0,0,1,1,0,0,0,2,2,2,2,2,2,2,2,2,2,2,2,2
34160000,0.0,0.0,0.0,0.0,0.0,0.0,0,1,1,0,0,0,2,2,2,2,2,2,2,2,2,2,2,2,2
34360000,0.0,0.0,0.0,0.0,0.0,0.0,0,1,1,0,0,0,2,2,2,2,2,2,2,2,2,2,2,2,2
34560000,0.0,0.0,0.0,0.0,0.0,0.0,0,1,1,0,0,0,2,2,2,2,2,2,2,2,2,2,2,2,2
34760000,0.0,0.0,0.0,0.0,0.0,0.0,0,1,1,0,0,0,2,2,2,2,2,2,2,2,2,2,2,2,2
34960000,0.0,0.0,0.0,0.0,0.0,0.0,0,1,1,0,0,0,2,2,2,2,2,2,2,2,2,2,2,2,2
35160000,0.0,0.0,0.0,0.0,0.0,0.0,0,1,1,0,0,0,2,2,2,2,2,2,2,2,2,2,2,2,2
35360000,0.0,0.0,0.0,0.0,0.0,0.0,0,1,1,0,0,0,2,2,2,2,2,2,2,2,2,2,2,2,2
35560000,0.0,0.0,0.0,0.0,0.0,0.0,0,1,1,0,0,0,2,2,2,2,2,2,2,2,2,2,2,2,2
35760000,0.0,0.0,0.0,0.0,0.0,0.0,0,1,1,0,0,0,2,2,2,2,2,2,2,2,2,2,2,2,2
35960000,0.0,0.0,0.0,0.0,0.0,0.0,0,1,1,0,0,0,2,2,2,2,2,2,2,2,2,2,2,2,2
36160000,0.0,0.0,0.0,0.0,0.0,0.0,0,1,1,0,0,0,2,2,2,2,2,2,2,2,2,2,2,2,2
36360000,0.0,0.0,0.0,0.0,0.0,0.0,0,1,1,0,0,0,2,2,2,2,2,2,2,2,2,2,2,2,2
36560000,0.0,0.0,0.0,0.0,0.0,0.0,0,1,1,0,0,0,2,2,2,2,2,2,2,2,2,2,2,2,2
36760000,0.0,0.0,0.0,0.0,0.0,0.0,0,1,1,0,0,0,2,2,2,2,2,2,2,2,2,2,2,2,2
36960000,0.0,0.0,0.0,0.0,0.0,0.0,0,1,1,0,0,0,2,2,2,2,2,2,2,2,2,2,2,2,2
37160000,0.0,0.0,0.0,0.0,0.0,0.0,0,1,1,0,0,0,2,2,2,2,2,2,2,2,2,2,2,2,2
37360000,0.0,0.0,0.0,0.0,0.0,0.0,0,1,1,0,0,0,2,2,2,2,2,2,2,2,2,2,2,2,2
37560000,0.0,0.0,0.0,0.0,0.0,0.0,0,1,1,0,0,0,2,2,2,2,2,2,2,2,2,2,2,2,2
37760000,0.0,0.0,0.0,0.0,0.0,0.0,0,1,1,0,0,0,2,2,2,2,2,2,2,2,2,2,2,2,2
37960000,0.0,0.0,0.0,0.0,0.0,0.0,0,1,1,0,0,0,2,2,2,2,2,2,2,2,2,2,2,2,2
38160000,0.0,0.0,0.0,0.0,0.0,0.0,0,1,1,0,0,0,2,2,2,2,2,2,2,2,2,2,2,2,2
38360000,0.0,0.0,0.0,0.0,0.0,0.0,0,1,1,0,0,0,2,2,2,2,2,2,2,2,2,2,2,2,2
38560000,0.0,0.0,0.0,0.0,0.0,0.0,0,1,1,0,0,0,2,2,2,2,2,2,2,2,2,2,2,2,2
38760000,0.0,0.0,0.0,0.0,0.0,0.0,0,1,1,0,0,0,2,2,2,2,2,2,2,2,2,2,2,2,2
38960000,0.0,0.0,0.0,0.0,0.0,0.0,0,1,1,0,0,0,2,2,2,2,2,2,2,2,2,2,2,2,2
39160000,0.0,0.0,0.0,0.0,0.0,0.0,0,1,1,0,0,0,2,2,2,2,2,2,2,2,2,2,2,2,2
39360000,0.0,0.0,0.0,0.0,0.0,0.0,0,1,1,0,0,0,2,2,2,2,2,2,2,2,2,2,2,2,2
39560000,0.0,0.0,0.0,0.0,0.0,0.0,0,1,1,0,0,0,2,2,2,2,2,2,2,2,2,2,2,2,2
39760000,0.0,0.0,0.0,0.0,0.0,0.0,0,1,1,0,0,0,2,2,2,2,2,2,2,2,2,2,2,2,2
39960000,0.0,0.0,0.0,0.0,0.0,0.0,0,1,1,0,0,0,2,2,2,2,2,2,2,2,2,2,2,2,2
40160000,0.0,0.0,0.0,0.0,0.0,0.0,0,1,1,0,0,0,2,2,2,2,2,2,2,2,2,2,2,2,2
40360000,0.0,0.0,0.0,0.0,0.0,0.0,0,1,1,0,0,0,2,2,2,2,2,2,2,2,2,2,2,2,2
40560000,0.0,0.0,0.0,0.0,0.0,0.0,0,1,1,0,0,0,2,2,2,2,2,2,2,2,2,2,2,2,2
40760000,0.0,0.0,0.0,0.0,0.0,0.0,0,1,1,0,0,0,2,2,2,2,2,2,2,2,2,2,2,2,2
40960000,0.0,0.0,0.0,0.0,0.0,0.0,0,1,1,0,0,0,2,2,2,2,2,2,2,2,2,2,2,2,2
41160000,0.0,0.0,0.0,0.0,0.0,0.0,0,1,1,0,0,0,2,2,2,2,2,2,2,2,2,2,2,2,2
41360000,0.0,0.0,0.0,0.0,0.0,0.0,0,1,1,0,0,0,2,2,2,2,2,2,2,2,2,2,2,2,2
41560000,0.0,0.0,0.0,0.0,0.0,0.0,0,1,1,0,0,0,2,2,2,2,2,2,2,2,2,2,2,2,2
41760000,0.0,0.0,0.0,0.0,0.0,0.0,0,1,1,0,0,0,2,2,2,2,2,2,2,2,2,2,2,2,2
41960000,0.0,0.0,0.0,0.0,0.0,0.0,0,1,1,0,0,0,2,2,2,2,2,2,2,2,2,2,2,2,2
42160000,0.0,0.0,0.0,0.0,0.0,0.0,0,1,1,0,0,0,2,2,2,2,2,2,2,2,2,2,2,2,2
42360000,0.0,0.0,0.0,0.0,0.0,0.0,0,1,1,0,0,0,2,2,2,2,2,2,2,2,2,2,2,2,2
42560000,0.0,0.0,0.0,0.0,0.0,0.0,0,1,1,0,0,0,2,2,2,2,2,2,2,2,2,2,2,2,2
42760000,0.0,0.0,0.0,0.0,0.0,0.0,0,1,1,0,0,0,2,2,2,2,2,2,2,2,2,2,2,2,2
42960000,0.0,0.0,0.0,0.0,0.0,0.0,0,1,1,0,0,0,2,2,2,2,2,2,2,2,2,2,2,2,2
43160000,0.0,0.0,0.0,0.0,0.0,0.0,0,1,1,0,0,0,2,2,2,2,2,2,2,2,2,2,2,2,2
43360000,0.0,0.0,0.0,0.0,0.0,0.0,0,1,1,0,0,0,2,2,2,2,2,2,2,2,2,2,2,2,2
43560000,0.0,0.0,0.0,0.0,0.0,0.0,0,1,1,0,0,0,2,2,2,2,2,2,2,2,2,2,2,2,2
43760000,0.0,0.0,0.0,0.0,0.0,0.0,0,1,1,0,0,0,2,2,2,2,2,2,2,2,2,2,2,2,2
43960000,0.0,0.0,0.0,0.0,0.0,0.0,0,1,1,0,0,0,2,2,2,2,2,2,2,2,2,2,2,2,2
44160000,0.0,0.0,0.0,0.0,0.0,0.0,0,1,1,0,0,0,2,2,2,2,2,2,2,2,2,2,2,2,2
44360000,0.0,0.0,0.0,0.0,0.0,0.0,0,1,1,0,0,0,2,2,2,2,2,2,2,2,2,2,2,2,2
44560000,0.0,0.0,0.0,0.0,0.0,0.0,0,1,1,0,0,0,2,2,2,2,2,2,2,2,2,2,2,2,2
44760000,0.0,0.0,0.0,0.0,0.0,0.0,0,1,1,0,0,0,2,2,2,2,2,2,2,2,2,2,2,2,2
44960000,0.0,0.0,0.0,0.0,0.0,0.0,0,1,1,0,0,0,2,2,2,2,2,2,2,2,2,2,2,2,2
45160000,0.0,0.0,0.0,0.0,0.0,0.0,0,1,1,0,0,0,2,2,2,2,2,2,2,2,2,2,2,2,2
45360000,0.0,0.0,0.0,0.0,0.0,0.0,0,1,1,0,0,0,2,2,2,2,2,2,2,2,2,2,2,2,2
45560000,0.0,0.0,0.0,0.0,0.0,0.0,0,1,1,0,0,0,2,2,2,2,2,2,2,2,2,2,2,2,2
45760000,0.0,0.0,0.0,0.0,0.0,0.0,0,1,1,0,0,0,2,2,2,2,2,2,2,2,2,2,2,2,2
45960000,0.0,0.0,0.0,0.0,0.0,0.0,0,1,1,0,0,0,2,2,2,2,2,2,2,2,2,2,2,2,2
46160000,0.0,0.0,0.0,0.0,0.0,0.0,0,1,1,0,0,0,2,2,2,2,2,2,2,2,2,2,2,2,2
46360000,0.0,0.0,0.0,0.0,0.0,0.0,0,1,1,0,0,0,2,2,2,2,2,2,2,2,2,2,2,2,2
46560000,0.0,0.0,0.0,0.0,0.0,0.0,0,1,1,0,0,0,2,2,2,2,2,2,2,2,2,2,2,2,2
46760000,0.0,0.0,0.0,0.0,0.0,0.0,0,1,1,0,0,0,2,2,2,2,2,2,2,2,2,2,2,2,2
46960000,0.0,0.0,0.0,0.0,0.0,0.0,0,1,1,0,0,0,2,2,2,2,2,2,2,2,2,2,2,2,2
47160000,0.0,0.0,0.0,0.0,0.0,0.0,0,1,1,0,0,0,2,2,2,2,2,2,2,2,2,2,2,2,2
47360000,0.0,0.0,0.0,0.0,0.0,0.0,0,1,1,0,0,0,2,2,2,2,2,2,2,2,2,2,2,2,2
47560000,0.0,0.0,0.0,0.0,0.0,0.0,0,1,1,0,0,0,2,2,2,2,2,2,2,2,2,2,2,2,2
47760000,0.0,0.0,0.0,0.0,0.0,0.0,0,1,1,0,0,0,2,2,2,2,2,2,2,2,2,2,2,2,2
47960000,0.0,0.0,0.0,0.0,0.0,0.0,0,1,1,0,0,0,2,2,2,2,2,2,2,2,2,2,2,2,2
48160000,0.0,0.0,0.0,0.0,0.0,0.0,0,1,1,0,0,0,2,2,2,2,2,2,2,2,2,2,2,2,2
48360000,0.0,0.0,0.0,0.0,0.0,0.0,0,1,1,0,0,0,2,2,2,2,2,2,2,2,2,2,2,2,2
48560000,0.0,0.0,0.0,0.0,0.0,0.0,0,1,1,0,0,0,2,2,2,2,2,2,2,2,2,2,2,2,2
48760000,0.0,0.0,0.0,0.0,0.0,0.0,0,1,1,0,0,0,2,2,2,2,2,2,2,2,2,2,2,2,2
48960000,0.0,0.0,0.0,0.0,0.0,0.0,0,1,1,0,0,0,2,2,2,2,2,2,2,2,2,2,2,2,2
49160000,0.0,0.0,0.0,0.0,0.0,0.0,0,1,1,0,0,0,2,2,2,2,2,2,2,2,2,2,2,2,2
49360000,0.0,0.0,0.0,0.0,0.0,0.0,0,1,1,0,0,0,2,2,2,2,2,2,2,2,2,2,2,2,2
49560000,0.0,0.0,0.0,0.0,0.0,0.0,0,1,1,0,0,0,2,2,2,2,2,2,2,2,2,2,2,2,2
49760000,0.0,0.0,0.0,0.0,0.0,0.0,0,1,1,0,0,0,2,2,2,2,2,2,2,2,2,2,2,2,2
49960000,0.0,0.0,0.0,0.0,0.0,0.0,0,1,1,0,0,0,2,2,2,2,2,2,2,2,2,2,2,2,2
50160000,0.0,0.0,0.0,0.0,0.0,0.0,0,1,1,0,0,0,2,2,2,2,2,2,2,2,2,2,2,2,2
50360000,0.0,0.0,0.0,0.0,0.0,0.0,0,1,1,0,0,0,2,2,2,2,2,2,2,2,2,2,2,2,2
50560000,0.0,0.0,0.0,0.0,0.0,0.0,0,1,1,0,0,0,2,2,2,2,2,2,2,2,2,2,2,2,2
50760000,0.0,0.0,0.0,0.0,0.0,0.0,0,1,1,0,0,0,2,2,2,2,2,2,2,2,2,2,2,2,2
50960000,0.0,0.0,0.0,0.0,0.0,0.0,0,1,1,0,0,0,2,2,2,2,2,2,2,2,2,2,2,2,2
51160000,0.0,0.0,0.0,0.0,0.0,0.0,0,1,1,0,0,0,2,2,2,2,2,2,2,2,2,2,2,2,2
51360000,0.0,0.0,0.0,0.0,0.0,0.0,0,1,1,0,0,0,2,2,2,2,2,2,2,2,2,2,2,2,2
51560000,0.0,0.0,0.0,0.0,0.0,0.0,0,1,1,0,0,0,2,2,2,2,2,2,2,2,2,2,2,2,2
51760000,0.0,0.0,0.0,0.0,0.0,0.0,0,1,1,0,0,0,2,2,2,2,2,2,2,2,2,2,2,2,2
51960000,0.0,0.0,0.0,0.0,0.0,0.0,0,1,1,0,0,0,2,2,2,2,2,2,2,2,2,2,2,2,2
52160000,0.0,0.0,0.0,0.0,0.0,0.0,0,1,1,0,0,0,2,2,2,2,2,2,2,2,2,2,2,2,2
52360000,0.0,0.0,0.0,0.0,0.0,0.0,0,1,1,0,0,0,2,2,2,2,2,2,2,2,2,2,2,2,2
52560000,0.0,0.0,0.0,0.0,0.0,0.0,0,1,1,0,0,0,2,2,2,2,2,2,2,2,2,2,2,2,2
52760000,0.0,0.0,0.0,0.0,0.0,0.0,0,1,1,0,0,0,2,2,2,2,2,2,2,2,2,2,2,2,2
52960000,0.0,0.0,0.0,0.0,0.0,0.0,0,1,1,0,0,0,2,2,2,2,2,2,2,2,2,2,2,2,2
53160000,0.0,0.0,0.0,0.0,0.0,0.0,0,1,1,0,0,0,2,2,2,2,2,2,2,2,2,2,2,2,2
53360000,0.0,0.0,0.0,0.0,0.0,0.0,0,1,1,0,0,0,2,2,2,2,2,2,2,2,2,2,2,2,2
53560000,0.0,0.0,0.0,0.0,0.0,0.0,0,1,1,0,0,0,2,2,2,2,2,2,2,2,2,2,2,2,2
53760000,0.0,0.0,0.0,0.0,0.0,0.0,0,1,1,0,0,0,2,2,2,2,2,2,2,2,2,2,2,2,2
53960000,0.0,0.0,0.0,0.0,0.0,0.0,0,1,1,0,0,0,2,2,2,2,2,2,2,2,2,2,2,2,2
54160000,0.0,0.0,0.0,0.0,0.0,0.0,0,1,1,0,0,0,2,2,2,2,2,2,2,2,2,2,2,2,2
54360000,0.0,0.0,0.0,0.0,0.0,0.0,0,1,1,0,0,0,2,2,2,2,2,2,2,2,2,2,2,2,2
54560000,0.0,0.0,0.0,0.0,0.0,0.0,0,1,1,0,0,0,2,2,2,2,2,2,2,2,2,2,2,2,2
54760000,0.0,0.0,0.0,0.0,0.0,0.0,0,1,1,0,0,0,2,2,2,2,2,2,2,2,2,2,2,2,2
54960000,0.0,0.0,0.0,0.0,0.0,0.0,0,1,1,0,0,0,2,2,2,2,2,2,2,2,2,2,2,2,2
55160000,0.0,0.0,0.0,0.0,0.0,0.0,0,1,1,0,0,0,2,2,2,2,2,2,2,2,2,2,2,2,2
55360000,0.0,0.0,0.0,0.0,0.0,0.0,0,1,1,0,0,0,2,2,2,2,2,2,2,2,2,2,2,2,2
55560000,0.0,0.0,0.0,0.0,0.0,0.0,0,1,1,0,0,0,2,2,2,2,2,2,2,2,2,2,2,2,2
55760000,0.0,0.0,0.0,0.0,0.0,0.0,0,1,1,0,0,0,2,2,2,2,2,2,2,2,2,2,2,2,2
55960000,0.0,0.0,0.0,0.0,0.0,0.0,0,1,1,0,0,0,2,2,2,2,2,2,2,2,2,2,2,2,2
56160000,0.0,0.0,0.0,0.0,0.0,0.0,0,1,1,0,0,0,2,2,2,2,2,2,2,2,2,2,2,2,2
56360000,0.0,0.0,0.0,0.0,0.0,0.0,0,1,1,0,0,0,2,2,2,2,2,2,2,2,2,2,2,2,2
56560000,0.0,0.0,0.0,0.0,0.0,0.0,0,1,1,0,0,0,2,2,2,2,2,2,2,2,2,2,2,2,2
56760000,0.0,0.0,0.0,0.0,0.0,0.0,0,1,1,0,0,0,2,2,2,2,2,2,2,2,2,2,2,2,2
56960000,0.0,0.0,0.0,0.0,0.0,0.0,0,1,1,0,0,0,2,2,2,2,2,2,2,2,2,2,2,2,2
57160000,0.0,0.0,0.0,0.0,0.0,0.0,0,1,1,0,0,0,2,2,2,2,2,2,2,2,2,2,2,2,2
57360000,0.0,0.0,0.0,0.0,0.0,0.0,0,1,1,0,0,0,2,2,2,2,2,2,2,2,2,2,2,2,2
57560000,0.0,0.0,0.0,0.0,0.0,0.0,0,1,1,0,0,0,2,2,2,2,2,2,2,2,2,2,2,2,2
57760000,0.0,0.0,0.0,0.0,0.0,0.0,0,1,1,0,0,0,2,2,2,2,2,2,2,2,2,2,2,2,2
57960000,0.0,0.0,0.0,0.0,0.0,0.0,0,1,1,0,0,0,2,2,2,2,2,2,2,2,2,2,2,2,2
58160000,0.0,0.0,0.0,0.0,0.0,0.0,0,1,1,0,0,0,2,2,2,2,2,2,2,2,2,2,2,2,2
58360000,0.0,0.0,0.0,0.0,0.0,0.0,0,1,1,0,0,0,2,2,2,2,2,2,2,2,2,2,2,2,2
58560000,0.0,0.0,0.0,0.0,0.0,0.0,0,1,1,0,0,0,2,2,2,2,2,2,2,2,2,2,2,2,2
58760000,0.0,0.0,0.0,0.0,0.0,0.0,0,1,1,0,0,0,2,2,2,2,2,2,2,2,2,2,2,2,2
58960000,0.0,0.0,0.0,0.0,0.0,0.0,0,1,1,0,0,0,2,2,2,2,2,2,2,2,2,2,2,2,2
59160000,0.0,0.0,0.0,0.0,0.0,0.0,0,1,1,0,0,0,2,2,2,2,2,2,2,2,2,2,2,2,2
59360000,0.0,0.0,0.0,0.0,0.0,0.0,0,1,1,0,0,0,2,2,2,2,2,2,2,2,2,2,2,2,2
59560000,0.0,0.0,0.0,0.0,0.0,0.0,0,1,1,0,0,0,2,2,2,2,2,2,2,2,2,2,2,2,2
59760000,0.0,0.0,0.0,0.0,0.0,0.0,0,1,1,0,0,0,2,2,2,2,2,2,2,2,2,2,2,2,2
59960000,0.0,0.0,0.0,0.0,0.0,0.0,0,1,1,0,0,0,2,2,2,2,2,2,2,2,2,2,2,2,2
60160000,0.0,0.0,0.0,0.0,0.0,0.0,0,1,1,0,0,0,2,2,2,2,2,2,2,2,2,2,2,2,2
60360000,0.0,0.0,0.0,0.0,0.0,0.0,0,1,1,0,0,0,2,2,2,2,2,2,2,2,2,2,2,2,2
60560000,0.0,0.0,0.0,0.0,0.0,0.0,0,1,1,0,0,0,2,2,2,2,2,2,2,2,2,2,2,2,2
60760000,0.0,0.0,0.0,0.0,0.0,0.0,0,1,1,0,0,0,2,2,2,2,2,2,2,2,2,2,2,2,2
60960000,0.0,0.0,0.0,0.0,0.0,0.0,0,1,1,0,0,0,2,2,2,2,2,2,2,2,2,2,2,2,2
61160000,0.0,0.0,0.0,0.0,0.0,0.0,0,1,1,0,0,0,2,2,2,2,2,2,2,2,2,2,2,2,2
61360000,0.0,0.0,0.0,0.0,0.0,0.0,0,1,1,0,0,0,2,2,2,2,2,2,2,2,2,2,2,2,2
61560000,0.0,0.0,0.0,0.0,0.0,0.0,0,1,1,0,0,0,2,2,2,2,2,2,2,2,2,2,2,2,2
61760000,0.0,0.0,0.0,0.0,0.0,0.0,0,1,1,0,0,0,2,2,2,2,2,2,2,2,2,2,2,2,2
61960000,0.0,0.0,0.0,0.0,0.0,0.0,0,1,1,0,0,0,2,2,2,2,2,2,2,2,2,2,2,2,2
62160000,0.0,0.0,0.0,0.0,0.0,0.0,0,1,1,0,0,0,2,2,2,2,2,2,2,2,2,2,2,2,2
62360000,0.0,0.0,0.0,0.0,0.0,0.0,0,1,1,0,0,0,2,2,2,2,2,2,2,2,2,2,2,2,2
62560000,0.0,0.0,0.0,0.0,0.0,0.0,0,1,1,0,0,0,2,2,2,2,2,2,2,2,2,2,2,2,2
62760000,0.0,0.0,0.0,0.0,0.0,0.0,0,1,1,0,0,0,2,2,2,2,2,2,2,2,2,2,2,2,2
62960000,0.0,0.0,0.0,0.0,0.0,0.0,0,1,1,0,0,0,2,2,2,2,2,2,2,2,2,2,2,2,2
63160000,0.0,0.0,0.0,0.0,0.0,0.0,0,1,1,0,0,0,2,2,2,2,2,2,2,2,2,2,2,2,2
63360000,0.0,0.0,0.0,0.0,0.0,0.0,0,1,1,0,0,0,2,2,2,2,2,2,2,2,2,2,2,2,2
63560000,0.0,0.0,0.0,0.0,0.0,0.0,0,1,1,0,0,0,2,2,2,2,2,2,2,2,2,2,2,2,2
63760000,0.0,0.0,0.0,0.0,0.0,0.0,0,1,1,0,0,0,2,2,2,2,2,2,2,2,2,2,2,2,2
63960000,0.0,0.0,0.0,0.0,0.0,0.0,0,1,1,0,0,0,2,2,2,2,2,2,2,2,2,2,2,2,2
64160000,0.0,0.0,0.0,0.0,0.0,0.0,0,1,1,0,0,0,2,2,2,2,2,2,2,2,2,2,2,2,2
64360000,0.0,0.0,0.0,0.0,0.0,0.0,0,1,1,0,0,0,2,2,2,2,2,2,2,2,2,2,2,2,2
64560000,0.0,0.0,0.0,0.0,0.0,0.0,0,1,1,0,0,0,2,2,2,2,2,2,2,2,2,2,2,2,2
64760000,0.0,0.0,0.0,0.0,0.0,0.0,0,1,1,0,0,0,2,2,2,2,2,2,2,2,2,2,2,2,2
64960000,0.0,0.0,0.0,0.0,0.0,0.0,0,1,1,0,0,0,2,2,2,2,2,2,2,2,2,2,2,2,2
65160000,0.0,0.0,0.0,0.0,0.0,0.0,0,1,1,0,0,0,2,2,2,2,2,2,2,2,2,2,2,2,2
65360000,0.0,0.0,0.0,0.0,0.0,0.0,0,1,1,0,0,0,2,2,2,2,2,2,2,2,2,2,2,2,2
65560000,0.0,0.0,0.0,0.0,0.0,0.0,0,1,1,0,0,0,2,2,2,2,2,2,2,2,2,2,2,2,2
65760000,0.0,0.0,0.0,0.0,0.0,0.0,0,1,1,0,0,0,2,2,2,2,2,2,2,2,2,2,2,2,2
65960000,0.0,0.0,0.0,0.0,0.0,0.0,0,1,1,0,0,0,2,2,2,2,2,2,2,2,2,2,2,2,2
66160000,0.0,0.0,0.0,0.0,0.0,0.0,0,1,1,0,0,0,2,2,2,2,2,2,2,2,2,2,2,2,2
66360000,0.0,0.0,0.0,0.0,0.0,0.0,0,1,1,0,0,0,2,2,2,2,2,2,2,2,2,2,2,2,2
66560000,0.0,0.0,0.0,0.0,0.0,0.0,0,1,1,0,0,0,2,2,2,2,2,2,2,2,2,2,2,2,2
66760000,0.0,0.0,0.0,0.0,0.0,0.0,0,1,1,0,0,0,2,2,2,2,2,2,2,2,2,2,2,2,2
66960000,0.0,0.0,0.0,0.0,0.0,0.0,0,1,1,0,0,0,2,2,2,2,2,2,2,2,2,2,2,2,2
67160000,0.0,0.0,0.0,0.0,0.0,0.0,0,1,1,0,0,0,2,2,2,2,2,2,2,2,2,2,2,2,2
67360000,0.0,0.0,0.0,0.0,0.0,0.0,0,1,1,0,0,0,2,2,2,2,2,2,2,2,2,2,2,2,2
67560000,0.0,0.0,0.0,0.0,0.0,0.0,0,1,1,0,0,0,2,2,2,2,2,2,2,2,2,2,2,2,2
67760000,0.0,0.0,0.0,0.0,0.0,0.0,0,1,1,0,0,0,2,2,2,2,2,2,2,2,2,2,2,2,2
67960000,0.0,0.0,0.0,0.0,0.0,0.0,0,1,1,0,0,0,2,2,2,2,2,2,2,2,2,2,2,2,2
68160000,0.0,0.0,0.0,0.0,0.0,0.0,0,1,1,0,0,0,2,2,2,2,2,2,2,2,2,2,2,2,2
68360000,0.0,0.0,0.0,0.0,0.0,0.0,0,1,1,0,0,0,2,2,2,2,2,2,2,2,2,2,2,2,2
68560000,0.0,0.0,0.0,0.0,0.0,0.0,0,1,1,0,0,0,2,2,2,2,2,2,2,2,2,2,2,2,2
68760000,0.0,0.0,0.0,0.0,0.0,0.0,0,1,1,0,0,0,2,2,2,2,2,2,2,2,2,2,2,2,2
68960000,0.0,0.0,0.0,0.0,0.0,0.0,0,1,1,0,0,0,2,2,2,2,2,2,2,2,2,2,2,2,2
69160000,0.0,0.0,0.0,0.0,0.0,0.0,0,1,1,0,0,0,2,2,2,2,2,2,2,2,2,2,2,2,2
69360000,0.0,0.0,0.0,0.0,0.0,0.0,0,1,1,0,0,0,2,2,2,2,2,2,2,2,2,2,2,2,2
69560000,0.0,0.0,0.0,0.0,0.0,0.0,0,1,1,0,0,0,2,2,2,2,2,2,2,2,2,2,2,2,2
69760000,0.0,0.0,0.0,0.0,0.0,0.0,0,1,1,0,0,0,2,2,2,2,2,2,2,2,2,2,2,2,2
69960000,0.0,0.0,0.0,0.0,0.0,0.0,0,1,1,0,0,0,2,2,2,2,2,2,2,2,2,2,2,2,2
70160000,0.0,0.0,0.0,0.0,0.0,0.0,0,1,1,0,0,0,2,2,2,2,2,2,2,2,2,2,2,2,2
70360000,0.0,0.0,0.0,0.0,0.0,0.0,0,1,1,0,0,0,2,2,2,2,2,2,2,2,2,2,2,2,2
70560000,0.0,0.0,0.0,0.0,0.0,0.0,0,1,1,0,0,0,2,2,2,2,2,2,2,2,2,2,2,2,2
70760000,0.0,0.0,0.0,0.0,0.0,0.0,0,1,1,0,0,0,2,2,2,2,2,2,2,2,2,2,2,2,2
70960000,0.0,0.0,0.0,0.0,0.0,0.0,0,1,1,0,0,0,2,2,2,2,2,2,2,2,2,2,2,2,2
71160000,0.0,0.0,0.0,0.0,0.0,0.0,0,1,1,0,0,0,2,2,2,2,2,2,2,2,2,2,2,2,2
71360000,0.0,0.0,0.0,0.0,0.0,0.0,0,1,1,0,0,0,2,2,2,2,2,2,2,2,2,2,2,2,2
71560000,0.0,0.0,0.0,0.0,0.0,0.0,0,1,1,0,0,0,2,2,2,2,2,2,2,2,2,2,2,2,2
71760000,0.0,0.0,0.0,0.0,0.0,0.0,0,1,1,0,0,0,2,2,2,2,2,2,2,2,2,2,2,2,2
71960000,0.0,0.0,0.0,0.0,0.0,0.0,0,1,1,0,0,0,2,2,2,2,2,2,2,2,2,2,2,2,2
72160000,0.0,0.0,0.0,0.0,0.0,0.0,0,1,1,0,0,0,2,2,2,2,2,2,2,2,2,2,2,2,2
72360000,0.0,0.0,0.0,0.0,0.0,0.0,0,1,1,0,0,0,2,2,2,2,2,2,2,2,2,2,2,2,2
72560000,0.0,0.0,0.0,0.0,0.0,0.0,0,1,1,0,0,0,2,2,2,2,2,2,2,2,2,2,2,2,2
72760000,0.0,0.0,0.0,0.0,0.0,0.0,0,1,1,0,0,0,2,2,2,2,2,2,2,2,2,2,2,2,2
72960000,0.0,0.0,0.0,0.0,0.0,0.0,0,1,1,0,0,0,2,2,2,2,2,2,2,2,2,2,2,2,2
73160000,0.0,0.0,0.0,0.0,0.0,0.0,0,1,1,0,0,0,2,2,2,2,2,2,2,2,2,2,2,2,2
73360000,0.0,0.0,0.0,0.0,0.0,0.0,0,1,1,0,0,0,2,2,2,2,2,2,2,2,2,2,2,2,2
73560000,0.0,0.0,0.0,0.0,0.0,0.0,0,1,1,0,0,0,2,2,2,2,2,2,2,2,2,2,2,2,2
73760000,0.0,0.0,0.0,0.0,0.0,0.0,0,1,1,0,0,0,2,2,2,2,2,2,2,2,2,2,2,2,2
73960000,0.0,0.0,0.0,0.0,0.0,0.0,0,1,1,0,0,0,2,2,2,2,2,2,2,2,2,2,2,2,2
74160000,0.0,0.0,0.0,0.0,0.0,0.0,0,1,1,0,0,0,2,2,2,2,2,2,2,2,2,2,2,2,2
74360000,0.0,0.0,0.0,0.0,0.0,0.0,0,1,1,0,0,0,2,2,2,2,2,2,2,2,2,2,2,2,2
74560000,0.0,0.0,0.0,0.0,0.0,0.0,0,1,1,0,0,0,2,2,2,2,2,2,2,2,2,2,2,2,2
74760000,0.0,0.0,0.0,0.0,0.0,0.0,0,1,1,0,0,0,2,2,2,2,2,2,2,2,2,2,2,2,2
74960000,0.0,0.0,0.0,0.0,0.0,0.0,0,1,1,0,0,0,2,2,2,2,2,2,2,2,2,2,2,2,2
75160000,0.0,0.0,0.0,0.0,0.0,0.0,0,1,1,0,0,0,2,2,2,2,2,2,2,2,2,2,2,2,2
75360000,0.0,0.0,0.0,0.0,0.0,0.0,0,1,1,0,0,0,2,2,2,2,2,2,2,2,2,2,2,2,2
75560000,0.0,0.0,0.0,0.0,0.0,0.0,0,1,1,0,0,0,2,2,2,2,2,2,2,2,2,2,2,2,2
75760000,0.0,0.0,0.0,0.0,0.0,0.0,0,1,1,0,0,0,2,2,2,2,2,2,2,2,2,2,2,2,2
75960000,0.0,0.0,0.0,0.0,0.0,0.0,0,1,1,0,0,0,2,2,2,2,2,2,2,2,2,2,2,2,2
76160000,0.0,0.0,0.0,0.0,0.0,0.0,0,1,1,0,0,0,2,2,2,2,2,2,2,2,2,2,2,2,2
76360000,0.0,0.0,0.0,0.0,0.0,0.0,0,1,1,0,0,0,2,2,2,2,2,2,2,2,2,2,2,2,2
76560000,0.0,0.0,0.0,0.0,0.0,0.0,0,1,1,0,0,0,2,2,2,2,2,2,2,2,2,2,2,2,2
76760000,0.0,0.0,0.0,0.0,0.0,0.0,0,1,1,0,0,0,2,2,2,2,2,2,2,2,2,2,2,2,2
76960000,0.0,0.0,0.0,0.0,0.0,0.0,0,1,1,0,0,0,2,2,2,2,2,2,2,2,2,2,2,2,2
77160000,0.0,0.0,0.0,0.0,0.0,0.0,0,1,1,0,0,0,2,2,2,2,2,2,2,2,2,2,2,2,2
77360000,0.0,0.0,0.0,0.0,0.0,0.0,0,1,1,0,0,0,2,2,2,2,2,2,2,2,2,2,2,2,2
77560000,0.0,0.0,0.0,0.0,0.0,0.0,0,1,1,0,0,0,2,2,2,2,2,2,2,2,2,2,2,2,2
77760000,0.0,0.0,0.0,0.0,0.0,0.0,0,1,1,0,0,0,2,2,2,2,2,2,2,2,2,2,2,2,2
77960000,0.0,0.0,0.0,0.0,0.0,0.0,0,1,1,0,0,0,2,2,2,2,2,2,2,2,2,2,2,2,2
78160000,0.0,0.0,0.0,0.0,0.0,0.0,0,1,1,0,0,0,2,2,2,2,2,2,2,2,2,2,2,2,2
78360000,0.0,0.0,0.0,0.0,0.0,0.0,0,1,1,0,0,0,2,2,2,2,2,2,2,2,2,2,2,2,2
78560000,0.0,0.0,0.0,0.0,0.0,0.0,0,1,1,0,0,0,2,2,2,2,2,2,2,2,2,2,2,2,2
78760000,0.0,0.0,0.0,0.0,0.0,0.0,0,1,1,0,0,0,2,2,2,2,2,2,2,2,2,2,2,2,2
78960000,0.0,0.0,0.0,0.0,0.0,0.0,0,1,1,0,0,0,2,2,2,2,2,2,2,2,2,2,2,2,2
79160000,0.0,0.0,0.0,0.0,0.0,0.0,0,1,1,0,0,0,2,2,2,2,2,2,2,2,2,2,2,2,2
79360000,0.0,0.0,0.0,0.0,0.0,0.0,0,1,1,0,0,0,2,2,2,2,2,2,2,2,2,2,2,2,2
79560000,0.0,0.0,0.0,0.0,0.0,0.0,0,1,1,0,0,0,2,2,2,2,2,2,2,2,2,2,2,2,2
79760000,0.0,0.0,0.0,0.0,0.0,0.0,0,1,1,0,0,0,2,2,2,2,2,2,2,2,2,2,2,2,2
79960000,0.0,0.0,0.0,0.0,0.0,0.0,0,1,1,0,0,0,2,2,2,2,2,2,2,2,2,2,2,2,2
80160000,0.0,0.0,0.0,0.0,0.0,0.0,0,1,1,0,0,0,2,2,2,2,2,2,2,2,2,2,2,2,2
80360000,0.0,0.0,0.0,0.0,0.0,0.0,0,1,1,0,0,0,2,2,2,2,2,2,2,2,2,2,2,2,2
80560000,0.0,0.0,0.0,0.0,0.0,0.0,0,1,1,0,0,0,2,2,2,2,2,2,2,2,2,2,2,2,2
80760000,0.0,0.0,0.0,0.0,0.0,0.0,0,1,1,0,0,0,2,2,2,2,2,2,2,2,2,2,2,2,2
80960000,0.0,0.0,0.0,0.0,0.0,0.0,0,1,1,0,0,0,2,2,2,2,2,2,2,2,2,2,2,2,2
81160000,0.0,0.0,0.0,0.0,0.0,0.0,0,1,1,0,0,0,2,2,2,2,2,2,2,2,2,2,2,2,2
81360000,0.0,0.0,0.0,0.0,0.0,0.0,0,1,1,0,0,0,2,2,2,2,2,2,2,2,2,2,2,2,2
81560000,0.0,0.0,0.0,0.0,0.0,0.0,0,1,1,0,0,0,2,2,2,2,2,2,2,2,2,2,2,2,2
81760000,0.0,0.0,0.0,0.0,0.0,0.0,0,1,1,0,0,0,2,2,2,2,2,2,2,2,2,2,2,2,2
81960000,0.0,0.0,0.0,0.0,0.0,0.0,0,1,1,0,0,0,2,2,2,2,2,2,2,2,2,2,2,2,2
82160000,0.0,0.0,0.0,0.0,0.0,0.0,0,1,1,0,0,0,2,2,2,2,2,2,2,2,2,2,2,2,2
82360000,0.0,0.0,0.0,0.0,0.0,0.0,0,1,1,0,0,0,2,2,2,2,2,2,2,2,2,2,2,2,2
82560000,0.0,0.0,0.0,0.0,0.0,0.0,0,1,1,0,0,0,2,2,2,2,2,2,2,2,2,2,2,2,2
82760000,0.0,0.0,0.0,0.0,0.0,0.0,0,1,1,0,0,0,2,2,2,2,2,2,2,2,2,2,2,2,2
82960000,0.0,0.0,0.0,0.0,0.0,0.0,0,1,1,0,0,0,2,2,2,2,2,2,2,2,2,2,2,2,2
83160000,0.0,0.0,0.0,0.0,0.0,0.0,0,1,1,0,0,0,2,2,2,2,2,2,2,2,2,2,2,2,2
83360000,0.0,0.0,0.0,0.0,0.0,0.0,0,1,1,0,0,0,2,2,2,2,2,2,2,2,2,2,2,2,2
83560000,0.0,0.0,0.0,0.0,0.0,0.0,0,1,1,0,0,0,2,2,2,2,2,2,2,2,2,2,2,2,2
83760000,0.0,0.0,0.0,0.0,0.0,0.0,0,1,1,0,0,0,2,2,2,2,2,2,2,2,2,2,2,2,2
83960000,0.0,0.0,0.0,0.0,0.0,0.0,0,1,1,0,0,0,2,2,2,2,2,2,2,2,2,2,2,2,2
84160000,0.0,0.0,0.0,0.0,0.0,0.0,0,1,1,0,0,0,2,2,2,2,2,2,2,2,2,2,2,2,2
84360000,0.0,0.0,0.0,0.0,0.0,0.0,0,1,1,0,0,0,2,2,2,2,2,2,2,2,2,2,2,2,2
84560000,0.0,0.0,0.0,0.0,0.0,0.0,0,1,1,0,0,0,2,2,2,2,2,2,2,2,2,2,2,2,2
84760000,0.0,0.0,0.0,0.0,0.0,0.0,0,1,1,0,0,0,2,2,2,2,2,2,2,2,2,2,2,2,2
84960000,0.0,0.0,0.0,0.0,0.0,0.0,0,1,1,0,0,0,2,2,2,2,2,2,2,2,2,2,2,2,2
85160000,0.0,0.0,0.0,0.0,0.0,0.0,0,1,1,0,0,0,2,2,2,2,2,2,2,2,2,2,2,2,2
85360000,0.0,0.0,0.0,0.0,0.0,0.0,0,1,1,0,0,0,2,2,2,2,2,2,2,2,2,2,2,2,2
85560000,0.0,0.0,0.0,0.0,0.0,0.0,0,1,1,0,0,0,2,2,2,2,2,2,2,2,2,2,2,2,2
85760000,0.0,0.0,0.0,0.0,0.0,0.0,0,1,1,0,0,0,2,2,2,2,2,2,2,2,2,2,2,2,2
85960000,0.0,0.0,0.0,0.0,0.0,0.0,0,1,1,0,0,0,2,2,2,2,2,2,2,2,2,2,2,2,2
86160000,0.0,0.0,0.0,0.0,0.0,0.0,0,1,1,0,0,0,2,2,2,2,2,2,2,2,2,2,2,2,2
86360000,0.0,0.0,0.0,0.0,0.0,0.0,0,1,1,0,0,0,2,2,2,2,2,2,2,2,2,2,2,2,2
86560000,0.0,0.0,0.0,0.0,0.0,0.0,0,1,1,0,0,0,2,2,2,2,2,2,2,2,2,2,2,2,2
86760000,0.0,0.0,0.0,0.0,0.0,0.0,0,1,1,0,0,0,2,2,2,2,2,2,2,2,2,2,2,2,2
86960000,0.0,0.0,0.0,0.0,0.0,0.0,0,1,1,0,0,0,2,2,2,2,2,2,2,2,2,2,2,2,2
87160000,0.0,0.0,0.0,0.0,0.0,0.0,0,1,1,0,0,0,2,2,2,2,2,2,2,2,2,2,2,2,2
87360000,0.0,0.0,0.0,0.0,0.0,0.0,0,1,1,0,0,0,2,2,2,2,2,2,2,2,2,2,2,2,2
87560000,0.0,0.0,0.0,0.0,0.0,0.0,0,1,1,0,0,0,2,2,2,2,2,2,2,2,2,2,2,2,2
87760000,0.0,0.0,0.0,0.0,0.0,0.0,0,1,1,0,0,0,2,2,2,2,2,2,2,2,2,2,2,2,2
87960000,0.0,0.0,0.0,0.0,0.0,0.0,0,1,1,0,0,0,2,2,2,2,2,2,2,2,2,2,2,2,2
88160000,0.0,0.0,0.0,0.0,0.0,0.0,0,1,1,0,0,0,2,2,2,2,2,2,2,2,2,2,2,2,2
88360000,0.0,0.0,0.0,0.0,0.0,0.0,0,1,1,0,0,0,2,2,2,2,2,2,2,2,2,2,2,2,2
88560000,0.0,0.0,0.0,0.0,0.0,0.0,0,1,1,0,0,0,2,2,2,2,2,2,2,2,2,2,2,2,2
88760000,0.0,0.0,0.0,0.0,0.0,0.0,0,1,1,0,0,0,2,2,2,2,2,2,2,2,2,2,2,2,2
88960000,0.0,0.0,0.0,0.0,0.0,0.0,0,1,1,0,0,0,2,2,2,2,2,2,2,2,2,2,2,2,2
89160000,0.0,0.0,0.0,0.0,0.0,0.0,0,1,1,0,0,0,2,2,2,2,2,2,2,2,2,2,2,2,2
89360000,0.0,0.0,0.0,0.0,0.0,0.0,0,1,1,0,0,0,2,2,2,2,2,2,2,2,2,2,2,2,2
89560000,0.0,0.0,0.0,0.0,0.0,0.0,0,1,1,0,0,0,2,2,2,2,2,2,2,2,2,2,2,2,2
89760000,0.0,0.0,0.0,0.0,0.0,0.0,0,1,1,0,0,0,2,2,2,2,2,2,2,2,2,2,2,2,2
89960000,0.0,0.0,0.0,0.0,0.0,0.0,0,1,1,0,0,0,2,2,2,2,2,2,2,2,2,2,2,2,2
90160000,0.0,0.0,0.0,0.0,0.0,0.0,0,1,1,0,0,0,2,2,2,2,2,2,2,2,2,2,2,2,2
90360000,0.0,0.0,0.0,0.0,0.0,0.0,0,1,1,0,0,0,2,2,2,2,2,2,2,2,2,2,2,2,2
90560000,0.0,0.0,0.0,0.0,0.0,0.0,0,1,1,0,0,0,2,2,2,2,2,2,2,2,2,2,2,2,2
90760000,0.0,0.0,0.0,0.0,0.0,0.0,0,1,1,0,0,0,2,2,2,2,2,2,2,2,2,2,2,2,2
90960000,0.0,0.0,0.0,0.0,0.0,0.0,0,1,1,0,0,0,2,2,2,2,2,2,2,2,2,2,2,2,2
91160000,0.0,0.0,0.0,0.0,0.0,0.0,0,1,1,0,0,0,2,2,2,2,2,2,2,2,2,2,2,2,2
91360000,0.0,0.0,0.0,0.0,0.0,0.0,0,1,1,0,0,0,2,2,2,2,2,2,2,2,2,2,2,2,2
91560000,0.0,0.0,0.0,0.0,0.0,0.0,0,1,1,0,0,0,2,2,2,2,2,2,2,2,2,2,2,2,2
91760000,0.0,0.0,0.0,0.0,0.0,0.0,0,1,1,0,0,0,2,2,2,2,2,2,2,2,2,2,2,2,2
91960000,0.0,0.0,0.0,0.0,0.0,0.0,0,1,1,0,0,0,2,2,2,2,2,2,2,2,2,2,2,2,2
92160000,0.0,0.0,0.0,0.0,0.0,0.0,0,1,1,0,0,0,2,2,2,2,2,2,2,2,2,2,2,2,2
92360000,0.0,0.0,0.0,0.0,0.0,0.0,0,1,1,0,0,0,2,2,2,2,2,2,2,2,2,2,2,2,2
92560000,0.0,0.0,0.0,0.0,0.0,0.0,0,1,1,0,0,0,2,2,2,2,2,2,2,2,2,2,2,2,2
92760000,0.0,0.0,0.0,0.0,0.0,0.0,0,1,1,0,0,0,2,2,2,2,2,2,2,2,2,2,2,2,2
92960000,0.0,0.0,0.0,0.0,0.0,0.0,0,1,1,0,0,0,2,2,2,2,2,2,2,2,2,2,2,2,2
93160000,0.0,0.0,0.0,0.0,0.0,0.0,0,1,1,0,0,0,2,2,2,2,2,2,2,2,2,2,2,2,2
93360000,0.0,0.0,0.0,0.0,0.0,0.0,0,1,1,0,0,0,2,2,2,2,2,2,2,2,2,2,2,2,2
93560000,0.0,0.0,0.0,0.0,0.0,0.0,0,1,1,0,0,0,2,2,2,2,2,2,2,2,2,2,2,2,2
93760000,0.0,0.0,0.0,0.0,0.0,0.0,0,1,1,0,0,0,2,2,2,2,2,2,2,2,2,2,2,2,2
93960000,0.0,0.0,0.0,0.0,0.0,0.0,0,1,1,0,0,0,2,2,2,2,2,2,2,2,2,2,2,2,2
94160000,0.0,0.0,0.0,0.0,0.0,0.0,0,1,1,0,0,0,2,2,2,2,2,2,2,2,2,2,2,2,2
94360000,0.0,0.0,0.0,0.0,0.0,0.0,0,1,1,0,0,0,2,2,2,2,2,2,2,2,2,2,2,2,2
94560000,0.0,0.0,0.0,0.0,0.0,0.0,0,1,1,0,0,0,2,2,2,2,2,2,2,2,2,2,2,2,2
94760000,0.0,0.0,0.0,0.0,0.0,0.0,0,1,1,0,0,0,2,2,2,2,2,2,2,2,2,2,2,2,2
94960000,0.0,0.0,0.0,0.0,0.0,0.0,0,1,1,0,0,0,2,2,2,2,2,2,2,2,2,2,2,2,2
95160000,0.0,0.0,0.0,0.0,0.0,0.0,0,1,1,0,0,0,2,2,2,2,2,2,2,2,2,2,2,2,2
95360000,0.0,0.0,0.0,0.0,0.0,0.0,0,1,1,0,0,0,2,2,2,2,2,2,2,2,2,2,2,2,2
95560000,0.0,0.0,0.0,0.0,0.0,0.0,0,1,1,0,0,0,2,2,2,2,2,2,2,2,2,2,2,2,2
95760000,0.0,0.0,0.0,0.0,0.0,0.0,0,1,1,0,0,0,2,2,2,2,2,2,2,2,2,2,2,2,2
95960000,0.0,0.0,0.0,0.0,0.0,0.0,0,1,1,0,0,0,2,2,2,2,2,2,2,2,2,2,2,2,2
96160000,0.0,0.0,0.0,0.0,0.0,0.0,0,1,1,0,0,0,2,2,2,2,2,2,2,2,2,2,2,2,2
96360000,-0.0,0.0,0.0,0.0,0.0,0.0,0,1,1,0,0,0,2,2,2,2,2,2,2,2,2,2,2,2,2
96560000,-0.0,-0.0,0.0,0.0,0.0,0.0,0,1,1,0,0,0,2,2,2,2,2,2,2,2,2,2,2,2,2
96760000,-0.0,-0.0,0.0,0.0,0.0,0.0,0,1,1,0,0,0,2,2,2,2,2,2,2,2,2,2,2,2,2
96960000,-0.0,-0.0,0.0,0.0,0.0,0.0,0,1,1,0,0,0,2,2,2,2,2,2,2,2,2,2,2,2,2
97160000,-0.0,-0.0,0.0,0.0,0.0,0.0,0,1,1,0,0,0,2,2,2,2,2,2,2,2,2,2,2,2,2
97360000,-0.0,-0.0,0.0,0.0,0.0,0.0,0,1,1,0,0,0,2,2,2,2,2,2,2,2,2,2,2,2,2
97560000,-0.0,-0.0,0.0,0.0,0.0,0.0,0,1,1,0,0,0,2,2,2,2,2,2,2,2,2,2,2,2,2
97760000,-0.0,-0.0,0.0,0.0,0.0,0.0,0,1,1,0,0,0,2,2,2,2,2,2,2,2,2,2,2,2,2
97960000,-0.0,-0.0,0.0,0.0,0.0,0.0,0,1,1,0,0,0,2,2,2,2,2,2,2,2,2,2,2,2,2
98160000,-0.0,-0.0,0.0,0.0,0.0,0.0,0,1,1,0,0,0,2,2,2,2,2,2,2,2,2,2,2,2,2
98360000,5.5879354e-09,0.0,0.073142886,0.0,0.0,0.0,0,0,1,0,0,0,2,2,2,2,2,2,2,2,2,2,2,2,2
98560000,7.450581e-09,0.0,0.09310195,0.0,0.0,0.0,0,0,1,0,0,0,2,2,2,2,2,2,2,2,2,2,2,2,2
98760000,7.450581e-09,0.0,0.0896836,0.0,0.0,0.0,0,0,1,0,0,0,2,2,2,2,2,2,2,2,2,2,2,2,2
98960000,5.5879354e-09,0.0,0.07513539,0.0,0.0,0.0,0,0,1,0,0,0,2,2,2,2,2,2,2,2,2,2,2,2,2
99160000,5.5879354e-09,0.0,0.06624227,0.0,0.0,0.0,0,0,1,0,0,0,2,2,2,2,2,2,2,2,2,2,2,2,2
99360000,5.5879354e-09,0.0,0.055499483,0.0,0.0,0.0,0,0,1,0,0,0,2,2,2,2,2,2,2,2,2,2,2,2,2
99560000,5.5879354e-09,0.0,0.047514223,0.0,0.0,0.0,0,0,1,0,0,0,2,2,2,2,2,2,2,2,2,2,2,2,2
99760000,5.5879354e-09,0.0,0.0405604,0.0,0.0,0.0,0,0,1,0,0,0,2,2,2,2,2,2,2,2,2,2,2,2,2
99960000,3.7252903e-09,0.0,0.03206877,0.0,0.0,0.0,0,0,1,0,0,0,2,2,2,2,2,2,2,2,2,2,2,2,2
100160000,2.7939677e-09,0.0,0.02634489,0.0,0.0,0.0,0,0,1,0,0,0,2,2,2,2,2,2,2,2,2,2,2,2,2
100360000,2.7939677e-09,0.0,0.023144443,0.0,0.0,0.0,0,0,1,0,0,0,2,2,2,2,2,2,2,2,2,2,2,2,2
100560000,1.8626451e-09,0.0,0.023004906,0.0,0.0,0.0,0,0,1,0,0,0,2,2,2,2,2,2,2,2,2,2,2,2,2
100760000,1.8626451e-09,0.0,0.023063835,0.0,0.0,0.0,0,0,1,0,0,0,2,2,2,2,2,2,2,2,2,2,2,2,2
100960000,1.3969839e-09,0.0,0.022965431,0.0,0.0,0.0,0,0,1,0,0,0,2,2,2,2,2,2,2,2,2,2,2,2,2
101160000,9.313226e-10,0.0,0.023318233,0.0,0.0,0.0,0,0,1,0,0,0,2,2,2,2,2,2,2,2,2,2,2,2,2
101360000,6.9849193e-10,0.0,0.023658488,0.0,0.0,0.0,0,0,1,0,0,0,2,2,2,2,2,2,2,2,2,2,2,2,2
101560000,6.9849193e-10,0.0,0.024256205,0.0,0.0,0.0,0,0,1,0,0,0,2,2,2,2,2,2,2,2,2,2,2,2,2
101760000,6.9849193e-10,0.0,0.024946345,0.0,0.0,0.0,0,0,1,0,0,0,2,2,2,2,2,2,2,2,2,2,2,2,2
101960000,9.313226e-10,0.0,0.025029024,0.0,0.0,0.0,0,0,1,0,0,0,2,2,2,2,2,2,2,2,2,2,2,2,2
102160000,6.9849193e-10,0.0,0.025867002,0.0,0.0,0.0,0,0,1,0,0,0,2,2,2,2,2,2,2,2,2,2,2,2,2
102360000,4.656613e-10,0.0,0.026336316,0.0,0.0,0.0,0,0,1,0,0,0,2,2,2,2,2,2,2,2,2,2,2,2,2
102560000,8.731149e-11,0.0,0.027127098,0.0,0.0,0.0,0,0,1,0,0,0,2,2,2,2,2,2,2,2,2,2,2,2,2
102760000,6.9849193e-10,0.0,0.027954418,0.0,0.0,0.0,0,0,1,0,0,0,2,2,2,2,2,2,2,2,2,2,2,2,2
102960000,6.9849193e-10,0.0,0.028844899,0.0,0.0,0.0,0,0,1,0,0,0,2,2,2,2,2,2,2,2,2,2,2,2,2
103160000,2.3283064e-10,0.0,0.029271318,0.0,0.0,0.0,0,0,1,0,0,0,2,2,2,2,2,2,2,2,2,2,2,2,2
103360000,6.9849193e-10,0.0,0.029759903,0.0,0.0,0.0,0,0,1,0,0,0,2,2,2,2,2,2,2,2,2,2,2,2,2
103560000,1.3969839e-09,0.0,0.030287819,0.0,0.0,0.0,0,0,1,0,0,0,2,2,2,2,2,2,2,2,2,2,2,2,2
103760000,6.9849193e-10,0.0,0.030838938,0.0,0.0,0.0,0,0,1,0,0,0,2,2,2,2,2,2,2,2,2,2,2,2,2
103960000,4.656613e-10,0.0,0.031228911,0.0,0.0,0.0,0,0,1,0,0,0,2,2,2,2,2,2,2,2,2,2,2,2,2
104160000,9.313226e-10,0.0,0.032795146,0.0,0.0,0.0,0,0,1,0,0,0,2,2,2,2,2,2,2,2,2,2,2,2,2
104360000,9.313226e-10,0.0,0.03200691,0.0,0.0,0.0,0,0,1,0,0,0,2,2,2,2,2,2,2,2,2,2,2,2,2
104560000,4.656613e-10,0.0,0.032669205,0.0,0.0,0.0,0,0,1,0,0,0,2,2,2,2,2,2,2,2,2,2,2,2,2
104760000,9.313226e-10,0.0,0.032653064,0.0,0.0,0.0,0,0,1,0,0,0,2,2,2,2,2,2,2,2,2,2,2,2,2
104960000,9.313226e-10,0.0,0.032061454,0.0,0.0,0.0,0,0,1,0,0,0,2,2,2,2,2,2,2,2,2,2,2,2,2
105160000,9.313226e-10,0.0,0.032422535,0.0,0.0,0.0,0,0,1,0,0,0,2,2,2,2,2,2,2,2,2,2,2,2,2
105360000,9.313226e-10,0.0,0.032053154,0.0,0.0,0.0,0,0,1,0,0,0,2,2,2,2,2,2,2,2,2,2,2,2,2
105560000,6.9849193e-10,0.0,0.032533105,0.0,0.0,0.0,0,0,1,0,0,0,2,2,2,2,2,2,2,2,2,2,2,2,2
105760000,9.313226e-10,0.0,0.031686306,0.0,0.0,0.0,0,0,1,0,0,0,2,2,2,2,2,2,2,2,2,2,2,2,2
105960000,2.2351742e-08,0.0,0.02464459,0.0,0.0,0.0,0,0,1,0,0,0,2,2,2,2,2,2,2,2,2,2,2,2,2
106160000,2.2351742e-08,0.0,-0.0023925751,0.0,0.0,0.0,0,0,1,0,0,0,2,2,2,2,2,2,2,2,2,2,2,2,2
106360000,2.2351742e-08,0.0,-0.039759077,0.0,0.0,0.0,0,0,1,0,0,0,2,2,2,2,2,2,2,2,2,2,2,2,2
106560000,1.1175871e-08,0.0,-0.06812319,0.0,0.0,0.0,0,0,1,0,0,0,2,2,2,2,2,2,2,2,2,2,2,2,2
106760000,5.5879354e-09,0.0,-0.07803523,0.0,0.0,0.0,0,0,1,0,0,0,2,2,2,2,2,2,2,2,2,2,2,2,2
106960000,3.7252903e-09,0.0,-0.070923924,0.0,0.0,0.0,0,0,1,0,0,0,2,2,2,2,2,2,2,2,2,2,2,2,2
107160000,1.8626451e-09,0.0,-0.054269515,0.0,0.0,0.0,0,0,1,0,0,0,2,2,2,2,2,2,2,2,2,2,2,2,2
107360000,1.3969839e-09,0.0,-0.030445244,0.0,0.0,0.0,0,0,1,0,0,0,2,2,2,2,2,2,2,2,2,2,2,2,2
107560000,6.9849193e-10,0.0,-0.009033505,0.0,0.0,0.0,0,0,1,0,0,0,2,2,2,2,2,2,2,2,2,2,2,2,2
107760000,4.656613e-10,0.0,0.0024230927,0.0,0.0,0.0,0,0,1,0,0,0,2,2,2,2,2,2,2,2,2,2,2,2,2
107960000,-2.3283064e-10,0.0,0.004770562,0.0,0.0,0.0,0,0,1,0,0,0,2,2,2,2,2,2,2,2,2,2,2,2,2
108160000,-6.9849193e-10,0.0,0.0014398918,0.0,0.0,0.0,0,0,1,0,0,0,2,2,2,2,2,2,2,2,2,2,2,2,2
108360000,-6.9849193e-10,0.0,-0.002226539,0.0,0.0,0.0,0,0,1,0,0,0,2,2,2,2,2,2,2,2,2,2,2,2,2
108560000,-1.3969839e-09,0.0,-0.0030485056,0.0,0.0,0.0,0,0,1,0,0,0,2,2,2,2,2,2,2,2,2,2,2,2,2
108760000,-2.7939677e-09,0.0,-0.00046904013,0.0,0.0,0.0,0,1,1,0,0,0,2,2,2,2,2,2,2,2,2,2,2,2,2
108960000,-3.7252903e-09,0.0,0.0048610866,0.0,0.0,0.0,0,0,1,0,0,0,2,2,2,2,2,2,2,2,2,2,2,2,2
109160000,-3.7252903e-09,0.0,0.013828151,0.0,0.0,0.0,0,0,1,0,0,0,2,2,2,2,2,2,2,2,2,2,2,2,2
109360000,-5.5879354e-09,0.0,0.022502977,0.0,0.0,0.0,0,0,1,0,0,0,2,2,2,2,2,2,2,2,2,2,2,2,2
109560000,-5.5879354e-09,0.0,0.029530324,0.0,0.0,0.0,0,0,1,0,0,0,2,2,2,2,2,2,2,2,2,2,2,2,2
109760000,-7.450581e-09,0.0,0.033180572,0.0,0.0,0.0,0,0,1,0,0,0,2,2,2,2,2,2,2,2,2,2,2,2,2
109960000,-7.450581e-09,0.0,0.034370553,0.0,0.0,0.0,0,0,1,0,0,0,2,2,2,2,2,2,2,2,2,2,2,2,2
110160000,-7.450581e-09,0.0,0.035217423,0.0,0.0,0.0,0,0,1,0,0,0,2,2,2,2,2,2,2,2,2,2,2,2,2
110360000,-7.450581e-09,0.0,0.036318216,0.0,0.0,0.0,0,0,1,0,0,0,2,2,2,2,2,2,2,2,2,2,2,2,2
110560000,-5.5879354e-09,0.0,0.040071495,0.0,0.0,0.0,0,0,1,0,0,0,2,2,2,2,2,2,2,2,2,2,2,2,2
110760000,-5.5879354e-09,0.0,0.046072323,0.0,0.0,0.0,0,0,1,0,0,0,2,2,2,2,2,2,2,2,2,2,2,2,2
110960000,-5.5879354e-09,0.0,0.05288025,0.0,0.0,0.0,0,0,1,0,0,0,2,2,2,2,2,2,2,2,2,2,2,2,2
111160000,-3.7252903e-09,0.0,0.059939217,0.0,0.0,0.0,0,0,1,0,0,0,2,2,2,2,2,2,2,2,2,2,2,2,2
111360000,-3.7252903e-09,0.0,0.06285055,0.0,0.0,0.0,0,0,1,0,0,0,2,2,2,2,2,2,2,2,2,2,2,2,2
111560000,-2.7939677e-09,0.0,0.055184864,0.0,0.0,0.0,0,0,1,0,0,0,2,2,2,2,2,2,2,2,2,2,2,2,2
111760000,-1.8626451e-09,0.0,0.062213082,0.0,0.0,0.0,0,0,1,0,0,0,2,2,2,2,2,2,2,2,2,2,2,2,2
111960000,-1.3969839e-09,0.0,0.068603426,0.0,0.0,0.0,0,0,1,0,0,0,2,2,2,2,2,2,2,2,2,2,2,2,2
112160000,-3.4924597e-10,0.0,0.07313603,0.0,0.0,0.0,0,0,1,0,0,0,2,2,2,2,2,2,2,2,2,2,2,2,2
112360000,1.7462298e-10,0.0,0.077660725,0.0,0.0,0.0,0,0,1,0,0,0,2,2,2,2,2,2,2,2,2,2,2,2,2
112560000,2.3283064e-10,0.0,0.08124386,0.0,0.0,0.0,0,0,1,0,0,0,2,2,2,2,2,2,2,2,2,2,2,2,2
112760000,1.3969839e-09,0.0,0.08265015,0.0,0.0,0.0,0,0,1,0,0,0,2,2,2,2,2,2,2,2,2,2,2,2,2
112960000,1.3969839e-09,0.0,0.08518641,0.0,0.0,0.0,0,0,1,0,0,0,2,2,2,2,2,2,2,2,2,2,2,2,2
113160000,1.3969839e-09,0.0,0.08541137,0.0,0.0,0.0,0,0,1,0,0,0,2,2,2,2,2,2,2,2,2,2,2,2,2
113360000,1.3969839e-09,0.0,0.08651377,0.0,0.0,0.0,0,0,1,0,0,0,2,2,2,2,2,2,2,2,2,2,2,2,2
113560000,1.8626451e-09,0.0,0.08749929,0.0,0.0,0.0,0,0,1,0,0,0,2,2,2,2,2,2,2,2,2,2,2,2,2
113760000,1.8626451e-09,0.0,0.08582571,0.0,0.0,0.0,0,0,1,0,0,0,2,2,2,2,2,2,2,2,2,2,2,2,2
113960000,1.8626451e-09,0.0,0.08463903,0.0,0.0,0.0,0,0,1,0,0,0,2,2,2,2,2,2,2,2,2,2,2,2,2
114160000,2.7939677e-09,0.0,0.083169155,0.0,0.0,0.0,0,0,1,0,0,0,2,2,2,2,2,2,2,2,2,2,2,2,2
114360000,1.8626451e-09,0.0,0.078268014,0.0,0.0,0.0,0,0,1,0,0,0,2,2,2,2,2,2,2,2,2,2,2,2,2
114560000,2.7939677e-09,0.0,0.078058645,0.0,0.0,0.0,0,0,1,0,0,0,2,2,2,2,2,2,2,2,2,2,2,2,2
114760000,2.7939677e-09,0.0,0.07449147,0.0,0.0,0.0,0,0,1,0,0,0,2,2,2,2,2,2,2,2,2,2,2,2,2
114960000,2.7939677e-09,0.0,0.07134381,0.0,0.0,0.0,0,0,1,0,0,0,2,2,2,2,2,2,2,2,2,2,2,2,2
115160000,2.7939677e-09,0.0,0.06967986,0.0,0.0,0.0,0,0,1,0,0,0,2,2,2,2,2,2,2,2,2,2,2,2,2
115360000,2.7939677e-09,0.0,0.06709926,0.0,0.0,0.0,0,0,1,0,0,0,2,2,2,2,2,2,2,2,2,2,2,2,2
115560000,1.8626451e-09,0.0,0.066704474,0.0,0.0,0.0,0,0,1,0,0,0,2,2,2,2,2,2,2,2,2,2,2,2,2
115760000,2.7939677e-09,0.0,0.063746616,0.0,0.0,0.0,0,0,1,0,0,0,2,2,2,2,2,2,2,2,2,2,2,2,2
115960000,1.8626451e-09,0.0,0.06316275,0.0,0.0,0.0,0,0,1,0,0,0,2,2,2,2,2,2,2,2,2,2,2,2,2
116160000,2.7939677e-09,0.0,0.06022765,0.0,0.0,0.0,0,0,1,0,0,0,2,2,2,2,2,2,2,2,2,2,2,2,2
116360000,1.8626451e-09,0.0,0.05976638,0.0,0.0,0.0,0,0,1,0,0,0,2,2,2,2,2,2,2,2,2,2,2,2,2
116560000,1.3969839e-09,0.0,0.058463357,0.0,0.0,0.0,0,0,1,0,0,0,2,2,2,2,2,2,2,2,2,2,2,2,2
116760000,1.3969839e-09,0.0,0.0572484,0.0,0.0,0.0,0,0,1,0,0,0,2,2,2,2,2,2,2,2,2,2,2,2,2
116960000,1.8626451e-09,0.0,0.0561589,0.0,0.0,0.0,0,0,1,0,0,0,2,2,2,2,2,2,2,2,2,2,2,2,2
117160000,1.3969839e-09,0.0,0.05473724,0.0,0.0,0.0,0,0,1,0,0,0,2,2,2,2,2,2,2,2,2,2,2,2,2
117360000,1.8626451e-09,0.0,0.0533493,0.0,0.0,0.0,0,0,1,0,0,0,2,2,2,2,2,2,2,2,2,2,2,2,2
117560000,1.8626451e-09,0.0,0.0541485,0.0,0.0,0.0,0,0,1,0,0,0,2,2,2,2,2,2,2,2,2,2,2,2,2
117760000,1.3969839e-09,0.0,0.05500085,0.0,0.0,0.0,0,0,1,0,0,0,2,2,2,2,2,2,2,2,2,2,2,2,2
117960000,1.8626451e-09,0.0,0.054180164,0.0,0.0,0.0,0,0,1,0,0,0,2,2,2,2,2,2,2,2,2,2,2,2,2
118160000,9.313226e-10,0.0,0.053668715,0.0,0.0,0.0,0,0,1,0,0,0,2,2,2,2,2,2,2,2,2,2,2,2,2
118360000,1.3969839e-09,0.0,0.053640828,0.0,0.0,0.0,0,0,1,0,0,0,2,2,2,2,2,2,2,2,2,2,2,2,2
118560000,1.3969839e-09,0.0,0.05289144,0.0,0.0,0.0,0,0,1,0,0,0,2,2,2,2,2,2,2,2,2,2,2,2,2
118760000,9.313226e-10,0.0,0.051946707,0.0,0.0,0.0,0,0,1,0,0,0,2,2,2,2,2,2,2,2,2,2,2,2,2
118960000,9.313226e-10,0.0,0.052119233,0.0,0.0,0.0,0,0,1,0,0,0,2,2,2,2,2,2,2,2,2,2,2,2,2
119160000,1.3969839e-09,0.0,0.05238044,0.0,0.0,0.0,0,0,1,0,0,0,2,2,2,2,2,2,2,2,2,2,2,2,2
119360000,9.313226e-10,0.0,0.05180515,0.0,0.0,0.0,0,0,1,0,0,0,2,2,2,2,2,2,2,2,2,2,2,2,2
119560000,1.3969839e-09,0.0,0.052086305,0.0,0.0,0.0,0,0,1,0,0,0,2,2,2,2,2,2,2,2,2,2,2,2,2
119760000,9.313226e-10,0.0,0.052407425,0.0,0.0,0.0,0,0,1,0,0,0,2,2,2,2,2,2,2,2,2,2,2,2,2
119960000,9.313226e-10,0.0,0.052547585,0.0,0.0,0.0,0,0,1,0,0,0,2,2,2,2,2,2,2,2,2,2,2,2,2
120160000,9.313226e-10,0.0,0.05284816,0.0,0.0,0.0,0,0,1,0,0,0,2,2,2,2,2,2,2,2,2,2,2,2,2
120360000,4.656613e-10,0.0,0.05302237,0.0,0.0,0.0,0,0,1,0,0,0,2,2,2,2,2,2,2,2,2,2,2,2,2
120560000,1.3969839e-09,0.0,0.05303959,0.0,0.0,0.0,0,0,1,0,0,0,2,2,2,2,2,2,2,2,2,2,2,2,2
120760000,2.7939677e-09,0.0,0.050993454,0.0,0.0,0.0,0,0,1,0,0,0,2,2,2,2,2,2,2,2,2,2,2,2,2
120960000,2.7939677e-09,0.0,0.048408367,0.0,0.0,0.0,0,0,1,0,0,0,2,2,2,2,2,2,2,2,2,2,2,2,2
121160000,2.7939677e-09,0.0,0.044102743,0.0,0.0,0.0,0,0,1,0,0,0,2,2,2,2,2,2,2,2,2,2,2,2,2
121360000,2.7939677e-09,0.0,0.04254532,0.0,0.0,0.0,0,0,1,0,0,0,2,2,2,2,2,2,2,2,2,2,2,2,2
121560000,1.8626451e-09,0.0,0.039715998,0.0,0.0,0.0,0,0,1,0,0,0,2,2,2,2,2,2,2,2,2,2,2,2,2
121760000,1.8626451e-09,0.0,0.03769816,0.0,0.0,0.0,0,0,1,0,0,0,2,2,2,2,2,2,2,2,2,2,2,2,2
121960000,1.8626451e-09,0.0,0.036341053,0.0,0.0,0.0,0,0,1,0,0,0,2,2,2,2,2,2,2,2,2,2,2,2,2
122160000,1.8626451e-09,0.0,0.03502898,0.0,0.0,0.0,0,0,1,0,0,0,2,2,2,2,2,2,2,2,2,2,2,2,2
122360000,9.313226e-10,0.0,0.03433909,0.0,0.0,0.0,0,0,1,0,0,0,2,2,2,2,2,2,2,2,2,2,2,2,2
122560000,9.313226e-10,0.0,0.033722244,0.0,0.0,0.0,0,0,1,0,0,0,2,2,2,2,2,2,2,2,2,2,2,2,2
122760000,9.313226e-10,0.0,0.033757128,0.0,0.0,0.0,0,0,1,0,0,0,2,2,2,2,2,2,2,2,2,2,2,2,2
122960000,3.4924597e-10,0.0,0.03302134,0.0,0.0,0.0,0,0,1,0,0,0,2,2,2,2,2,2,2,2,2,2,2,2,2
123160000,6.9849193e-10,0.0,0.034222852,0.0,0.0,0.0,0,0,1,0,0,0,2,2,2,2,2,2,2,2,2,2,2,2,2
123360000,4.656613e-10,0.0,0.03496499,0.0,0.0,0.0,0,0,1,0,0,0,2,2,2,2,2,2,2,2,2,2,2,2,2
123560000,2.3283064e-10,0.0,0.036002055,0.0,0.0,0.0,0,0,1,0,0,0,2,2,2,2,2,2,2,2,2,2,2,2,2
123760000,2.910383e-11,0.0,0.037094414,0.0,0.0,0.0,0,0,1,0,0,0,2,2,2,2,2,2,2,2,2,2,2,2,2
123960000,6.9849193e-10,0.0,0.038644087,0.0,0.0,0.0,0,0,1,0,0,0,2,2,2,2,2,2,2,2,2,2,2,2,2
124160000,4.656613e-10,0.0,0.039611913,0.0,0.0,0.0,0,0,1,0,0,0,2,2,2,2,2,2,2,2,2,2,2,2,2
124360000,1.7462298e-10,0.0,0.040962733,0.0,0.0,0.0,0,0,1,0,0,0,2,2,2,2,2,2,2,2,2,2,2,2,2
124560000,-4.656613e-10,0.0,0.041941617,0.0,0.0,0.0,0,0,1,0,0,0,2,2,2,2,2,2,2,2,2,2,2,2,2
124760000,3.4924597e-10,0.0,0.04303953,0.0,0.0,0.0,0,0,1,0,0,0,2,2,2,2,2,2,2,2,2,2,2,2,2
124960000,1.7462298e-10,0.0,0.044243786,0.0,0.0,0.0,0,0,1,0,0,0,2,2,2,2,2,2,2,2,2,2,2,2,2
125160000,4.656613e-10,0.0,0.045539223,0.0,0.0,0.0,0,0,1,0,0,0,2,2,2,2,2,2,2,2,2,2,2,2,2
125360000,2.3283064e-10,0.0,0.046201408,0.0,0.0,0.0,0,0,1,0,0,0,2,2,2,2,2,2,2,2,2,2,2,2,2
125560000,3.4924597e-10,0.0,0.04792109,0.0,0.0,0.0,0,0,1,0,0,0,2,2,2,2,2,2,2,2,2,2,2,2,2
125760000,4.656613e-10,0.0,0.04763883,0.0,0.0,0.0,0,0,1,0,0,0,2,2,2,2,2,2,2,2,2,2,2,2,2
125960000,9.313226e-10,0.0,0.04882728,0.0,0.0,0.0,0,0,1,0,0,0,2,2,2,2,2,2,2,2,2,2,2,2,2
126160000,3.4924597e-10,0.0,0.049027156,0.0,0.0,0.0,0,0,1,0,0,0,2,2,2,2,2,2,2,2,2,2,2,2,2
126360000,3.4924597e-10,0.0,0.05096975,0.0,0.0,0.0,0,0,1,0,0,0,2,2,2,2,2,2,2,2,2,2,2,2,2
126560000,4.656613e-10,0.0,0.050279684,0.0,0.0,0.0,0,0,1,0,0,0,2,2,2,2,2,2,2,2,2,2,2,2,2
126760000,9.313226e-10,0.0,0.0512344,0.0,0.0,0.0,0,0,1,0,0,0,2,2,2,2,2,2,2,2,2,2,2,2,2
126960000,9.313226e-10,0.0,0.0514953,0.0,0.0,0.0,0,0,1,0,0,0,2,2,2,2,2,2,2,2,2,2,2,2,2
127160000,9.313226e-10,0.0,0.05206926,0.0,0.0,0.0,0,0,1,0,0,0,2,2,2,2,2,2,2,2,2,2,2,2,2
127360000,9.313226e-10,0.0,0.05143389,0.0,0.0,0.0,0,0,1,0,0,0,2,2,2,2,2,2,2,2,2,2,2,2,2
127560000,4.656613e-10,0.0,0.053008683,0.0,0.0,0.0,0,0,1,0,0,0,2,2,2,2,2,2,2,2,2,2,2,2,2
127760000,9.313226e-10,0.0,0.052078012,0.0,0.0,0.0,0,0,1,0,0,0,2,2,2,2,2,2,2,2,2,2,2,2,2
127960000,6.9849193e-10,0.0,0.05131887,0.0,0.0,0.0,0,0,1,0,0,0,2,2,2,2,2,2,2,2,2,2,2,2,2
128160000,6.9849193e-10,0.0,0.051510982,0.0,0.0,0.0,0,0,1,0,0,0,2,2,2,2,2,2,2,2,2,2,2,2,2
128360000,1.3969839e-09,0.0,0.05155361,0.0,0.0,0.0,0,0,1,0,0,0,2,2,2,2,2,2,2,2,2,2,2,2,2
128560000,1.3969839e-09,0.0,0.051538967,0.0,0.0,0.0,0,0,1,0,0,0,2,2,2,2,2,2,2,2,2,2,2,2,2
128760000,9.313226e-10,0.0,0.05281042,0.0,0.0,0.0,0,0,1,0,0,0,2,2,2,2,2,2,2,2,2,2,2,2,2
128960000,9.313226e-10,0.0,0.051629983,0.0,0.0,0.0,0,0,1,0,0,0,2,2,2,2,2,2,2,2,2,2,2,2,2
129160000,6.9849193e-10,0.0,0.052189298,0.0,0.0,0.0,0,0,1,0,0,0,2,2,2,2,2,2,2,2,2,2,2,2,2
129360000,1.3969839e-09,0.0,0.052055094,0.0,0.0,0.0,0,0,1,0,0,0,2,2,2,2,2,2,2,2,2,2,2,2,2
129560000,9.313226e-10,0.0,0.05198172,0.0,0.0,0.0,0,0,1,0,0,0,2,2,2,2,2,2,2,2,2,2,2,2,2
129760000,9.313226e-10,0.0,0.051413596,0.0,0.0,0.0,0,0,1,0,0,0,2,2,2,2,2,2,2,2,2,2,2,2,2
129960000,9.313226e-10,0.0,0.05156325,0.0,0.0,0.0,0,0,1,0,0,0,2,2,2,2,2,2,2,2,2,2,2,2,2
130160000,1.3969839e-09,0.0,0.050924845,0.0,0.0,0.0,0,0,1,0,0,0,2,2,2,2,2,2,2,2,2,2,2,2,2
130360000,6.9849193e-10,0.0,0.05086026,0.0,0.0,0.0,0,0,1,0,0,0,2,2,2,2,2,2,2,2,2,2,2,2,2
130560000,-1.4901161e-08,0.0,0.06279035,0.0,0.0,0.0,0,0,1,0,0,0,2,2,2,2,2,2,2,2,2,2,2,2,2
130760000,-2.2351742e-08,0.0,0.0980321,0.0,0.0,0.0,0,0,1,0,0,0,2,2,2,2,2,2,2,2,2,2,2,2,2
130960000,-1.1175871e-08,0.0,0.14202616,0.0,0.0,0.0,0,0,1,0,0,0,2,2,2,2,2,2,2,2,2,2,2,2,2
131160000,-5.5879354e-09,0.0,0.16911557,0.0,0.0,0.0,0,0,1,0,0,0,2,2,2,2,2,2,2,2,2,2,2,2,2
131360000,-1.8626451e-09,0.0,0.17782225,0.0,0.0,0.0,0,0,1,0,0,0,2,2,2,2,2,2,2,2,2,2,2,2,2
131560000,9.313226e-10,0.0,0.17607726,0.0,0.0,0.0,0,0,1,0,0,0,2,2,2,2,2,2,2,2,2,2,2,2,2
131760000,1.8626451e-09,0.0,0.16334191,0.0,0.0,0.0,0,0,1,0,0,0,2,2,2,2,2,2,2,2,2,2,2,2,2
131960000,2.7939677e-09,0.0,0.14188105,0.0,0.0,0.0,0,0,1,0,0,0,2,2,2,2,2,2,2,2,2,2,2,2,2
132160000,3.7252903e-09,0.0,0.121724576,0.0,0.0,0.0,0,0,1,0,0,0,2,2,2,2,2,2,2,2,2,2,2,2,2
132360000,5.5879354e-09,0.0,0.10985844,0.0,0.0,0.0,0,0,1,0,0,0,2,2,2,2,2,2,2,2,2,2,2,2,2
132560000,5.5879354e-09,0.0,0.10233192,0.0,0.0,0.0,0,0,1,0,0,0,2,2,2,2,2,2,2,2,2,2,2,2,2
132760000,5.5879354e-09,0.0,0.10416603,0.0,0.0,0.0,0,0,1,0,0,0,2,2,2,2,2,2,2,2,2,2,2,2,2
132960000,5.5879354e-09,0.0,0.10750866,0.0,0.0,0.0,0,0,1,0,0,0,2,2,2,2,2,2,2,2,2,2,2,2,2
133160000,5.5879354e-09,0.0,0.109001964,0.0,0.0,0.0,0,0,1,0,0,0,2,2,2,2,2,2,2,2,2,2,2,2,2
133360000,5.5879354e-09,0.0,0.105937764,0.0,0.0,0.0,0,0,1,0,0,0,2,2,2,2,2,2,2,2,2,2,2,2,2
133560000,5.5879354e-09,0.0,0.09815215,0.0,0.0,0.0,0,0,1,0,0,0,2,2,2,2,2,2,2,2,2,2,2,2,2
133760000,5.5879354e-09,0.0,0.08848122,0.0,0.0,0.0,0,0,1,0,0,0,2,2,2,2,2,2,2,2,2,2,2,2,2
133960000,7.450581e-09,0.0,0.07690974,0.0,0.0,0.0,0,0,1,0,0,0,2,2,2,2,2,2,2,2,2,2,2,2,2
134160000,7.450581e-09,0.0,0.06591325,0.0,0.0,0.0,0,0,1,0,0,0,2,2,2,2,2,2,2,2,2,2,2,2,2
134360000,7.450581e-09,0.0,0.058035545,0.0,0.0,0.0,0,0,1,0,0,0,2,2,2,2,2,2,2,2,2,2,2,2,2
134560000,7.450581e-09,0.0,0.05287163,0.0,0.0,0.0,0,0,1,0,0,0,2,2,2,2,2,2,2,2,2,2,2,2,2
134760000,5.5879354e-09,0.0,0.04794133,0.0,0.0,0.0,0,0,1,0,0,0,2,2,2,2,2,2,2,2,2,2,2,2,2
134960000,5.5879354e-09,0.0,0.04323346,0.0,0.0,0.0,0,0,1,0,0,0,2,2,2,2,2,2,2,2,2,2,2,2,2
135160000,5.5879354e-09,0.0,0.037025258,0.0,0.0,0.0,0,0,1,0,0,0,2,2,2,2,2,2,2,2,2,2,2,2,2
135360000,5.5879354e-09,0.0,0.032166347,0.0,0.0,0.0,0,0,1,0,0,0,2,2,2,2,2,2,2,2,2,2,2,2,2
135560000,5.5879354e-09,0.0,0.025918137,0.0,0.0,0.0,0,0,1,0,0,0,2,2,2,2,2,2,2,2,2,2,2,2,2
135760000,3.7252903e-09,0.0,0.019871334,0.0,0.0,0.0,0,0,1,0,0,0,2,2,2,2,2,2,2,2,2,2,2,2,2
135960000,3.7252903e-09,0.0,0.013383721,0.0,0.0,0.0,0,0,1,0,0,0,2,2,2,2,2,2,2,2,2,2,2,2,2
136160000,3.7252903e-09,0.0,0.007530926,0.0,0.0,0.0,0,0,1,0,0,0,2,2,2,2,2,2,2,2,2,2,2,2,2
136360000,3.7252903e-09,0.0,0.006927504,0.0,0.0,0.0,0,0,1,0,0,0,2,2,2,2,2,2,2,2,2,2,2,2,2
136560000,2.7939677e-09,0.0,0.009207222,0.0,0.0,0.0,0,0,1,0,0,0,2,2,2,2,2,2,2,2,2,2,2,2,2
136760000,2.7939677e-09,0.0,0.005582888,0.0,0.0,0.0,0,0,1,0,0,0,2,2,2,2,2,2,2,2,2,2,2,2,2
136960000,2.7939677e-09,0.0,0.003283244,0.0,0.0,0.0,0,0,1,0,0,0,2,2,2,2,2,2,2,2,2,2,2,2,2
137160000,-1.4901161e-08,0.0,0.006316783,0.0,0.0,0.0,0,0,1,0,0,0,2,2,2,2,2,2,2,2,2,2,2,2,2
137360000,-2.2351742e-08,0.0,0.040146347,0.0,0.0,0.0,0,0,1,0,0,0,2,2,2,2,2,2,2,2,2,2,2,2,2
137560000,-2.9802322e-08,0.0,0.09276892,0.0,0.0,0.0,0,0,1,0,0,0,2,2,2,2,2,2,2,2,2,2,2,2,2
137760000,-1.1175871e-08,0.0,0.14116977,0.0,0.0,0.0,0,0,1,0,0,0,2,2,2,2,2,2,2,2,2,2,2,2,2
137960000,-5.5879354e-09,0.0,0.16562232,0.0,0.0,0.0,0,0,1,0,0,0,2,2,2,2,2,2,2,2,2,2,2,2,2
138160000,-1.8626451e-09,0.0,0.17028368,0.0,0.0,0.0,0,0,1,0,0,0,2,2,2,2,2,2,2,2,2,2,2,2,2
138360000,1.1641532e-10,0.0,0.15483531,0.0,0.0,0.0,0,0,1,0,0,0,2,2,2,2,2,2,2,2,2,2,2,2,2
138560000,1.3969839e-09,0.0,0.11367127,0.0,0.0,0.0,0,0,1,0,0,0,2,2,2,2,2,2,2,2,2,2,2,2,2
138760000,1.8626451e-09,0.0,0.08926941,0.0,0.0,0.0,0,0,1,0,0,0,2,2,2,2,2,2,2,2,2,2,2,2,2
138960000,2.7939677e-09,0.0,0.06659357,0.0,0.0,0.0,0,0,1,0,0,0,2,2,2,2,2,2,2,2,2,2,2,2,2
139160000,3.7252903e-09,0.0,0.054434955,0.0,0.0,0.0,0,0,1,0,0,0,2,2,2,2,2,2,2,2,2,2,2,2,2
139360000,3.7252903e-09,0.0,0.061617963,0.0,0.0,0.0,0,0,1,0,0,0,2,2,2,2,2,2,2,2,2,2,2,2,2
139560000,3.7252903e-09,0.0,0.07819414,0.0,0.0,0.0,0,0,1,0,0,0,2,2,2,2,2,2,2,2,2,2,2,2,2
139760000,5.5879354e-09,0.0,0.08566449,0.0,0.0,0.0,0,0,1,0,0,0,2,2,2,2,2,2,2,2,2,2,2,2,2
139960000,5.5879354e-09,0.0,0.08598896,0.0,0.0,0.0,0,0,1,0,0,0,2,2,2,2,2,2,2,2,2,2,2,2,2
140160000,5.5879354e-09,0.0,0.079650044,0.0,0.0,0.0,0,0,1,0,0,0,2,2,2,2,2,2,2,2,2,2,2,2,2
140360000,5.5879354e-09,0.0,0.0693528,0.0,0.0,0.0,0,0,1,0,0,0,2,2,2,2,2,2,2,2,2,2,2,2,2
140560000,5.5879354e-09,0.0,0.053247605,0.0,0.0,0.0,0,0,1,0,0,0,2,2,2,2,2,2,2,2,2,2,2,2,2
140760000,5.5879354e-09,0.0,0.038476378,0.0,0.0,0.0,0,0,1,0,0,0,2,2,2,2,2,2,2,2,2,2,2,2,2
140960000,7.450581e-09,0.0,0.025719479,0.0,0.0,0.0,0,0,1,0,0,0,2,2,2,2,2,2,2,2,2,2,2,2,2
141160000,5.5879354e-09,0.0,0.015880276,0.0,0.0,0.0,0,0,1,0,0,0,2,2,2,2,2,2,2,2,2,2,2,2,2
141360000,7.450581e-09,0.0,0.009143867,0.0,0.0,0.0,0,0,1,0,0,0,2,2,2,2,2,2,2,2,2,2,2,2,2
141560000,5.5879354e-09,0.0,0.0037733428,0.0,0.0,0.0,0,0,1,0,0,0,2,2,2,2,2,2,2,2,2,2,2,2,2
141760000,5.5879354e-09,0.0,-0.0012963116,0.0,0.0,0.0,0,0,1,0,0,0,2,2,2,2,2,2,2,2,2,2,2,2,2
141960000,5.5879354e-09,0.0,-0.007638322,0.0,0.0,0.0,0,0,1,0,0,0,2,2,2,2,2,2,2,2,2,2,2,2,2
142160000,5.5879354e-09,0.0,-0.015039852,0.0,0.0,0.0,0,0,1,0,0,0,2,2,2,2,2,2,2,2,2,2,2,2,2
142360000,5.5879354e-09,0.0,-0.023135064,0.0,0.0,0.0,0,0,1,0,0,0,2,2,2,2,2,2,2,2,2,2,2,2,2
142560000,3.7252903e-09,0.0,-0.030308278,0.0,0.0,0.0,0,0,1,0,0,0,2,2,2,2,2,2,2,2,2,2,2,2,2
142760000,3.7252903e-09,0.0,-0.037975572,0.0,0.0,0.0,0,0,1,0,0,0,2,2,2,2,2,2,2,2,2,2,2,2,2
142960000,3.7252903e-09,0.0,-0.039838165,0.0,0.0,0.0,0,0,1,0,0,0,2,2,2,2,2,2,2,2,2,2,2,2,2
143160000,2.7939677e-09,0.0,-0.03812456,0.0,0.0,0.0,0,0,1,0,0,0,2,2,2,2,2,2,2,2,2,2,2,2,2
143360000,2.7939677e-09,0.0,-0.04201347,0.0,0.0,0.0,0,0,1,0,0,0,2,2,2,2,2,2,2,2,2,2,2,2,2
143560000,1.8626451e-09,0.0,-0.04485636,0.0,0.0,0.0,0,0,1,0,0,0,2,2,2,2,2,2,2,2,2,2,2,2,2
143760000,1.8626451e-09,0.0,-0.047793858,0.0,0.0,0.0,0,0,1,0,0,0,2,2,2,2,2,2,2,2,2,2,2,2,2
143960000,9.313226e-10,0.0,-0.049814448,0.0,0.0,0.0,0,0,1,0,0,0,2,2,2,2,2,2,2,2,2,2,2,2,2
144160000,9.313226e-10,0.0,-0.051464207,0.0,0.0,0.0,0,0,1,0,0,0,2,2,2,2,2,2,2,2,2,2,2,2,2
144360000,6.9849193e-10,0.0,-0.05222837,0.0,0.0,0.0,0,0,1,0,0,0,2,2,2,2,2,2,2,2,2,2,2,2,2
144560000,5.820766e-11,0.0,-0.05267226,0.0,0.0,0.0,0,0,1,0,0,0,2,2,2,2,2,2,2,2,2,2,2,2,2
144760000,3.4924597e-10,0.0,-0.05603806,0.0,0.0,0.0,0,0,1,0,0,0,2,2,2,2,2,2,2,2,2,2,2,2,2
144960000,-1.7462298e-10,0.0,-0.055685222,0.0,0.0,0.0,0,0,1,0,0,0,2,2,2,2,2,2,2,2,2,2,2,2,2
145160000,3.4924597e-10,0.0,-0.055624664,0.0,0.0,0.0,0,0,1,0,0,0,2,2,2,2,2,2,2,2,2,2,2,2,2
145360000,-4.656613e-10,0.0,-0.05346553,0.0,0.0,0.0,0,0,1,0,0,0,2,2,2,2,2,2,2,2,2,2,2,2,2
145560000,5.820766e-11,0.0,-0.051538184,0.0,0.0,0.0,0,0,1,0,0,0,2,2,2,2,2,2,2,2,2,2,2,2,2
145760000,-6.9849193e-10,0.0,-0.050714836,0.0,0.0,0.0,0,0,1,0,0,0,2,2,2,2,2,2,2,2,2,2,2,2,2
145960000,-6.9849193e-10,0.0,-0.047557175,0.0,0.0,0.0,0,0,1,0,0,0,2,2,2,2,2,2,2,2,2,2,2,2,2
146160000,-2.3283064e-10,0.0,-0.045199588,0.0,0.0,0.0,0,0,1,0,0,0,2,2,2,2,2,2,2,2,2,2,2,2,2
146360000,-4.656613e-10,0.0,-0.04335525,0.0,0.0,0.0,0,0,1,0,0,0,2,2,2,2,2,2,2,2,2,2,2,2,2
146560000,-1.0913936e-11,0.0,-0.04125978,0.0,0.0,0.0,0,0,1,0,0,0,2,2,2,2,2,2,2,2,2,2,2,2,2
146760000,-3.4924597e-10,0.0,-0.039733037,0.0,0.0,0.0,0,0,1,0,0,0,2,2,2,2,2,2,2,2,2,2,2,2,2
146960000,-6.9849193e-10,0.0,-0.03850171,0.0,0.0,0.0,0,0,1,0,0,0,2,2,2,2,2,2,2,2,2,2,2,2,2
147160000,-4.656613e-10,0.0,-0.037246723,0.0,0.0,0.0,0,0,1,0,0,0,2,2,2,2,2,2,2,2,2,2,2,2,2
147360000,-3.4924597e-10,0.0,-0.036139842,0.0,0.0,0.0,0,0,1,0,0,0,2,2,2,2,2,2,2,2,2,2,2,2,2
147560000,-1.1641532e-10,0.0,-0.035979167,0.0,0.0,0.0,0,0,1,0,0,0,2,2,2,2,2,2,2,2,2,2,2,2,2
147760000,-3.4924597e-10,0.0,-0.034922183,0.0,0.0,0.0,0,0,1,0,0,0,2,2,2,2,2,2,2,2,2,2,2,2,2
147960000,-6.9849193e-10,0.0,-0.03360345,0.0,0.0,0.0,0,0,1,0,0,0,2,2,2,2,2,2,2,2,2,2,2,2,2
148160000,3.4924597e-10,0.0,-0.032939356,0.0,0.0,0.0,0,0,1,0,0,0,2,2,2,2,2,2,2,2,2,2,2,2,2
148360000,-4.656613e-10,0.0,-0.031698495,0.0,0.0,0.0,0,0,1,0,0,0,2,2,2,2,2,2,2,2,2,2,2,2,2
148560000,-2.3283064e-10,0.0,-0.030416202,0.0,0.0,0.0,0,0,1,0,0,0,2,2,2,2,2,2,2,2,2,2,2,2,2
148760000,1.1641532e-10,0.0,-0.029351989,0.0,0.0,0.0,0,0,1,0,0,0,2,2,2,2,2,2,2,2,2,2,2,2,2
148960000,-2.3283064e-10,0.0,-0.029759966,0.0,0.0,0.0,0,0,1,0,0,0,2,2,2,2,2,2,2,2,2,2,2,2,2
149160000,1.1641532e-10,0.0,-0.030213982,0.0,0.0,0.0,0,0,1,0,0,0,2,2,2,2,2,2,2,2,2,2,2,2,2
149360000,-2.1827873e-11,0.0,-0.029542865,0.0,0.0,0.0,0,0,1,0,0,0,2,2,2,2,2,2,2,2,2,2,2,2,2
149560000,-1.1641532e-10,0.0,-0.02934696,0.0,0.0,0.0,0,0,1,0,0,0,2,2,2,2,2,2,2,2,2,2,2,2,2
149760000,3.4924597e-10,0.0,-0.029073069,0.0,0.0,0.0,0,0,1,0,0,0,2,2,2,2,2,2,2,2,2,2,2,2,2
149960000,-8.731149e-11,0.0,-0.02872245,0.0,0.0,0.0,0,0,1,0,0,0,2,2,2,2,2,2,2,2,2,2,2,2,2
150160000,-5.820766e-11,0.0,-0.028419355,0.0,0.0,0.0,0,0,1,0,0,0,2,2,2,2,2,2,2,2,2,2,2,2,2
150360000,4.656613e-10,0.0,-0.028186267,0.0,0.0,0.0,0,0,1,0,0,0,2,2,2,2,2,2,2,2,2,2,2,2,2
150560000,1.1641532e-10,0.0,-0.027406804,0.0,0.0,0.0,0,0,1,0,0,0,2,2,2,2,2,2,2,2,2,2,2,2,2
150760000,1.1641532e-10,0.0,-0.027422834,0.0,0.0,0.0,0,0,1,0,0,0,2,2,2,2,2,2,2,2,2,2,2,2,2
150960000,2.910383e-11,0.0,-0.027105562,0.0,0.0,0.0,0,0,1,0,0,0,2,2,2,2,2,2,2,2,2,2,2,2,2
151160000,4.656613e-10,0.0,-0.027384544,0.0,0.0,0.0,0,0,1,0,0,0,2,2,2,2,2,2,2,2,2,2,2,2,2
151360000,6.9849193e-10,0.0,-0.02754667,0.0,0.0,0.0,0,0,1,0,0,0,2,2,2,2,2,2,2,2,2,2,2,2,2
151560000,6.9849193e-10,0.0,-0.027630711,0.0,0.0,0.0,0,0,1,0,0,0,2,2,2,2,2,2,2,2,2,2,2,2,2
151760000,2.3283064e-10,0.0,-0.027523072,0.0,0.0,0.0,0,0,1,0,0,0,2,2,2,2,2,2,2,2,2,2,2,2,2
151960000,-2.910383e-11,0.0,-0.028131658,0.0,0.0,0.0,0,0,1,0,0,0,2,2,2,2,2,2,2,2,2,2,2,2,2
152160000,2.3283064e-10,0.0,-0.02794909,0.0,0.0,0.0,0,0,1,0,0,0,2,2,2,2,2,2,2,2,2,2,2,2,2
152360000,-2.3283064e-10,0.0,-0.028369863,0.0,0.0,0.0,0,0,1,0,0,0,2,2,2,2,2,2,2,2,2,2,2,2,2
152560000,3.4924597e-10,0.0,-0.027846012,0.0,0.0,0.0,0,0,1,0,0,0,2,2,2,2,2,2,2,2,2,2,2,2,2
152760000,6.9849193e-10,0.0,-0.028159048,0.0,0.0,0.0,0,0,1,0,0,0,2,2,2,2,2,2,2,2,2,2,2,2,2
152960000,-4.3655746e-11,0.0,-0.028233679,0.0,0.0,0.0,0,0,1,0,0,0,2,2,2,2,2,2,2,2,2,2,2,2,2
153160000,-4.3655746e-11,0.0,-0.02816181,0.0,0.0,0.0,0,0,1,0,0,0,2,2,2,2,2,2,2,2,2,2,2,2,2
153360000,-4.3655746e-11,0.0,-0.027519874,0.0,0.0,0.0,0,0,1,0,0,0,2,2,2,2,2,2,2,2,2,2,2,2,2
153560000,2.3283064e-10,0.0,-0.028720165,0.0,0.0,0.0,0,0,1,0,0,0,2,2,2,2,2,2,2,2,2,2,2,2,2
