timestamp,timestamp_sample,hover_thrust,hover_thrust_var,accel_innov,accel_innov_var,accel_innov_test_ratio,accel_noise_var,valid
64332000,64332000,0.53519255,0.00017201604,-0.09410894,3.9701805,0.00024786143,3.894348,0
64340000,64340000,0.5353462,0.00016936287,-0.18761402,3.955374,0.0009887819,3.8791168,0
64428000,64428000,0.53619254,0.0001446059,-0.06946851,3.780886,0.0001418208,3.7149172,0
64532000,64532000,0.5370218,0.00012255106,-0.042839415,3.5858948,5.6865258e-05,3.5294313,0
64628000,64628000,0.5372553,0.000106788204,0.061555028,3.4172153,0.00012320043,3.3665166,0
64732000,64732000,0.53673005,9.324934e-05,0.119730026,3.2436855,0.0004910491,3.1992078,0
64828000,64828000,0.53719807,8.305211e-05,-0.20941667,3.0924797,0.0015756986,3.051559,0
64932000,64932000,0.5383004,7.386983e-05,-0.051725168,2.936189,0.00010124587,2.8994048,0
65028000,65028000,0.5388037,6.671089e-05,-0.08199366,2.799176,0.00026686268,2.765041,0
65132000,65132000,0.5392095,6.0115264e-05,-0.080872744,2.6572058,0.00027348698,2.626342,0
65228000,65228000,0.53973866,5.4857435e-05,-0.06295091,2.5334096,0.00017380255,2.50454,0
65332000,65332000,0.5401033,4.9914946e-05,-0.061712198,2.405204,0.0001759331,2.3788743,0
65428000,65428000,0.5404042,4.5904133e-05,-0.04557643,2.2933848,0.000100637815,2.268628,0
65532000,65532000,0.54070234,4.2077398e-05,0.0035247728,2.1774807,6.339652e-07,2.1548045,0
65628000,65628000,0.5410264,3.8931692e-05,-0.15301718,2.0762222,0.0012530375,2.0547976,0
65732000,65732000,0.5412744,3.5892277e-05,0.0011040047,1.9714425,6.869343e-08,1.9517025,0
65828000,65828000,0.54154974,3.336511e-05,-0.049824223,1.8797233,0.00014673869,1.8609921,0
65932000,65932000,0.54172117,3.090012e-05,0.031290226,1.7848798,6.0948903e-05,1.7676221,1
66028000,66028000,0.5420838,2.8834564e-05,-0.118184574,1.7020055,0.0009118389,1.6855476,1
66132000,66132000,0.5423733,2.6801872e-05,0.020676471,1.6160872,2.9393112e-05,1.6008599,1
66228000,66228000,0.54255563,2.5086178e-05,-0.06797543,1.5410095,0.0003331625,1.5264741,1
66332000,66332000,0.5428021,2.3390221e-05,0.06751206,1.463386,0.00034606783,1.4499735,1
66436000,66436000,0.54299676,2.1837692e-05,-0.065152034,1.3899772,0.0003393171,1.3771738,1
66532000,66532000,0.5431615,2.0524021e-05,0.0044420864,1.3251543,1.6544934e-06,1.3132032,1
66628000,66628000,0.5433292,1.9304587e-05,-0.014631137,1.2637079,1.8822053e-05,1.2522764,1
66732000,66732000,0.5435676,1.8086661e-05,0.003314673,1.2001079,1.0172287e-06,1.1894625,1
66828000,66828000,0.5437691,1.7042812e-05,-0.051853534,1.1444339,0.0002610499,1.1342309,1
66932000,66932000,0.5438469,1.5997424e-05,0.03304154,1.0868375,0.000111612644,1.0773568,1
67028000,67028000,0.54399294,1.5098919e-05,-0.024408713,1.0364403,6.3870895e-05,1.0273316,1
67132000,67132000,0.54420435,1.4198999e-05,0.008512296,1.0046277,8.013934e-06,1.0,1
67228000,67228000,0.5443294,1.3453223e-05,-0.034159888,1.0044606,0.00012907956,1.0,1
67332000,67332000,0.5445706,1.2732286e-05,0.016546138,1.0041441,3.029387e-05,1.0,1
67428000,67428000,0.5446866,1.2131644e-05,-0.042514626,1.0040195,0.00020002857,1.0,1
67532000,67532000,0.5448033,1.154514e-05,0.013992451,1.0037428,2.1673179e-05,1.0,1
67628000,67628000,0.5447997,1.1053111e-05,-0.02157161,1.0036399,5.15163e-05,1.0,1
67732000,67732000,0.5449143,1.05677e-05,0.04611145,1.0034127,0.00023544824,1.0,1
67828000,67828000,0.54506034,1.0155653e-05,-0.04529213,1.0033474,0.00022717037,1.0,1
67932000,67932000,0.54515904,9.745825e-06,-0.010822918,1.0031481,1.2974218e-05,1.0,1
68028000,68028000,0.54529047,9.395721e-06,-0.09728126,1.0030957,0.0010482708,1.0,1
68132000,68132000,0.5453356,9.0456415e-06,0.08886866,1.002919,0.0008749615,1.0,1
68228000,68228000,0.54549605,8.744613e-06,-0.020938318,1.0028826,4.8572558e-05,1.0,1
68332000,68332000,0.54555273,8.441853e-06,-0.0044851284,1.0027233,2.2290824e-06,1.0,1
68428000,68428000,0.5456172,8.180826e-06,-0.021929648,1.002688,5.3291133e-05,1.0,1
68532000,68532000,0.5456594,7.917242e-06,0.00091564097,1.0025479,9.2918626e-08,1.0,1
68628000,68628000,0.54575515,7.688548e-06,0.0035998374,1.0025243,1.4362445e-06,1.0,1
68732000,68732000,0.54561675,7.4570366e-06,0.27079326,1.0023807,0.008128314,1.0,1
68828000,68828000,0.5453145,7.2579483e-06,0.15276444,1.0023363,0.0025869533,1.0,1
68932000,68932000,0.54516125,7.0562814e-06,0.11734627,1.0022228,0.001526623,1.0,1
69028000,69028000,0.5450507,6.8799286e-06,0.08162992,1.0022099,0.0007387501,1.0,1
69132000,69132000,0.54496473,6.6995376e-06,0.13030976,1.0021113,0.0018827618,1.0,1
69236000,69236000,0.5449128,6.528075e-06,0.0108334515,1.0021024,1.301305e-05,1.0,1
69332000,69332000,0.54483014,6.3782604e-06,0.17534024,1.0020138,0.0034091566,1.0,1
69428000,69428000,0.5447511,6.2352556e-06,-0.0036735646,1.0020082,1.4964478e-06,1.0,1
69532000,69532000,0.5446534,6.0881425e-06,0.16131191,1.0019227,0.002885733,1.0,1
69628000,69628000,0.54460204,5.9583413e-06,0.011952879,1.0019224,1.5844133e-05,1.0,1
69732000,69732000,0.5445259,5.82454e-06,0.061216436,1.0018443,0.00041561705,1.0,1
69836000,69836000,0.54442215,5.696664e-06,0.03826268,1.0018373,0.00016237199,1.0,1
69932000,69932000,0.54434997,5.584384e-06,0.12075631,1.0017656,0.0016173763,1.0,1
70028000,70028000,0.54426634,5.47647e-06,0.10167959,1.0017644,0.0011467255,1.0,1
70132000,70132000,0.5442388,5.364835e-06,0.07091066,1.0016999,0.0005577543,1.0,1
70228000,70228000,0.5443064,5.2626233e-06,0.01216498,1.0018058,1.6413333e-05,1.0,1
70332000,70332000,0.5440005,5.1476304e-06,0.6092831,1.0018497,0.041171167,1.0,1
70428000,70428000,0.543279,5.0402837e-06,0.82822585,1.0019265,0.07607101,1.0,1
70532000,70532000,0.54223907,4.9247324e-06,1.0047259,1.0019128,0.11194965,1.0,1
70628000,70628000,0.54126424,4.8237885e-06,0.9513531,1.2044842,0.083491035,1.0,1
70732000,70732000,0.5404424,4.74858e-06,1.1723139,1.7934883,0.08514258,1.0,1
70828000,70828000,0.53976077,4.704913e-06,1.4590373,2.5523944,0.09267071,1.0032053,1
70932000,70932000,0.5393729,4.677054e-06,0.6375264,3.1784496,0.014208182,1.0,1
71028000,71028000,0.5393075,4.6579303e-06,0.03216362,3.457226,3.3247543e-05,1.0,1
71132000,71132000,0.53933525,4.639997e-06,-0.061564952,3.5977414,0.000117056254,1.0,1
71236000,71236000,0.5394032,4.6235064e-06,-0.26359195,3.6448681,0.0021180683,1.0,1
71332000,71332000,0.5394915,4.6092823e-06,-0.33174127,3.594005,0.0034023407,1.0,1
71428000,71428000,0.53964305,4.5948054e-06,-0.56126404,3.442769,0.010166794,1.0,1
71532000,71532000,0.5398098,4.5772285e-06,-0.3105665,3.3585482,0.0031909146,1.0,1
71628000,71628000,0.5399025,4.5605043e-06,-0.2092189,3.3956027,0.0014323279,1.0,1
71732000,71732000,0.53997433,4.543182e-06,-0.1654142,3.4674795,0.000876777,1.0,1
71828000,71828000,0.540049,4.527913e-06,-0.26253283,3.517404,0.0021772208,1.0,1
71932000,71932000,0.54014564,4.5119205e-06,-0.3225598,3.5471907,0.0032590681,1.0,1
72028000,72028000,0.54022837,4.497558e-06,-0.26954734,3.5776997,0.0022564398,1.0,1
72132000,72132000,0.5403213,4.482434e-06,-0.36665186,3.6037004,0.004144924,1.0,1
72228000,72228000,0.5404083,4.468799e-06,-0.259799,3.6218119,0.0020706495,1.0,1
72332000,72332000,0.540502,4.4543435e-06,-0.31172284,3.6380694,0.0029677257,1.0,1
72428000,72428000,0.54058796,4.4412013e-06,-0.34738567,3.652646,0.00367091,1.0,1
72532000,72532000,0.54067624,4.427282e-06,-0.31049228,3.6737237,0.0029157654,1.0,1
72628000,72628000,0.5409231,4.4139906e-06,-1.1908151,3.5181544,0.044784866,1.0019317,1
72732000,72732000,0.5412425,4.3971845e-06,-0.80285084,3.3764777,0.021211106,1.0,1
72828000,72828000,0.54146236,4.381151e-06,-0.7357282,3.3786025,0.017801443,1.0,1
72932000,72932000,0.5416876,4.364054e-06,-0.6589408,3.3990288,0.014193694,1.0,1
73028000,73028000,0.5418877,4.3486725e-06,-0.5979026,3.4248047,0.011597985,1.0,1
73132000,73132000,0.54210424,4.332459e-06,-0.7025679,3.4498522,0.015897674,1.0,1
73228000,73228000,0.5422952,4.3178916e-06,-0.715001,3.4796467,0.01632434,1.0,1
73332000,73332000,0.5425052,4.3025384e-06,-0.6404755,3.5017598,0.013015959,1.0,1
73428000,73428000,0.5427016,4.2886672e-06,-0.6519363,3.5181944,0.01342295,1.0,1
73532000,73532000,0.54290134,4.2739966e-06,-0.6614593,3.5485034,0.013699936,1.0,1
73628000,73628000,0.5430992,4.2607676e-06,-0.7352287,3.5553327,0.0168936,1.0,1
73732000,73732000,0.54330313,4.2466654e-06,-0.68660057,3.5745695,0.014653524,1.0,1
73828000,73828000,0.54348505,4.233962e-06,-0.6603402,3.5965571,0.013471191,1.0,1
73932000,73932000,0.5436755,4.220599e-06,-0.65427,3.623322,0.013126973,1.0,1
74028000,74028000,0.5438606,4.208512e-06,-0.7215443,3.635011,0.015913941,1.0,1
74132000,74132000,0.5440626,4.195609e-06,-0.6518325,3.645331,0.012950679,1.0,1
74236000,74236000,0.5442505,4.183003e-06,-0.646931,3.6722577,0.012663106,1.0,1
74332000,74332000,0.54441917,4.1717403e-06,-0.6308888,3.6948445,0.011969252,1.0,1
74428000,74428000,0.5445946,4.160694e-06,-0.6956237,3.706036,0.014507634,1.0,1
74532000,74532000,0.5447844,4.1489507e-06,-0.66020006,3.7136035,0.013041065,1.0,1
74628000,74628000,0.5449559,4.138269e-06,-0.63740146,3.7250328,0.012118629,1.0,1
74732000,74732000,0.5451446,4.1268972e-06,-0.6619065,3.7326572,0.013041654,1.0,1
74828000,74828000,0.54530984,4.1165836e-06,-0.61386424,3.751296,0.011161455,1.0,1
74932000,74932000,0.5454961,4.1056533e-06,-0.6563137,3.7537413,0.012750174,1.0,1
75028000,75028000,0.5456663,4.0956447e-06,-0.68404615,3.7596583,0.013828654,1.0,1
75132000,75132000,0.54584146,4.085028e-06,-0.68965214,3.7768188,0.0139923785,1.0,1
75228000,75228000,0.5460167,4.075338e-06,-0.67376333,3.7753727,0.013360182,1.0,1
75332000,75332000,0.5461903,4.0650525e-06,-0.68221253,3.792775,0.013634518,1.0,1
75428000,75428000,0.54635215,4.0557447e-06,-0.6716142,3.802694,0.01317971,1.0,1
75532000,75532000,0.54653674,4.04577e-06,-0.7377323,3.8022637,0.015904237,1.0,1
75628000,75628000,0.54669875,4.0367013e-06,-0.69638157,3.8139856,0.014127749,1.0,1
75732000,75732000,0.54687274,4.0270816e-06,-0.68839514,3.8233187,0.013771858,1.0,1
75828000,75828000,0.5470295,4.01835e-06,-0.69121504,3.835144,0.013842106,1.0,1
75932000,75932000,0.54720855,4.0090217e-06,-0.62713563,3.8338885,0.011398323,1.0,1
76028000,76028000,0.54736316,4.000536e-06,-0.55166215,3.8482149,0.00878708,1.0,1
76132000,76132000,0.5475321,3.9915576e-06,-0.67036146,3.8562717,0.012948157,1.0,1
76236000,76236000,0.5475358,3.983418e-06,0.30022025,4.090692,0.002448165,1.0,1
76332000,76332000,0.5475147,3.977833e-06,-0.072830245,4.263684,0.000138228,1.0,1
76428000,76428000,0.5475474,3.9728748e-06,-0.22653069,4.29602,0.0013272272,1.0,1
76532000,76532000,0.547608,3.9675906e-06,-0.2444738,4.274778,0.0015534905,1.0,1
76628000,76628000,0.5478474,3.9617958e-06,-1.1986768,3.9858727,0.040053297,1.0,1
76732000,76732000,0.54808056,3.9536963e-06,-0.77320445,3.8441746,0.017279973,1.0,1
76836000,76836000,0.5482591,3.9451556e-06,-0.66278493,3.8286874,0.012748317,1.0,1
76932000,76932000,0.5484153,3.9373235e-06,-0.58187044,3.8295956,0.009823294,1.0,1
77028000,77028000,0.5483712,3.930591e-06,0.2975977,4.105475,0.0023969184,1.0,1
77132000,77132000,0.5483584,3.925169e-06,0.000548929,4.2574325,7.8639735e-09,1.0,1
77228000,77228000,0.5483958,3.9206516e-06,-0.188248,4.2722535,0.00092163973,1.0,1
77332000,77332000,0.5484505,3.9158144e-06,-0.25328466,4.2562876,0.0016747281,1.0,1
77436000,77436000,0.5485003,3.9109727e-06,-0.20614818,4.2499843,0.0011110387,1.0,1
77532000,77532000,0.5485521,3.906522e-06,-0.30551404,4.232607,0.0024502585,1.0,1
77628000,77628000,0.54860026,3.902042e-06,-0.24433056,4.22185,0.0015711233,1.0,1
77732000,77732000,0.54865503,3.897174e-06,-0.26243287,4.210156,0.0018175894,1.0,1
77836000,77836000,0.548707,3.892337e-06,-0.2287231,4.201941,0.0013833357,1.0,1
77932000,77932000,0.5487531,3.887887e-06,-0.20566346,4.195523,0.0011201744,1.0,1
78028000,78028000,0.5488013,3.8834464e-06,-0.21965834,4.1835923,0.0012814555,1.0,1
78132000,78132000,0.54885006,3.878633e-06,-0.19134635,4.177436,0.00097384094,1.0,1
78228000,78228000,0.5489004,3.8741896e-06,-0.2161636,4.1624174,0.0012473174,1.0,1
78332000,78332000,0.548951,3.8693784e-06,-0.26307997,4.153155,0.0018516331,1.0,1
78428000,78428000,0.54900134,3.8649105e-06,-0.21781534,4.1388574,0.0012736613,1.0,1
78532000,78532000,0.54904866,3.860107e-06,-0.2210439,4.135905,0.001312635,1.0,1
78628000,78628000,0.54909426,3.8556736e-06,-0.23995462,4.1302767,0.0015489472,1.0,1
78732000,78732000,0.5491443,3.850894e-06,-0.23032585,4.1216297,0.0014301246,1.0,1
78828000,78828000,0.5491937,3.8464605e-06,-0.17160085,4.109176,0.0007962356,1.0,1
78932000,78932000,0.5492388,3.8416874e-06,-0.16531739,4.112509,0.0007383932,1.0,1
79028000,79028000,0.54928505,3.837344e-06,-0.22657974,4.104937,0.0013896106,1.0,1
79132000,79132000,0.5493343,3.832649e-06,-0.2364965,4.0982814,0.0015163698,1.0,1
79236000,79236000,0.5493845,3.8279354e-06,-0.21689686,4.0905766,0.0012778488,1.0,1
79332000,79332000,0.549426,3.8236235e-06,-0.19050132,4.09075,0.000985713,1.0,1
79436000,79436000,0.54947466,3.818995e-06,-0.18740503,4.0820127,0.00095597305,1.0,1
79532000,79532000,0.54951483,3.814734e-06,-0.17651558,4.0838175,0.00084772945,1.0,1
79628000,79628000,0.5495495,3.8105748e-06,-0.16564621,4.0911255,0.0007452083,1.0,1
79732000,79732000,0.54959303,3.8061025e-06,-0.20021006,4.0868797,0.0010897765,1.0,1
79828000,79828000,0.54963636,3.8019898e-06,-0.25606635,4.0778675,0.0017866086,1.0,1
79932000,79932000,0.54967624,3.7975628e-06,-0.17789054,4.079354,0.0008619297,1.0,1
80036000,80036000,0.54972714,3.7931381e-06,-0.15765937,4.061097,0.0006800701,1.0,1
80132000,80132000,0.5497701,3.7890152e-06,-0.22287664,4.057851,0.0013601617,1.0,1
80228000,80228000,0.54981107,3.7849309e-06,-0.23809262,4.057085,0.001552513,1.0,1
80332000,80332000,0.549856,3.7805412e-06,-0.17144825,4.0531864,0.00080579956,1.0,1
80428000,80428000,0.5498951,3.7765192e-06,-0.16373478,4.0539336,0.0007347892,1.0,1
80532000,80532000,0.54994166,3.772189e-06,-0.16998951,4.0463233,0.0007934895,1.0,1
80628000,80628000,0.54998404,3.7681932e-06,-0.22277467,4.042022,0.0013642388,1.0,1
80732000,80732000,0.5500264,3.7638886e-06,-0.19595413,4.0432954,0.0010551905,1.0,1
80828000,80828000,0.5500676,3.7599575e-06,-0.24187757,4.0391,0.0016094003,1.0,1
80932000,80932000,0.5501145,3.7557033e-06,-0.24893542,4.0304246,0.0017083626,1.0,1
81028000,81028000,0.55015516,3.7517486e-06,-0.18508507,4.028998,0.00094472023,1.0,1
81132000,81132000,0.5501946,3.7475413e-06,-0.20329514,4.0338573,0.0011383896,1.0,1
81228000,81228000,0.55023426,3.7437023e-06,-0.20368496,4.0308175,0.0011436213,1.0,1
81332000,81332000,0.55028,3.7395503e-06,-0.21062656,4.024777,0.0012247345,1.0,1
81428000,81428000,0.55031765,3.7357372e-06,-0.20182139,4.0287175,0.0011233758,1.0,1
81532000,81532000,0.55033827,3.7321213e-06,-0.1468733,4.0038543,0.0005986389,1.0,1
81628000,81628000,0.5504098,3.7291386e-06,-0.50773823,3.7790596,0.0075797257,1.0,1
81732000,81732000,0.55053866,3.7249606e-06,-0.6300262,3.4420161,0.012813325,1.0,1
81836000,81836000,0.5507001,3.718529e-06,-0.41476852,3.186092,0.0059994403,1.0,1
81932000,81932000,0.5507481,3.7118232e-06,-0.08492443,3.1212087,0.0002567438,1.0,1
82028000,82028000,0.55086994,3.7054945e-06,-1.1955373,2.879421,0.0551542,1.0,1
82132000,82132000,0.55126965,3.6955319e-06,-1.0565825,2.385319,0.052001733,1.0,1
82228000,82228000,0.5516003,3.682857e-06,-0.82772744,2.0717034,0.036745537,1.0,1
82332000,82332000,0.551957,3.665704e-06,-0.71121967,1.786708,0.03145657,1.0,1
82428000,82428000,0.5521051,3.6472002e-06,0.00788644,1.6399379,4.2139754e-06,1.0,1
82532000,82532000,0.55222553,3.6261906e-06,-0.2787513,1.4689023,0.0058775777,1.0,1
82628000,82628000,0.5524264,3.6036504e-06,-0.3558563,1.2662908,0.011111517,1.0,1
82732000,82732000,0.5527167,3.5734422e-06,-0.36888903,1.0468313,0.014443495,1.0,1
82828000,82828000,0.55297786,3.5411488e-06,-0.34709084,1.000987,0.013372584,1.0,1
82932000,82932000,0.553251,3.5069393e-06,-0.3353541,1.0009688,0.012483723,1.0,1
83036000,83036000,0.55355436,3.4736424e-06,-0.66030383,1.0009773,0.048397273,1.0,1
83132000,83132000,0.5539611,3.4430213e-06,-0.49553335,1.0009753,0.027257117,1.0,1
83236000,83236000,0.5542562,3.410088e-06,-0.3383311,1.0009828,0.012706173,1.0,1
83332000,83332000,0.55442804,3.3804915e-06,-0.1995728,1.0009587,0.0044212397,1.0,1
83428000,83428000,0.55458194,3.3517304e-06,-0.1569215,1.0009522,0.002733437,1.0,1
83532000,83532000,0.5547148,3.3214833e-06,-0.16352278,1.0009358,0.0029683001,1.0,1
83628000,83628000,0.5548234,3.2942353e-06,-0.06903422,1.0009319,0.00052903185,1.0,1
83732000,83732000,0.5549014,3.2655394e-06,-0.07556152,1.0009152,0.0006338137,1.0,1
83828000,83828000,0.55498064,3.2397797e-06,-0.07330531,1.0009112,0.0005965307,1.0,1
83932000,83932000,0.5550416,3.21251e-06,-0.052042782,1.0008994,0.0003006686,1.0,1
84028000,84028000,0.55506057,3.1879244e-06,0.08410752,1.000895,0.0007853055,1.0,1
84132000,84132000,0.55497175,3.162158e-06,0.13363528,1.0008731,0.0019825343,1.0,1
84228000,84228000,0.55492866,3.1391794e-06,0.07806188,1.000867,0.0006764865,1.0,1
84332000,84332000,0.5548994,3.1148122e-06,0.10701138,1.0008591,0.0012712894,1.0,1
84428000,84428000,0.55484205,3.0927379e-06,0.18392742,1.0008572,0.0037555909,1.0,1
84532000,84532000,0.554778,3.069277e-06,0.15059125,1.0008478,0.002517613,1.0,1
84628000,84628000,0.554697,3.048153e-06,0.12985134,1.000843,0.0018719076,1.0,1
84732000,84732000,0.55460733,3.0257747e-06,0.11356443,1.000836,0.0014317897,1.0,1
84828000,84828000,0.554535,3.0054146e-06,0.08973652,1.0008371,0.0008939898,1.0,1
84932000,84932000,0.55443186,2.983668e-06,0.19185606,1.0008299,0.0040864693,1.0,1
85028000,85028000,0.5543332,2.9640119e-06,0.16374323,1.0008277,0.00297663,1.0,1
85132000,85132000,0.5542054,2.9430948e-06,0.32566082,1.0008209,0.01177422,1.0,1
85228000,85228000,0.55407596,2.9241737e-06,0.19928116,1.0008187,0.004408944,1.0,1
85332000,85332000,0.5539432,2.9040195e-06,0.263492,1.000813,0.007707959,1.0,1
85428000,85428000,0.5537897,2.8858103e-06,0.29128134,1.0008079,0.009419592,1.0,1
85532000,85532000,0.5536478,2.8664579e-06,0.2591675,1.0008036,0.0074570947,1.0,1
85636000,85636000,0.5535,2.8473776e-06,0.23509458,1.0008048,0.006136113,1.0,1
85732000,85732000,0.5533652,2.8300044e-06,0.33769193,1.0007985,0.012660541,1.0,1
85836000,85836000,0.5531893,2.8115967e-06,0.2737785,1.0007945,0.008321685,1.0,1
85932000,85932000,0.5529822,2.7950264e-06,0.40431803,1.0007833,0.018149458,1.0,1
86028000,86028000,0.5527193,2.7789458e-06,0.56545484,1.0007722,0.03549916,1.0,1
86132000,86132000,0.5523481,2.7616004e-06,0.8072959,1.0007753,0.072357975,1.0,1
86228000,86228000,0.5518842,2.7466135e-06,0.80509114,1.0007379,0.07196598,1.0,1
86332000,86332000,0.55145764,2.731455e-06,0.6890483,1.0007204,0.052716196,1.0,1
86436000,86436000,0.55109525,2.7167944e-06,0.5865728,1.0007174,0.038202338,1.0,1
86532000,86532000,0.55075353,2.703527e-06,0.6752449,1.0007102,0.050625786,1.0,1
86628000,86628000,0.5504348,2.6905414e-06,0.5044518,1.000709,0.028254589,1.0,1
86732000,86732000,0.5502069,2.6764185e-06,0.34880772,1.0007184,0.013508832,1.0,1
86828000,86828000,0.55007344,2.6696728e-06,0.38425276,1.8577819,0.008830733,1.0,1
86932000,86932000,0.54998547,2.669953e-06,0.41220096,3.0486898,0.0061924458,1.0,1
87028000,87028000,0.5499255,2.6734865e-06,0.41730782,4.349261,0.0044489247,1.0,1
87132000,87132000,0.54988515,2.6792159e-06,0.4310271,5.9365025,0.003477251,1.0,1
87236000,87236000,0.5498539,2.6861496e-06,0.37966412,7.739592,0.002069372,1.0,1
87332000,87332000,0.5498373,2.69326e-06,0.13268903,9.538085,0.00020510031,1.0,1
87428000,87428000,0.5498311,2.7008177e-06,0.17213804,11.377331,0.0002893815,1.0,1
87532000,87532000,0.5498267,2.7093495e-06,0.11710964,13.334862,0.000114275805,1.0,1
87628000,87628000,0.54981965,2.717454e-06,0.1564856,14.968776,0.00018176906,1.0,1
87732000,87732000,0.5498106,2.7264193e-06,0.20903218,16.505102,0.0002941478,1.0,1
87828000,87828000,0.5498042,2.7348124e-06,0.16167052,17.559387,0.00016539021,1.0,1
87932000,87932000,0.54979396,2.7439817e-06,0.34885365,18.259144,0.0007405657,1.0,1
88028000,88028000,0.54978055,2.7524877e-06,0.47512704,18.400179,0.0013631855,1.0,1
88132000,88132000,0.54976314,2.7616609e-06,0.6256355,17.991898,0.0024172596,1.0,1
88228000,88228000,0.5497438,2.7700837e-06,0.43139774,17.251743,0.0011986165,1.0,1
88332000,88332000,0.54972905,2.779134e-06,0.36825508,16.451109,0.0009159247,1.0,1
88428000,88428000,0.5497146,2.7874064e-06,0.38008747,15.763181,0.0010183117,1.0,1
88532000,88532000,0.54969144,2.796273e-06,0.66882575,14.893039,0.0033373374,1.0,1
88628000,88628000,0.54966706,2.804382e-06,0.5213933,14.065163,0.0021475516,1.0,1
88732000,88732000,0.5496431,2.8130466e-06,0.6080825,13.21858,0.0031081191,1.0,1
88828000,88828000,0.549615,2.8209204e-06,0.62020934,12.406752,0.003444895,1.0,1
88932000,88932000,0.54957896,2.8292925e-06,0.78586614,11.445147,0.005995609,1.0,1
89028000,89028000,0.5495397,2.8368581e-06,0.8222888,10.520853,0.007140939,1.0,1
89132000,89132000,0.5494912,2.8448221e-06,0.82311237,9.486607,0.0079353275,1.0,1
89236000,89236000,0.5494333,2.8524794e-06,0.8941748,8.45405,0.010508424,1.0,1
89332000,89332000,0.5493689,2.8592149e-06,0.9039678,7.5337863,0.01205175,1.0,1
89428000,89428000,0.54929715,2.865575e-06,0.89501566,6.666041,0.013352137,1.0,1
89532000,89532000,0.54920727,2.8719248e-06,0.9519634,5.7680807,0.017456882,1.0,1
89636000,89636000,0.5491101,2.8775412e-06,0.7828015,4.945813,0.013766486,1.0,1
89732000,89732000,0.5490052,2.8818913e-06,0.8455527,4.247987,0.018700605,1.0,1
89828000,89828000,0.54888046,2.8852744e-06,0.8453273,3.6249747,0.021902936,1.0,1
89932000,89932000,0.5486847,2.8875268e-06,1.1742392,2.9470012,0.051986467,1.0,1
90036000,90036000,0.5483785,2.8876054e-06,1.4165182,2.2200887,0.100422606,1.0,1
90132000,90132000,0.5479524,2.8841735e-06,1.4095335,1.5268604,0.14458026,1.0,1
90228000,90228000,0.547301,2.8739867e-06,1.4898468,1.0006759,0.24646047,1.0,1
90332000,90332000,0.54645556,2.859925e-06,1.40482,1.0006601,0.21913525,1.0,1
90428000,90428000,0.5457925,2.8473087e-06,1.1506846,1.0006615,0.14702219,1.0,1
90532000,90532000,0.54514444,2.8335064e-06,1.1410382,1.0006678,0.14456658,1.0,1
90636000,90636000,0.5444684,2.8197312e-06,1.1603473,1.0006694,0.1495006,1.0,1
90732000,90732000,0.54386115,2.8068782e-06,1.2199575,1.0006794,0.165254,1.0,1
90828000,90828000,0.54319537,2.7940227e-06,1.2990327,1.0006782,0.18737137,1.0,1
90932000,90932000,0.54251033,2.7802294e-06,1.0800503,1.0006789,0.12952416,1.0,1
91028000,91028000,0.5419011,2.7675437e-06,1.188396,1.0006813,0.15681373,1.0,1
91132000,91132000,0.54124594,2.753812e-06,1.226071,1.0006852,0.16691343,1.0,1
91228000,91228000,0.54063827,2.741111e-06,1.1342475,1.0006883,0.14284806,1.0,1
91332000,91332000,0.5399758,2.7274168e-06,1.0868666,1.0006887,0.1311629,1.0,1
91428000,91428000,0.53933537,2.7149167e-06,1.2674105,1.0006858,0.17835873,1.0,1
91532000,91532000,0.53872764,2.704534e-06,1.2183902,1.4334375,0.11506721,1.0,1
91628000,91628000,0.5383627,2.7020915e-06,1.2922947,2.1596174,0.08592188,1.0,1
91732000,91732000,0.53808063,2.703782e-06,1.2455448,3.1124065,0.055383436,1.0,1
91836000,91836000,0.5378774,2.7081085e-06,1.3175098,4.2351217,0.045540653,1.0,1
91932000,91932000,0.53774405,2.7135404e-06,1.1919972,5.4075193,0.029195093,1.0,1
92028000,92028000,0.5376485,2.719808e-06,1.0237272,6.5539284,0.017767416,1.0,1
92132000,92132000,0.53756577,2.7271715e-06,1.0175261,7.758942,0.014826756,1.0,1
92228000,92228000,0.5375026,2.7343428e-06,1.0010188,8.80904,0.01263902,1.0,1
92332000,92332000,0.5374491,2.7423766e-06,0.77441764,9.824324,0.0067827418,1.0,1
92428000,92428000,0.5374082,2.7499375e-06,0.78562754,10.615393,0.006460332,1.0,1
92532000,92532000,0.5373638,2.7582385e-06,0.8279964,11.31998,0.006729282,1.0,1
92636000,92636000,0.5373221,2.766622e-06,0.7726776,11.778363,0.005632085,1.0,1
92732000,92732000,0.5372836,2.7743856e-06,0.8318575,11.95449,0.0064316783,1.0,1
92828000,92828000,0.5372441,2.782132e-06,0.9752084,11.897201,0.008881935,1.0,1
92932000,92932000,0.5371971,2.790477e-06,0.8872162,11.64197,0.0075125946,1.0,1
93028000,93028000,0.53715223,2.798122e-06,0.75393116,11.331017,0.0055738077,1.0,1
93132000,93132000,0.53711843,2.8063066e-06,0.65978545,11.101928,0.004356769,1.0,1
93228000,93228000,0.53706396,2.8137717e-06,1.3986433,10.7081995,0.02029808,1.0,1
93332000,93332000,0.5369542,2.821823e-06,2.0916696,9.782196,0.04969438,1.0013958,1
93428000,93428000,0.53682256,2.8291947e-06,2.3397136,8.554675,0.0711016,1.0170045,1
93532000,93532000,0.5366828,2.8368577e-06,1.4394122,6.7462187,0.03412459,1.0,1
93628000,93628000,0.536607,2.8430302e-06,0.5973801,5.2337613,0.0075760894,1.0,1
93732000,93732000,0.5365508,2.8477964e-06,0.3326847,3.69184,0.0033310433,1.0,1
93828000,93828000,0.5364758,2.8488107e-06,0.4203066,2.3824418,0.008238869,1.0,1
93932000,93932000,0.5363036,2.841397e-06,0.46858394,1.1780291,0.020709818,1.0,1
94028000,94028000,0.5360134,2.8234206e-06,0.5378726,1.0008374,0.032118317,1.0,1
94132000,94132000,0.53572905,2.8032416e-06,0.4382135,1.0008541,0.021318575,1.0,1
94228000,94228000,0.53541076,2.7844926e-06,0.54672885,1.0008581,0.033184018,1.0,1
94332000,94332000,0.5351941,2.7640979e-06,0.25213507,1.0008708,0.0070574204,1.0,1
94428000,94428000,0.535021,2.745107e-06,0.2938273,1.0008802,0.009584283,1.0,1
94532000,94532000,0.5348704,2.724435e-06,0.17748718,1.0008883,0.003497082,1.0,1
94636000,94636000,0.53471804,2.7037986e-06,0.2825353,1.0008916,0.008861678,1.0,1
94732000,94732000,0.5346161,2.6848893e-06,0.12632105,1.0008945,0.0017714162,1.0,1
94828000,94828000,0.53453076,2.6660948e-06,0.22047336,1.000896,0.00539611,1.0,1
94932000,94932000,0.53433996,2.646095e-06,0.7084261,1.0008838,0.055713825,1.0,1
95028000,95028000,0.5339655,2.628661e-06,0.59584785,1.000853,0.039414678,1.0,1
95132000,95132000,0.53363097,2.6107787e-06,0.71414834,1.0008317,0.05662045,1.0,1
95228000,95228000,0.53324485,2.595193e-06,0.6662756,1.000807,0.049285028,1.0,1
95332000,95332000,0.53290457,2.5791176e-06,0.5314785,1.0007935,0.031360608,1.0,1
95428000,95428000,0.5326022,2.5647646e-06,0.55309224,1.0007842,0.033963483,1.0,1
95532000,95532000,0.5323087,2.5495606e-06,0.5507429,1.0007789,0.03367574,1.0,1
95628000,95628000,0.5320299,2.5358283e-06,0.60931504,1.0007734,0.041219767,1.0,1
95732000,95732000,0.5316096,2.5214456e-06,0.9655374,1.000756,0.10350647,1.0,1
95836000,95836000,0.5309784,2.5081029e-06,1.344138,1.0007217,0.20060045,1.0,1
95932000,95932000,0.53039306,2.4968838e-06,1.0065674,1.0006953,0.1124971,1.0,1
96028000,96028000,0.5300436,2.4860567e-06,0.5228702,1.0006989,0.030355807,1.0,1
96132000,96132000,0.5298725,2.473915e-06,0.18491566,1.0007243,0.0037965614,1.0,1
96228000,96228000,0.5298373,2.462056e-06,0.38813442,1.000743,0.016726274,1.0,1
96332000,96332000,0.5297892,2.448737e-06,-0.08024758,1.0007693,0.00071496936,1.0,1
96428000,96428000,0.5298336,2.4357385e-06,-0.026331782,1.0007931,7.697925e-05,1.0,1
96532000,96532000,0.5298331,2.4212545e-06,0.07201517,1.0008047,0.00057577936,1.0,1
96628000,96628000,0.52978885,2.4078658e-06,0.046204403,1.0008066,0.00023701401,1.0,1
96732000,96732000,0.52974397,2.393477e-06,0.057906926,1.000807,0.00037227868,1.0,1
96836000,96836000,0.5296717,2.3792788e-06,0.18359384,1.0008031,0.0037421833,1.0,1
96932000,96932000,0.5296279,2.3663968e-06,0.08093245,1.0008013,0.000727202,1.0,1
97028000,97028000,0.5295655,2.353723e-06,0.09062006,1.0007972,0.0009117171,1.0,1
97132000,97132000,0.5294718,2.340307e-06,0.15692383,1.0007901,0.002733961,1.0,1
97236000,97236000,0.5293803,2.3272244e-06,0.1603269,1.0007842,0.0028538415,1.0,1
97332000,97332000,0.52929646,2.315427e-06,0.19331506,1.0007787,0.004149071,1.0,1
97428000,97428000,0.5291973,2.3039033e-06,0.20384657,1.0007719,0.0046134866,1.0,1
97532000,97532000,0.5290912,2.2917875e-06,0.16760683,1.0288062,0.0030339423,1.0,1
97636000,97636000,0.52900076,2.2865345e-06,0.322345,1.8825206,0.0061328113,1.0,1
97732000,97732000,0.5289431,2.2878942e-06,0.25872147,3.0152607,0.0024665934,1.0,1
97828000,97828000,0.5288984,2.2923136e-06,0.31849784,4.5161204,0.0024957722,1.0,1
97932000,97932000,0.5288617,2.2990728e-06,0.44814968,6.6684084,0.003346428,1.0,1
98028000,98028000,0.52883375,2.3064322e-06,0.45804715,9.204323,0.002532713,1.0,1
98132000,98132000,0.5288096,2.3151797e-06,0.58423483,12.616596,0.0030060085,1.0,1
98228000,98228000,0.5287918,2.3237312e-06,0.3630436,16.409687,0.00089243136,1.0,1
98332000,98332000,0.52887714,2.3334114e-06,-4.414775,35.094185,0.061707716,1.7101389,1
98428000,98428000,0.5289282,2.3427351e-06,-3.7263148,60.75811,0.0253929,2.3002267,1
98532000,98532000,0.5289633,2.3530108e-06,-3.7816372,89.75117,0.017704234,2.6899488,1
98628000,98628000,0.52898854,2.3625958e-06,-3.9160275,121.59419,0.014013161,2.9863842,1
98732000,98732000,0.52901125,2.3730565e-06,-4.3983507,163.46786,0.013149366,3.2907646,1
98828000,98828000,0.529029,2.382767e-06,-4.597566,210.52356,0.01115611,3.559307,1
98932000,98932000,0.52904564,2.393331e-06,-5.1251693,270.66473,0.010783065,3.8414414,1
99028000,99028000,0.5290594,2.4031142e-06,-5.45481,339.49042,0.009738437,4.1383367,1
99132000,99132000,0.52907246,2.4137403e-06,-5.872324,427.18097,0.008969446,4.4645996,1
99236000,99236000,0.5290839,2.4243884e-06,-6.054162,525.38403,0.007751553,4.7524257,1
99332000,99332000,0.52909327,2.434233e-06,-6.406561,624.314,0.007304732,4.9940796,1
99428000,99428000,0.5291019,2.4440894e-06,-6.71961,735.20856,0.0068239383,5.238773,1
99532000,99532000,0.5291102,2.454779e-06,-6.710137,860.2447,0.00581565,5.439725,1
99628000,99628000,0.52911705,2.464654e-06,-6.6937776,971.9922,0.005121973,5.542187,1
99724000,99724000,0.5291176,2.49119e-06,10.124798,2187.8337,0.00520614,13.230064,1
99820000,99820000,0.5291176,2.5160732e-06,10.210504,3912.3877,0.002960806,19.74717,1
99924000,99924000,0.5291176,2.5451036e-06,10.293106,5364.4526,0.0021944465,25.171968,1
100020000,100020000,0.5291176,2.569987e-06,10.701734,6683.4585,0.0019039894,29.134373,1
100124000,100124000,0.5291176,2.5990173e-06,10.927633,7787.758,0.0017037163,32.516964,1
100220000,100220000,0.5291176,2.6239006e-06,11.438945,8736.99,0.0016640546,34.96231,1
100324000,100324000,0.5291176,2.652931e-06,12.01593,9537.382,0.0016820664,37.223316,1
100420000,100420000,0.5291176,2.6778143e-06,12.410667,10202.106,0.001677482,38.898308,1
100524000,100524000,0.5291176,2.7068447e-06,12.109612,10606.436,0.0015362027,39.879807,1
100620000,100620000,0.5291176,2.731728e-06,11.571091,10719.981,0.0013877525,39.963425,1
100724000,100724000,0.5291176,2.7607584e-06,11.054314,10600.942,0.001280786,39.444977,1
100820000,100820000,0.5291176,2.7856418e-06,10.66444,10305.654,0.0012261907,38.53845,1
100924000,100924000,0.5291176,2.8146721e-06,10.213084,9943.247,0.0011655827,37.284843,1
101020000,101020000,0.5291176,2.8395555e-06,10.366849,9511.443,0.001255465,35.99737,1
101124000,101124000,0.5291176,2.8685859e-06,10.423967,9111.323,0.0013250802,34.668343,1
101220000,101220000,0.5291176,2.8934692e-06,10.416464,8676.833,0.0013894306,33.41674,1
101324000,101324000,0.5291176,2.9224996e-06,10.390502,8260.672,0.0014521624,32.046997,1
101420000,101420000,0.5291176,2.9473829e-06,10.475233,7826.039,0.0015579117,30.788649,1
101524000,101524000,0.5291176,2.9764133e-06,10.3119335,7412.1367,0.0015940218,29.440655,1
101620000,101620000,0.5291176,3.0012966e-06,10.232556,6984.8,0.0016656042,28.208847,1
101724000,101724000,0.5291176,3.030327e-06,10.108009,6587.9062,0.0017232224,26.892117,1
101820000,101820000,0.5291176,3.0552103e-06,10.070397,6191.957,0.0018197963,25.707605,1
101924000,101924000,0.5291176,3.0842407e-06,9.855119,5826.9395,0.001851999,24.46325,1
102020000,102020000,0.5291176,3.109124e-06,9.774166,5462.774,0.0019431383,23.354141,1
102124000,102124000,0.5291176,3.1381544e-06,9.707485,5133.7417,0.0020395622,22.197756,1
102220000,102220000,0.5291176,3.1630377e-06,9.65186,4812.432,0.0021508737,21.175583,1
102324000,102324000,0.5291176,3.192068e-06,9.639847,4522.47,0.002283085,20.118103,1
102420000,102420000,0.5291176,3.2169514e-06,9.466208,4236.4175,0.0023502326,19.183668,1
102524000,102524000,0.5291176,3.2459818e-06,9.503059,3982.5264,0.0025195659,18.219027,1
102620000,102620000,0.5291176,3.2708651e-06,9.448192,3735.675,0.00265513,17.37083,1
102724000,102724000,0.5291176,3.2998955e-06,9.378306,3515.0046,0.0027802282,16.495945,1
102820000,102820000,0.5291176,3.3247788e-06,9.421558,3298.189,0.0029903874,15.727063,1
102924000,102924000,0.5291176,3.3538092e-06,9.313814,3106.8171,0.0031023938,14.934566,1
103020000,103020000,0.5291176,3.3786926e-06,9.389035,2922.2185,0.0033518667,14.238103,1
103124000,103124000,0.5291176,3.407723e-06,9.283273,2756.7031,0.0034735193,13.520635,1
103220000,103220000,0.5291176,3.4326063e-06,9.322229,2594.176,0.0037221822,12.890064,1
103324000,103324000,0.5291176,3.4616367e-06,9.340563,2451.0256,0.0039550844,12.240384,1
103420000,103420000,0.5291176,3.48652e-06,9.33836,2310.0146,0.0041945362,11.669605,1
103524000,103524000,0.5291176,3.5155504e-06,9.302873,2186.3164,0.004398237,11.081423,1
103620000,103620000,0.5291176,3.5404337e-06,9.391301,2062.8853,0.0047504418,10.564664,1
103724000,103724000,0.5291176,3.569464e-06,9.4441595,1955.5936,0.005067637,10.0324,1
103820000,103820000,0.5291176,3.5943474e-06,9.394508,1849.491,0.005302167,9.5647955,1
103924000,103924000,0.5291176,3.6233778e-06,9.433108,1756.6276,0.005628432,9.082955,1
104020000,104020000,0.5291176,3.648261e-06,9.492907,1663.0264,0.0060208356,8.660125,1
104124000,104124000,0.5291176,3.6772915e-06,9.548384,1581.4348,0.00640569,8.224249,1
104220000,104220000,0.5291176,3.7021748e-06,9.506364,1499.2605,0.0066974466,7.841354,1
104324000,104324000,0.5291176,3.7312052e-06,9.56912,1427.2688,0.0071284603,7.4475317,1
104420000,104420000,0.5291176,3.7560885e-06,9.489965,1353.8,0.007391494,7.101149,1
104524000,104524000,0.5291176,3.785119e-06,9.507055,1290.0663,0.007784622,6.743618,1
104620000,104620000,0.5291176,3.8100022e-06,9.62717,1224.9376,0.008406995,6.430501,1
104724000,104724000,0.5291176,3.839033e-06,9.601817,1168.5479,0.008766331,6.107625,1
104820000,104820000,0.5291176,3.863917e-06,9.587221,1110.3457,0.009197817,5.8234572,1
104924000,104924000,0.5291176,3.892948e-06,9.701648,1060.1271,0.009864852,5.5312233,1
105020000,105020000,0.5291176,3.9178317e-06,9.683618,1008.27936,0.010333605,5.2756276,1
105124000,105124000,0.5291176,3.9468628e-06,9.716623,962.6485,0.010897338,5.011268,1
105220000,105220000,0.5291176,3.9717465e-06,9.705631,915.5675,0.011431802,4.7796345,1
105324000,105324000,0.5291176,4.0007776e-06,9.765854,874.43146,0.012118592,4.5403266,1
105420000,105420000,0.5291176,4.0256614e-06,9.803655,832.0285,0.012834984,4.3303556,1
105524000,105524000,0.5291176,4.0546925e-06,9.742735,794.91046,0.0132678645,4.1135244,1
105620000,105620000,0.5291176,4.0795762e-06,9.882508,756.11237,0.014351772,3.9235458,1
105724000,105724000,0.5291176,4.1086073e-06,9.812609,722.7545,0.01480252,3.7284064,1
105820000,105820000,0.5291176,4.133491e-06,9.8427515,687.7571,0.015651483,3.5566738,1
105924000,105924000,0.5291176,4.162522e-06,9.800453,656.8543,0.016247282,3.3786588,1
106020000,106020000,0.5291176,4.187406e-06,9.881533,624.6869,0.017367756,3.2227204,1
106124000,106124000,0.5291176,4.216437e-06,9.7964525,596.4076,0.017879361,3.060798,1
106220000,106220000,0.5291176,4.2413208e-06,9.513434,567.2061,0.017729286,2.9184601,1
106324000,106324000,0.5291176,4.270352e-06,9.256827,542.057,0.017564543,2.776243,1
106420000,106420000,0.5291176,4.2952356e-06,8.995959,519.51697,0.017308231,2.6654544,1
106524000,106524000,0.5291176,4.3242667e-06,8.668439,501.83694,0.01663706,2.5609574,1
106620000,106620000,0.5291176,4.3491505e-06,8.712047,484.49277,0.017406464,2.467864,1
106724000,106724000,0.5291176,4.3781815e-06,8.812558,468.43118,0.018421104,2.3646355,1
106820000,106820000,0.5291176,4.4030653e-06,8.773297,450.43,0.018986981,2.269509,1
106924000,106924000,0.5291176,4.4320964e-06,8.940916,434.11212,0.02046066,2.1628628,1
107020000,107020000,0.5291176,4.45698e-06,9.060311,415.4865,0.021952642,2.0641882,1
107124000,107124000,0.5291176,4.486011e-06,9.286818,398.89948,0.024023034,1.9604965,1
107220000,107220000,0.5291176,4.510895e-06,9.40517,381.38977,0.025770439,1.8701166,1
107324000,107324000,0.5291176,4.539926e-06,9.615179,366.7288,0.028010912,1.779272,1
107420000,107420000,0.5291176,4.56481e-06,9.792196,352.11377,0.030257616,1.7038475,1
107524000,107524000,0.5291176,4.593841e-06,9.927577,339.9304,0.032214694,1.629342,1
107620000,107620000,0.5291176,4.6187247e-06,10.040802,327.54736,0.034199532,1.5671889,1
107724000,107724000,0.5291176,4.6477558e-06,10.172329,317.92557,0.036163695,1.5083796,1
107820000,107820000,0.5291176,4.6726395e-06,10.248496,308.0811,0.037880242,1.4577801,1
107924000,107924000,0.5291176,4.7016706e-06,10.395037,300.4699,0.03995844,1.4120511,1
108020000,108020000,0.5291176,4.7265544e-06,10.400777,291.67233,0.041209165,1.3685294,1
108124000,108124000,0.5291176,4.7555855e-06,10.402651,283.54645,0.042405415,1.320099,1
108220000,108220000,0.5291176,4.780469e-06,10.451238,274.70007,0.04418086,1.2762591,1
108324000,108324000,0.5291176,4.8095003e-06,10.360769,266.01425,0.04483701,1.2252015,1
108420000,108420000,0.5291176,4.834384e-06,10.306792,256.02032,0.046103097,1.1791488,1
108524000,108524000,0.5291176,4.863415e-06,10.316611,246.33426,0.04800725,1.1263171,1
108620000,108620000,0.5291176,4.888299e-06,10.366672,235.94481,0.05060877,1.0779374,1
108724000,108724000,0.5291176,4.91733e-06,10.292785,226.48088,0.05197467,1.026839,1
108820000,108820000,0.5291176,4.9422138e-06,10.360933,218.62405,0.054557856,1.0,1
108924000,108924000,0.5291176,4.971245e-06,10.367942,219.18416,0.054492082,1.0,1
109020000,109020000,0.5291176,4.9961286e-06,10.347918,219.81795,0.054125294,1.0,1
109124000,109124000,0.5291176,5.0251597e-06,10.434341,220.27635,0.054918632,1.0,1
109220000,109220000,0.5291176,5.0500435e-06,10.423492,220.43364,0.054765385,1.0,1
109324000,109324000,0.5291176,5.0790745e-06,10.471838,220.56154,0.055242527,1.0,1
109420000,109420000,0.5291176,5.1039583e-06,10.617736,220.74545,0.056745254,1.0,1
109524000,109524000,0.5291176,5.1329894e-06,10.702554,220.64903,0.05768067,1.0,1
109620000,109620000,0.5291176,5.157873e-06,10.759609,220.23941,0.058405727,1.0,1
109724000,109724000,0.5291176,5.186904e-06,10.775303,219.74963,0.058706786,1.0,1
109820000,109820000,0.5291176,5.211788e-06,10.840701,219.2644,0.05955306,1.0,1
109924000,109924000,0.5291176,5.240819e-06,10.890116,218.48729,0.060310967,1.0,1
110020000,110020000,0.5291176,5.265703e-06,10.801725,217.4893,0.05960818,1.0,1
110124000,110124000,0.5291176,5.294734e-06,10.786579,216.27231,0.059775613,1.0,1
110220000,110220000,0.5291176,5.3196177e-06,10.832304,215.15965,0.060595214,1.0,1
110324000,110324000,0.5291176,5.3486488e-06,10.663034,213.68938,0.05912024,1.0,1
110420000,110420000,0.5291176,5.3735325e-06,10.583375,212.11736,0.058671836,1.0,1
110524000,110524000,0.5291176,5.4025636e-06,10.503457,210.4342,0.058251306,1.0,1
110620000,110620000,0.5291176,5.4274474e-06,10.384448,208.8974,0.05735764,1.0,1
110724000,110724000,0.5291176,5.4564784e-06,10.188177,207.1622,0.0556724,1.0,1
110820000,110820000,0.5291176,5.481362e-06,10.153996,205.49034,0.055749387,1.0,1
110924000,110924000,0.5291176,5.5103933e-06,10.070156,203.703,0.05531367,1.0,1
111020000,111020000,0.5291176,5.535277e-06,9.964202,202.1331,0.054576427,1.0,1
111124000,111124000,0.5291176,5.564308e-06,9.857853,200.37141,0.053887293,1.0,1
111220000,111220000,0.5291176,5.589192e-06,9.805708,198.76892,0.05374857,1.0,1
111324000,111324000,0.5291176,5.618223e-06,9.655164,197.06494,0.052561462,1.0,1
111420000,111420000,0.5291176,5.6431068e-06,9.582278,195.52661,0.052178208,1.0,1
111524000,111524000,0.5291176,5.672138e-06,9.56207,194.00699,0.052365344,1.0,1
111620000,111620000,0.5291176,5.6970216e-06,9.50249,192.61568,0.05208836,1.0,1
111724000,111724000,0.5291176,5.7260527e-06,9.411541,191.1057,0.051499773,1.0,1
111820000,111820000,0.5291176,5.7509365e-06,9.42413,189.8892,0.05196845,1.0,1
111924000,111924000,0.5291176,5.7799675e-06,9.369233,188.64377,0.051703878,1.0,1
112020000,112020000,0.5291176,5.8048513e-06,9.294312,187.60098,0.051163096,1.0,1
112124000,112124000,0.5291176,5.8338824e-06,9.311654,186.5399,0.051646322,1.0,1
112220000,112220000,0.5291176,5.858766e-06,9.311647,185.62321,0.051901303,1.0,1
112324000,112324000,0.5291176,5.887797e-06,9.373146,184.7185,0.052846696,1.0,1
112420000,112420000,0.5291176,5.912681e-06,9.348341,184.0206,0.052766725,1.0,1
112524000,112524000,0.5291176,5.941712e-06,9.28123,183.37228,0.052195713,1.0,1
112620000,112620000,0.5291176,5.966596e-06,9.41116,182.81252,0.053831678,1.0,1
112724000,112724000,0.5291176,5.995627e-06,9.360645,182.33133,0.053395886,1.0,1
112820000,112820000,0.5291176,6.0205107e-06,9.343876,181.98323,0.053306505,1.0,1
112924000,112924000,0.5291176,6.0495418e-06,9.458085,181.69875,0.05470311,1.0,1
113020000,113020000,0.5291176,6.0744255e-06,9.447128,181.42659,0.054658305,1.0,1
113124000,113124000,0.5291176,6.1034566e-06,9.3822365,181.23065,0.053968277,1.0,1
113220000,113220000,0.5291176,6.1283404e-06,9.5069475,181.11269,0.05544863,1.0,1
113324000,113324000,0.5291176,6.1573714e-06,9.453168,181.10378,0.054825768,1.0,1
113420000,113420000,0.5291176,6.182255e-06,9.531383,181.11852,0.05573223,1.0,1
113524000,113524000,0.5291176,6.2112863e-06,9.60451,181.20708,0.05656305,1.0,1
113620000,113620000,0.5291176,6.23617e-06,9.5695505,181.28366,0.0561283,1.0,1
113724000,113724000,0.5291176,6.265201e-06,9.564284,181.4711,0.056008633,1.0,1
113820000,113820000,0.5291176,6.290085e-06,9.656484,181.67761,0.05702878,1.0,1
113924000,113924000,0.5291176,6.319116e-06,9.63582,181.9589,0.0566972,1.0,1
114020000,114020000,0.5291176,6.3439998e-06,9.592467,182.2295,0.056104723,1.0,1
114124000,114124000,0.5291176,6.373031e-06,9.642941,182.49985,0.056612723,1.0,1
114220000,114220000,0.5291176,6.3979146e-06,9.683604,182.75552,0.057011317,1.0,1
114324000,114324000,0.5291176,6.4269457e-06,9.642354,183.03705,0.05643969,1.0,1
114420000,114420000,0.5291176,6.4518294e-06,9.640301,183.33952,0.056322586,1.0,1
114524000,114524000,0.5291176,6.4808605e-06,9.708502,183.76456,0.0569902,1.0,1
114620000,114620000,0.5291176,6.5057443e-06,9.6771555,184.10933,0.056516744,1.0,1
114724000,114724000,0.5291176,6.5347754e-06,9.744233,184.45216,0.05719645,1.0,1
114820000,114820000,0.5291176,6.559659e-06,9.751628,184.79489,0.057177052,1.0,1
114924000,114924000,0.5291176,6.58869e-06,9.816444,185.15648,0.05782651,1.0,1
115020000,115020000,0.5291176,6.613574e-06,9.801165,185.50009,0.05753985,1.0,1
115124000,115124000,0.5291176,6.642605e-06,9.794838,185.82378,0.057365492,1.0,1
115220000,115220000,0.5291176,6.667489e-06,9.785519,186.11424,0.057167023,1.0,1
115324000,115324000,0.5291176,6.69652e-06,9.819078,186.44511,0.05745766,1.0,1
115420000,115420000,0.5291176,6.7214037e-06,9.800991,186.76686,0.057147555,1.0,1
115524000,115524000,0.5291176,6.7504347e-06,9.800321,187.00316,0.057067536,1.0,1
115620000,115620000,0.5291176,6.7753185e-06,9.836986,187.23022,0.05742561,1.0,1
115724000,115724000,0.5291176,6.8043496e-06,9.760622,187.43019,0.056477174,1.0,1
115820000,115820000,0.5291176,6.8292334e-06,9.836479,187.65265,0.057290442,1.0,1
115924000,115924000,0.5291176,6.8582644e-06,9.829724,187.89842,0.05713695,1.0,1
116020000,116020000,0.5291176,6.883148e-06,9.774478,188.0474,0.056451738,1.0,1
116124000,116124000,0.5291176,6.9121793e-06,9.753167,188.21497,0.056155805,1.0,1
116220000,116220000,0.5291176,6.937063e-06,9.707921,188.32603,0.055603173,1.0,1
116324000,116324000,0.5291176,6.966094e-06,9.815832,188.49283,0.05679589,1.0,1
116420000,116420000,0.5291176,6.990978e-06,9.779482,188.6218,0.056337465,1.0,1
116524000,116524000,0.5291176,7.020009e-06,9.746725,188.68074,0.055943206,1.0,1
116620000,116620000,0.5291176,7.0448928e-06,9.808376,188.77185,0.05662582,1.0,1
116724000,116724000,0.5291176,7.073924e-06,9.8644085,188.87529,0.057243273,1.0,1
116820000,116820000,0.5291176,7.0988076e-06,9.824838,188.85612,0.0567907,1.0,1
116924000,116924000,0.5291176,7.1278387e-06,9.72964,188.93338,0.05567271,1.0,1
117020000,117020000,0.5291176,7.1527224e-06,9.768544,188.99153,0.056101546,1.0,1
117124000,117124000,0.5291176,7.1817535e-06,9.867352,189.05138,0.057224084,1.0,1
117220000,117220000,0.5291176,7.2066373e-06,9.788962,189.07597,0.05631116,1.0,1
117324000,117324000,0.5291176,7.2356684e-06,9.847996,189.12767,0.056976806,1.0,1
117420000,117420000,0.5291176,7.260552e-06,9.773241,189.16063,0.056105312,1.0,1
117524000,117524000,0.5291176,7.289583e-06,9.734995,189.13058,0.05567589,1.0,1
117620000,117620000,0.5291176,7.314467e-06,9.776073,189.11563,0.056151193,1.0,1
117724000,117724000,0.5291176,7.343498e-06,9.81847,189.0768,0.05665091,1.0,1
117820000,117820000,0.5291176,7.368382e-06,9.807641,189.08888,0.056522403,1.0,1
117924000,117924000,0.5291176,7.397413e-06,9.770232,189.09552,0.056090076,1.0,1
118020000,118020000,0.5291176,7.4222967e-06,9.780621,189.11078,0.056204878,1.0,1
118124000,118124000,0.5291176,7.4513277e-06,9.676051,189.06953,0.055021476,1.0,1
118220000,118220000,0.5291176,7.4762115e-06,9.775693,189.06258,0.056162573,1.0,1
118324000,118324000,0.5291176,7.5052426e-06,9.7607975,189.11945,0.055974722,1.0,1
118420000,118420000,0.5291176,7.5301264e-06,9.740594,189.11617,0.055744205,1.0,1
118524000,118524000,0.5291176,7.5591574e-06,9.765305,189.04776,0.05604767,1.0,1
118620000,118620000,0.5291176,7.584041e-06,9.70878,189.0374,0.055403743,1.0,1
118724000,118724000,0.5291176,7.6130723e-06,9.774051,189.06381,0.05614334,1.0,1
118820000,118820000,0.5291176,7.637956e-06,9.763405,189.0617,0.056021728,1.0,1
118924000,118924000,0.5291176,7.666987e-06,9.707242,189.09518,0.055369258,1.0,1
119020000,119020000,0.5291176,7.69187e-06,9.80128,189.09213,0.056448136,1.0,1
119124000,119124000,0.5291176,7.7209015e-06,9.827297,189.07805,0.056752443,1.0,1
119220000,119220000,0.5291176,7.745785e-06,9.755902,189.02452,0.055946667,1.0,1
119324000,119324000,0.5291176,7.774816e-06,9.725052,189.01689,0.055595644,1.0,1
119420000,119420000,0.5291176,7.7997e-06,9.835066,189.03085,0.056856398,1.0,1
119524000,119524000,0.5291176,7.828731e-06,9.819959,189.02623,0.05668325,1.0,1
119620000,119620000,0.5291176,7.853615e-06,9.711421,189.04782,0.05543083,1.0,1
119724000,119724000,0.5291176,7.882646e-06,9.795227,189.02458,0.05639859,1.0,1
119820000,119820000,0.5291176,7.90753e-06,9.786025,189.03076,0.05629083,1.0,1
119924000,119924000,0.5291176,7.936561e-06,9.738648,189.09103,0.05572934,1.0,1
120020000,120020000,0.5291176,7.961445e-06,9.785725,189.09268,0.05626894,1.0,1
120124000,120124000,0.5291176,7.990476e-06,9.793679,189.1346,0.056347966,1.0,1
120220000,120220000,0.5291176,8.0153595e-06,9.794519,189.16055,0.056349903,1.0,1
120324000,120324000,0.5291176,8.044391e-06,9.749118,189.22588,0.05580943,1.0,1
120420000,120420000,0.5291176,8.069274e-06,9.806792,189.27992,0.056455582,1.0,1
120524000,120524000,0.5291176,8.098305e-06,9.746817,189.36554,0.05574195,1.0,1
120620000,120620000,0.5291176,8.123189e-06,9.807415,189.4184,0.056421474,1.0,1
120724000,120724000,0.5291176,8.15222e-06,9.77267,189.47403,0.056005962,1.0,1
120820000,120820000,0.5291176,8.177104e-06,9.777366,189.55164,0.056036845,1.0,1
120924000,120924000,0.5291176,8.206135e-06,9.778303,189.65875,0.05601594,1.0,1
121020000,121020000,0.5291176,8.231019e-06,9.820301,189.7169,0.056480832,1.0,1
121124000,121124000,0.5291176,8.26005e-06,9.758117,189.86029,0.055725675,1.0,1
121220000,121220000,0.5291176,8.284934e-06,9.683014,189.88298,0.054864645,1.0,1
121324000,121324000,0.5291176,8.313965e-06,9.780885,189.97256,0.055952936,1.0,1
121420000,121420000,0.5291176,8.338849e-06,9.837132,190.00374,0.056589045,1.0,1
121524000,121524000,0.5291176,8.36788e-06,9.819529,190.03133,0.056378506,1.0,1
121620000,121620000,0.5291176,8.392763e-06,9.723208,190.0726,0.055265885,1.0,1
121724000,121724000,0.5291176,8.4217945e-06,9.719385,190.15224,0.055199306,1.0,1
121820000,121820000,0.5291176,8.446678e-06,9.814386,190.23581,0.056258935,1.0,1
121924000,121924000,0.5291176,8.475709e-06,9.779275,190.33058,0.055829305,1.0,1
122020000,122020000,0.5291176,8.500593e-06,9.854629,190.35263,0.05668643,1.0,1
122124000,122124000,0.5291176,8.529624e-06,9.80769,190.37904,0.056139916,1.0,1
122220000,122220000,0.5291176,8.554508e-06,9.826236,190.36842,0.05635558,1.0,1
122324000,122324000,0.5291176,8.583539e-06,9.776558,190.32968,0.05579855,1.0,1
122420000,122420000,0.5291176,8.608423e-06,9.792375,190.31224,0.05598437,1.0,1
122524000,122524000,0.5291176,8.637454e-06,9.793466,190.32362,0.0559935,1.0,1
122620000,122620000,0.5291176,8.662338e-06,9.880331,190.2934,0.05700025,1.0,1
122724000,122724000,0.5291176,8.691369e-06,9.853989,190.31886,0.056689125,1.0,1
122820000,122820000,0.5291176,8.7162525e-06,9.901479,190.34131,0.057230107,1.0,1
122924000,122924000,0.5291176,8.745284e-06,9.86794,190.36719,0.05683533,1.0,1
123020000,123020000,0.5291176,8.770167e-06,9.828254,190.39716,0.05637022,1.0,1
123124000,123124000,0.5291176,8.799198e-06,9.81578,190.4396,0.056214694,1.0,1
123220000,123220000,0.5291176,8.824082e-06,9.756364,190.44127,0.05553572,1.0,1
123324000,123324000,0.5291176,8.853113e-06,9.7828455,190.43092,0.05584064,1.0,1
123420000,123420000,0.5291176,8.877997e-06,9.793339,190.53885,0.055928804,1.0,1
123524000,123524000,0.5291176,8.907028e-06,9.886933,190.5044,0.057013236,1.0,1
123620000,123620000,0.5291176,8.931912e-06,9.874743,190.5179,0.056868706,1.0,1
123724000,123724000,0.5291176,8.960943e-06,9.797257,190.46841,0.05599427,1.0,1
123820000,123820000,0.5291176,8.985827e-06,9.789194,190.42159,0.055915885,1.0,1
123924000,123924000,0.5291176,9.014858e-06,9.786286,190.38905,0.05589222,1.0,1
124020000,124020000,0.5291176,9.039742e-06,9.798404,190.35492,0.05604076,1.0,1
124124000,124124000,0.5291176,9.068773e-06,9.888714,190.34431,0.057081737,1.0,1
124220000,124220000,0.5291176,9.093656e-06,9.797767,190.3755,0.05602742,1.0,1
124324000,124324000,0.5291176,9.1226875e-06,9.818713,190.39168,0.056262452,1.0,1
124420000,124420000,0.5291176,9.147571e-06,9.818151,190.35925,0.0562656,1.0,1
124524000,124524000,0.5291176,9.176602e-06,9.746993,190.3081,0.055467874,1.0,1
124620000,124620000,0.5291176,9.201486e-06,9.7859955,190.28722,0.05591881,1.0,1
124724000,124724000,0.5291176,9.230517e-06,9.774168,190.3226,0.05577335,1.0,1
124820000,124820000,0.5291176,9.255401e-06,9.836441,190.247,0.056508746,1.0,1
124924000,124924000,0.5291176,9.284432e-06,9.7633295,190.27924,0.055662405,1.0,1
125020000,125020000,0.5291176,9.309316e-06,9.812232,190.28708,0.05621909,1.0,1
125124000,125124000,0.5291176,9.338347e-06,9.808788,190.23268,0.0561957,1.0,1
125220000,125220000,0.5291176,9.363231e-06,9.85107,190.20714,0.056688834,1.0,1
125324000,125324000,0.5291176,9.392262e-06,9.842845,190.14442,0.056612875,1.0,1
125420000,125420000,0.5291176,9.4171455e-06,9.769981,190.15219,0.05577552,1.0,1
125524000,125524000,0.5291176,9.446177e-06,9.847265,190.16423,0.056657832,1.0,1
125620000,125620000,0.5291176,9.47106e-06,9.821249,190.16455,0.05635875,1.0,1
125724000,125724000,0.5291176,9.500091e-06,9.783732,190.06049,0.055959623,1.0,1
125820000,125820000,0.5291176,9.524975e-06,9.809496,189.9834,0.056277554,1.0,1
125924000,125924000,0.5291176,9.554006e-06,9.748155,189.92416,0.055593252,1.0,1
126020000,126020000,0.5291176,9.57889e-06,9.796267,189.89273,0.05615266,1.0,1
126124000,126124000,0.5291176,9.607921e-06,9.797852,189.86134,0.05618012,1.0,1
126220000,126220000,0.5291176,9.632805e-06,9.846574,189.9274,0.056720514,1.0,1
126324000,126324000,0.5291176,9.661836e-06,9.7703905,189.97704,0.055831622,1.0,1
126420000,126420000,0.5291176,9.68672e-06,9.747898,189.90117,0.05559706,1.0,1
126524000,126524000,0.5291176,9.715751e-06,9.775298,189.89339,0.05591234,1.0,1
126620000,126620000,0.5291176,9.740635e-06,9.823684,189.95515,0.056448855,1.0,1
126724000,126724000,0.5291176,9.769666e-06,9.786042,189.98718,0.056007653,1.0,1
126820000,126820000,0.5291176,9.794549e-06,9.845438,189.99065,0.05668855,1.0,1
126924000,126924000,0.5291176,9.8235805e-06,9.7739315,190.01918,0.055859707,1.0,1
127020000,127020000,0.5291176,9.848464e-06,9.801702,190.0377,0.056172103,1.0,1
127124000,127124000,0.5291176,9.877495e-06,9.794341,190.10277,0.05606857,1.0,1
127220000,127220000,0.5291176,9.902379e-06,9.834545,190.12563,0.056523025,1.0,1
127324000,127324000,0.5291176,9.93141e-06,9.870249,190.16158,0.05692341,1.0,1
127420000,127420000,0.5291176,9.956294e-06,9.738488,190.1924,0.055404805,1.0,1
127524000,127524000,0.5291176,9.985325e-06,9.853688,190.25304,0.05670528,1.0,1
127620000,127620000,0.5291176,1.0010209e-05,9.811135,190.25252,0.05621673,1.0,1
127724000,127724000,0.5291176,1.003924e-05,9.825606,190.34966,0.05635392,1.0,1
127820000,127820000,0.5291176,1.0064124e-05,9.814289,190.41795,0.056204006,1.0,1
127924000,127924000,0.5291176,1.0093155e-05,9.897879,190.51242,0.05713713,1.0,1
128020000,128020000,0.5291176,1.01180385e-05,9.751061,190.59418,0.055430863,1.0,1
128124000,128124000,0.5291176,1.014707e-05,9.775461,190.69754,0.05567842,1.0,1
128220000,128220000,0.5291176,1.0171953e-05,9.856522,190.71078,0.056601714,1.0,1
128324000,128324000,0.5291176,1.0200984e-05,9.857526,190.82454,0.0565795,1.0,1
128420000,128420000,0.5291176,1.0225868e-05,9.776323,190.91309,0.05562537,1.0,1
128524000,128524000,0.5291176,1.0254899e-05,9.790948,191.00346,0.05576552,1.0,1
128620000,128620000,0.5291176,1.0279783e-05,9.729263,191.13205,0.055028018,1.0,1
128724000,128724000,0.5291176,1.0308814e-05,9.830714,191.24263,0.056149118,1.0,1
128820000,128820000,0.5291176,1.0333698e-05,9.860576,191.312,0.056470264,1.0,1
128924000,128924000,0.5291176,1.0362729e-05,9.831114,191.34752,0.056122903,1.0,1
129020000,129020000,0.5291176,1.0387613e-05,9.850565,191.34517,0.05634589,1.0,1
129124000,129124000,0.5291176,1.0416644e-05,9.880462,191.44073,0.056660138,1.0,1
129220000,129220000,0.5291176,1.0441528e-05,9.839049,191.50844,0.056166306,1.0,1
129324000,129324000,0.5291176,1.0470559e-05,9.80603,191.53137,0.055783276,1.0,1
129420000,129420000,0.5291176,1.0495442e-05,9.85012,191.62929,0.056257267,1.0,1
129524000,129524000,0.5291176,1.05244735e-05,9.855162,191.64165,0.056311246,1.0,1
129620000,129620000,0.5291176,1.0549357e-05,9.787256,191.66925,0.05552991,1.0,1
129724000,129724000,0.5291176,1.0578388e-05,9.897204,191.6706,0.056784146,1.0,1
129820000,129820000,0.5291176,1.0603272e-05,9.798993,191.70497,0.0556528,1.0,1
129924000,129924000,0.5291176,1.0632303e-05,9.7976265,191.67024,0.05564736,1.0,1
130020000,130020000,0.5291176,1.0657187e-05,9.7989235,191.71083,0.055650305,1.0,1
130124000,130124000,0.5291176,1.0686218e-05,9.787032,191.74913,0.055504233,1.0,1
130220000,130220000,0.5291176,1.0711102e-05,9.80157,191.85765,0.05563776,1.0,1
130324000,130324000,0.5291176,1.0740133e-05,9.812192,191.90068,0.05574592,1.0,1
130420000,130420000,0.5291176,1.0765017e-05,9.720702,191.91101,0.054708257,1.0,1
130524000,130524000,0.5291176,1.0794048e-05,9.798712,191.91199,0.055589575,1.0,1
130620000,130620000,0.5291176,1.08189315e-05,9.67868,191.8838,0.05424397,1.0,1
130724000,130724000,0.5291176,1.0847963e-05,9.645307,191.89851,0.053866398,1.0,1
130820000,130820000,0.5291176,1.0872846e-05,9.432633,191.94289,0.051505234,1.0,1
130924000,130924000,0.5291176,1.0901877e-05,9.06835,192.13956,0.047555115,1.0,1
131020000,131020000,0.5291176,1.0926761e-05,8.90246,192.41261,0.045766115,1.0,1
131124000,131124000,0.5291176,1.0955792e-05,8.855043,192.88742,0.04516843,1.0,1
131220000,131220000,0.5291176,1.0980676e-05,8.8925495,193.3521,0.045442395,1.0,1
131324000,131324000,0.5291176,1.1009707e-05,8.9358225,193.92725,0.045749646,1.0,1
131420000,131420000,0.5291176,1.1034591e-05,9.017759,194.60396,0.046430472,1.0,1
131524000,131524000,0.5291176,1.1063622e-05,9.123942,195.33788,0.047351755,1.0,1
131620000,131620000,0.5291176,1.1088506e-05,9.327703,196.07188,0.049305074,1.0,1
131724000,131724000,0.5291176,1.1117537e-05,9.414419,196.96048,0.049999475,1.0,1
131820000,131820000,0.5291176,1.1142421e-05,9.754882,197.79868,0.053453747,1.0,1
131924000,131924000,0.5291176,1.1171452e-05,9.779122,198.6296,0.053495012,1.0,1
132020000,132020000,0.5291176,1.1196335e-05,9.956367,199.35583,0.055249747,1.0,1
132124000,132124000,0.5291176,1.12253665e-05,10.054754,200.183,0.05611426,1.0,1
132220000,132220000,0.5291176,1.125025e-05,10.15394,201.00456,0.056992903,1.0,1
132324000,132324000,0.5291176,1.1279281e-05,10.164876,201.71255,0.056915265,1.0,1
132420000,132420000,0.5291176,1.1304165e-05,10.268955,202.22337,0.05794002,1.0,1
132524000,132524000,0.5291176,1.1333196e-05,10.377513,202.83496,0.0589931,1.0,1
132620000,132620000,0.5291176,1.135808e-05,10.264232,203.52803,0.057515666,1.0,1
132724000,132724000,0.5291176,1.1387111e-05,10.364075,204.09871,0.058476087,1.0,1
132820000,132820000,0.5291176,1.1411995e-05,10.402393,204.42545,0.058815133,1.0,1
132924000,132924000,0.5291176,1.1441026e-05,10.330081,204.89381,0.057867683,1.0,1
133020000,133020000,0.5291176,1.146591e-05,10.291105,205.4484,0.057276804,1.0,1
133124000,133124000,0.5291176,1.1494941e-05,10.196445,205.8027,0.056131158,1.0,1
133220000,133220000,0.5291176,1.15198245e-05,10.200495,206.0276,0.05611443,1.0,1
133324000,133324000,0.5291176,1.1548856e-05,10.111218,206.26895,0.055071972,1.0,1
133420000,133420000,0.5291176,1.1573739e-05,10.109565,206.61209,0.054962527,1.0,1
133524000,133524000,0.5291176,1.160277e-05,10.077232,206.84116,0.054551046,1.0,1
133620000,133620000,0.5291176,1.1627654e-05,10.077633,206.85449,0.054551866,1.0,1
133724000,133724000,0.5291176,1.1656685e-05,10.135905,206.94788,0.055159662,1.0,1
133820000,133820000,0.5291176,1.1681569e-05,10.126601,207.04655,0.055032205,1.0,1
133924000,133924000,0.5291176,1.17106e-05,10.156018,207.0258,0.055357948,1.0,1
134020000,134020000,0.5291176,1.1735484e-05,10.192066,206.84982,0.05579905,1.0,1
134124000,134124000,0.5291176,1.1764515e-05,10.200512,206.5525,0.055972017,1.0,1
134220000,134220000,0.5291176,1.1789399e-05,10.220424,206.27306,0.056266874,1.0,1
134324000,134324000,0.5291176,1.181843e-05,10.358962,205.73454,0.057953916,1.0,1
134420000,134420000,0.5291176,1.1843314e-05,10.284848,205.06425,0.05731434,1.0,1
134524000,134524000,0.5291176,1.1872345e-05,10.168334,204.42416,0.05619852,1.0,1
134620000,134620000,0.5291176,1.1897228e-05,10.266768,203.83244,0.05745816,1.0,1
134724000,134724000,0.5291176,1.19262595e-05,10.1975765,203.09444,0.05689229,1.0,1
134820000,134820000,0.5291176,1.1951143e-05,10.114871,202.34157,0.056181468,1.0,1
134924000,134924000,0.5291176,1.1980174e-05,10.089286,201.45183,0.056144487,1.0,1
135020000,135020000,0.5291176,1.2005058e-05,9.938337,200.66089,0.0546918,1.0,1
135124000,135124000,0.5291176,1.2034089e-05,9.925546,199.7826,0.054790925,1.0,1
135220000,135220000,0.5291176,1.2058973e-05,9.829865,198.94751,0.05396524,1.0,1
135324000,135324000,0.5291176,1.2088004e-05,9.855913,198.11075,0.054480765,1.0,1
135420000,135420000,0.5291176,1.2112888e-05,9.833257,197.3387,0.05444274,1.0,1
135524000,135524000,0.5291176,1.2141919e-05,9.752455,196.50343,0.05377931,1.0,1
135620000,135620000,0.5291176,1.2166803e-05,9.75627,195.76607,0.054024123,1.0,1
135724000,135724000,0.5291176,1.2195834e-05,9.704904,194.99284,0.053668723,1.0,1
135820000,135820000,0.5291176,1.22207175e-05,9.663251,194.29926,0.053398967,1.0,1
135924000,135924000,0.5291176,1.2249749e-05,9.69986,193.6031,0.0539978,1.0,1
136020000,136020000,0.5291176,1.2274632e-05,9.682697,193.01083,0.053972,1.0,1
136124000,136124000,0.5291176,1.2303663e-05,9.591276,192.37311,0.053133193,1.0,1
136220000,136220000,0.5291176,1.2328547e-05,9.5809965,191.8294,0.053169634,1.0,1
136324000,136324000,0.5291176,1.2357578e-05,9.467834,191.2244,0.052085344,1.0,1
