timestamp,timestamp_sample,time_last_fuse,device_id,observation[0],observation[1],observation_variance[0],observation_variance[1],innovation[0],innovation[1],innovation_variance[0],innovation_variance[1],test_ratio[0],test_ratio[1],estimator_instance,fusion_enabled,innovation_rejected,fused
3492000,3368914,0,0,0.0,0.0,1.0,1.0,1.4004994e-05,-1.4285319e-05,101.20649,101.20649,7.7520665e-14,8.065503e-14,0,1,0,0
3892000,3769319,0,0,0.0,0.0,1.0,1.0,6.967577e-05,-4.898148e-05,1.0001111,1.0001111,1.9416696e-10,9.595676e-11,0,1,0,0
4292000,4169588,0,0,0.0,0.0,1.0,1.0,0.00025411585,-0.00021119721,1.000408,1.000408,2.581941e-09,1.7834428e-09,0,1,0,0
4692000,4569751,0,0,0.0,0.0,1.0,1.0,-5.4748965e-05,-0.00016020564,1.0001941,1.0001941,1.198747e-10,1.0264347e-09,0,1,0,0
5092000,4969850,0,0,0.0,0.0,1.0,1.0,0.0007265691,-0.00014879525,1.0001421,1.0001421,2.1113108e-08,8.8547536e-10,0,1,0,0
5492000,5369909,0,0,0.0,0.0,1.0,1.0,0.0005244972,0.00021048667,1.0001247,1.0001247,1.1002521e-08,1.7719646e-09,0,1,0,0
5892000,5769945,0,0,0.0,0.0,1.0,1.0,-0.00018472104,0.00017415191,1.0001122,1.0001122,1.3647213e-09,1.2130195e-09,0,1,0,0
6292000,6169967,0,0,0.0,0.0,1.0,1.0,0.00014103978,0.00032148292,1.0001009,1.0001009,7.956085e-10,4.133634e-09,0,1,0,0
6684000,6565980,0,0,0.0,0.0,1.0,1.0,0.00023391955,-0.00044665774,1.0000874,1.0000874,2.1885431e-09,7.979429e-09,0,1,0,0
7092000,6969988,0,0,0.0,0.0,1.0,1.0,-0.00014689977,-0.000628756,1.0000824,1.0000824,8.631105e-10,1.5812063e-08,0,1,0,0
7492000,7369993,0,0,0.0,0.0,1.0,1.0,-0.0010564355,-0.00010040194,1.0000759,1.0000759,4.463885e-08,4.0319142e-10,0,1,0,0
7892000,7769996,0,0,0.0,0.0,1.0,1.0,-0.00074488367,0.00024320504,1.0000695,1.0000695,2.2192525e-08,2.3657831e-09,0,1,0,0
8292000,8169998,0,0,-0.011119492,0.0,1.0,1.0,0.010971174,-5.9290338e-05,1.0000639,1.0000639,4.8143584e-06,1.4060478e-10,0,1,0,0
8684000,8569999,8604000,0,0.0,0.0,1.0,1.0,0.0001829405,-0.0012795413,1.0001465,1.0001465,1.3384929e-09,6.547944e-08,0,1,0,0
9084000,8966000,9004000,0,0.0,0.0,1.0,1.0,-0.0005461354,0.0040571936,2.014439,2.014439,5.9225203e-09,3.2685665e-07,0,1,0,1
9492000,9370000,9412000,0,-0.011119492,0.0,1.0,1.0,0.014369561,0.0060298713,1.5185089,1.5185089,5.439133e-06,9.577644e-07,0,1,0,1
9884000,9770000,9804000,0,0.0,0.0,1.0,1.0,-0.002402826,0.004409174,1.3538826,1.3538826,1.7057825e-07,5.743722e-07,0,1,0,1
10292000,10170000,10212000,0,0.0,0.0,1.0,1.0,-0.002870084,0.006935112,1.2739626,1.2739626,2.5863812e-07,1.5101159e-06,0,1,0,1
10692000,10570000,10612000,0,-0.011119492,0.0,1.0,1.0,0.019662788,0.008251532,1.2272058,1.2272058,1.2601807e-05,2.2192783e-06,0,1,0,1
11092000,10970000,11012000,0,0.0,0.0,1.0,1.0,0.007528676,0.015633091,1.197396,1.197396,1.8934743e-06,8.164167e-06,0,1,0,1
11492000,11370000,11412000,0,0.0,0.0,1.0,1.0,0.01297742,0.012913075,1.1773813,1.1773812,5.7216275e-06,5.665031e-06,0,1,0,1
11892000,11770000,11812000,0,0.0,0.0,1.0,1.0,0.010122987,0.007681789,1.1635838,1.1635836,3.522733e-06,2.0285565e-06,0,1,0,1
12284000,12170000,12204000,0,0.0,0.0,1.0,1.0,0.012225095,0.0018662582,1.1535598,1.1535597,5.182322e-06,1.207712e-07,0,1,0,1
12692000,12570000,12612000,0,0.0,0.0,1.0,1.0,0.010159573,0.0060201595,1.1474135,1.1474134,3.5982466e-06,1.2634442e-06,0,1,0,1
13092000,12970000,13012000,0,0.0,0.0,1.0,1.0,0.014084393,0.0048458423,1.1428299,1.1428298,6.9431203e-06,8.2189626e-07,0,1,0,1
13492000,13370000,13412000,0,-0.011119492,0.0,1.0,1.0,0.020120373,0.003085322,1.1397086,1.1397085,1.4208173e-05,3.3409285e-07,0,1,0,1
13884000,13766000,13804000,0,0.0,0.0,1.0,1.0,0.0022207242,-0.004225671,1.1370732,1.137073,1.7348458e-07,6.281494e-07,0,1,0,1
14292000,14170000,14212000,0,0.0,-0.008919886,1.0,1.0,0.0026616133,0.003688362,1.136279,1.1362787,2.4938188e-07,4.7889705e-07,0,1,0,1
14692000,14570000,14612000,0,0.0,-0.008919886,1.0,1.0,0.003234272,0.0038022003,1.1353021,1.1353018,3.6855442e-07,5.0935273e-07,0,1,0,1
15092000,14970000,15012000,0,0.0,0.0,1.0,1.0,0.007097104,-0.0041467506,1.1346251,1.1346248,1.7757014e-06,6.0621056e-07,0,1,0,1
15484000,15370000,15404000,0,0.0,0.0,1.0,1.0,0.005974815,-0.008071483,1.1335676,1.1335675,1.2596837e-06,2.2988959e-06,0,1,0,1
15892000,15770000,15812000,0,0.0,0.0,1.0,1.0,0.005648848,-0.009707526,1.1338798,1.1338795,1.1256744e-06,3.3243766e-06,0,1,0,1
16284000,16166000,16204000,0,0.0,-0.008919886,1.0,1.0,0.0052836966,0.0013306537,1.1330001,1.133,9.856116e-07,6.251153e-08,0,1,0,1
16692000,16570000,16612000,0,0.0,0.0,1.0,1.0,0.008381935,-0.006622201,1.1334196,1.1334195,2.479464e-06,1.5476544e-06,0,1,0,1
17092000,16970000,17012000,0,0.0,0.0,1.0,1.0,0.011297254,-0.010018936,1.1331688,1.1331687,4.50517e-06,3.5433059e-06,0,1,0,1
17492000,17370000,17412000,0,0.0,0.0,1.0,1.0,0.009968751,-0.012653836,1.1329356,1.1329355,3.5086193e-06,5.6532635e-06,0,1,0,1
17892000,17770000,17812000,0,0.0,0.0,1.0,1.0,0.008262935,-0.011590852,1.1327114,1.1327113,2.4110675e-06,4.7442936e-06,0,1,0,1
18292000,18170000,18212000,0,0.0,0.0,1.0,1.0,0.011833814,-0.006370253,1.1324892,1.1324891,4.9462424e-06,1.4333073e-06,0,1,0,1
18684000,18566000,18604000,0,0.0,-0.008919886,1.0,1.0,0.01202017,0.004656108,1.1317105,1.1317104,5.1067645e-06,7.6625054e-07,0,1,0,1
19092000,18970000,19012000,0,0.0,0.0,1.0,1.0,0.012382877,-0.012357552,1.1321335,1.1321334,5.4175816e-06,5.395445e-06,0,1,0,1
19492000,19370000,19412000,0,0.0,0.0,1.0,1.0,0.01169815,-0.0130906245,1.1318924,1.1318922,4.8360325e-06,6.0558573e-06,0,1,0,1
19884000,19766000,19804000,0,0.0,0.0,1.0,1.0,0.015941959,-0.010733067,1.1311132,1.1311128,8.987467e-06,4.073819e-06,0,1,0,1
20292000,20170000,20212000,0,0.0,0.0,1.0,1.0,0.0154049,-0.017279228,1.1315045,1.131504,8.389217e-06,1.0554862e-05,0,1,0,1
20692000,20570000,20612000,0,0.0,-0.008919886,1.0,1.0,0.0150147155,-0.007019778,1.1312562,1.1312556,7.9713745e-06,1.7423924e-06,0,1,0,1
21084000,20970000,21004000,0,0.0,0.0,1.0,1.0,0.014783846,-0.016970081,1.1304845,1.130484,7.733396e-06,1.0189747e-05,0,1,0,1
21492000,21370000,21412000,0,0.0,0.0,1.0,1.0,0.010279285,-0.013047781,1.1308599,1.1308594,3.7374639e-06,6.0217776e-06,0,1,0,1
21892000,21770000,21812000,0,0.0,0.008919886,1.0,1.0,0.009860346,-0.018464632,1.1306181,1.1306177,3.4397617e-06,1.2062172e-05,0,1,0,1
22284000,22170000,22204000,0,0.0,0.0,1.0,1.0,-0.0020437948,-0.012970045,1.12987,1.1298698,1.4787885e-07,5.9554495e-06,0,1,0,1
22692000,22570000,22612000,0,0.0,0.0,1.0,1.0,-0.0007251883,-0.014009615,1.1302481,1.1302478,1.8611775e-08,6.9460634e-06,0,1,0,1
23084000,22970000,23004000,0,0.0,0.0,1.0,1.0,0.0004894451,-0.013201623,1.1295152,1.1295149,8.483517e-09,6.1719543e-06,0,1,0,1
23484000,23366000,23404000,0,0.0,0.0,1.0,1.0,0.0016539986,-0.012928165,1.1293899,1.1293896,9.6891654e-08,5.919567e-06,0,1,0,1
23892000,23770000,23812000,0,0.0,-0.008919886,1.0,1.0,0.0023708593,-0.0004346054,1.1297731,1.1297729,1.9901248e-07,6.6874275e-09,0,1,0,1
24284000,24170000,24204000,0,0.0,0.0,1.0,1.0,0.0063671917,-0.00993224,1.1290662,1.1290659,1.4362711e-06,3.4949028e-06,0,1,0,1
24684000,24570000,24604000,0,0.0,0.0,1.0,1.0,0.0074998345,-0.011152581,1.1289603,1.1289599,1.9928964e-06,4.4068906e-06,0,1,0,1
25092000,24970000,25012000,0,0.0,0.0,1.0,1.0,0.0017712996,-0.008167104,1.1293582,1.1293577,1.11125146e-07,2.362461e-06,0,1,0,1
25484000,25370000,25404000,0,0.0,0.0,1.0,1.0,-0.0005189727,-0.016373176,1.1286795,1.1286793,9.545053e-09,9.500693e-06,0,1,0,1
25892000,25770000,25812000,0,0.0,0.0,1.0,1.0,-0.0032032696,-0.02066191,1.1290935,1.1290932,3.6351057e-07,1.5124155e-05,0,1,0,1
26292000,26170000,26212000,0,0.0,0.0,1.0,1.0,-0.0029613455,-0.02100657,1.1289341,1.1289339,3.1072022e-07,1.5635138e-05,0,1,0,1
26684000,26570000,26604000,0,0.0,0.0,1.0,1.0,-0.0064042057,-0.0200056,1.1282933,1.1282932,1.4540137e-06,1.4188655e-05,0,1,0,1
27084000,26966000,27004000,0,0.0,0.008919886,1.0,1.0,-0.002429113,-0.033183653,1.1282382,1.1282383,2.091966e-07,3.9039798e-05,0,1,0,1
27492000,27370000,27412000,0,0.0,0.0,1.0,1.0,-0.002940951,-0.023994964,1.1286784,1.1286787,3.0652458e-07,2.0404685e-05,0,1,0,1
27892000,27770000,27812000,0,0.0,-0.008919886,1.0,1.0,-0.00030078294,-0.015711978,1.128549,1.1285495,3.2066088e-09,8.749861e-06,0,1,0,1
28292000,28170000,28212000,0,0.0,0.0,1.0,1.0,-0.0016803253,-0.029744385,1.1284314,1.1284322,1.0008558e-07,3.1361335e-05,0,1,0,1
28692000,28570000,28612000,0,0.0,0.0,1.0,1.0,-0.0029315625,-0.03221181,1.1283258,1.1283265,3.0466583e-07,3.6783702e-05,0,1,0,1
29092000,28970000,29012000,0,0.0,0.0,1.0,1.0,-0.0040799477,-0.035797592,1.1282302,1.128231,5.901623e-07,4.5432807e-05,0,1,0,1
29492000,29370000,29412000,0,0.0,0.0,1.0,1.0,-0.008620979,-0.034357853,1.1281433,1.128144,2.6351715e-06,4.1855015e-05,0,1,0,1
29892000,29770000,29812000,0,0.0,0.0,1.0,1.0,-0.008184877,-0.032952316,1.128065,1.1280656,2.3754737e-06,3.8503265e-05,0,1,0,1
30292000,30170000,30212000,0,0.0,-0.008919886,1.0,1.0,-0.007878568,-0.021319553,1.1279949,1.1279955,2.2011388e-06,1.6117914e-05,0,1,0,1
30692000,30570000,30612000,0,0.0,0.0,1.0,1.0,-0.0026134902,-0.03058835,1.1279321,1.1279323,2.4222493e-07,3.3180968e-05,0,1,0,1
31092000,30970000,31012000,0,0.0,0.0,1.0,1.0,-0.001558215,-0.027106216,1.1278744,1.1278744,8.611009e-08,2.605776e-05,0,1,0,1
31492000,31370000,31412000,0,0.0,0.0,1.0,1.0,-0.00075021613,-0.023315804,1.1278224,1.1278222,1.996145e-08,1.9280582e-05,0,1,0,1
31892000,31770000,31812000,0,0.0,0.0,1.0,1.0,0.00094833615,-0.0241888,1.1277753,1.1277747,3.1897894e-08,2.0752303e-05,0,1,0,1
32292000,32170000,32212000,0,0.0,0.0,1.0,1.0,-0.0010838156,-0.028003162,1.1277324,1.1277313,4.1664357e-08,2.7814322e-05,0,1,0,1
32684000,32570000,32604000,0,0.0,0.0,1.0,1.0,0.00089222455,-0.02104993,1.1272088,1.1272074,2.8249055e-08,1.5723797e-05,0,1,0,1
33092000,32970000,33012000,0,0.0,0.0,1.0,1.0,0.0031744777,-0.021330632,1.1277312,1.1277289,3.5743656e-07,1.6138483e-05,0,1,0,1
33484000,33370000,33404000,0,0.0,0.0,1.0,1.0,0.0019440962,-0.022563018,1.1272055,1.1272026,1.3411965e-07,1.80656e-05,0,1,0,1
33892000,33770000,33812000,0,0.0,0.0,1.0,1.0,0.00892445,-0.023403704,1.1277261,1.1277221,2.8250054e-06,1.9427955e-05,0,1,0,1
34284000,34170000,34204000,0,0.0,0.0,1.0,1.0,0.010638836,-0.023985917,1.1271979,1.1271933,4.0165023e-06,2.041617e-05,0,1,0,1
34692000,34570000,34612000,0,0.0,0.0,1.0,1.0,0.013291392,-0.032607798,1.1277162,1.1277109,6.2661543e-06,3.771422e-05,0,1,0,1
35084000,34970000,35004000,0,0.0,0.0,1.0,1.0,0.013918534,-0.039510444,1.1271867,1.1271813,6.8746585e-06,5.5397482e-05,0,1,0,1
35492000,35370000,35412000,0,0.0,0.0,1.0,1.0,0.014230856,-0.039913803,1.1277013,1.1276959,7.1833656e-06,5.6508554e-05,0,1,0,1
35892000,35770000,35812000,0,0.0,0.0,1.0,1.0,0.014322414,-0.040483434,1.1276525,1.1276473,7.2764096e-06,5.8135498e-05,0,1,0,1
36292000,36170000,36212000,0,0.0,0.0,1.0,1.0,0.014791462,-0.037265476,1.1276084,1.1276034,7.76111e-06,4.926256e-05,0,1,0,1
36692000,36570000,36612000,0,0.0,0.0,1.0,1.0,0.015027718,-0.038677543,1.1275681,1.1275636,8.011305e-06,5.3068485e-05,0,1,0,1
37084000,36970000,37004000,0,-0.011119492,-0.008919886,1.0,1.0,0.028819645,-0.031005606,1.1270497,1.1270461,2.9477738e-05,3.411919e-05,0,1,0,1
37484000,37370000,37404000,0,0.0,0.0,1.0,1.0,0.012156818,-0.038447,1.1270887,1.1270857,5.244955e-06,5.245996e-05,0,1,0,1
37884000,37770000,37804000,0,0.0,0.0,1.0,1.0,0.008230054,-0.03875908,1.1271217,1.1271193,2.403779e-06,5.3313473e-05,0,1,0,1
38284000,38170000,38204000,0,0.0,0.0,1.0,1.0,0.008803914,-0.03930318,1.1271479,1.1271461,2.7506205e-06,5.481951e-05,0,1,0,1
38692000,38570000,38612000,0,0.0,-0.008919886,1.0,1.0,0.008425182,-0.030738968,1.1276505,1.1276491,2.5179322e-06,3.351696e-05,0,1,0,1
39092000,38970000,39012000,0,0.0,0.0,1.0,1.0,0.012953054,-0.041002017,1.1275932,1.1275918,5.9518493e-06,5.963737e-05,0,1,0,1
39492000,39370000,39412000,0,0.0,0.0,1.0,1.0,0.020749804,-0.04103262,1.1275395,1.1275382,1.527412e-05,5.972927e-05,0,1,0,1
39892000,39770000,39812000,0,0.0,0.0,1.0,1.0,0.023994451,-0.038456906,1.1274921,1.127491,2.0425286e-05,5.246813e-05,0,1,0,1
40284000,40166000,40204000,0,0.0,0.0,1.0,1.0,0.02257989,-0.041041926,1.126968,1.126967,1.8096394e-05,5.9786656e-05,0,1,0,1
40692000,40570000,40612000,0,0.0,0.0,1.0,1.0,0.025636587,-0.040835284,1.1274824,1.1274811,2.331689e-05,5.9159145e-05,0,1,0,1
41092000,40970000,41012000,0,0.0,0.0,1.0,1.0,0.020730037,-0.04047216,1.1274374,1.127436,1.52464145e-05,5.8114012e-05,0,1,0,1
41492000,41370000,41412000,0,0.0,0.0,1.0,1.0,0.023344027,-0.044751596,1.1273973,1.1273959,1.9334571e-05,7.1055976e-05,0,1,0,1
41884000,41770000,41804000,0,0.0,0.0,1.0,1.0,0.021099206,-0.043312576,1.1268822,1.1268809,1.580206e-05,6.659015e-05,0,1,0,1
42284000,42170000,42204000,0,0.0,0.0,1.0,1.0,0.022419034,-0.04584043,1.126924,1.1269226,1.7840175e-05,7.458703e-05,0,1,0,1
42692000,42570000,42612000,0,0.0,0.0,1.0,1.0,0.019934017,-0.04462885,1.1274406,1.1274393,1.4097951e-05,7.0664006e-05,0,1,0,1
43092000,42970000,43012000,0,0.011119493,0.0,1.0,1.0,0.012570911,-0.042999353,1.1273999,1.1273987,5.6068056e-06,6.560037e-05,0,1,0,1
43492000,43370000,43412000,0,0.0,0.0,1.0,1.0,0.02188654,-0.043970868,1.1273631,1.1273619,1.6996144e-05,6.8600406e-05,0,1,0,1
43892000,43770000,43812000,0,0.0,0.0,1.0,1.0,0.018565265,-0.047097515,1.127331,1.1273301,1.22295605e-05,7.870546e-05,0,1,0,1
44292000,44170000,44212000,0,0.0,0.0,1.0,1.0,0.011092349,-0.043903004,1.1273029,1.1273023,4.3658265e-06,6.839244e-05,0,1,0,1
44684000,44570000,44604000,0,0.0,0.0,1.0,1.0,0.0081348065,-0.041368246,1.1267996,1.1267993,2.3491336e-06,6.075019e-05,0,1,0,1
45092000,44970000,45012000,0,0.0,0.0,1.0,1.0,0.012261301,-0.03892331,1.1273309,1.1273313,5.334352e-06,5.375612e-05,0,1,0,1
45484000,45370000,45404000,0,0.0,0.0,1.0,1.0,0.012224789,-0.042567518,1.1268249,1.126826,5.305011e-06,6.4322034e-05,0,1,0,1
45884000,45766000,45804000,0,0.0,0.0,1.0,1.0,0.0018592936,-0.035834555,1.1268733,1.126875,1.2271025e-07,4.558146e-05,0,1,0,1
46292000,46170000,46212000,0,0.0,0.0,1.0,1.0,-0.00042237155,-0.03281096,1.1273959,1.1273987,6.3295507e-09,3.8196213e-05,0,1,0,1
46692000,46570000,46612000,0,0.0,0.0,1.0,1.0,-0.0017091273,-0.033879817,1.1273605,1.1273642,1.03644446e-07,4.072657e-05,0,1,0,1
47084000,46970000,47004000,0,0.0,0.0,1.0,1.0,-0.001256999,-0.031322785,1.1268502,1.1268544,5.608718e-08,3.482675e-05,0,1,0,1
47484000,47370000,47404000,0,0.0,0.0,1.0,1.0,-0.0018357971,-0.029754834,1.1268967,1.1269015,1.1962591e-07,3.1426e-05,0,1,0,1
47892000,47770000,47812000,0,0.0,0.0,1.0,1.0,-0.0032432612,-0.027122226,1.127416,1.1274219,3.731983e-07,2.609902e-05,0,1,0,1
48284000,48170000,48204000,0,0.0,0.0,1.0,1.0,-0.0042290254,-0.02555175,1.1268979,1.1269041,6.348279e-07,2.3174709e-05,0,1,0,1
48684000,48570000,48604000,0,-0.011119492,0.0,1.0,1.0,0.0063100937,-0.023400273,1.1269354,1.1269422,1.4132943e-06,1.9435702e-05,0,1,0,1
49092000,48970000,49012000,0,0.0,0.0,1.0,1.0,-0.0028481716,-0.023785336,1.1274471,1.127454,2.8780352e-07,2.0071495e-05,0,1,0,1
49492000,49370000,49412000,0,0.0,0.0,1.0,1.0,-0.011535859,-0.018558737,1.1274017,1.127409,4.7215126e-06,1.2220116e-05,0,1,0,1
49892000,49770000,49812000,0,0.0,0.0,1.0,1.0,-0.008991239,-0.018272255,1.1273599,1.1273673,2.8683787e-06,1.1846195e-05,0,1,0,1
50284000,50170000,50204000,0,0.0,0.0,1.0,1.0,-0.011617111,-0.021195082,1.126845,1.1268523,4.790624e-06,1.594642e-05,0,1,0,1
50692000,50570000,50612000,0,0.0,0.0,1.0,1.0,-0.014323442,-0.020525133,1.1273648,1.1273721,7.279312e-06,1.4947365e-05,0,1,0,1
51092000,50970000,51012000,0,0.0,0.0,1.0,1.0,-0.016690953,-0.017357834,1.1273276,1.1273347,9.884896e-06,1.0690503e-05,0,1,0,1
51492000,51370000,51412000,0,0.0,0.0,1.0,1.0,-0.018752486,-0.02082285,1.1272945,1.1273015,1.2477864e-05,1.5385096e-05,0,1,0,1
51884000,51770000,51804000,0,0.0,0.0,1.0,1.0,-0.019576354,-0.020024838,1.1267878,1.1267945,1.3604465e-05,1.42348645e-05,0,1,0,1
52284000,52170000,52204000,0,0.0,0.0,1.0,1.0,-0.020906184,-0.019588728,1.1268355,1.1268419,1.5514901e-05,1.3621015e-05,0,1,0,1
52684000,52570000,52604000,0,0.0,0.008919886,1.0,1.0,-0.025211385,-0.03116972,1.1268779,1.1268841,2.2561944e-05,3.4486296e-05,0,1,0,1
53092000,52970000,53012000,0,0.0,0.0,1.0,1.0,-0.025188953,-0.020082459,1.1273931,1.1273992,2.2511522e-05,1.4309223e-05,0,1,0,1
53492000,53370000,53412000,0,0.0,0.0,1.0,1.0,-0.021557597,-0.0183502,1.1273524,1.1273584,1.6489254e-05,1.1947571e-05,0,1,0,1
53892000,53770000,53812000,0,0.0,0.0,1.0,1.0,-0.021345329,-0.017373145,1.1273168,1.1273226,1.6166638e-05,1.07094875e-05,0,1,0,1
54284000,54170000,54204000,0,0.0,0.0,1.0,1.0,-0.011564307,-0.0155306645,1.1268063,1.1268117,4.747336e-06,8.562266e-06,0,1,0,1
54692000,54570000,54612000,0,0.0,-0.008919886,1.0,1.0,-0.0059932508,-0.0055179326,1.1273293,1.1273345,1.2744831e-06,1.0803388e-06,0,1,0,1
55092000,54970000,55012000,0,0.0,0.0,1.0,1.0,-0.007933048,-0.017013924,1.1272959,1.1273007,2.2330694e-06,1.0271389e-05,0,1,0,1
55492000,55370000,55412000,0,0.0,0.0,1.0,1.0,-0.014227417,-0.015547761,1.1272666,1.1272713,7.1826626e-06,8.577629e-06,0,1,0,1
55884000,55766000,55804000,0,0.0,0.0,1.0,1.0,-0.021830933,-0.013755531,1.1267633,1.1267676,1.6918892e-05,6.717077e-06,0,1,0,1
56284000,56170000,56204000,0,0.0,0.0,1.0,1.0,-0.021797156,-0.008510888,1.126813,1.1268171,1.6865833e-05,2.571321e-06,0,1,0,1
56692000,56570000,56612000,0,0.0,-0.008919886,1.0,1.0,-0.025647482,0.00050674845,1.1273366,1.1273402,2.333973e-05,9.111499e-09,0,1,0,1
57084000,56970000,57004000,0,0.0,-0.008919886,1.0,1.0,-0.025369486,-0.0032574441,1.1268247,1.126828,2.2846883e-05,3.7666592e-07,0,1,0,1
57492000,57370000,57412000,0,0.0,0.0,1.0,1.0,-0.025254892,-0.012584454,1.1273466,1.1273494,2.263047e-05,5.619145e-06,0,1,0,1
57892000,57770000,57812000,0,0.0,0.0,1.0,1.0,-0.024385804,-0.010888823,1.127312,1.1273143,2.110037e-05,4.2070424e-06,0,1,0,1
58284000,58166000,58204000,0,0.0,0.0,1.0,1.0,-0.023459665,-0.012950446,1.126803,1.1268051,1.9536898e-05,5.9536146e-06,0,1,0,1
58692000,58570000,58612000,0,0.0,0.0,1.0,1.0,-0.019293055,-0.0044287764,1.1273272,1.1273291,1.3207237e-05,6.95948e-07,0,1,0,1
59092000,58970000,59012000,0,0.0,0.0,1.0,1.0,-0.019818597,0.0002167115,1.1272962,1.1272978,1.39369495e-05,1.6664231e-09,0,1,0,1
59492000,59370000,59412000,0,0.0,0.0,1.0,1.0,-0.023780044,0.0036733255,1.1272691,1.1272707,2.0065856e-05,4.7879615e-07,0,1,0,1
59892000,59770000,59812000,0,0.0,0.0,1.0,1.0,-0.023020918,0.004783344,1.127245,1.1272463,1.880559e-05,8.1190353e-07,0,1,0,1
60284000,60170000,60204000,0,0.0,-0.008919886,1.0,1.0,-0.029138917,0.014187729,1.1267463,1.1267473,3.0142597e-05,7.145938e-06,0,1,0,1
60692000,60570000,60612000,0,-0.011119492,0.0,1.0,1.0,-0.01572765,0.0046072877,1.1272811,1.1272817,8.77719e-06,7.532137e-07,0,1,0,1
61092000,60970000,61012000,0,0.0,0.0,1.0,1.0,-0.027945148,-0.0043537673,1.1272595,1.1272597,2.7710788e-05,6.726148e-07,0,1,0,1
61492000,61370000,61412000,0,0.0,0.0,1.0,1.0,-0.02809686,0.0008434381,1.1272403,1.12724,2.8012964e-05,2.5243528e-08,0,1,0,1
61892000,61770000,61812000,0,0.0,0.0,1.0,1.0,-0.026674708,0.0013094672,1.1272238,1.1272225,2.524929e-05,6.0847064e-08,0,1,0,1
62292000,62170000,62212000,0,0.0,0.0,1.0,1.0,-0.021396141,0.0022779887,1.1272099,1.1272076,1.624524e-05,1.841447e-07,0,1,0,1
62692000,62570000,62612000,0,0.0,0.0,1.0,1.0,-0.02348461,0.0019066697,1.1272187,1.1272161,1.9571247e-05,1.2900416e-07,0,1,0,1
63092000,62970000,63012000,0,-0.011119492,-0.017839774,1.0,1.0,-0.018863473,0.005747148,1.127311,1.1273092,1.2625819e-05,1.171984e-06,0,1,0,1
63492000,63370000,63412000,0,-0.022238985,-0.02675966,1.0,1.0,-0.0086058825,0.016960172,1.1273907,1.1273884,2.6277035e-06,1.02057975e-05,0,1,0,1
63884000,63770000,63804000,0,-0.033358477,-0.02675966,1.0,1.0,-0.0089335255,0.018209191,1.1269851,1.1269822,2.832615e-06,1.1768585e-05,0,1,0,1
64292000,64170000,64212000,0,-0.05559746,-0.02675966,1.0,1.0,0.011018846,0.020462643,1.1276195,1.1276157,4.3069485e-06,1.485328e-05,0,1,0,1
64692000,64570000,64612000,0,-0.05559746,-0.017839774,1.0,1.0,0.013623193,0.010136635,1.1272523,1.1272478,6.5856198e-06,3.6460972e-06,0,1,0,1
65092000,64970000,65012000,0,-0.066716954,-0.02675966,1.0,1.0,0.024810746,0.019668445,1.1273187,1.1273135,2.1842026e-05,1.3726359e-05,0,1,0,1
65492000,65370000,65412000,0,-0.07783645,-0.02675966,1.0,1.0,0.0257703,0.01637227,1.1286949,1.1286894,2.3535442e-05,9.499558e-06,0,1,0,1
65892000,65770000,65812000,0,-0.07783645,-0.017839774,1.0,1.0,0.00934919,0.0076559,1.1306298,1.1306252,3.0923418e-06,2.0736422e-06,0,1,0,1
66284000,66166000,66204000,0,-0.07783645,-0.008919886,1.0,1.0,0.015895747,-0.0028835796,1.1314937,1.1314903,8.932432e-06,2.9394968e-07,0,1,0,1
66692000,66570000,66612000,0,-0.066716954,0.0,1.0,1.0,0.031904347,-0.0045932634,1.133394,1.1333914,3.5923513e-05,7.4459956e-07,0,1,0,1
67092000,66970000,67012000,0,-0.05559746,0.017839773,1.0,1.0,0.030661194,-0.01952978,1.1339662,1.1339644,3.3161792e-05,1.3454121e-05,0,1,0,1
67492000,67370000,67412000,0,-0.05559746,0.035679545,1.0,1.0,0.0330043,-0.027245719,1.1342645,1.1342633,3.841375e-05,2.6178373e-05,0,1,0,1
67892000,67770000,67812000,0,-0.04447797,0.044599432,1.0,1.0,0.0132591855,-0.025999948,1.1343796,1.1343786,6.199194e-06,2.3836743e-05,0,1,0,1
68292000,68170000,68212000,0,-0.04447797,0.05351932,1.0,1.0,0.020643847,-0.030715065,1.1343614,1.1343606,1.50276055e-05,3.3266853e-05,0,1,0,1
68692000,68570000,68612000,0,-0.033358477,0.05351932,1.0,1.0,0.024338223,-0.018881727,1.1342446,1.1342437,2.0889644e-05,1.2572947e-05,0,1,0,1
69084000,68970000,69004000,0,-0.033358477,0.044599432,1.0,1.0,0.03465258,-0.010822866,1.1334348,1.1334336,4.237743e-05,4.1337908e-06,0,1,0,1
69492000,69370000,69412000,0,-0.033358477,0.035679545,1.0,1.0,0.025981765,-0.015355393,1.1338968,1.1338952,2.3813529e-05,8.317809e-06,0,1,0,1
69892000,69770000,69812000,0,-0.033358477,0.017839773,1.0,1.0,0.0060499124,-0.004872363,1.1335623,1.1335609,1.2915546e-06,8.377114e-07,0,1,0,1
70292000,70170000,70212000,0,-0.04447797,0.017839773,1.0,1.0,0.01700637,-0.011150571,1.1331868,1.1331859,1.0208965e-05,4.388873e-06,0,1,0,1
70692000,70570000,70612000,0,-0.04447797,0.008919886,1.0,1.0,0.02296769,-0.0015929048,1.1328272,1.1328266,1.8626488e-05,8.9593435e-08,0,1,0,1
71092000,70970000,71012000,0,-0.033358477,0.008919886,1.0,1.0,0.014765341,-0.008347711,1.1325095,1.1325088,7.700255e-06,2.4612355e-06,0,1,0,1
71484000,71370000,71404000,0,-0.033358477,0.008919886,1.0,1.0,0.012130465,-0.010699309,1.1315352,1.1315347,5.201719e-06,4.0467244e-06,0,1,0,1
71892000,71770000,71812000,0,-0.022238985,0.0,1.0,1.0,-0.0049730837,-0.004202344,1.1316923,1.1316917,8.741444e-07,6.241875e-07,0,1,0,1
72292000,72170000,72212000,0,-0.022238985,0.0,1.0,1.0,0.0012485217,-0.006464361,1.1312095,1.1312089,5.5119994e-08,1.4776393e-06,0,1,0,1
72692000,72570000,72612000,0,-0.011119492,0.0,1.0,1.0,-0.005462466,-0.015513214,1.1307251,1.1307247,1.0555539e-06,8.5134725e-06,0,1,0,1
73092000,72970000,73012000,0,0.0,0.008919886,1.0,1.0,-0.018492902,-0.021751717,1.1302365,1.1302361,1.2103216e-05,1.674472e-05,0,1,0,1
73484000,73366000,73404000,0,0.0,0.008919886,1.0,1.0,-0.015627276,-0.02175169,1.1292816,1.1292815,8.650163e-06,1.6758835e-05,0,1,0,1
73684000,73566000,73604000,0,0.0,0.008919886,1.0,1.0,-0.004468579,-0.020164892,1.1175013,1.1175011,7.147445e-07,1.4554719e-05,0,1,0,1
74084000,73970000,74004000,0,0.011119493,0.02675966,1.0,1.0,-0.012352876,-0.033697926,1.1187737,1.1187739,5.455743e-06,4.0599807e-05,0,1,0,1
74492000,74370000,74412000,0,0.011119493,0.035679545,1.0,1.0,-0.014484827,-0.03287946,1.1203575,1.1203581,7.490831e-06,3.8596903e-05,0,1,0,1
74892000,74770000,74812000,0,0.0,0.044599432,1.0,1.0,-0.014994471,-0.036157966,1.1213138,1.1213149,8.020384e-06,4.6638048e-05,0,1,0,1
75292000,75170000,75212000,0,-0.011119492,0.035679545,1.0,1.0,-0.009787396,-0.024625106,1.1221585,1.1221595,3.414602e-06,2.1615317e-05,0,1,0,1
75692000,75570000,75612000,0,-0.022238985,0.044599432,1.0,1.0,-0.0053363573,-0.02616363,1.1229033,1.1229042,1.0143957e-06,2.4384468e-05,0,1,0,1
76084000,75970000,76004000,0,-0.022238985,0.05351932,1.0,1.0,-0.013567928,-0.03389072,1.1230959,1.1230965,6.5564727e-06,4.090765e-05,0,1,0,1
76492000,76370000,76412000,0,-0.022238985,0.044599432,1.0,1.0,-0.018262893,-0.023578357,1.1242167,1.124217,1.1867223e-05,1.9780484e-05,0,1,0,1
76892000,76770000,76812000,0,-0.022238985,0.05351932,1.0,1.0,-0.013696104,-0.030193647,1.1247057,1.124706,6.671373e-06,3.242292e-05,0,1,0,1
77292000,77170000,77212000,0,-0.022238985,0.035679545,1.0,1.0,-0.0040087067,-0.0133893695,1.1251571,1.1251574,5.7128835e-07,6.3733387e-06,0,1,0,1
77684000,77570000,77604000,0,-0.011119492,0.035679545,1.0,1.0,-0.00528783,-0.018390613,1.1250685,1.125069,9.941134e-07,1.20246705e-05,0,1,0,1
78092000,77970000,78012000,0,-0.011119492,0.035679545,1.0,1.0,-0.0037571276,-0.021191154,1.1259559,1.1259564,5.0147634e-07,1.5953194e-05,0,1,0,1
78492000,78370000,78412000,0,-0.011119492,0.02675966,1.0,1.0,-0.010862183,-0.014658817,1.1262436,1.1262441,4.190462e-06,7.631771e-06,0,1,0,1
78892000,78770000,78812000,0,0.0,0.017839773,1.0,1.0,-0.021960689,-0.010762837,1.1264948,1.1264954,1.712469e-05,4.1132407e-06,0,1,0,1
79292000,79170000,79212000,0,0.011119493,0.017839773,1.0,1.0,-0.02559416,-0.014182421,1.1267138,1.1267145,2.3255634e-05,7.1408003e-06,0,1,0,1
79692000,79570000,79612000,0,0.011119493,0.008919886,1.0,1.0,-0.016681325,-0.0033818786,1.1269045,1.1269052,9.8772025e-06,4.0596504e-07,0,1,0,1
80092000,79970000,80012000,0,0.022238985,0.0,1.0,1.0,-0.02840239,-0.0049706595,1.1270695,1.1270702,2.8629851e-05,8.768738e-07,0,1,0,1
80484000,80370000,80404000,0,0.03335848,-0.008919886,1.0,1.0,-0.037108976,-0.0053655673,1.1267241,1.1267248,4.8887785e-05,1.022053e-06,0,1,0,1
80892000,80770000,80812000,0,0.022238985,-0.017839774,1.0,1.0,-0.017533766,-0.00012341142,1.1274073,1.1274083,1.0907609e-05,5.4036775e-10,0,1,0,1
81292000,81170000,81212000,0,0.03335848,-0.026759658,1.0,1.0,-0.028719023,0.000441432,1.127501,1.1275022,2.9260544e-05,6.913058e-09,0,1,0,1
81684000,81566000,81604000,0,0.022238985,-0.026759658,1.0,1.0,-0.012454932,-0.0013112966,1.1270888,1.1270906,5.505345e-06,6.102433e-08,0,1,0,1
82092000,81970000,82012000,0,0.0,-0.03567955,1.0,1.0,-0.0019323076,0.0107749365,1.1276656,1.1276684,1.3244397e-07,4.1182057e-06,0,1,0,1
82484000,82370000,82404000,0,-0.011119492,-0.02675966,1.0,1.0,-0.012670346,0.0015450306,1.1271265,1.1271297,5.6972367e-06,8.4715e-08,0,1,0,1
82884000,82766000,82804000,0,-0.033358477,-0.03567955,1.0,1.0,-0.0062573403,0.00187454,1.1271579,1.1271609,1.3894879e-06,1.2469916e-07,0,1,0,1
83284000,83170000,83204000,0,-0.04447797,-0.02675966,1.0,1.0,-0.0019707158,-0.0060608108,1.1271584,1.1271601,1.3782342e-07,1.3035745e-06,0,1,0,1
83684000,83566000,83604000,0,-0.04447797,-0.02675966,1.0,1.0,0.003590241,-0.0037797056,1.127161,1.127161,4.5742644e-07,5.06979e-07,0,1,0,1
84084000,83970000,84004000,0,-0.033358477,-0.02675966,1.0,1.0,-0.0025473759,-0.0010184888,1.1271646,1.1271638,2.3028132e-07,3.6811667e-08,0,1,0,1
84492000,84370000,84412000,0,-0.04447797,-0.02675966,1.0,1.0,0.00855368,0.00025710277,1.1276548,1.1276536,2.5953136e-06,2.3447568e-09,0,1,0,1
84892000,84770000,84812000,0,-0.04447797,-0.03567955,1.0,1.0,0.009104244,0.013250845,1.1275921,1.1275903,2.940328e-06,6.2286763e-06,0,1,0,1
85292000,85170000,85212000,0,-0.05559746,-0.03567955,1.0,1.0,0.014385987,0.008918872,1.1275433,1.1275408,7.3418596e-06,2.8219388e-06,0,1,0,1
85684000,85570000,85604000,0,-0.05559746,-0.03567955,1.0,1.0,0.010482904,0.0070659444,1.1270279,1.1270248,3.900215e-06,1.7720132e-06,0,1,0,1
86092000,85970000,86012000,0,-0.05559746,-0.03567955,1.0,1.0,0.007496886,0.0072789527,1.1275612,1.1275568,1.9938004e-06,1.8795738e-06,0,1,0,1
86492000,86370000,86412000,0,0.022238987,-0.124878414,1.0,1.0,0.024138907,-0.0020206496,1.1275558,1.1276131,2.0670794e-05,1.448378e-07,0,1,0,1
86892000,86770000,86812000,0,0.36694327,-0.5887125,1.0,1.0,0.008702517,-0.012993455,1.1275986,1.1283666,2.6865514e-06,5.9849294e-06,0,1,0,1
87292000,87170000,87212000,0,0.967396,-1.5788198,1.0,1.0,0.0282287,-0.018971443,1.1278355,1.1300764,2.826155e-05,1.2739516e-05,0,1,0,1
87692000,87570000,87612000,0,1.8347168,-3.0506005,1.0,1.0,0.011162996,-0.0066456795,1.1281701,1.1317343,4.418216e-06,1.5609692e-06,0,1,0,1
88084000,87970000,88004000,0,2.9133084,-4.8524165,1.0,1.0,-0.032854795,0.07241106,1.127812,1.1317189,3.8284306e-05,0.0001853238,0,1,0,1
88492000,88370000,88412000,0,4.069737,-6.6274724,1.0,1.0,-0.047231197,0.04916334,1.1284175,1.1319045,7.907662e-05,8.541478e-05,0,1,0,1
88892000,88770000,88812000,0,5.0927315,-8.27765,1.0,1.0,-0.048305035,0.04446888,1.1284144,1.1311458,8.271346e-05,6.992842e-05,0,1,0,1
89292000,89170000,89212000,0,5.9266953,-9.794028,1.0,1.0,-0.042427063,0.045497894,1.1284201,1.13027,6.3807995e-05,7.3258896e-05,0,1,0,1
89692000,89570000,89612000,0,6.6049857,-11.11417,1.0,1.0,-0.030873299,0.05402851,1.1283951,1.1293947,3.3788187e-05,0.000103385646,0,1,0,1
90092000,89970000,90012000,0,7.183201,-12.175635,1.0,1.0,-0.03253126,0.068629265,1.1283805,1.1286893,3.751511e-05,0.00016691843,0,1,0,1
90492000,90370000,90412000,0,7.6279817,-12.871385,1.0,1.0,-0.036049843,0.082512856,1.128472,1.1282367,4.6065517e-05,0.00024138097,0,1,0,1
90892000,90770000,90812000,0,7.8726106,-13.067622,1.0,1.0,-0.027160168,0.080696106,1.1286757,1.1282897,2.6143018e-05,0.00023085778,0,1,0,1
91284000,91166000,91204000,0,7.8614907,-12.791105,1.0,1.0,-0.0017819405,0.06479359,1.128449,1.1283039,1.12554915e-07,0.00014883255,0,1,0,1
91692000,91570000,91612000,0,7.6391,-12.095355,1.0,1.0,-0.00531435,0.07300377,1.1294054,1.1297255,1.0002544e-06,0.00018870248,0,1,0,1
92092000,91970000,92012000,0,7.1720796,-10.962531,1.0,1.0,0.015054226,0.038564682,1.1297301,1.1304605,8.024208e-06,5.262403e-05,0,1,0,1
92484000,92366000,92404000,0,6.5049086,-9.517511,1.0,1.0,0.041754246,0.002500534,1.1293684,1.1303363,6.174839e-05,2.2126761e-07,0,1,0,1
92892000,92770000,92812000,0,5.6598253,-7.938694,1.0,1.0,0.02953434,0.03715086,1.1299787,1.1311378,3.0877654e-05,4.880701e-05,0,1,0,1
93284000,93170000,93204000,0,4.836982,-6.3509555,1.0,1.0,0.055265903,0.0043644905,1.1292044,1.1302791,0.0001081937,6.741265e-07,0,1,0,1
93692000,93570000,93612000,0,4.214289,-4.852416,1.0,1.0,0.038000107,0.0021572113,1.1294667,1.1303228,5.113947e-05,1.6468077e-07,0,1,0,1
94092000,93970000,94012000,0,3.7583895,-3.8444693,1.0,1.0,0.047739983,-0.008859873,1.1289396,1.1294185,8.0752085e-05,2.7800977e-06,0,1,0,1
94492000,94370000,94412000,0,3.502641,-3.5590332,1.0,1.0,0.04643202,-0.015244722,1.1285299,1.1285493,7.641561e-05,8.237179e-06,0,1,0,1
94892000,94770000,94812000,0,3.480402,-3.8623092,1.0,1.0,0.05464673,0.023670197,1.1282041,1.1279945,0.00010587677,1.9868117e-05,0,1,0,1
95292000,95170000,95212000,0,3.6583142,-4.2815437,1.0,1.0,0.044395447,0.028341293,1.1280596,1.1278405,6.988835e-05,2.8487324e-05,0,1,0,1
95684000,95570000,95604000,0,3.7917483,-4.629419,1.0,1.0,0.051074028,0.03928089,1.1275018,1.1273117,9.254287e-05,5.474931e-05,0,1,0,1
96084000,95966000,96004000,0,3.8251069,-4.834576,1.0,1.0,0.04343152,0.048749924,1.1275394,1.1273952,6.6917295e-05,8.4320214e-05,0,1,0,1
96484000,96370000,96404000,0,3.8362265,-4.870256,1.0,1.0,0.048583984,0.048365116,1.1274581,1.1273782,8.374248e-05,8.299555e-05,0,1,0,1
96892000,96770000,96812000,0,3.9029434,-4.8167367,1.0,1.0,0.036640167,0.05111313,1.1277494,1.1277561,4.7617024e-05,9.266372e-05,0,1,0,1
97292000,97170000,97212000,0,4.0030184,-4.5758996,1.0,1.0,0.050437927,0.05765581,1.1274414,1.1275775,9.025691e-05,0.00011792334,0,1,0,1
97684000,97566000,97604000,0,4.2365274,-3.9871874,1.0,1.0,0.04081011,0.039666414,1.1266972,1.1269937,5.9127335e-05,5.5845016e-05,0,1,0,1
98092000,97970000,98012000,0,4.681307,-2.872202,1.0,1.0,0.047879696,0.0519886,1.127079,1.1275619,8.135952e-05,9.588173e-05,0,1,0,1
98484000,98370000,98404000,0,5.3818345,-1.0436261,1.0,1.0,0.036096096,-0.00016248226,1.1266313,1.1271684,4.625926e-05,9.368781e-10,0,1,0,1
98892000,98770000,98812000,0,6.393708,1.6769375,1.0,1.0,0.04672575,0.0469445,1.1275164,1.1278895,7.745504e-05,7.8156096e-05,0,1,0,1
99284000,99170000,99204000,0,7.6835713,5.378687,1.0,1.0,0.036087513,-0.007068634,1.1276431,1.1276532,4.619577e-05,1.7723742e-06,0,1,0,1
99684000,99566000,99604000,0,9.273663,10.204339,1.0,1.0,0.02815342,-0.022871971,1.1285741,1.1280769,2.8092618e-05,1.854934e-05,0,1,0,1
100092000,99970000,100012000,0,11.108388,16.153894,1.0,1.0,0.018345833,0.0010871887,1.130015,1.1290317,1.1913809e-05,4.187586e-08,0,1,0,1
100492000,100370000,100412000,0,12.998717,22.692158,1.0,1.0,0.021705627,-0.038461685,1.1303529,1.1291882,1.6672113e-05,5.2402294e-05,0,1,0,1
100892000,100770000,100812000,0,14.889051,29.480173,1.0,1.0,-0.004213333,-0.074848175,1.1303599,1.1291991,6.2819555e-07,0.00019845036,0,1,0,1
101284000,101166000,101204000,0,16.690435,36.161148,1.0,1.0,-0.028219223,-0.1587944,1.1295562,1.1285036,2.8199556e-05,0.00089377345,0,1,0,1
101684000,101566000,101604000,0,18.469584,42.779682,1.0,1.0,-0.04654503,-0.17402267,1.1292671,1.1283418,7.67379e-05,0.0010735715,0,1,0,1
102084000,101970000,102004000,0,20.21538,49.291176,1.0,1.0,-0.07713127,-0.24265671,1.1288832,1.128125,0.00021080066,0.0020877928,0,1,0,1
102492000,102370000,102412000,0,21.9167,55.561832,1.0,1.0,-0.060800552,-0.12797165,1.1289588,1.1283836,0.00013097757,0.0005805381,0,1,0,1
102892000,102770000,102812000,0,23.562428,61.636246,1.0,1.0,-0.055807114,-0.11785126,1.1284921,1.1281056,0.00011039276,0.0004924687,0,1,0,1
103292000,103170000,103212000,0,25.185917,67.51442,1.0,1.0,-0.04373932,-0.059036255,1.1281013,1.1278894,6.7835324e-05,0.00012360359,0,1,0,1
103692000,103570000,103612000,0,26.809412,73.348,1.0,1.0,-0.062252045,-0.0714035,1.1278069,1.1277426,0.00013744611,0.00018083773,0,1,0,1
104092000,103970000,104012000,0,28.432909,79.16373,1.0,1.0,-0.08844185,-0.13656616,1.1276214,1.1276653,0.00027746762,0.00066155504,0,1,0,1
104484000,104370000,104404000,0,30.03417,84.87242,1.0,1.0,-0.11744881,-0.24437714,1.1270468,1.1271576,0.0004895705,0.0021193197,0,1,0,1
104892000,104770000,104812000,0,31.635435,90.581116,1.0,1.0,-0.0840168,-0.12915039,1.1275679,1.1277317,0.00025040878,0.00059162383,0,1,0,1
105292000,105170000,105212000,0,33.214466,96.22736,1.0,1.0,-0.060855865,-0.07331848,1.1275668,1.1277555,0.00013137798,0.00019066542,0,1,0,1
105692000,105570000,105612000,0,34.82686,101.94497,1.0,1.0,-0.06968689,-0.07424164,1.1275923,1.1277897,0.00017227014,0.00019549107,0,1,0,1
106084000,105970000,106004000,0,36.450375,107.74285,1.0,1.0,-0.11363983,-0.2606125,1.127146,1.1273369,0.00045829063,0.0024098873,0,1,0,1
106492000,106370000,106412000,0,38.19621,113.46937,1.0,1.0,-0.057949066,-0.15727997,1.1277626,1.1280023,0.00011910643,0.0008771964,0,1,0,1
106884000,106770000,106804000,0,40.575855,118.99072,1.0,1.0,-0.113716125,-0.2739334,1.1272807,1.1277546,0.00045885134,0.0026615546,0,1,0,1
107292000,107170000,107212000,0,43.956253,123.96795,1.0,1.0,0.011299133,-0.13010406,1.128049,1.1291851,4.527123e-06,0.00059962063,0,1,0,1
107692000,107570000,107612000,0,48.58202,128.05316,1.0,1.0,-0.01235199,-0.15292358,1.1285427,1.1305915,5.407741e-06,0.0008273765,0,1,0,1
108084000,107970000,108004000,0,54.29748,130.72011,1.0,1.0,-0.23229218,-0.1999054,1.1288078,1.1313349,0.0019120937,0.0014129209,0,1,0,1
108492000,108370000,108412000,0,60.54665,131.59416,1.0,1.0,-0.106666565,-0.15093994,1.130492,1.1328772,0.0004025772,0.0008044249,0,1,0,1
108892000,108770000,108812000,0,66.86251,130.711,1.0,1.0,-0.13375854,-0.087509155,1.1313349,1.1327895,0.0006325747,0.0002704069,0,1,0,1
109292000,109170000,109212000,0,72.73357,128.31148,1.0,1.0,-0.09238434,-0.07949829,1.1319373,1.1321881,0.0003016021,0.00022328369,0,1,0,1
109684000,109570000,109604000,0,77.98191,124.62752,1.0,1.0,-0.18457794,0.05659485,1.1317022,1.1307826,0.001204169,0.00011330124,0,1,0,1
110092000,109970000,110012000,0,82.45188,119.97132,1.0,1.0,-0.12680054,0.023719788,1.132685,1.1305984,0.00056779693,1.9905505e-05,0,1,0,1
110492000,110370000,110412000,0,86.06564,114.77103,1.0,1.0,-0.10967255,0.06325531,1.1327575,1.129834,0.0004247358,0.00014165741,0,1,0,1
110884000,110766000,110804000,0,89.06783,109.31207,1.0,1.0,-0.15750122,0.17947388,1.1321254,1.1287365,0.0008764624,0.0011414842,0,1,0,1
111292000,111170000,111212000,0,91.63637,103.808525,1.0,1.0,-0.068878174,0.02280426,1.132778,1.1289798,0.00016752454,1.8424927e-05,0,1,0,1
111684000,111566000,111604000,0,94.01588,98.27823,1.0,1.0,-0.11553192,0.14230347,1.1320678,1.128273,0.00047161928,0.0007179211,0,1,0,1
112084000,111966000,112004000,0,96.32867,92.76578,1.0,1.0,-0.1328888,0.18769836,1.1320608,1.1283298,0.00062397466,0.0012489497,0,1,0,1
112484000,112370000,112404000,0,98.641464,87.38712,1.0,1.0,-0.13843536,0.18758392,1.1320374,1.1285036,0.00067716313,0.001247235,0,1,0,1
112892000,112770000,112812000,0,101.032104,82.088745,1.0,1.0,-0.07057953,0.08072662,1.1325891,1.1292751,0.00017593212,0.00023083083,0,1,0,1
113284000,113170000,113204000,0,103.5673,76.93309,1.0,1.0,-0.12435913,0.14440155,1.1318479,1.1289108,0.0005465467,0.00073882926,0,1,0,1
113692000,113570000,113612000,0,106.28041,71.82204,1.0,1.0,-0.06264496,0.042533875,1.1323735,1.1297194,0.00013862533,6.405592e-05,0,1,0,1
114092000,113970000,114012000,0,109.21592,66.74666,1.0,1.0,-0.104782104,0.10787964,1.1321977,1.129868,0.000387893,0.0004120133,0,1,0,1
114492000,114370000,114412000,0,112.29598,61.805084,1.0,1.0,-0.09889221,0.12311554,1.1320097,1.1299765,0.00034556838,0.0005365576,0,1,0,1
114892000,114770000,114812000,0,115.54284,56.952705,1.0,1.0,-0.10248566,0.1272583,1.1318022,1.1300359,0.00037120655,0.00057324464,0,1,0,1
115292000,115170000,115212000,0,118.91201,52.21629,1.0,1.0,-0.07115173,0.08425903,1.1315753,1.1300442,0.0001789565,0.0002513029,0,1,0,1
115684000,115570000,115604000,0,122.43687,47.506638,1.0,1.0,-0.15202332,0.1817627,1.1307855,1.1294706,0.0008175234,0.0011700235,0,1,0,1
116092000,115970000,116012000,0,126.09515,42.814823,1.0,1.0,-0.103782654,0.12994003,1.1311435,1.129988,0.00038088326,0.0005976847,0,1,0,1
116492000,116370000,116412000,0,129.79793,38.212215,1.0,1.0,-0.10646057,0.12998962,1.1308433,1.1298394,0.00040089915,0.00059821963,0,1,0,1
116884000,116766000,116804000,0,133.56741,33.654205,1.0,1.0,-0.200531,0.20743942,1.1300132,1.1291472,0.0014234412,0.0015243758,0,1,0,1
117284000,117170000,117204000,0,137.31467,29.158642,1.0,1.0,-0.14219666,0.16060257,1.1297815,1.1290271,0.0007158867,0.0009138199,0,1,0,1
117692000,117570000,117612000,0,141.12863,24.63632,1.0,1.0,-0.07296753,0.061574936,1.1300472,1.1293863,0.00018846152,0.00013428435,0,1,0,1
118084000,117966000,118004000,0,144.98709,20.078325,1.0,1.0,-0.19139099,0.19829178,1.129215,1.1286483,0.0012975567,0.0013935122,0,1,0,1
118492000,118370000,118412000,0,148.80107,15.564932,1.0,1.0,-0.0965271,0.101392746,1.1294819,1.1289907,0.00032997364,0.00036423648,0,1,0,1
118884000,118766000,118804000,0,152.61505,11.060462,1.0,1.0,-0.1719513,0.1840353,1.1286856,1.1282699,0.0010478471,0.0012007408,0,1,0,1
119292000,119170000,119212000,0,156.37343,6.582756,1.0,1.0,-0.04322815,0.044001102,1.1289824,1.1286306,6.6207336e-05,6.8617555e-05,0,1,0,1
119692000,119570000,119612000,0,160.16518,2.042616,1.0,1.0,-0.044067383,0.06393266,1.1287315,1.1284404,6.881829e-05,0.00014488616,0,1,0,1
120092000,119970000,120012000,0,163.97916,-2.542119,1.0,1.0,-0.08050537,0.119042635,1.1285143,1.128278,0.00022972203,0.00050239917,0,1,0,1
120484000,120370000,120404000,0,167.74867,-7.1000905,1.0,1.0,-0.1516571,0.21934271,1.1278452,1.1276586,0.00081571046,0.0017065882,0,1,0,1
120892000,120770000,120812000,0,171.49594,-11.666978,1.0,1.0,-0.051956177,0.12729836,1.1282595,1.1281165,9.5702955e-05,0.0005745815,0,1,0,1
121292000,121170000,121212000,0,175.19875,-16.207102,1.0,1.0,-0.015899658,0.08516693,1.1281326,1.1280274,8.963455e-06,0.00025720673,0,1,0,1
121692000,121570000,121612000,0,178.89043,-20.8275,1.0,1.0,-0.023864746,0.07832718,1.1280315,1.1279576,2.0195397e-05,0.00021756659,0,1,0,1
122092000,121970000,122012000,0,182.53763,-25.57277,1.0,1.0,-0.058425903,0.13291168,1.1279559,1.127908,0.00012105388,0.0006264878,0,1,0,1
122492000,122370000,122412000,0,186.0514,-30.344795,1.0,1.0,-0.066986084,0.14305687,1.1279025,1.1278762,0.00015913203,0.0007257984,0,1,0,1
122884000,122770000,122804000,0,189.43175,-35.197094,1.0,1.0,-0.13218689,0.23853683,1.1273817,1.1273729,0.00061996304,0.0020188466,0,1,0,1
123292000,123170000,123212000,0,192.64531,-40.10291,1.0,1.0,-0.019378662,0.0718689,1.1279297,1.1279387,1.3317587e-05,0.00018317088,0,1,0,1
123684000,123566000,123604000,0,195.76991,-45.151432,1.0,1.0,-0.07725525,0.1858406,1.1274275,1.127451,0.00021175192,0.0012253032,0,1,0,1
124084000,123966000,124004000,0,198.79443,-50.31591,1.0,1.0,-0.10144043,0.23461151,1.1274995,1.1275382,0.0003650613,0.0019526633,0,1,0,1
124492000,124370000,124412000,0,201.6633,-55.498226,1.0,1.0,-0.027297974,0.12149811,1.128058,1.1281123,2.6423442e-05,0.0005234156,0,1,0,1
124884000,124766000,124804000,0,204.43208,-60.73406,1.0,1.0,-0.078201294,0.23191452,1.127549,1.1276134,0.00021694638,0.0019079001,0,1,0,1
125292000,125170000,125212000,0,207.1008,-65.95204,1.0,1.0,-0.0027160645,0.05441284,1.1280965,1.1281717,2.615736e-07,0.000104975414,0,1,0,1
125692000,125570000,125612000,0,209.71393,-71.259224,1.0,1.0,7.6293945e-05,0.06321716,1.1280668,1.1281475,2.0639793e-10,0.00014169812,0,1,0,1
126092000,125970000,126012000,0,212.31593,-76.6556,1.0,1.0,-0.037765503,0.1381073,1.1280344,1.1281165,5.0574105e-05,0.0006762999,0,1,0,1
126484000,126366000,126404000,0,214.85123,-82.00738,1.0,1.0,-0.091934204,0.24202728,1.1275104,1.127589,0.00029984282,0.0020779632,0,1,0,1
126884000,126770000,126804000,0,217.35316,-87.38591,1.0,1.0,-0.07952881,0.24726868,1.1275498,1.1276232,0.00022437437,0.0021688733,0,1,0,1
127284000,127166000,127204000,0,219.82175,-92.69308,1.0,1.0,-0.051467896,0.16653442,1.1275781,1.1276443,9.396934e-05,0.0009837752,0,1,0,1
127692000,127570000,127612000,0,222.30145,-98.08053,1.0,1.0,-0.002243042,0.062065125,1.1280874,1.1281453,1.7839885e-07,0.00013658097,0,1,0,1
128084000,127970000,128004000,0,224.81453,-103.512566,1.0,1.0,-0.08546448,0.22446442,1.1275377,1.1275864,0.00025911955,0.0017873319,0,1,0,1
128484000,128366000,128404000,0,227.30536,-108.89108,1.0,1.0,-0.082733154,0.21082306,1.1275526,1.1275932,0.00024281882,0.0015766809,0,1,0,1
128892000,128770000,128812000,0,229.78508,-114.23392,1.0,1.0,-0.0024871826,0.052070618,1.12805,1.128084,2.1935472e-07,9.613998e-05,0,1,0,1
129292000,129170000,129212000,0,232.29816,-119.612434,1.0,1.0,-0.013809204,0.062294006,1.1279829,1.128012,6.7623055e-06,0.00013760646,0,1,0,1
129692000,129570000,129612000,0,234.8446,-125.053375,1.0,1.0,-0.048690796,0.12372589,1.1279216,1.1279479,8.407654e-05,0.00054286537,0,1,0,1
130092000,129970000,130012000,0,237.34656,-130.38728,1.0,1.0,-0.034866333,0.07543945,1.1278665,1.1278918,4.3113654e-05,0.00020183182,0,1,0,1
130484000,130370000,130404000,0,239.90413,-135.82823,1.0,1.0,-0.11683655,0.24275208,1.1273313,1.1273564,0.00048435733,0.0020908585,0,1,0,1
130884000,130770000,130804000,0,242.45058,-141.15321,1.0,1.0,-0.08293152,0.18821716,1.1273576,1.1273862,0.00024402679,0.0012569145,0,1,0,1
131292000,131170000,131212000,0,245.36398,-146.36223,1.0,1.0,0.008010864,0.107055664,1.1277792,1.1278758,2.2761174e-06,0.00040646017,0,1,0,1
131692000,131570000,131612000,0,249.1002,-151.13416,1.0,1.0,-0.039276123,0.18103027,1.1276218,1.1279402,5.4720967e-05,0.0011621878,0,1,0,1
132084000,131970000,132004000,0,253.69263,-155.01411,1.0,1.0,-0.1023407,0.24694824,1.1271993,1.1277828,0.00037166872,0.0021629496,0,1,0,1
132492000,132370000,132412000,0,259.2302,-157.77017,1.0,1.0,-0.06765747,0.22406006,1.1281968,1.128912,0.00016229555,0.0017788069,0,1,0,1
132892000,132770000,132812000,0,265.2014,-159.108,1.0,1.0,-0.0395813,0.2007904,1.1288853,1.1292657,5.5512435e-05,0.001428071,0,1,0,1
133292000,133170000,133212000,0,271.40607,-159.09006,1.0,1.0,-0.06802368,0.16229248,1.129624,1.1293123,0.00016384995,0.0009329164,0,1,0,1
133684000,133570000,133604000,0,277.5551,-157.86795,1.0,1.0,-0.25994873,0.07695007,1.1296167,1.1286007,0.0023927882,0.0002098639,0,1,0,1
134092000,133970000,134012000,0,283.31497,-155.68254,1.0,1.0,-0.087768555,0.12948608,1.1306978,1.1289258,0.00027251558,0.0005940743,0,1,0,1
134492000,134370000,134412000,0,288.7857,-152.6587,1.0,1.0,-0.14266968,0.07093811,1.1308739,1.1286454,0.00071996124,0.0001783453,0,1,0,1
134884000,134770000,134804000,0,293.7227,-149.09079,1.0,1.0,-0.1722107,0.002319336,1.1303047,1.1279128,0.0010495054,1.9077075e-07,0,1,0,1
135292000,135170000,135212000,0,298.34833,-145.11258,1.0,1.0,-0.07888794,0.07130432,1.1307601,1.1283226,0.00022014599,0.00018024299,0,1,0,1
135684000,135566000,135604000,0,302.71823,-140.84895,1.0,1.0,-0.20526123,-0.07876587,1.1299174,1.1276922,0.0014915135,0.00022006224,0,1,0,1
136092000,135970000,136012000,0,306.81012,-136.54965,1.0,1.0,-0.07614136,0.04789734,1.1301545,1.1281779,0.00020519341,8.134019e-05,0,1,0,1
136484000,136370000,136404000,0,310.85754,-132.11656,1.0,1.0,-0.19500732,-0.10777283,1.1292624,1.12761,0.001346998,0.00041202127,0,1,0,1
136892000,136770000,136812000,0,314.77155,-127.772675,1.0,1.0,-0.070373535,0.028160095,1.1295049,1.1281395,0.00017538425,2.811677e-05,0,1,0,1
137292000,137170000,137212000,0,318.73004,-123.40204,1.0,1.0,-0.09500122,0.020851135,1.1292102,1.1281016,0.0003197007,1.5415982e-05,0,1,0,1
137692000,137570000,137612000,0,322.65515,-118.99572,1.0,1.0,-0.14776611,-0.024841309,1.1289551,1.128037,0.00077362946,2.188193e-05,0,1,0,1
138092000,137970000,138012000,0,326.12436,-114.419945,1.0,1.0,-0.11691284,0.0289917,1.1287214,1.1279395,0.0004843928,2.9807225e-05,0,1,0,1
138492000,138370000,138412000,0,328.88193,-109.237656,1.0,1.0,-0.16360474,-0.01600647,1.1285253,1.127876,0.0009487252,9.086356e-06,0,1,0,1
138884000,138770000,138804000,0,330.41635,-103.60048,1.0,1.0,-0.17062378,-0.08833313,1.1279026,1.1274402,0.0010324464,0.00027683034,0,1,0,1
139284000,139170000,139204000,0,330.4163,-97.57087,1.0,1.0,-0.16427612,-0.09641266,1.1279294,1.1277976,0.000957033,0.0003296833,0,1,0,1
139684000,139570000,139604000,0,328.72604,-91.603714,1.0,1.0,-0.12362671,-0.16773224,1.1279675,1.1282716,0.00054198597,0.0009974231,0,1,0,1
140084000,139966000,140004000,0,325.66812,-86.2877,1.0,1.0,-0.10336304,-0.11528015,1.1279818,1.128645,0.00037886843,0.00047099002,0,1,0,1
140492000,140370000,140412000,0,321.5205,-81.60497,1.0,1.0,-0.114227295,-0.06780243,1.1285039,1.1293939,0.00046248396,0.000162819,0,1,0,1
140884000,140770000,140804000,0,316.728,-77.82313,1.0,1.0,-0.025543213,-0.10284424,1.1279151,1.1287923,2.313847e-05,0.00037480544,0,1,0,1
141292000,141170000,141212000,0,311.3906,-74.808365,1.0,1.0,-0.09979248,-0.031806946,1.1284318,1.1292115,0.00035300455,3.5836747e-05,0,1,0,1
141692000,141570000,141612000,0,305.70853,-72.48933,1.0,1.0,-0.010131836,-0.042755127,1.1283022,1.128893,3.6392412e-06,6.477145e-05,0,1,0,1
142092000,141970000,142012000,0,300.02646,-70.77682,1.0,1.0,-0.049041748,-0.016937256,1.1281149,1.1285207,8.52783e-05,1.0168023e-05,0,1,0,1
142492000,142370000,142412000,0,294.21094,-69.41217,1.0,1.0,0.020904541,-0.018592834,1.1278614,1.128125,1.5498352e-05,1.2257277e-05,0,1,0,1
142892000,142770000,142812000,0,288.51776,-68.28835,1.0,1.0,-0.018371582,-0.004180908,1.127568,1.1277511,1.1973204e-05,6.1999475e-07,0,1,0,1
143284000,143166000,143204000,0,282.81345,-67.26264,1.0,1.0,0.11190796,-0.012336731,1.1267858,1.1269486,0.00044457047,5.4020184e-06,0,1,0,1
143684000,143570000,143604000,0,277.08688,-66.254776,1.0,1.0,0.17184448,-0.020454407,1.1265589,1.126747,0.0010485213,1.4852767e-05,0,1,0,1
144084000,143966000,144004000,0,271.51602,-65.22014,1.0,1.0,0.10305786,-0.013450623,1.1263567,1.1266018,0.00037717793,6.4235383e-06,0,1,0,1
144492000,144370000,144412000,0,265.84506,-64.087395,1.0,1.0,0.046081543,0.0022506714,1.1266675,1.1269875,7.539078e-05,1.7978982e-07,0,1,0,1
144892000,144770000,144812000,0,260.30756,-62.85653,1.0,1.0,-0.0010986328,0.013572693,1.1265057,1.1268847,4.285798e-08,6.539018e-06,0,1,0,1
145284000,145166000,145204000,0,254.72556,-61.45619,1.0,1.0,0.13322449,-0.0341568,1.1259522,1.1263621,0.00063053344,4.143204e-05,0,1,0,1
145692000,145570000,145612000,0,249.12132,-59.904213,1.0,1.0,0.06825256,-0.02293396,1.1264802,1.1269143,0.00016541478,1.8669265e-05,0,1,0,1
146084000,145966000,146004000,0,243.62828,-58.2452,1.0,1.0,0.13858032,-0.045253754,1.1260457,1.126463,0.00068219274,7.2719726e-05,0,1,0,1
146484000,146366000,146404000,0,238.0574,-56.425632,1.0,1.0,0.17765808,-0.058410645,1.1262136,1.1265955,0.0011210092,0.00012113677,0,1,0,1
146884000,146770000,146804000,0,232.59772,-54.534706,1.0,1.0,0.12138367,-0.034057617,1.1264087,1.1267375,0.0005232202,4.117805e-05,0,1,0,1
147292000,147170000,147212000,0,227.10468,-52.50998,1.0,1.0,0.014099121,-0.017814636,1.1270976,1.1273665,7.054765e-06,1.1260269e-05,0,1,0,1
147684000,147570000,147604000,0,221.56715,-50.404972,1.0,1.0,0.18339539,-0.10303116,1.1267328,1.1269394,0.0011940318,0.0003767876,0,1,0,1
148092000,147970000,148012000,0,216.15195,-48.291046,1.0,1.0,0.013504028,-0.039024353,1.1274114,1.1275612,6.47e-06,5.4024564e-05,0,1,0,1
148484000,148370000,148404000,0,210.63667,-46.09684,1.0,1.0,0.18493652,-0.11452103,1.1270126,1.127114,0.0012138824,0.00046543882,0,1,0,1
148892000,148770000,148812000,0,205.23259,-43.920467,1.0,1.0,0.025939941,-0.052116394,1.1276534,1.1277132,2.3868348e-05,9.634076e-05,0,1,0,1
149284000,149166000,149204000,0,199.78403,-41.708416,1.0,1.0,0.13996887,-0.10575485,1.1272124,1.1272409,0.0006952119,0.00039686597,0,1,0,1
149684000,149570000,149604000,0,194.27986,-39.4696,1.0,1.0,0.18858337,-0.12755585,1.1273246,1.1273267,0.0012618792,0.0005773124,0,1,0,1
150092000,149970000,150012000,0,188.8869,-37.2843,1.0,1.0,0.0054016113,-0.049217224,1.1279107,1.1278905,1.0347416e-06,8.590675e-05,0,1,0,1
150492000,150370000,150412000,0,183.37163,-35.063324,1.0,1.0,0.07014465,-0.0757637,1.1279149,1.1278783,0.00017449091,0.00020357297,0,1,0,1
150892000,150770000,150812000,0,177.95642,-32.886936,1.0,1.0,0.03437805,-0.06309891,1.1279168,1.1278667,4.191268e-05,0.00014120364,0,1,0,1
151284000,151166000,151204000,0,172.4745,-30.71055,1.0,1.0,0.16215515,-0.10405922,1.1274295,1.1273696,0.00093289354,0.00038419772,0,1,0,1
151692000,151570000,151612000,0,166.937,-28.52524,1.0,1.0,0.10217285,-0.08160591,1.1280018,1.1279299,0.00037018707,0.00023616804,0,1,0,1
152084000,151966000,152004000,0,161.49956,-26.393446,1.0,1.0,0.16049194,-0.103666306,1.1275089,1.1274297,0.0009137902,0.0003812815,0,1,0,1
152484000,152370000,152404000,0,155.9398,-24.225971,1.0,1.0,0.21609497,-0.12669563,1.1275865,1.1274986,0.0016565304,0.00056946534,0,1,0,1
152892000,152770000,152812000,0,150.48012,-22.11201,1.0,1.0,0.040100098,-0.05278206,1.1281528,1.1280552,5.7014182e-05,9.878757e-05,0,1,0,1
153284000,153166000,153204000,0,144.95374,-19.989128,1.0,1.0,0.16760254,-0.08915329,1.1276513,1.1275495,0.0009964289,0.00028196754,0,1,0,1
153692000,153570000,153612000,0,139.38286,-17.830563,1.0,1.0,0.10295105,-0.078453064,1.1282157,1.1281065,0.00037577635,0.00021823768,0,1,0,1
154084000,153966000,154004000,0,133.90094,-15.734434,1.0,1.0,0.17053223,-0.09113598,1.1277105,1.1275997,0.0010315144,0.00029463528,0,1,0,1
154492000,154370000,154412000,0,128.30783,-13.584784,1.0,1.0,0.1133728,-0.06559944,1.128272,1.1281569,0.00045568414,0.0001525776,0,1,0,1
154884000,154770000,154804000,0,122.814804,-11.47973,1.0,1.0,0.17668152,-0.07502365,1.1277609,1.1276472,0.0011071977,0.00019965635,0,1,0,1
155292000,155170000,155212000,0,117.2773,-9.338993,1.0,1.0,0.060646057,-0.030051231,1.1283176,1.1282023,0.00013038685,3.2018248e-05,0,1,0,1
155692000,155570000,155612000,0,111.72867,-7.0376987,1.0,1.0,0.15068817,-0.040393353,1.1282448,1.1281433,0.00080503547,5.785162e-05,0,1,0,1
156092000,155970000,156012000,0,106.59146,-4.165535,1.0,1.0,0.12514496,0.014081001,1.1280997,1.1280193,0.00055531476,7.030894e-06,0,1,0,1
156492000,156370000,156412000,0,101.99911,-0.25867364,1.0,1.0,0.18645477,-0.031102985,1.1281036,1.1280245,0.0012327017,3.4304067e-05,0,1,0,1
156884000,156766000,156804000,0,98.49647,4.575849,1.0,1.0,0.2215805,-0.109098434,1.1277459,1.1277626,0.0017414533,0.0004221622,0,1,0,1
157292000,157170000,157212000,0,95.95011,10.132877,1.0,1.0,0.13735962,-0.019083977,1.1284591,1.128727,0.0006687939,1.2906511e-05,0,1,0,1
157692000,157570000,157612000,0,93.759575,15.975342,1.0,1.0,0.11011505,-0.100361824,1.1285064,1.1289433,0.0004297831,0.00035688226,0,1,0,1
158084000,157970000,158004000,0,91.235466,21.568056,1.0,1.0,0.10341644,-0.1758728,1.1278129,1.1282539,0.00037931686,0.0010966057,0,1,0,1
158492000,158370000,158412000,0,87.69948,26.768305,1.0,1.0,0.051483154,-0.14653015,1.128114,1.1284884,9.39804e-05,0.0007610565,0,1,0,1
158892000,158770000,158812000,0,83.08491,30.916027,1.0,1.0,0.004295349,-0.1305561,1.1278926,1.1282204,6.5431846e-07,0.00060431083,0,1,0,1
159284000,159166000,159204000,0,77.51405,33.895264,1.0,1.0,0.14588928,-0.17913055,1.1273837,1.127605,0.0007551531,0.0011382622,0,1,0,1
159692000,159570000,159612000,0,71.3761,35.70601,1.0,1.0,0.101135254,-0.14259338,1.1282103,1.1281549,0.00036263946,0.0007209249,0,1,0,1
160084000,159970000,160004000,0,65.171425,36.571255,1.0,1.0,0.1844101,-0.13338089,1.1280173,1.1276248,0.0012059065,0.00063107733,0,1,0,1
160484000,160366000,160404000,0,58.844433,36.8032,1.0,1.0,0.23428345,-0.09499359,1.1283995,1.1276464,0.0019457198,0.00032009263,0,1,0,1
160892000,160770000,160812000,0,52.695354,36.687267,1.0,1.0,0.048236847,-0.08024597,1.1291816,1.1281226,8.242407e-05,0.00022832328,0,1,0,1
161292000,161170000,161212000,0,46.59075,36.45538,1.0,1.0,0.06255722,-0.06543732,1.1291673,1.1279626,0.0001386298,0.00015185052,0,1,0,1
161692000,161570000,161612000,0,40.49727,36.268085,1.0,1.0,0.13582993,-0.04802704,1.1290171,1.1277785,0.0006536577,8.1810256e-05,0,1,0,1
162084000,161966000,162004000,0,34.59282,36.241352,1.0,1.0,0.1927948,-0.032821655,1.1282729,1.127113,0.0013177606,3.823081e-05,0,1,0,1
162492000,162370000,162412000,0,28.63277,36.455456,1.0,1.0,0.121852875,-0.022270203,1.1285304,1.1274776,0.0005262818,1.759545e-05,0,1,0,1
162892000,162770000,162812000,0,22.817278,36.92823,1.0,1.0,0.0682354,-0.014698029,1.1281874,1.1272967,0.00016508142,7.665491e-06,0,1,0,1
163292000,163170000,163212000,0,16.979548,37.686447,1.0,1.0,0.07054329,-0.024162292,1.1278608,1.1271453,0.00017648829,2.0718408e-05,0,1,0,1
163692000,163570000,163612000,0,11.108461,38.756855,1.0,1.0,0.1419363,-0.05418396,1.127569,1.1270158,0.0007146672,0.000104200895,0,1,0,1
164092000,163970000,164012000,0,5.393048,40.077026,1.0,1.0,0.078725815,-0.03215027,1.1273429,1.1269261,0.00021990661,3.6688823e-05,0,1,0,1
164484000,164366000,164404000,0,-0.40020007,41.71831,1.0,1.0,0.26318595,-0.0951767,1.1267081,1.126389,0.0024590872,0.00032168653,0,1,0,1
164884000,164766000,164804000,0,-6.0266542,43.56476,1.0,1.0,0.18179321,-0.07645416,1.1266823,1.1264242,0.0011733129,0.00020756795,0,1,0,1
165292000,165170000,165212000,0,-11.664227,45.625282,1.0,1.0,0.059488297,-0.038776398,1.1271737,1.1269435,0.00012558339,5.336946e-05,0,1,0,1
165684000,165570000,165604000,0,-17.312916,47.88205,1.0,1.0,0.22223854,-0.117759705,1.1266713,1.1264536,0.0017534829,0.000492425,0,1,0,1
166092000,165970000,166012000,0,-22.81705,50.219093,1.0,1.0,0.048412323,-0.052268982,1.1272129,1.126993,8.316985e-05,9.696765e-05,0,1,0,1
166484000,166370000,166404000,0,-28.376783,52.707783,1.0,1.0,0.21775246,-0.15259552,1.1267209,1.1265076,0.0016833319,0.000826817,0,1,0,1
166884000,166770000,166804000,0,-33.80308,55.205395,1.0,1.0,0.15245819,-0.114151,1.1267868,1.1265774,0.000825125,0.00046265623,0,1,0,1
167292000,167170000,167212000,0,-39.251614,57.76545,1.0,1.0,0.032161713,-0.065093994,1.1273096,1.127111,3.6702455e-05,0.00015037484,0,1,0,1
167692000,167570000,167612000,0,-44.744625,60.370106,1.0,1.0,0.09395599,-0.096775055,1.1272706,1.1270905,0.0003132426,0.0003323748,0,1,0,1
168092000,167970000,168012000,0,-50.115322,62.93017,1.0,1.0,0.04359436,-0.07789612,1.1272196,1.1270667,6.743915e-05,0.00021534857,0,1,0,1
168484000,168366000,168404000,0,-55.608334,65.543755,1.0,1.0,0.2210846,-0.16078186,1.1266952,1.1265695,0.0017352839,0.00091785926,0,1,0,1
168892000,168770000,168812000,0,-61.001266,68.14842,1.0,1.0,0.053142548,-0.064712524,1.1272758,1.1271589,0.000100210804,0.00014861119,0,1,0,1
169292000,169170000,169212000,0,-66.40532,70.949326,1.0,1.0,0.059173584,-0.047325134,1.127373,1.1272532,0.00012423619,7.947348e-05,0,1,0,1
169684000,169566000,169604000,0,-71.764885,74.0446,1.0,1.0,0.22782135,-0.14442444,1.12699,1.1268705,0.0018421661,0.0007404016,0,1,0,1
170092000,169970000,170012000,0,-76.846466,77.37179,1.0,1.0,0.065582275,-0.030944824,1.1276108,1.1275167,0.0001525716,3.3971366e-05,0,1,0,1
170492000,170370000,170412000,0,-81.7946,81.07362,1.0,1.0,0.11688995,-0.069114685,1.1276764,1.1276064,0.00048465186,0.0001694506,0,1,0,1
170892000,170770000,170812000,0,-86.37579,85.0163,1.0,1.0,0.07821655,-0.032447815,1.1277262,1.1276977,0.00021699697,3.7345493e-05,0,1,0,1
171292000,171170000,171212000,0,-90.67899,89.29793,1.0,1.0,0.074775696,-0.030158997,1.1277782,1.1277957,0.00019831576,3.2259923e-05,0,1,0,1
171692000,171570000,171612000,0,-94.693085,93.918526,1.0,1.0,0.11973572,-0.079574585,1.1278087,1.1278952,0.0005084778,0.00022456392,0,1,0,1
172092000,171970000,172012000,0,-98.25127,98.717514,1.0,1.0,0.08894348,-0.02583313,1.1278421,1.1280068,0.00028056916,2.3664772e-05,0,1,0,1
172484000,172370000,172404000,0,-101.47586,103.87331,1.0,1.0,0.1737976,-0.19624329,1.1273621,1.1276248,0.0010717269,0.001366108,0,1,0,1
172884000,172770000,172804000,0,-104.222305,109.153984,1.0,1.0,0.145607,-0.13396454,1.1274518,1.1278287,0.00075218815,0.0006364973,0,1,0,1
173292000,173170000,173212000,0,-106.54621,114.67549,1.0,1.0,0.09777069,-0.016029358,1.1280049,1.128527,0.00033897397,9.107103e-06,0,1,0,1
173692000,173570000,173612000,0,-108.42532,120.42892,1.0,1.0,0.1053772,-0.094932556,1.1279681,1.1286263,0.00039378257,0.0003194039,0,1,0,1
174084000,173970000,174004000,0,-109.81518,126.173416,1.0,1.0,0.12062073,-0.146698,1.1274416,1.1282113,0.00051619025,0.00076298835,0,1,0,1
174492000,174370000,174412000,0,-110.73801,132.14983,1.0,1.0,0.10254669,-0.09387207,1.127971,1.1288937,0.00037291113,0.00031223366,0,1,0,1
174884000,174770000,174804000,0,-111.16045,138.04596,1.0,1.0,0.09623718,-0.14689636,1.1274364,1.1284506,0.00032858955,0.0007648909,0,1,0,1
175284000,175166000,175204000,0,-111.10476,144.02235,1.0,1.0,0.0917511,-0.1404419,1.127466,1.1285856,0.00029866138,0.0006990671,0,1,0,1
175684000,175566000,175604000,0,-110.5598,150.02551,1.0,1.0,0.08862305,-0.18518066,1.1274968,1.1286932,0.0002786365,0.0012152771,0,1,0,1
176092000,175970000,176012000,0,-109.536705,155.85025,1.0,1.0,0.107421875,-0.0027923584,1.1280129,1.1292859,0.00040919599,2.7618393e-07,0,1,0,1
176484000,176370000,176404000,0,-108.01322,161.6839,1.0,1.0,0.035377502,-0.18823242,1.1274661,1.1287428,4.440285e-05,0.0012556073,0,1,0,1
176892000,176770000,176812000,0,-106.06721,167.24994,1.0,1.0,0.09272003,-0.009063721,1.1279975,1.1292895,0.000304859,2.9098308e-06,0,1,0,1
177292000,177170000,177212000,0,-103.65417,172.70001,1.0,1.0,0.08152008,-0.018722534,1.127954,1.1292168,0.00023566646,1.2416865e-05,0,1,0,1
177684000,177566000,177604000,0,-100.77411,177.98952,1.0,1.0,-0.030258179,-0.18537903,1.1274273,1.128624,3.2483065e-05,0.001217957,0,1,0,1
178092000,177970000,178012000,0,-97.549355,182.93112,1.0,1.0,0.07141876,-0.022064209,1.127978,1.1291142,0.00018087728,1.7246417e-05,0,1,0,1
178484000,178370000,178404000,0,-93.8687,187.6943,1.0,1.0,-0.05457306,-0.17237854,1.1274529,1.1284919,0.00010566184,0.0010532414,0,1,0,1
178892000,178770000,178812000,0,-89.89894,192.05609,1.0,1.0,0.06253815,-0.034225464,1.1280005,1.1289529,0.00013868859,4.150332e-05,0,1,0,1
