timestamp,timestamp_sample,xyz[0],xyz[1],xyz[2],xyz_derivative[0],xyz_derivative[1],xyz_derivative[2]
3564000,3564000,-0.004214271,-0.0074685854,-0.00026154448,-0.26867223,-0.05804548,0.14438403
3568000,3568000,-0.0006191054,-0.006750787,0.0016262208,0.23318398,0.044046234,0.2851907
3576000,3576000,0.002711435,-0.00302531,-0.00056264736,0.32512584,0.3537609,-0.120864846
3584000,3584000,0.00081591407,-0.006396961,-0.0017555739,-0.08669476,-0.25652462,-0.12679064
3596000,3596000,-0.0010615189,-0.0025128806,-0.0020618073,-0.1288201,0.44017273,-0.14867468
3600000,3600000,-0.0021305114,-0.0023843718,-0.0033438154,-0.188326,0.26476666,-0.22253792
3616000,3616000,-0.0006428823,-0.0051296307,0.0019681535,0.16593656,0.22711629,0.23806459
3624000,3624000,-0.0003749649,0.0015469511,0.0022899858,0.047381878,0.5476314,0.043022197
3636000,3636000,-0.00023083483,-0.0025435656,0.0003416639,0.032076824,-0.11215067,0.06899467
3644000,3644000,-0.002593378,-0.007889939,0.0032270567,-0.23144907,-0.5674631,0.21611431
3656000,3656000,-0.00597919,-0.009794495,-0.0014621624,-0.19040522,-0.010825391,-0.26583222
3664000,3664000,-0.0037757456,-0.0070751635,-0.0014777784,0.09196953,0.21637455,-0.09244374
3676000,3676000,-0.004560451,-0.005894958,0.0020191302,0.057359144,0.26395917,0.11078999
3684000,3684000,-0.0023415978,-0.0051397346,-0.0025737323,0.22290108,0.08443601,-0.30744132
3696000,3696000,-0.0046327747,-0.0028124866,0.0046943654,-0.29572052,0.07070332,0.40320346
3704000,3704000,-0.003278971,-0.007357,0.0033757016,0.09893209,-0.29577088,-0.054444704
3716000,3716000,0.0017870921,-0.002434875,-0.0040239133,0.42105952,0.39636683,-0.314626
3724000,3724000,-3.4166267e-05,-0.0028263815,-0.00055589085,-0.10091385,0.04063561,0.17139268
3736000,3736000,-0.0033879168,0.0029838448,0.004408262,-0.19579367,0.16029105,0.2610194
3744000,3744000,0.00029121112,0.0017564774,0.0024721937,0.24263678,-0.10927969,-0.050363764
3756000,3756000,-0.0017519069,0.0007112287,0.000257619,-0.2141771,0.005952449,-0.087711826
3764000,3764000,-0.0020828943,-0.0062247124,0.0005885673,-0.036479115,-0.63000846,-0.04862469
3776000,3776000,1.5380618e-05,-0.005001788,-0.003788538,0.056063205,0.14692023,-0.20675594
3784000,3784000,-0.0049464605,0.00032754708,-0.0011153733,-0.42203063,0.5018372,0.15440828
3796000,3796000,-0.0018014743,0.0010441607,-0.00040944482,0.16300967,0.1458182,-0.02345392
3804000,3804000,0.0016383193,-0.0019851392,-0.0023066266,0.3938539,-0.23210113,-0.119082086
3816000,3816000,0.0009838399,-0.0027915305,-0.0014747647,0.0025811493,-0.066809945,0.064312175
3824000,3824000,-0.00025793177,-0.004832265,0.00053350895,-0.2063587,-0.20545353,0.16686429
3836000,3836000,-0.0011269106,-0.0032298146,0.0021251608,0.011531621,0.19783361,0.22685674
3844000,3844000,0.0048559164,-0.002673949,0.0014122316,0.54346186,0.10304375,-0.029332248
3856000,3856000,0.0017263347,-0.005353016,-0.003447864,-0.19514692,-0.08965371,-0.34352547
3860000,3860000,0.0006884609,-0.0032404447,-0.0056568147,-0.22279674,0.17591777,-0.43324438
3876000,3876000,0.00076164934,-0.0012803348,0.0009438329,-0.10971151,0.11156434,0.15662009
3884000,3884000,-0.001004575,-0.0027024858,-0.0030527445,-0.16868158,-0.064824425,-0.25987527
3896000,3896000,0.00033394812,-0.004602119,0.0031333766,0.1889559,-0.1758944,0.42687133
3900000,3900000,0.0009909399,-0.0054034176,0.0033201298,0.17833473,-0.18639621,0.26344252
3916000,3916000,-0.0012768572,0.0050726617,0.00079248165,-0.035227954,0.604964,-0.08493937
3924000,3924000,0.00074141944,0.0013826387,-0.0013693871,0.16880545,-0.16975689,-0.20820025
3936000,3936000,-0.003115763,0.002096206,-0.0021329655,-0.40487546,0.052066874,-0.1081619
3944000,3944000,-0.0012063758,0.0016999487,-0.004344853,0.059456825,-0.02063696,-0.198269
3956000,3956000,0.00043192098,0.00286819,-0.00024840876,0.109267935,0.12637691,0.276487
3964000,3964000,-0.004172936,0.0011618068,-0.0012439287,-0.33751655,-0.08863467,-0.08036274
3976000,3976000,-0.0009050708,-0.004946947,0.0011340193,0.026081204,-0.47181487,0.3184958
3984000,3984000,-0.0032795756,-0.00050610583,0.0015140612,-0.10733634,0.26839727,0.026998287
3996000,3996000,0.0019382655,-0.0045070704,-0.006390695,0.14157566,-0.3398841,-0.4714677
4004000,4004000,-0.006409701,0.0049338597,-0.004465382,-0.6061321,0.7638949,0.03511612
4016000,4016000,0.003807238,-0.0012778672,0.0019582286,0.4782369,-0.51719457,0.44815475
4024000,4024000,-0.003339521,-0.0015249406,-0.00083684956,-0.41807568,-0.09363732,-0.10791078
4036000,4036000,-0.00040529703,0.0012637381,0.0034797678,0.019716442,0.15940781,0.4418034
4044000,4044000,-0.0024981482,0.002919626,0.0027271667,-0.1287369,0.17268044,-0.006718454
4056000,4056000,0.0013106574,-0.0044981157,-0.0010378475,0.2577894,-0.5697546,-0.122237585
4064000,4064000,0.0027918424,-0.0035249041,0.0025193817,0.17788193,-0.009324109,0.2957383
4076000,4076000,-0.0017811389,0.0017056167,0.0012765728,-0.22399291,0.09661523,-0.24270177
4084000,4084000,0.0012092184,0.001592902,-0.00033078354,0.18248053,0.04710143,-0.18501139
4096000,4096000,0.003654175,-0.001345431,-0.0013008381,0.2346084,-0.31332493,0.039991226
4104000,4104000,0.0028049457,-0.0008074455,0.003675062,-0.012946799,-0.045494907,0.41349372
4116000,4116000,0.0051217554,-0.004083159,0.0017909997,0.26506078,-0.09497607,-0.06602717
4124000,4124000,0.006295869,-0.001038224,0.00046962855,0.11228666,0.22120771,-0.15844032
4136000,4136000,-0.0007925631,0.0042381315,-0.0025601443,-0.44371393,0.19232976,-0.41634786
4144000,4144000,-0.0013923977,-0.0026065712,-0.003208894,-0.19097,-0.4942186,-0.102645196
4156000,4156000,0.0007214932,-0.0002275831,0.0046764174,0.01597783,0.23459536,0.23620862
4164000,4164000,0.0005725225,0.0010895077,-0.00058726605,0.043167725,0.13069768,-0.30508444
4176000,4176000,0.00052855664,-0.0005883402,-0.0020135816,-0.13539082,-0.10975499,-0.22332376
4184000,4184000,-0.0031942087,-0.0006394279,-2.9564995e-05,-0.2957974,-0.028909782,0.10390206
4196000,4196000,0.001315241,-0.0006782622,0.0009678739,0.22049227,0.0014836688,0.14602521
4204000,4204000,-0.0026456192,0.0038483255,0.0017901068,-0.28474247,0.3901452,0.11306123
4216000,4216000,-0.00053286005,0.000893258,0.0009652451,0.09202558,-0.16884613,-0.22328949
4224000,4224000,0.005164617,-0.0024668877,-0.0021480394,0.568113,-0.30981776,-0.28677148
4236000,4236000,-0.0023053887,-0.00018550595,-0.00371206,-0.55461085,-0.2135194,-0.1616781
4244000,4244000,-0.0002911538,-0.001722883,-0.000786318,0.041995406,-0.13406421,0.17494106
4256000,4256000,0.0010554473,-0.0022734837,-0.0044189314,-0.097310126,0.023364548,-0.22319923
4264000,4264000,-0.007232937,0.0031879141,-0.00519027,-0.71479064,0.45667008,-0.07679356
4276000,4276000,-0.006081441,0.002541496,-0.002487949,0.0006158501,-0.01092403,0.20991954
4284000,4284000,-0.0034675868,0.005618012,-0.0005094788,0.2581941,0.25664288,0.23147033
4296000,4296000,-0.0012421998,-0.00242517,0.0012309168,-0.060522497,-0.3766092,0.004358613
4304000,4304000,-0.0049135988,0.0033308938,-0.0060636476,-0.26155192,0.35673654,-0.59821653
4316000,4316000,0.0032559577,0.0023592082,0.0045641772,0.5431448,-0.060796004,0.6562981
4324000,4324000,0.0011105756,0.0015676743,0.004085458,-0.05851102,-0.048906166,0.13788322
4336000,4336000,0.003466234,-0.0057589426,0.00234526,0.2626896,-0.5802181,-0.012513491
4344000,4344000,-0.003277067,-0.0011039493,3.4284036e-05,-0.5383879,0.3291388,-0.24770787
4356000,4356000,0.002735984,0.002526978,0.0004959587,0.42301655,-0.016627314,0.14996235
4364000,4364000,0.0020820508,0.0041492297,0.003617267,0.012607098,0.17018372,0.25944445
4376000,4376000,-0.0059496574,-0.004182012,0.003523335,-0.5551052,-0.5808002,0.048437465
4384000,4384000,-0.0011457987,0.0025060507,-0.0022095696,0.29596776,0.3986458,-0.47115847
4396000,4396000,0.00019069121,0.0012762928,0.004223844,-0.03176126,-0.0566899,0.27664107
4404000,4404000,-0.0022813699,0.0017513847,0.0016460505,-0.12461147,0.025348691,-0.13263264
4416000,4416000,0.00304378,-0.00063403044,0.00026126057,0.17318344,-0.10906437,-0.03604621
4424000,4424000,0.0022083742,0.001025625,-0.001686034,-0.0023833495,0.10920919,-0.23252247
4436000,4436000,-0.000884427,0.0020405636,-0.0022992233,-0.31414747,0.1463709,0.0866946
4444000,4444000,-0.0006312432,0.0030103326,-0.0014844591,-0.025489002,0.05855824,0.06980897
4456000,4456000,-0.0019967975,-0.0026970496,-0.000118698365,-0.030579552,-0.28391123,0.051887546
4464000,4464000,0.0034110316,-0.0008136723,0.00016803802,0.42790973,0.038896915,0.04672993
4476000,4476000,0.006741176,-0.0006759572,0.0005313152,0.38467026,0.0548503,-0.1382843
4484000,4484000,0.0016160649,0.0010341555,-0.0044277892,-0.36413187,0.1680143,-0.36094087
4496000,4496000,0.00055518304,-0.0020249952,0.0005321389,0.004603386,-0.23558134,0.28739184
4500000,4500000,0.0018778956,-0.0023300238,0.0018649548,0.14477277,-0.16709283,0.30708504
4516000,4516000,0.0041596456,0.0014103767,-0.00036058977,0.29921576,0.0049429275,-0.21837062
4524000,4524000,0.0034861115,-0.003168351,-0.00077463133,0.021883428,-0.3984046,-0.037187405
4536000,4536000,0.000120484154,0.0002937843,-0.0008280067,-0.32645547,0.22282186,-0.23874
4540000,4540000,-0.001979844,-0.0006870371,-0.004194083,-0.41183883,0.021631548,-0.49785596
4556000,4556000,0.0034643202,0.002598895,0.00083370844,0.086530864,0.28101984,0.271581
4564000,4564000,-0.0018218444,0.0035212876,-0.0011330054,-0.41435722,0.18856768,-0.07985094
4576000,4576000,-0.0062858723,0.00034629414,-0.0026969565,-0.1834667,-0.17957133,-0.10850208
4584000,4584000,-0.0037472728,0.0037698443,-0.002918348,0.11548448,0.21428914,-0.03727557
4596000,4596000,-0.0006486443,0.0005796887,0.0014880988,0.29517257,-0.1611445,0.32413298
4600000,4600000,-9.921379e-06,-0.0011168448,0.0036597901,0.23692885,-0.27419522,0.41818392
4616000,4616000,-0.00033493317,-0.0029902356,0.0017782411,0.014815509,-0.05025762,-0.15181047
4624000,4624000,0.0040721777,0.0013056607,0.002762054,0.2914548,0.37158248,0.082444675
4636000,4636000,-0.0031690705,-0.0009312718,-0.001476651,-0.31867933,-0.26247585,-0.3356134
4644000,4644000,-0.0037069917,5.8140606e-05,0.0011327688,-0.12898755,0.071183026,0.09850742
4656000,4656000,0.0025913387,0.003457921,-0.004479778,0.29376045,0.07878298,-0.32356626
4664000,4664000,0.0016925314,0.0006992272,-0.0018189506,-0.0038553327,-0.18093482,0.11801396
4676000,4676000,-0.00046646828,0.0006043073,0.0031615263,0.027754605,-0.075538374,0.3978676
4684000,4684000,0.0031089336,0.0033577485,0.0010874681,0.3118554,0.24696377,-0.072268896
4696000,4696000,0.0002697131,0.0035939962,-0.0011128527,-0.21316387,0.12197774,-0.23792256
4700000,4700000,0.0013515963,0.004432939,-0.0014852114,-0.0052644014,0.15970215,-0.17566343
4716000,4716000,-0.0028710999,-0.0020572944,0.0033938657,-0.37672853,-0.24072048,0.23720655
4724000,4724000,0.00027211488,-0.0034594266,0.0033657239,0.16399777,-0.16978659,0.06246381
4736000,4736000,0.0021965103,0.0038773692,0.00611797,0.22148912,0.511132,0.0682107
4744000,4744000,-0.00199917,-9.742472e-05,0.0025677606,-0.27700794,-0.20897138,-0.22685778
4756000,4756000,0.00015553285,-0.0029418068,0.0030625672,0.047049657,-0.12359251,-0.18438995
4764000,4764000,-0.0012972564,0.0015164707,0.0015697598,-0.082147524,0.33252382,-0.14985994
4776000,4776000,0.0009754895,-0.0040127626,0.0065063504,0.10157595,-0.4506085,0.06937503
4784000,4784000,-0.0010112738,0.0030386508,0.00029802075,-0.12998587,0.49919355,-0.40881798
4796000,4796000,0.0005034341,-0.00034633232,5.7214136e-05,0.10943133,-0.24444292,-0.18862528
4804000,4804000,-0.0010925814,-0.0004475587,0.002484262,-0.13586904,-0.03757154,0.18416446
4816000,4816000,0.0025267256,0.0006790934,0.008464406,0.31115335,-0.050618608,0.30964231
4824000,4824000,0.003917113,-0.005794853,0.005197334,0.21985833,-0.54949486,-0.24221674
4836000,4836000,-0.00028895529,-0.0032239882,-0.003853177,-0.17399545,0.13378645,-0.43574125
4844000,4844000,-0.0035625151,-6.655045e-05,0.0052558235,-0.34633893,0.2837599,0.6569542
4852000,4852000,-0.0032792375,0.0021343655,0.0017232742,-0.059375912,0.26512715,-0.16038021
4864000,4864000,-0.0022155098,0.0042289775,0.0014908352,0.03670418,0.29613984,-0.09607824
4872000,4872000,0.0019616298,0.001920559,-0.0087063825,0.37477154,-0.11954476,-0.87425077
4884000,4884000,-0.00011181098,0.0007737656,0.0020801183,-0.07994791,-0.098926894,0.61564827
4896000,4896000,-0.0014323347,0.0043222783,0.0007884483,-0.08860934,0.11294654,-0.05757908
4904000,4904000,-0.004188194,0.00021304982,0.00299462,-0.22125365,-0.32867587,0.21035132
4916000,4916000,0.0014617146,0.0037550372,0.0059837345,0.24345154,0.41944686,0.27238753
4924000,4924000,-0.00095168664,0.0024381438,0.0054343026,-0.09786956,-0.041761786,0.0031270974
4936000,4936000,0.0016886414,0.0071015963,0.0014622802,0.16820827,0.34012842,-0.2876683
4944000,4944000,0.0013616325,0.0082378965,0.004647462,0.013119362,0.15972137,0.21021238
4956000,4956000,0.0002341253,-0.0016199932,-0.0066780667,-0.052419003,-0.5531112,-0.6592159
4964000,4964000,0.003342601,-0.0020845537,-0.0010333601,0.23887742,-0.17381454,0.22244465
4976000,4976000,0.00066780683,0.0053203916,-0.0010454686,0.031017363,0.4250129,0.10931078
4984000,4984000,0.0076991506,0.0028451872,-0.0010545603,0.56001985,-0.08338706,0.0497939
4996000,4996000,0.0059380895,-0.0034607104,-0.0005068816,-0.22130692,-0.415048,-0.081877194
5004000,5004000,0.0048160315,-0.0050259577,-0.0077491635,-0.11191629,-0.23627202,-0.5974735
5016000,5016000,-0.00031461997,0.0054090517,0.00012169973,-0.37980208,0.5887192,0.41199657
5024000,5024000,0.0007411947,0.001906367,-0.0015647869,0.032672793,-0.0841295,0.021961084
5036000,5036000,0.0065592187,0.0035478496,-0.0008656146,0.25034007,-0.060485363,-0.07739954
5044000,5044000,0.0020835123,0.00036681863,-0.0012588964,-0.27254146,-0.2295618,0.037603285
5056000,5056000,0.0029671215,0.0011725053,-0.0021992251,0.090073675,0.04170341,-0.34897298
5060000,5060000,0.005572831,0.00197171,-0.003844566,0.33138216,0.109664716,-0.37578055
5076000,5076000,-0.0024767206,-7.78595e-05,0.0010631914,-0.5225254,-0.14812583,0.08155966
5084000,5084000,-0.0023126565,0.00030386727,0.0015513898,-0.11084396,0.0033355565,0.07810194
5096000,5096000,0.001739112,-0.00040467363,-0.00043360796,0.100664765,-0.15926206,-0.21463233
5104000,5104000,0.006148387,-0.00034866668,-0.00064168987,0.38538712,0.00021438405,-0.059770778
5116000,5116000,0.0038461923,-0.00029595476,0.00017173437,0.050899222,-0.06674882,0.031300046
5124000,5124000,-0.0018343282,0.0018798038,-0.0040580076,-0.5311153,0.21438244,-0.34056398
5136000,5136000,-0.0047140676,0.007109735,-0.002998407,-0.07032448,0.22987294,-0.08648749
5144000,5144000,0.0015198885,0.0012873895,-0.004293031,0.4599044,-0.3785013,-0.09366659
5156000,5156000,0.0033403859,-0.00021312479,0.005680727,0.20334703,-0.28437287,0.56609523
5164000,5164000,-0.00081612857,0.0016016504,0.004284715,-0.30266976,0.031704746,0.04430914
5176000,5176000,-0.0028607454,0.0021778708,-0.0017574913,-0.21801895,0.16441824,-0.21570534
5184000,5184000,0.00037903636,0.003999149,0.0030349721,0.24340104,0.19938482,0.30555505
5196000,5196000,0.00088066194,0.0022733957,-0.009688123,-0.026699752,-0.27899402,-0.9491198
5204000,5204000,-0.001033946,-0.00033006584,-0.002167326,-0.13913362,-0.2047254,0.46859565
5216000,5216000,0.0058092237,0.0047492264,-0.00047826377,0.4749444,0.11726281,-0.16451019
5224000,5224000,0.0047484916,0.0019179462,-0.0042219637,0.012801379,-0.11936674,-0.314519
5236000,5236000,-0.0011633793,0.005489906,0.0018310283,-0.28626072,0.12532808,0.22941297
5244000,5244000,0.0014799024,0.0037635097,-0.0023774654,0.12352133,-0.13568634,-0.28618404
5256000,5256000,-0.003052353,0.0018598018,-0.0038856508,-0.42457125,-0.073474124,-0.21280062
5260000,5260000,-0.0012901458,0.0020327214,-0.0042835013,-0.052681804,-0.023306698,-0.16408014
5276000,5276000,2.1458836e-05,-0.0021027783,-0.0016377473,-0.26265278,-0.24524643,0.08882105
5284000,5284000,0.0007214912,-0.0016073165,-0.000104071434,-0.08719393,-0.01568343,0.14594603
5292000,5292000,-0.0025867103,0.0030518342,-0.0019180631,-0.23429926,0.4130748,-0.079445854
5300000,5300000,0.0017703761,0.0042285053,-0.0013342993,0.26356325,0.1781965,0.02315002
5316000,5316000,-0.004269082,0.0020920504,-0.0020108442,-0.35858867,-0.1412769,-0.18556905
5324000,5324000,-0.002738655,-5.500391e-06,0.0005625597,0.04276684,-0.17530608,0.1438168
5336000,5336000,0.0010723788,0.002109563,-0.0036909634,0.021238327,-0.11658361,-0.29255268
5344000,5344000,-0.0022435384,0.00038702833,-0.0040487135,-0.18794319,-0.09238765,-0.120199256
5356000,5356000,-0.0032144925,0.00083120726,0.0012480336,-0.16899167,0.04348363,0.34682345
5364000,5364000,0.00022166676,-0.0013357988,0.0018186022,0.2700618,-0.17149678,0.16455089
5376000,5376000,0.0020503583,-0.004018804,0.0028122615,0.0891559,-0.13815555,0.009359849
5380000,5380000,-0.00084352714,-0.0026147896,-9.609664e-05,-0.26016724,0.07211875,-0.30721682
5396000,5396000,-0.0006280978,0.0005915463,-0.002957625,0.0019174293,0.09636622,-0.047533296
5404000,5404000,0.0003907428,-0.0014417963,-0.0023832615,0.12874755,-0.19284259,0.08758366
5416000,5416000,0.0031568585,8.548703e-05,-0.002551507,0.11367555,0.16450362,-0.059875738
5424000,5424000,-0.002995411,0.0024747597,-0.00080628274,-0.49424165,0.22442168,0.19773489
5436000,5436000,-0.003909553,-0.0014372822,0.0074787526,-0.20024309,-0.038494173,0.30570865
5444000,5444000,-0.0010715345,0.006361643,0.0040122857,0.2255775,0.5668621,-0.15822993
5456000,5456000,0.006346179,-0.002917226,0.0015993852,0.5189227,-0.49854597,-0.34832388
5464000,5464000,0.004006143,-0.0025157328,-0.0021319292,-0.044495463,-0.13954869,-0.45483923
5476000,5476000,-0.00069631694,0.0010710335,-0.007947166,-0.35149354,0.34331194,-0.2842826
5484000,5484000,-0.0025251145,0.0019459003,-0.00091201754,-0.26031423,0.13132365,0.4704271
5492000,5492000,0.0013778424,0.00016423548,0.0008891501,0.2876976,-0.08585405,0.28534386
5504000,5504000,0.004238383,0.0012314892,-0.0065633142,0.10850644,0.087449364,-0.45403776
5516000,5516000,0.00129131,0.00014798064,0.0047424585,-0.07428236,-0.053232934,0.7974391
5524000,5524000,0.0028759562,0.0059559164,0.0042873244,0.063267305,0.5069954,0.16346963
5536000,5536000,-0.0039116847,-0.004246373,0.00928906,-0.4982058,-0.8409078,0.3884821
5544000,5544000,-0.0047668954,-0.007085985,0.0045561036,-0.2056709,-0.38676792,-0.27400184
5556000,5556000,0.0023571672,0.0009870953,0.0014831562,0.44131535,0.3106215,-0.27738345
5564000,5564000,0.004111192,0.00054386165,-0.0003655083,0.36527312,0.11577945,-0.25849643
5576000,5576000,0.0010088703,-0.003451806,-0.0029596586,-0.36650193,-0.40083748,-0.1289535
5584000,5584000,-0.0005694855,0.001170042,0.00078085536,-0.22784048,0.28976023,0.30065137
5596000,5596000,0.0018931533,-7.435819e-05,0.0066937353,0.1921516,0.06991125,0.37078273
5604000,5604000,0.003996012,0.0024514822,0.00049234746,0.20974737,0.18403046,-0.4564194
5616000,5616000,0.00027497765,0.0017340132,0.00023542102,-0.081174076,0.060899276,0.026510091
5624000,5624000,0.00257629,0.0012240559,0.00042370413,0.08394401,-0.06223069,0.009262159
5636000,5636000,-0.0015069467,0.00091441814,0.0019629337,-0.26042342,0.053835418,0.17665361
5644000,5644000,-0.0043421183,0.0017282893,0.0058424855,-0.3088383,0.084211096,0.35990906
5656000,5656000,-0.0029402524,-0.0015294203,0.0013859331,-0.024304725,-0.18700808,-0.20051007
5664000,5664000,-0.0023671216,0.0010613701,-0.0011996997,0.063486114,0.19366981,-0.28771502
5676000,5676000,-0.00012179406,0.0016202028,-0.00043802074,0.04530099,0.11792869,0.111272335
5684000,5684000,-0.000892085,0.0019681263,0.0011168133,0.017352521,0.05880362,0.12114209
5692000,5692000,0.0011362915,0.0049509523,-0.0004475696,0.14718577,0.28729406,-0.07966028
5704000,5704000,-0.0037211147,0.0013334779,0.0039204345,-0.2447714,-0.2700289,0.16888621
5712000,5712000,0.0039859246,0.0033552966,-0.001433545,0.5330725,0.10474234,-0.35467646
5724000,5724000,0.002063088,0.0009572916,0.0005460514,0.05902326,-0.123033755,0.0751529
5736000,5736000,0.0042860825,0.0015489734,0.0046772915,0.18071558,-0.07254417,0.2109997
5744000,5744000,0.0039110035,-6.758841e-05,0.00030117828,-0.00384669,-0.11876319,-0.30153537
5756000,5756000,6.40871e-05,0.00745925,-0.00053457695,-0.14532144,0.5450364,-0.09071792
5764000,5764000,-0.0023435403,0.0015918151,0.0018008256,-0.28580984,-0.4252998,0.19607425
5772000,5772000,0.00036859233,-0.003084608,0.001675958,0.15445282,-0.47055537,-0.0057640458
5784000,5784000,-0.0015654836,0.0004962892,0.001487696,-0.015465811,0.25124764,0.12504782
5796000,5796000,0.0022144483,0.00033146655,-0.0010240965,0.2415799,0.044493664,-0.2981972
5800000,5800000,0.0019247129,-0.00014991919,-0.0056994427,0.10659516,-0.026365954,-0.67245793
5816000,5816000,-0.0036951983,0.0027573325,-0.0019568973,-0.032906294,0.11136905,0.24437338
5824000,5824000,-0.00039525563,0.002089066,0.0011999452,0.1962187,-0.049398795,0.3616684
5836000,5836000,-0.001136245,-0.00012810528,-0.0012235825,0.19660248,-0.21355307,-0.108118236
5844000,5844000,0.0015740781,0.0021191472,-6.907333e-05,0.20545405,0.13819252,0.06177029
5856000,5856000,-0.005015527,0.0032503132,0.00073384494,-0.2573623,0.17130218,0.17107165
5864000,5864000,-0.0022164995,0.004538981,0.0020830634,0.15261802,0.1443539,0.124337405
5876000,5876000,-0.00021121767,0.0058367425,-0.0016243195,0.25789124,0.22488838,-0.10644492
5884000,5884000,0.00010955823,0.006083249,0.0012225617,0.064093634,0.03933006,0.21831915
5896000,5896000,-0.00085390056,0.0013219588,-0.0046270755,-0.05264461,-0.34133404,-0.38172585
5900000,5900000,-0.0030474986,-0.0010574237,-0.0043498147,-0.2657542,-0.4503108,-0.18783736
5916000,5916000,0.002447476,-0.00032178918,-0.001386237,0.5888429,0.10523464,-0.09749454
5924000,5924000,0.00028111646,0.00085381325,-0.0014087509,-0.020130903,0.15488684,-0.02701546
5936000,5936000,-0.0010681767,-0.0002033934,-0.0036171572,-0.06559469,-0.0318766,-0.10597315
5940000,5940000,-0.00071676355,0.0024448675,-0.00095141324,0.00036782026,0.26642737,0.22606146
5956000,5956000,-0.00058815535,-0.0007531969,-0.0012968808,-0.115842655,-0.24924688,-0.38678825
5964000,5964000,-0.0022608053,0.0007744804,-0.0013080965,-0.15126795,0.05986765,-0.070901155
5976000,5976000,-1.5467638e-05,-0.0022826195,0.0049012383,0.04183881,-0.16026136,0.27656883
5984000,5984000,-0.004576411,0.0004284028,-0.0019614242,-0.3410626,0.17438678,-0.44254467
5996000,5996000,-0.0014148827,0.008030592,-0.0042035664,0.08915225,0.6264582,-0.2593439
6004000,6004000,-0.0029103586,0.0009699217,0.00067158404,-0.07667985,-0.4346274,0.35017544
6016000,6016000,0.0051018083,-0.007481563,-0.0020854326,0.4998691,-0.734967,-0.14755116
6024000,6024000,0.003205208,-0.0037691705,-0.0035578592,-0.0063064843,0.1490497,-0.16722403
6036000,6036000,0.0035979433,-0.0023218347,-0.00021817042,-0.058939785,0.036610004,0.19772506
6044000,6044000,0.0014046706,-0.00346578,-0.002895925,-0.16097257,-0.067420036,-0.17581694
6056000,6056000,-0.00014900672,-0.00014329515,0.0005145565,-0.2238855,0.28804463,0.4550082
6064000,6064000,0.0046867304,0.0012526964,0.002807146,0.33561844,0.18226917,0.25071356
6076000,6076000,-0.0014193744,0.0042052735,2.3447647e-06,-0.3202355,0.43861392,-0.027031519
6084000,6084000,0.00081599545,0.0058969855,-0.0012636498,0.09484017,0.2284733,-0.14015153
6092000,6092000,0.0041896435,0.002986935,-0.0046648933,0.3121588,-0.22381584,-0.30464542
6104000,6104000,-0.0016143318,0.0035986882,0.0028716712,-0.32089454,0.17426237,0.3005462
6116000,6116000,0.002243997,0.0020275274,0.00060673535,0.2483555,0.057324633,-0.08359334
6120000,6120000,0.0036525335,0.001657695,-0.0012983315,0.2929667,-0.007062297,-0.2523914
6136000,6136000,-0.0057131425,0.0015251711,0.0011098387,-0.38017732,0.056230437,0.16611537
6144000,6144000,-0.0053782347,0.0007155873,0.0034215862,-0.11397065,-0.034379557,0.25096145
6156000,6156000,-0.0033943704,-0.00037262263,0.0029410862,0.25246316,-0.032150142,0.09183652
6164000,6164000,0.0006606483,0.00094084116,0.0029841156,0.38768166,0.12681104,0.012619944
6176000,6176000,0.00081569876,0.0030001746,0.00059417257,0.18130994,0.113555916,-0.18866992
6184000,6184000,0.0021703439,0.0017634025,0.00081317493,0.1344058,-0.0699579,-0.0098137865
6196000,6196000,0.0031455941,-0.005046474,0.0033759528,0.25349763,-0.39437768,0.22069755
6204000,6204000,-0.0011152093,0.00079493225,-0.0014106043,-0.39738065,0.38165072,-0.3945555
6216000,6216000,0.0016301603,-0.00503215,0.0031294343,0.20247093,-0.5519646,0.3133915
6224000,6224000,-0.0016694261,-0.0008777166,0.0039178045,-0.19896075,0.27535662,0.15917435
6236000,6236000,0.0043314295,0.00285725,0.0061288066,0.32735035,0.031666037,0.14114383
6244000,6244000,0.0022516488,0.0023697037,0.0029239573,-0.102124125,0.023342434,-0.23502141
6256000,6256000,-0.001146684,-0.0010540946,-0.0003117807,-0.1309697,-0.28228986,-0.16845635
6264000,6264000,-0.0016045965,-0.0015398902,-0.001735592,-0.12702185,-0.102259606,-0.1875733
6276000,6276000,-0.0015733432,-0.0043451767,-0.004316425,0.068349406,-0.38907027,-0.21643065
6284000,6284000,0.004488229,-0.00011661835,-0.0016300528,0.5796609,0.3153684,0.17978705
6296000,6296000,0.0017930281,0.0021606926,-0.0012478401,-0.19769502,-0.018036306,-0.014312133
6304000,6304000,-0.0015922292,-0.0011901399,0.0008455997,-0.35810143,-0.1917256,0.20636034
6316000,6316000,0.00391392,0.0021920397,0.0003610764,0.4243061,-0.17046916,-0.054004733
6324000,6324000,-0.0036439034,-0.0016020271,0.0014932998,-0.5724753,-0.25964716,0.038657565
6336000,6336000,-0.0021317052,0.0072081434,-0.0048067537,0.187056,0.45952058,-0.42923215
6344000,6344000,0.0040674023,0.0007130131,-0.005549282,0.56064165,-0.43453526,-0.16206028
6356000,6356000,-0.0024085026,-0.001671223,0.0017363208,-0.40010273,-0.047494657,0.36385447
6364000,6364000,0.0008677317,0.0040156245,0.0028270269,0.14008163,0.45031503,0.23507807
6376000,6376000,0.004696079,-0.001529207,-0.010650835,0.24521321,-0.32551628,-0.91777194
6380000,6380000,0.0039988603,-0.001580718,-0.009020176,0.06487554,-0.19112273,-0.34800798
6396000,6396000,0.000314911,-0.003466528,0.0051355986,-0.19637562,-0.023333935,0.7410183
6404000,6404000,0.0017579861,-0.0012354422,0.0072771325,0.04782868,0.23667882,0.3261709
6412000,6412000,0.0010228015,0.0022282666,-0.0010599633,-0.046646472,0.31148988,-0.60816264
6424000,6424000,0.0060071526,0.0016511874,0.0003588656,0.2785595,-0.007899034,0.18039486
6436000,6436000,0.003375201,0.0018995227,0.0018245836,0.06585753,-0.0028197484,0.09555526
6444000,6444000,0.0031869514,-0.0052277166,0.003222626,-0.04175079,-0.6525718,0.17752089
6456000,6456000,0.0007488157,-0.0050210566,0.0047640624,-0.118667915,0.16133478,0.36072302
6464000,6464000,0.0070324205,0.0004481054,0.00590068,0.45663595,0.4630577,0.06766421
6476000,6476000,-0.0001398751,0.0028674551,-0.0013592909,-0.38714942,0.15715852,-0.29521197
6484000,6484000,0.0008105444,-0.0008155913,0.001146395,-0.024862662,-0.22878778,0.14172325
6496000,6496000,-0.0028696698,-0.0030291448,0.0036609012,-0.2975968,-0.18700327,0.14147028
6504000,6504000,0.0016774015,-0.0030077235,0.001222489,0.28437525,-0.08949764,-0.19345246
6516000,6516000,-0.0017219465,-0.00096819317,-0.001234577,-0.06470601,0.3622521,-0.16252512
6524000,6524000,0.0035574662,0.000531469,0.0010388041,0.4063767,0.202204,0.13891669
6536000,6536000,-0.0011278093,0.0035962288,0.0022843515,-0.28112745,0.39237887,0.15030642
6544000,6544000,0.0009481417,0.0038133059,0.001002697,0.10326457,0.10768874,-0.11213052
6556000,6556000,0.0025888716,-0.0019093086,0.005909722,-0.008242786,-0.23691602,0.440676
6564000,6564000,-0.000789935,0.0038700479,0.0017296642,-0.25271097,0.43421233,-0.25345832
6576000,6576000,0.0013075182,-0.0010895054,-0.0040628263,-0.031028554,-0.39246577,-0.39474502
6580000,6580000,-3.3299904e-05,-0.004058087,-0.0032241032,-0.16178434,-0.5427821,-0.13492121
6596000,6596000,0.0010012682,-0.0040451162,-0.0014910379,0.04152047,0.06975792,-0.15089265
6604000,6604000,0.0013292244,0.0039906316,-0.00022523938,0.023452166,0.6638862,0.09273033
6616000,6616000,0.0037204297,0.00022382196,-0.0034236468,0.14578411,-0.01806959,-0.28168908
6624000,6624000,0.0016081929,0.0021404978,-0.0028437402,-0.16703731,0.110929735,-0.026827393
6636000,6636000,-0.0008814831,0.0014224737,-0.0014153274,-0.1119408,0.023220781,0.16930448
6644000,6644000,-0.00028192613,0.005043212,0.0050803334,-0.025856294,0.27009016,0.6302409
6656000,6656000,0.0010841909,0.004549031,0.0032357934,0.2548561,0.08859417,-0.26185057
6664000,6664000,0.00046286976,8.5694715e-05,-0.004835735,-0.010889217,-0.32618815,-0.7403599
6676000,6676000,0.00088854594,-0.0007085176,-0.0032310952,-0.0041515455,-0.20120372,-0.055079296
6684000,6684000,-0.00056515925,-0.00046347873,-0.002542003,-0.08791903,-0.040834963,0.077493325
6696000,6696000,0.0046136836,-0.0012986287,-0.002410989,0.36581743,-0.22219573,0.0033302007
6704000,6704000,0.0046104128,-0.001400312,-0.001397209,0.077832475,-0.0054606213,0.08685735
6716000,6716000,0.0009133213,0.0019081244,-0.0018390173,-0.16074935,0.16573444,-0.0015317117
6724000,6724000,0.00093571807,0.0015831809,-0.00015166537,-0.093459554,0.047627944,0.14169088
6736000,6736000,0.0025741612,0.0018130112,0.004240383,0.30772567,-0.06563092,0.38971353
6744000,6744000,0.00883887,0.0026679316,0.0066697598,0.57449394,0.08574486,0.27804404
6756000,6756000,0.0041629295,-0.00063037174,-0.0052916002,-0.28460857,-0.1944268,-0.7755569
6764000,6764000,0.0013392093,0.004671271,0.005648095,-0.30974412,0.30274764,0.7373178
6776000,6776000,0.002665917,0.0027849907,-0.0006870071,-0.082821906,0.29248044,-0.33029145
6784000,6784000,-0.0026441077,0.002871262,0.0012026709,-0.4401377,-0.01564455,0.017855065
6796000,6796000,0.001444687,0.0007392331,-0.0032679816,0.086581126,-0.06560016,-0.0816997
6804000,6804000,0.005746068,-0.0020651966,0.0039150203,0.4613253,-0.25773475,0.5555978
6816000,6816000,0.0010826413,-0.0028145378,0.007332139,-0.33510694,-0.036121998,0.3139121
6824000,6824000,-0.00053921796,0.00043268967,0.0011801184,-0.22041571,0.23437344,-0.4575453
6836000,6836000,0.0022809613,-1.0197982e-05,-0.00036066136,0.22214699,-0.021296054,0.048755467
6844000,6844000,0.006885093,-0.0019470137,0.00016783146,0.43032825,-0.094570786,0.00082745985
6852000,6852000,0.0051020468,0.0011845338,-0.002210331,-0.018206522,0.21882021,-0.1481636
6864000,6864000,-0.00042130623,0.0025494413,0.00381592,-0.26603836,-0.0673242,0.31713706
6876000,6876000,-0.00092697295,0.000721883,0.00058663747,-0.11134819,0.124409735,-0.18864128
6884000,6884000,0.0007556777,-0.0005127182,-0.0032171523,0.113657095,-0.15596254,-0.398807
6896000,6896000,-0.0013438967,0.0004673032,0.0017318148,-0.16172698,0.22042441,0.33945787
6904000,6904000,0.0025747535,0.00017571915,-0.0018279869,0.34953466,0.017776359,-0.16763452
6916000,6916000,0.0072931605,0.0048903786,-0.00096393836,0.2321451,0.43559596,-0.08418081
6924000,6924000,0.00048067968,0.0022303672,0.0032760312,-0.5170182,-0.13813345,0.3276028
6936000,6936000,0.0035627834,-0.0009893244,-0.0054094186,0.059496045,-0.12871595,-0.513998
6944000,6944000,-0.0034527644,0.0041396436,-0.004100752,-0.57265615,0.37162733,-0.016597116
6956000,6956000,0.0028567384,0.0010869275,0.0054566124,0.40686807,-0.16985221,0.5258299
6964000,6964000,0.0012059882,0.0031352816,0.001131037,-0.05376205,0.081581056,-0.20316628
6976000,6976000,0.0011921125,0.00076185586,0.0031743187,-0.001956299,-0.06984542,0.18670283
6984000,6984000,0.0036525829,0.0009885109,-0.0002871906,0.20927608,-0.049838673,-0.2739535
6996000,6996000,-0.001181465,0.00092263194,-0.0072948714,-0.3296203,0.14230831,-0.48074436
7004000,7004000,0.0008239078,0.0009925538,-0.0031439927,0.084260896,-0.03599671,0.21141267
7016000,7016000,0.0001599855,0.0012516389,0.0020180857,0.0109494105,0.15655825,0.31096697
7024000,7024000,0.0036503463,-0.0016922285,-0.0047604353,0.32652608,-0.18224691,-0.50724065
7036000,7036000,0.0025198432,0.0035833912,-7.302906e-05,-0.10196853,0.26166952,0.29088494
7044000,7044000,-3.7825434e-05,0.001562905,0.0002388152,-0.2620198,-0.067181304,0.13152288
7056000,7056000,0.00086832733,0.002345398,0.0028072752,0.12718624,-0.10749549,0.08917682
7064000,7064000,0.007375455,0.0009280252,0.0024090416,0.59102726,-0.10368331,0.019185169
7076000,7076000,-0.0016761672,-0.00541213,0.0008914089,-0.57353437,-0.42452186,-0.29953644
7084000,7084000,-0.004710964,0.003282799,-0.00028790286,-0.42567533,0.6328299,-0.103292756
7096000,7096000,-0.0030171843,-0.0033396403,0.0015098999,0.19172652,-0.46993047,-0.06258274
7104000,7104000,0.0033371756,-0.0073545915,-0.001263509,0.580419,-0.47798586,-0.2085102
7116000,7116000,0.00081098464,0.0006878013,-0.0020097913,-0.018096875,0.68409705,-0.22743876
7124000,7124000,0.0010433034,0.0012281183,-0.00059116323,-0.0053253807,0.23162347,0.136585
7136000,7136000,-0.00094205805,-0.0012026713,0.0016104168,-0.048050955,-0.15517813,-0.057280485
7144000,7144000,-0.0006661202,3.2384414e-05,-0.0045199483,-0.007168453,0.050647333,-0.48967168
7156000,7156000,-0.00092027744,-0.00010570465,0.0018287995,-0.10396038,0.055595294,0.42454636
7164000,7164000,0.0005742586,0.006624413,5.612703e-06,0.13808702,0.5645937,-0.058204446
7176000,7176000,-0.0020415303,-0.0008192975,-0.007423032,-0.23565046,-0.41904545,-0.57103896
7180000,7180000,-0.0006376434,-9.892043e-06,-0.004822251,0.016520157,-0.15192634,-0.046068374
7196000,7196000,0.0051477654,0.0005973326,-0.00075825443,0.42675588,-0.04864186,-0.09388852
7204000,7204000,0.004343843,-0.003715156,0.0005542664,0.010959327,-0.36088377,0.115154155
7216000,7216000,0.0026939977,0.0015774849,0.0008791435,-0.01812917,0.3524327,-0.03690373
7224000,7224000,0.00020133483,0.004249344,-0.0033947385,-0.2605422,0.2984301,-0.3501081
7236000,7236000,-0.0032446766,-0.0014349143,-0.0015613198,-0.19891901,-0.29603907,0.08261102
7244000,7244000,-0.004203631,0.00055487035,0.00027038666,-0.09701578,0.09659286,0.118138075
7256000,7256000,-0.0025726715,-0.00040996587,-0.0036843442,-0.14873907,-0.20504922,-0.24593829
7264000,7264000,-0.003857804,0.0008619223,-0.0030729026,-0.13085346,0.0467669,0.01720196
7276000,7276000,-0.0017781697,-0.0016512796,-0.0018714499,0.2738533,-0.19280794,-0.05805813
7284000,7284000,0.0030642427,0.0042246864,-0.0049317717,0.46716154,0.47008243,-0.2426682
7296000,7296000,0.0033200542,0.00046493812,-0.0028661576,0.07624031,-0.16158631,0.20654286
7304000,7304000,-0.00073244714,0.0051852996,-0.0051982827,-0.339674,0.34555832,-0.15171751
7316000,7316000,0.0045996653,0.004103864,-0.00058956066,0.41183203,-0.21569118,0.34996232
7324000,7324000,0.004200095,-0.0017249384,-0.0032479626,0.051125616,-0.5021913,-0.18749265
7336000,7336000,0.0014624501,-0.0013509709,-0.005598956,-0.1340764,0.0040225554,-0.10198058
7344000,7344000,-0.0006455552,-0.0037736767,-0.0010079453,-0.24793862,-0.25144762,0.39119357
7356000,7356000,-0.0021935948,0.0018170532,0.0030759145,-0.2074318,0.4129219,0.25031298
7364000,7364000,-0.0052864742,0.00529485,0.0041265558,-0.25942898,0.4195428,0.20298934
7376000,7376000,0.0012175723,0.007578874,-0.001278358,0.31276506,0.10279409,-0.57640016
7380000,7380000,0.001820079,0.0029810762,-0.004228596,0.24306683,-0.43550637,-0.6456775
7396000,7396000,0.00069892633,0.0027433771,-0.000928036,-0.15846643,0.25308326,0.35452244
7404000,7404000,-0.0038975296,-0.000358982,0.0013511943,-0.41734082,-0.1687534,0.29534
7416000,7416000,-0.00076871796,-0.00055390364,-0.0026434532,0.29157558,-0.17197135,-0.3152825
7424000,7424000,0.0029888565,-0.0011837729,-0.005249593,0.37677592,-0.058153715,-0.26622796
7436000,7436000,0.009700728,-0.00070778374,-0.0016248575,0.47958416,-0.109668136,0.11750309
7444000,7444000,0.0054337364,0.00066503,0.00011480787,-0.22707239,0.09889336,0.17205513
7456000,7456000,0.005618216,-0.0015163864,-0.0008037772,0.11716084,0.05929029,-0.022853492
7464000,7464000,0.00416312,0.0005371426,-0.0005293974,-0.12618564,0.15917504,0.0156649
7476000,7476000,0.0021378642,0.0055884584,-0.0013841565,-0.06414418,0.4808075,0.006667831
7480000,7480000,0.0037229685,0.0070160916,0.0015276805,0.13377611,0.4275471,0.31672853
7496000,7496000,0.0005756209,0.0047922772,0.0044839513,-0.15037084,0.13706666,0.27636153
7504000,7504000,0.004519616,0.0027911013,0.0006838601,0.33573055,-0.17132518,-0.25605196
7516000,7516000,0.00057390594,-0.0019650706,0.0012160348,-0.34715945,-0.47895074,0.051771328
7520000,7520000,-0.0012772802,-0.0049879407,0.0017277256,-0.39686823,-0.5979242,0.084506445
7536000,7536000,-0.00571358,-0.0022350163,-0.0007665681,-0.583107,0.15362316,-0.22742273
7540000,7540000,-0.005711568,-0.00030396087,-0.0026705763,-0.33223122,0.2951105,-0.33427924
7556000,7556000,-0.00015419454,-0.00384716,0.0024960267,0.018999234,-0.28577,0.30239835
7564000,7564000,-0.005547956,-0.0041105715,0.0013386692,-0.48420137,-0.15169416,-0.023333745
7576000,7576000,-0.00048326456,-0.0020411895,-0.0028254306,0.24219549,0.18478286,-0.20989859
7584000,7584000,0.00092194794,0.002791646,0.0018491871,0.2584473,0.40291643,0.32295406
7596000,7596000,-0.0020187916,-0.001971901,0.0019923616,-0.34950802,-0.19817384,0.113761194
7604000,7604000,-0.002181373,-0.006124728,-0.0011621219,-0.02890703,-0.45506364,-0.25886303
7616000,7616000,-0.00069687155,-0.0014758673,0.0031202284,-0.0395751,0.3098895,0.24864198
7620000,7620000,-0.00041576137,0.0016405755,-0.00029806895,0.007647127,0.5115931,-0.22559637
7636000,7636000,-0.0003664028,-0.0051882933,3.4801065e-05,-0.26496744,-0.53578305,0.1837648
7644000,7644000,-0.00025623734,-0.005228598,-0.0033896957,0.04955727,-0.12804186,-0.26411676
7656000,7656000,0.005162375,-0.0023222663,-0.002137723,0.084177375,0.163769,0.099762216
7660000,7660000,0.0026244777,0.00039167097,-0.0007917534,-0.22474861,0.38502908,0.20152512
7676000,7676000,-0.009206876,-0.0033095502,-0.0021350463,-0.72328365,-0.4050388,-0.09140687
7684000,7684000,-0.004892918,-0.0024911813,-0.00013531005,0.11831412,-0.010329964,0.12395319
7696000,7696000,-0.0052490714,0.0036001822,-0.0030329428,-0.09217713,0.33612096,-0.19462591
7704000,7704000,-0.0015226498,0.002273969,-0.0053436006,0.33126068,0.021109292,-0.2999558
7716000,7716000,-1.8265331e-05,0.0035966004,-0.0060050865,0.09918542,-0.005373493,-0.0073349923
7724000,7724000,0.0013862592,0.0035425338,-0.0026742017,0.16402824,-0.02066095,0.28713688
7736000,7736000,0.0029660356,-0.0005728882,-0.00479147,0.14833905,-0.16271721,-0.08744464
7744000,7744000,0.0019620394,8.93767e-05,-0.0023912531,-0.032446604,0.0054852474,0.22987339
7756000,7756000,-0.0038471324,0.000117696356,0.0014763583,-0.47155783,-0.20504165,0.05547842
7764000,7764000,0.0029919338,-0.0019682213,-0.0062813815,0.4482093,-0.14205058,-0.65458715
7776000,7776000,5.337177e-06,0.0024365121,-0.009142085,-0.1661224,0.2083104,-0.22309065
7784000,7784000,0.0010366819,0.0009921226,-0.0018198086,0.041116893,-0.06505252,0.6139383
7796000,7796000,-0.00046118698,-0.004599104,-0.0005451122,-0.14865834,-0.5324941,-0.021873841
7804000,7804000,-0.0038810633,-0.0018489067,-0.0045326003,-0.3515818,0.13771397,-0.28269264
7816000,7816000,-0.004830401,0.0016495218,-0.0005569603,-0.1093989,0.10602912,0.012373688
7824000,7824000,0.0026172646,0.0016796179,-0.0016298218,0.6500995,0.075405926,-0.051938787
7836000,7836000,-0.00023720402,0.004496328,0.00083825376,-0.12830727,0.2195407,0.21672326
7844000,7844000,0.0051313085,0.0046391557,0.0019229406,0.35852006,0.04536101,0.18053022
7856000,7856000,-0.003092141,0.0021966302,-0.0015470461,-0.27570766,-0.055534553,-0.28311187
7864000,7864000,0.00094719813,0.00220752,-0.0012102025,0.19234216,-0.021062354,-0.043259785
7876000,7876000,-0.002330014,0.0032479994,0.0005926456,-0.1365546,-0.011617363,0.054405063
7884000,7884000,-0.0019385149,-0.00401796,0.001460188,0.002239041,-0.62832874,0.11855337
7896000,7896000,0.000738668,-0.004256912,0.0068790577,0.15562107,-0.1147712,0.1536358
7904000,7904000,-0.0006228095,-0.0012164125,-0.0028019454,-0.082641974,0.2710126,-0.74264985
7916000,7916000,0.00064216147,0.005549055,-0.0017858754,0.08629527,0.49763897,-0.06692165
7924000,7924000,-0.00059789116,0.003191315,-0.0013715876,-0.06465123,-0.08821255,0.007588349
7936000,7936000,0.0014399026,-0.00013228366,0.0028460457,0.122888274,-0.1383572,0.47209287
7944000,7944000,0.002069978,0.0024067103,0.0003674033,0.12609802,0.14285895,-0.13561836
7956000,7956000,-0.0033059507,-0.0032140068,0.0013134258,-0.41198608,-0.26878652,0.17354482
7964000,7964000,0.00093150313,-0.0008039572,0.00040329367,0.3028037,0.09091778,-0.046800926
7972000,7972000,0.002183625,-0.0012253453,-0.0034839334,0.11171499,0.012691987,-0.35685045
7980000,7980000,0.003912691,0.0019891406,-0.0014275177,0.25238398,0.3363942,0.09801369
7996000,7996000,0.007645484,-0.00027923146,-0.0044477503,0.32576817,-0.4016422,-0.280431
8004000,8004000,3.0209892e-05,0.0067285476,7.119663e-05,-0.57725096,0.4915404,0.37376916
8016000,8016000,0.00064137124,0.0007754308,0.0020088397,0.08000389,-0.23099566,-0.056353454
8020000,8020000,0.0029607024,0.0037173415,-0.00042882937,0.29486477,0.18446112,-0.29409835
8036000,8036000,-0.0011466392,-0.0015402515,-0.0036279436,-0.4761075,-0.058187958,-0.21900319
8044000,8044000,0.0032025555,0.0006210762,-0.0033713044,0.28512496,0.082784325,0.015125753
8056000,8056000,0.00088724564,0.00022234814,0.0013138514,-0.3222318,0.21275884,-0.037156817
8064000,8064000,-0.0044464897,0.003252851,0.001969591,-0.5358829,0.27243805,0.12635303
8076000,8076000,-0.0017022672,0.0007699933,-0.005301819,0.07299959,-0.08185758,-0.6020603
8084000,8084000,0.0015273925,0.0019244947,-0.005268453,0.32537335,0.09295871,-0.061680853
8096000,8096000,0.0019802407,-0.0036422932,-0.0052200095,0.03167709,-0.4112388,-0.30876413
8104000,8104000,0.0010239882,-0.0016377978,-0.008438478,-0.07170384,0.06740538,-0.3083678
8116000,8116000,0.001849293,-0.0016656984,-0.0020364358,-0.0014815181,-0.0002076465,0.30626962
8120000,8120000,0.00082821294,-0.0005731541,-0.0011473739,-0.11057728,0.1172943,0.27015886
8136000,8136000,-0.0006348293,-0.00017062016,0.00207098,-0.2157023,-0.04836253,0.3827331
8144000,8144000,0.001381881,-0.00026028557,-0.00013682777,0.06736167,-0.013141388,-0.12318693
8156000,8156000,-0.0037341863,-0.0009507523,0.0021385583,-0.29612687,-0.19499087,0.13287063
8164000,8164000,-0.0023616971,0.00058191316,0.0005392474,0.055109918,0.16096863,-0.10900319
8176000,8176000,0.00044267764,-8.141156e-06,-0.0016116309,0.11646129,-0.2389346,-0.15715858
8184000,8184000,-0.001402373,0.0012348494,0.0008204952,-0.08088687,0.055143338,0.17711057
8196000,8196000,-8.32869e-05,-0.00025632745,-0.0037255255,-0.017852023,-0.040488012,-0.43593547
8204000,8204000,-0.0014464015,0.0007433621,-0.0027465886,-0.11685636,0.024263963,0.008387357
8216000,8216000,0.0007784367,0.006344375,-0.00073781656,0.0927856,0.39569932,0.07754912
8224000,8224000,0.0013568396,0.0011340245,-0.005419835,0.09815778,-0.36992842,-0.386723
8236000,8236000,0.0017523807,-3.1539705e-05,-0.00092914584,0.0861863,0.095249176,0.14696619
8244000,8244000,0.004101499,0.0027210133,-0.0010785329,0.15739892,0.22300908,0.08500283
8256000,8256000,-0.0034639407,0.0055358754,-0.00024424616,-0.41273513,0.34091702,-0.04688681
8264000,8264000,0.0012213562,0.001649397,-0.0035477486,0.2835487,-0.31490642,-0.23381528
8276000,8276000,0.0009516487,0.00016417075,-0.0022524586,-0.014723569,-0.0092161,0.026620809
8284000,8284000,0.00071306864,0.0019429859,-0.003222598,-0.028562428,0.16492784,-0.11403864
8296000,8296000,0.0029263333,0.0016271225,-0.0016847367,0.103891306,-0.006784928,0.17108214
8300000,8300000,0.0013837571,0.0029985835,-0.0021123085,-0.106544696,0.14351878,0.05158929
8316000,8316000,-0.0019309307,0.0009998437,0.0015416757,-0.24102148,-0.2404664,0.21016818
8324000,8324000,-0.0006128538,0.0025668486,-0.0008140054,0.08401753,0.037478782,-0.17446572
8336000,8336000,-0.0027702206,-0.0016078004,-0.0008051661,-0.25662443,-0.1639505,0.22798333
8344000,8344000,0.006972344,-0.0016643642,-0.0029739996,0.76829815,-0.05586643,-0.13148631
8356000,8356000,0.001838522,-0.004168334,-0.0020184235,-0.29696098,-0.2857415,-0.05630933
8364000,8364000,0.0033854945,0.0018823538,-0.0035444344,0.08369085,0.4560478,-0.09722588
8376000,8376000,-0.0029672189,0.0012252368,0.004059997,-0.4432058,0.012149187,0.3301787
8384000,8384000,-0.00073272886,0.004627589,0.001719232,0.07384768,0.32000762,-0.06513746
8396000,8396000,0.0002800047,0.002121659,-1.3366152e-06,0.09437028,-0.34472457,-0.142968
8404000,8404000,0.0020676581,0.0021564588,-0.0020166708,0.13335074,-0.02587777,-0.1717265
8416000,8416000,-0.0020294208,0.0018217159,0.004438011,-0.14979343,-0.11390261,0.250672
8424000,8424000,-0.00042461162,0.0029230209,-2.1929933e-05,0.06474058,0.04905664,-0.2838764
8436000,8436000,-0.0037563434,0.0015226994,-0.0066084075,-0.12123209,-0.03423377,-0.3710441
8444000,8444000,0.0007186665,-0.00089512253,-0.0053517874,0.31793508,-0.24083742,-0.014948388
8456000,8456000,0.004844824,0.005626325,-0.0032013422,0.29159307,0.50206,0.05766944
8464000,8464000,-0.0018438641,-0.000822695,-0.0016597837,-0.47246572,-0.42906478,0.18024358
8476000,8476000,-0.0032999292,-0.0018790956,0.0011810433,-0.21803007,-0.06744321,0.11289178
8484000,8484000,-0.0005820858,-0.00010971399,0.0020712921,0.22165495,0.11017141,0.125552
8496000,8496000,-0.00230057,0.0029492388,0.00051941397,-0.29389772,0.2524742,-0.050669756
8504000,8504000,0.002072044,0.0054651275,0.0021031473,0.37012044,0.27357915,0.10433288
8516000,8516000,0.0054977564,0.0021085544,0.00014515987,-0.0021387339,-0.21231641,-0.1660147
8524000,8524000,0.0050360966,0.002676596,-0.00053647195,0.030109107,0.016965525,-0.11225408
8536000,8536000,0.0057352227,0.003988296,-0.0017151863,-0.16323996,-0.015903682,0.0035726724
8540000,8540000,0.0018415403,0.002304491,-0.0028284679,-0.5115113,-0.19002102,-0.117604375
8556000,8556000,0.004265519,0.0010860697,-0.0025850069,0.17551696,0.059751,0.29119188
8564000,8564000,0.0012715082,-0.00023557572,0.0011244747,-0.23773785,-0.16113484,0.35784632
8576000,8576000,0.005454302,0.0012066634,-0.0026202616,0.3066398,0.16797334,-0.15651435
8584000,8584000,0.0045346464,-0.00012483355,-0.0037567522,-0.013365358,-0.08853284,-0.17593011
8596000,8596000,0.0005037371,-0.00093474425,-0.0032351932,-0.24966031,-0.067320585,0.07300698
8604000,8604000,0.00017915724,-0.0016931118,-0.004050526,-0.10098275,-0.11047074,-0.09628458
8616000,8616000,-0.00403123,0.003978745,-0.001764984,-0.38852784,0.6078051,0.18212335
8624000,8624000,-0.0013817423,0.0038040837,0.0028545873,0.11825657,0.12672849,0.4419621
8636000,8636000,0.004548533,0.0015576715,0.0033071693,0.3687156,-0.13269858,0.123286545
8644000,8644000,0.0032672563,0.0012329598,0.0015716451,-0.024195,-0.033535685,-0.12151524
8656000,8656000,-0.00066831405,0.0032606088,-0.00095860276,-0.1529217,0.0073428773,-0.12890771
8664000,8664000,0.0022499165,0.0015199087,-0.0006360108,0.18787393,-0.16414309,-0.038550705
8676000,8676000,-0.0036002765,-0.0003292258,0.00017848628,-0.47254735,-0.17296766,0.04540014
8684000,8684000,0.0021696799,0.0020093955,-0.0058164173,0.37540153,0.2063556,-0.48454952
8696000,8696000,0.0008557323,0.0033212353,0.0020000106,-0.1593565,-0.015395814,0.47687453
8704000,8704000,0.0009389394,0.0030293816,0.0036016898,-0.011942238,0.00017746844,0.25179446
8716000,8716000,-0.0034879541,-0.0019253376,0.00043807944,-0.33295077,-0.3768894,-0.2669599
8724000,8724000,0.0016398566,-0.0001347079,-0.0004283245,0.35460117,0.03259385,-0.11291328
8736000,8736000,0.00384945,0.0035596322,0.0016089504,0.19737135,0.2371637,0.07833291
8744000,8744000,0.0024063783,0.0014398056,-0.00010042164,-0.09504246,-0.12768604,-0.13337949
8756000,8756000,0.00072672975,0.0023434723,-0.00044877146,-0.15874112,0.15563011,-0.047701206
8764000,8764000,0.002786884,-0.0004122327,-0.0005341002,0.1453949,-0.19402446,-0.029273976
8776000,8776000,0.0013092852,0.0020776023,0.0005961458,-0.092443146,0.124445744,0.278755
8784000,8784000,0.0047019795,-0.00020673778,0.0019435983,0.26970184,-0.17531572,0.1223346
8796000,8796000,0.0023421794,0.0016677263,-0.00051012664,-0.08219648,0.20755744,-0.04934303
8804000,8804000,0.0026660012,0.0013291324,0.0027016702,-0.05735434,-0.0034592047,0.2491993
8816000,8816000,0.0021429653,-0.0029373332,0.00088011735,0.08659941,-0.16302106,0.0008167894
8824000,8824000,-0.0008049059,-0.0026147538,0.003260729,-0.29139975,-0.073954955,0.09250301
8836000,8836000,-0.0038039603,-0.004546235,-0.002391612,-0.047738314,-0.11393657,-0.23488428
8844000,8844000,0.0024515172,-0.0019849134,-0.0015617799,0.48219347,0.1994299,0.012321088
8856000,8856000,0.0024959492,-0.0051054326,-0.0028306814,-0.014492005,-0.23321599,-0.11504563
8864000,8864000,-0.0023769033,0.0015123221,0.000101334816,-0.39141762,0.5315457,0.23529927
8876000,8876000,0.0020335612,0.00029269978,0.0041591055,0.16528141,-0.01073792,0.20719424
8884000,8884000,-0.0012936303,0.002886369,-0.0038950897,-0.2654385,0.15780911,-0.61978257
8896000,8896000,0.0006930771,0.0024257165,-0.0026070634,0.19393812,0.19949049,0.031369213
8900000,8900000,-0.0003803525,0.0041073654,-0.0015551087,-0.0047883242,0.29445785,0.1309352
8916000,8916000,0.0010854185,0.001962304,0.004985437,0.12968,0.032074697,0.32636523
8924000,8924000,0.0011476672,-0.0015564151,0.00017720123,0.08368109,-0.36563674,-0.33953977
8936000,8936000,-0.001724859,-0.00062183524,0.00054327183,-0.1551835,0.14479002,-0.10114846
8944000,8944000,0.00042860338,0.0030412367,-0.004579337,0.16300362,0.32889628,-0.4407661
8956000,8956000,0.0020540482,0.0014848141,-0.0006882032,0.10417661,0.052524712,0.15231241
8964000,8964000,-8.273125e-05,0.0019523087,-0.003720502,-0.1548818,0.016573848,-0.14310127
8976000,8976000,-0.0011940689,0.0008785222,0.0007253179,-0.093462184,-0.03828175,-0.016263723
8984000,8984000,-0.004474829,0.0029876893,-0.0031675443,-0.32516012,0.1813034,-0.23441318
8996000,8996000,0.0020873707,-0.000369146,-0.00078676105,0.43002376,-0.41220862,-0.029144071
9004000,9004000,0.004376052,-0.008856,-0.00058893923,0.34443596,-0.78981155,0.054508716
9016000,9016000,-0.0025485097,0.0033051688,-0.0054538124,-0.4165466,0.71491224,-0.39833724
9024000,9024000,-0.0035082682,0.0030513115,-0.0018705514,-0.19041249,0.16314638,0.2200549
9036000,9036000,0.0028909924,-0.0009375545,-0.00014968205,0.28559926,-0.25401622,0.0902867
9044000,9044000,0.003864365,0.0016165231,-0.0016138146,0.15058365,0.20104043,-0.102931894
9056000,9056000,-0.0019594561,0.0081363525,0.00087529334,-0.33928314,0.3704759,0.20885944
9064000,9064000,-0.003228862,-0.0027124477,-0.0018303917,-0.17951532,-0.8391142,-0.17467584
9076000,9076000,0.0028226387,-0.000669213,-0.0020924455,0.3028027,0.17014647,-0.016595047
9084000,9084000,0.0073120194,0.0001522107,0.0021578104,0.55049384,0.04810127,0.35261717
9096000,9096000,-0.0023090143,0.0012533213,0.0009647162,-0.9180166,0.1639795,-0.018703524
9104000,9104000,-0.0028469812,0.00026796618,-0.001273795,-0.2614469,-0.06865053,-0.21286479
9116000,9116000,-0.0023891998,-0.0006460049,-0.0028128962,0.11782317,0.11403152,-0.17773989
9124000,9124000,0.00094082474,0.00047215074,-0.0010198582,0.2704837,0.06170839,0.106272176
9136000,9136000,-0.00050747104,0.0010935296,0.001619016,0.0104601085,0.19230837,0.29234856
9144000,9144000,-0.0012422185,0.00227188,0.0011185744,-0.07131554,0.11578207,0.0144485105
9156000,9156000,0.004192804,0.0011537517,0.0020969997,0.27052134,-0.11194798,0.060680036
9164000,9164000,0.004414381,-0.003925675,0.001749494,0.16046862,-0.44037205,-0.020788245
9176000,9176000,0.002260678,0.0036351783,0.0028210802,-0.17630678,0.49751702,0.07994103
9180000,9180000,0.0010617806,0.0035303948,-0.000104235056,-0.22936015,0.27238914,-0.2687986
9196000,9196000,-0.0041759284,0.00644582,-0.0005501178,-0.1575228,0.36402193,0.0944088
9204000,9204000,-0.0024557118,0.002597684,-0.0014819737,0.019787356,-0.24738967,-0.08632457
9216000,9216000,-0.002581108,0.0020200377,-1.6105536e-05,0.15780927,-0.111427255,0.11559218
9224000,9224000,0.0020006746,-0.0029576025,0.0013250851,0.46740007,-0.41765088,0.104216225
9236000,9236000,0.0026470246,0.003960779,-0.003217881,0.074423686,0.4182747,-0.21330985
9244000,9244000,-0.0010246944,0.0048355623,0.0004856922,-0.30085534,0.15868267,0.25931114
9256000,9256000,-0.0028844276,-0.0024975552,0.00017405182,-0.10729949,-0.3749216,0.04754451
9264000,9264000,0.0037574377,-0.00082287984,-0.0008892078,0.5262194,0.009023764,-0.07166712
9276000,9276000,-0.0025616244,0.006032703,0.0019683798,-0.31382936,0.46494895,0.18834572
9284000,9284000,-0.0016013563,0.0023004315,0.0017121068,-0.02905453,-0.17226037,0.008064819
9296000,9296000,0.00047517597,0.0043748524,0.0028219654,0.1422391,0.23329787,0.26201797
9304000,9304000,-0.0020618557,0.0030518183,0.0006270023,-0.19070294,-0.024215456,-0.18360223
9316000,9316000,0.0022650158,0.0033795286,-0.006741726,0.31688803,-0.19002388,-0.3238746
9324000,9324000,-0.0023888026,-0.005380062,0.0008485476,-0.31929,-0.7395923,0.5464806
9336000,9336000,-0.0039114384,-0.0037244386,-0.0017069925,-0.029330432,-0.09527812,-0.36386684
9344000,9344000,-0.000934049,-0.0015432201,-0.0038074665,0.20600408,0.1685845,-0.1701782
9356000,9356000,0.0011830134,-0.008797104,-0.0015256903,0.2776274,-0.47942606,-0.17109145
9364000,9364000,0.0009593784,-0.0033674832,-0.0038253304,0.06353542,0.3402092,-0.13312227
9376000,9376000,0.0015657266,0.0014432897,-0.001801822,0.046641573,0.456841,-0.072959
9384000,9384000,-0.00010573375,0.001491548,0.0003119371,-0.1360696,0.11215101,0.18686008
9396000,9396000,-0.0014311152,0.0026064136,-0.0007963759,-0.06909871,0.08479285,-0.06953481
9404000,9404000,-0.0015502458,-0.00016207341,-0.0050884336,-0.06840925,-0.13214676,-0.43006256
9416000,9416000,0.0026459193,0.0013412172,-0.0067526847,0.38751298,-0.12761128,0.02180591
9424000,9424000,0.0035482708,-0.005703878,0.0032220483,0.1481443,-0.5608579,0.8366381
9436000,9436000,-0.0009980535,0.003277833,0.006614053,-0.22402,0.40191522,0.38504815
9444000,9444000,0.0043821493,0.0023186004,0.004459464,0.36405987,0.045915205,-0.13394195
9456000,9456000,0.0033758858,-0.00434015,-0.0013150179,0.022407942,-0.46206638,-0.31046838
9464000,9464000,0.0020349305,-0.006507605,-0.0025800462,-0.08638764,-0.30711102,-0.18952926
9476000,9476000,0.0056528347,0.0041849436,0.0038969824,0.21417543,0.6567201,0.30235383
9484000,9484000,0.0017668953,0.0023116188,0.0012421496,-0.2667575,0.035817627,-0.12469624
9496000,9496000,0.00037055294,-0.0043823733,0.0040668612,-0.08149747,-0.30345595,0.29381078
9504000,9504000,-0.00056495424,0.0029158925,0.007081312,-0.13344017,0.5380343,0.2871874
9516000,9516000,-0.001660214,0.0023020862,-0.0030112287,0.071009815,-0.109080516,-0.63022584
9524000,9524000,0.000146585,7.786648e-05,-0.0023017966,0.11397421,-0.18328087,-0.07472262
9536000,9536000,-0.00057856645,-0.0035021887,-0.0019928257,0.0101096565,-0.20628253,-0.00713614
9544000,9544000,-0.00034740218,-0.0025482397,0.0009711617,0.043325804,-0.009053873,0.20610651
9556000,9556000,-0.0007239926,-0.0018237378,0.003992731,-0.11805603,0.16060749,0.32354426
9564000,9564000,-0.0065112663,-0.0030168253,0.0031591272,-0.47008964,-0.103836834,-0.008668752
9576000,9576000,0.003938279,-0.00039599696,0.0015838498,0.5114202,0.38712466,0.08682073
9580000,9580000,0.0009758831,0.0049140705,0.0026783135,-0.026783824,0.79137003,0.16711816
9596000,9596000,0.0019884135,0.001553507,0.0047476203,0.2599014,-0.10484945,0.16330464
9604000,9604000,0.0011245747,0.0046979,0.007010439,-0.020499572,0.24724048,0.24178183
9616000,9616000,0.00084943103,0.0054617003,0.00054165267,-0.07354841,-0.031199537,-0.3808797
9624000,9624000,0.00015070057,0.0028782608,0.0019085895,-0.055613793,-0.17039174,0.01743133
9636000,9636000,-0.0013880453,0.0020532608,0.0016648611,-0.14628835,-0.12867458,-0.098601565
9644000,9644000,0.00093594065,-0.0018853121,-0.0028890138,0.19097526,-0.41642854,-0.43088412
9652000,9652000,0.0021814457,-0.0028626178,-0.00059277075,0.09134093,-0.18468432,0.078442186
9664000,9664000,-0.00080822804,0.0008946061,-0.0023414365,-0.079568416,0.26762795,-0.16921632
9676000,9676000,0.0028028819,0.000552705,-2.970692e-05,0.085194945,-0.05820507,0.18780069
9684000,9684000,0.0016747297,0.0029358082,-0.001488122,-0.0028553903,0.18778862,-0.08647325
9696000,9696000,-0.0014067234,-0.00037215138,0.0007031289,-0.48425364,-0.1887143,0.16744205
9704000,9704000,-0.00013964652,-0.0023492584,-0.0017418117,0.05267638,-0.2408229,-0.15268712
9716000,9716000,-0.0019448868,0.0029280335,-0.0031635875,-0.21351238,0.40726817,-0.164927
9724000,9724000,-0.00022143935,0.0046350975,-0.0009779104,0.09260298,0.22755721,0.15322044
9732000,9732000,0.004294306,0.0022019423,0.0011213461,0.4547928,-0.10170947,0.19780068
9744000,9744000,0.0016459506,-0.002703188,-0.002032091,-0.2546285,-0.5323672,-0.04390157
9756000,9756000,0.0018578011,0.0009031426,-0.0009375778,0.012933299,0.3848738,0.055677645
9764000,9764000,0.004424242,0.0015339451,-0.00027050276,0.21711111,0.1211938,0.055877242
9776000,9776000,-0.0010373569,-0.0028826073,0.0014496311,-0.3186713,-0.17120183,0.21257985
9784000,9784000,0.002150811,-0.0010819808,0.0014871605,0.20656656,0.0731792,0.10426471
9796000,9796000,0.0022227901,-0.0026285807,0.006274863,-0.13601924,-0.1675821,0.21322902
9804000,9804000,0.0015986613,-0.000153278,-0.0017556482,-0.065059796,0.1968249,-0.60273075
9816000,9816000,-0.0009832401,0.0074163624,-0.0044142026,-0.28392625,0.48576295,-0.33337024
9824000,9824000,-0.0051234,0.0038587928,-0.00056464376,-0.376418,-0.1831691,0.28738403
9836000,9836000,-0.004487985,0.0020944006,0.0013600964,-0.16795321,-0.12316356,-0.061516378
9844000,9844000,0.0012561588,-0.00033101533,-4.0193336e-05,0.44973576,-0.25228637,-0.047436927
9856000,9856000,-0.0038321563,0.0042327354,0.0047903643,-0.17332768,0.4459241,0.15935497
9864000,9864000,-0.004360411,0.007812334,-0.0011736744,-0.129587,0.34549317,-0.4703641
9876000,9876000,-0.003861229,0.0018010186,-0.004866566,-0.00062841363,-0.34733558,-0.1412366
9884000,9884000,0.001103082,0.002280777,-0.0017552448,0.41695005,-0.05199902,0.16890372
9896000,9896000,0.00028831605,0.0043822825,0.0007585891,0.07781975,0.09479863,0.17481709
9904000,9904000,0.0013633695,0.0011503436,-0.0002847396,0.13683334,-0.2402004,-0.049993467
9916000,9916000,-0.0029351315,0.004338382,0.0036711344,-0.26486585,0.12880161,0.37529707
9924000,9924000,0.0024795234,-0.00076376833,0.0032998638,0.34336483,-0.37422726,0.052464403
9936000,9936000,-0.0010768692,0.0011822693,-0.0059649316,-0.21211052,0.06975381,-0.41696852
9944000,9944000,-0.00096810266,-0.0014418163,-0.0034168183,-0.0146993995,-0.24601099,0.048191633
9956000,9956000,0.004810311,-0.0011925725,-0.0040540434,0.29767585,0.2739142,-0.22289617
9964000,9964000,-0.0018758865,-0.001603324,-0.0032280148,-0.5175557,-0.041756094,0.07486889
9976000,9976000,0.0015275893,-0.0014558155,0.0005284983,0.3437326,0.10546781,0.1921646
9984000,9984000,0.00012340635,-0.0002859584,-0.00046394338,-0.08194682,0.07099196,-0.022523498
9996000,9996000,-0.002882181,0.0013076835,0.00028551754,-0.22021216,0.27111647,-0.023246327
10004000,10004000,-0.0005894838,0.0040742187,-0.0019755494,0.17123623,0.29972333,-0.14247406
10016000,10016000,0.0020031554,-0.0020419266,-0.0048294165,0.09355068,-0.33839214,-0.4036658
10024000,10024000,-0.0021565638,-0.0004359912,0.0012421665,-0.3313567,0.030959925,0.5055217
10036000,10036000,-0.0017128717,-0.0029319543,0.002882489,-0.02259865,-0.10528408,-0.04848486
10044000,10044000,0.0014723719,0.003854662,-9.144281e-05,0.2977522,0.53427994,-0.26082352
10056000,10056000,0.0035202615,-0.00022663083,0.0017404511,0.05539176,-0.22396319,0.17763741
10064000,10064000,-0.003996478,-0.0012265379,0.0014988917,-0.61939204,-0.13710886,0.017200528
10076000,10076000,0.004969819,0.0042891074,-0.00024049918,0.64356697,0.28290045,-0.08804371
