timestamp,timestamp_sample,control[0],control[1],control[2],control[3],control[4],control[5],control[6],control[7],control[8],control[9],control[10],control[11],reversible_flags
3564000,3564000,0.0018305923,0.002051183,0.0038817758,0.0,nan,nan,nan,nan,nan,nan,nan,nan,0
3568000,3568000,0.0017542621,0.0,0.0012451857,0.00050907617,nan,nan,nan,nan,nan,nan,nan,nan,0
3664000,3664000,0.0005828694,0.00084890425,0.0014317736,0.0,nan,nan,nan,nan,nan,nan,nan,nan,0
3764000,3764000,0.0009731873,0.011552777,0.012835074,0.00012214803,nan,nan,nan,nan,nan,nan,nan,nan,0
3860000,3860000,7.292256e-05,0.011332692,0.011069199,0.0,nan,nan,nan,nan,nan,nan,nan,nan,0
3964000,3964000,0.0014626682,0.012917827,0.014380497,0.0,nan,nan,nan,nan,nan,nan,nan,nan,0
4064000,4064000,0.001990611,0.008843148,0.011918459,0.0004286314,nan,nan,nan,nan,nan,nan,nan,nan,0
4164000,4164000,0.0006256292,0.009943689,0.010569319,0.0,nan,nan,nan,nan,nan,nan,nan,nan,0
4260000,4260000,6.1220664e-05,0.012761415,0.012540206,0.0,nan,nan,nan,nan,nan,nan,nan,nan,0
4364000,4364000,0.0,0.009745904,0.009478852,0.00026705256,nan,nan,nan,nan,nan,nan,nan,nan,0
4464000,4464000,0.0013030581,0.007926386,0.009287584,2.2974134e-05,nan,nan,nan,nan,nan,nan,nan,nan,0
4564000,4564000,8.6853914e-05,0.011916812,0.011602981,0.0,nan,nan,nan,nan,nan,nan,nan,nan,0
4664000,4664000,0.0021604325,0.009525379,0.011685814,0.0,nan,nan,nan,nan,nan,nan,nan,nan,0
4764000,4764000,0.0,0.01074626,0.010578296,0.00016796496,nan,nan,nan,nan,nan,nan,nan,nan,0
4864000,4864000,0.0,0.011133942,0.010585859,0.00054808334,nan,nan,nan,nan,nan,nan,nan,nan,0
4964000,4964000,0.0024056945,0.008365206,0.010770902,0.0,nan,nan,nan,nan,nan,nan,nan,nan,0
5060000,5060000,0.00017528282,0.0068518715,0.0070271557,0.0,nan,nan,nan,nan,nan,nan,nan,nan,0
5164000,5164000,0.0,0.009929133,0.011515764,0.00062697474,nan,nan,nan,nan,nan,nan,nan,nan,0
5260000,5260000,0.0005044837,0.009882636,0.010387121,0.0,nan,nan,nan,nan,nan,nan,nan,nan,0
5364000,5364000,0.0016243336,0.0081883175,0.010728382,0.00036186076,nan,nan,nan,nan,nan,nan,nan,nan,0
5460000,5460000,0.0026435866,0.0070392787,0.009832415,5.9095826e-05,nan,nan,nan,nan,nan,nan,nan,nan,0
5564000,5564000,0.000656717,0.006865536,0.0075222533,0.0,nan,nan,nan,nan,nan,nan,nan,nan,0
5660000,5660000,0.0016078607,0.009981471,0.011684947,3.7783113e-05,nan,nan,nan,nan,nan,nan,nan,nan,0
5764000,5764000,0.0020120419,0.010040089,0.012958864,0.00035830543,nan,nan,nan,nan,nan,nan,nan,nan,0
5864000,5864000,0.0,0.010348869,0.009447927,0.00090094353,nan,nan,nan,nan,nan,nan,nan,nan,0
5964000,5964000,6.0993247e-05,0.010588612,0.0106496075,0.0,nan,nan,nan,nan,nan,nan,nan,nan,0
6064000,6064000,0.0,0.007325037,0.00697056,0.0003544765,nan,nan,nan,nan,nan,nan,nan,nan,0
6164000,6164000,0.0,0.008373813,0.008115615,0.0002581994,nan,nan,nan,nan,nan,nan,nan,nan,0
6264000,6264000,0.0011708064,0.010132846,0.011303654,0.0,nan,nan,nan,nan,nan,nan,nan,nan,0
6364000,6364000,0.0,0.011068572,0.008549085,0.002519488,nan,nan,nan,nan,nan,nan,nan,nan,0
6464000,6464000,0.0,0.007009038,0.00534534,0.0016636983,nan,nan,nan,nan,nan,nan,nan,nan,0
6564000,6564000,0.0,0.011920429,0.009632275,0.0022881543,nan,nan,nan,nan,nan,nan,nan,nan,0
6664000,6664000,0.0016328273,0.008435773,0.010068601,0.0,nan,nan,nan,nan,nan,nan,nan,nan,0
6764000,6764000,0.0,0.010759474,0.008666783,0.0020926918,nan,nan,nan,nan,nan,nan,nan,nan,0
6864000,6864000,0.0,0.0088132275,0.008755735,5.749287e-05,nan,nan,nan,nan,nan,nan,nan,nan,0
6964000,6964000,0.0,0.008200509,0.0074322037,0.0007683062,nan,nan,nan,nan,nan,nan,nan,nan,0
7064000,7064000,0.00011037057,0.003078344,0.0044120876,0.00048342955,nan,nan,nan,nan,nan,nan,nan,nan,0
7164000,7164000,0.0,0.01026822,0.0070580663,0.0032101544,nan,nan,nan,nan,nan,nan,nan,nan,0
7260000,7260000,0.00088805123,0.009452972,0.010341024,0.0,nan,nan,nan,nan,nan,nan,nan,nan,0
7364000,7364000,0.0,0.012412566,0.010154239,0.0022583276,nan,nan,nan,nan,nan,nan,nan,nan,0
7464000,7464000,8.234395e-05,0.007068479,0.006650324,0.00012061985,nan,nan,nan,nan,nan,nan,nan,nan,0
7564000,7564000,0.0018665397,0.010602657,0.013159279,0.00027269294,nan,nan,nan,nan,nan,nan,nan,nan,0
7660000,7660000,0.00012209907,0.008786577,0.0076956674,0.00064972555,nan,nan,nan,nan,nan,nan,nan,nan,0
7764000,7764000,0.001762792,0.006282244,0.008045036,0.0,nan,nan,nan,nan,nan,nan,nan,nan,0
7864000,7864000,0.00012026471,0.007859495,0.007979761,0.0,nan,nan,nan,nan,nan,nan,nan,nan,0
7964000,7964000,0.000114239905,0.0077686105,0.008093362,8.3185965e-05,nan,nan,nan,nan,nan,nan,nan,nan,0
8064000,8064000,0.0,0.013356787,0.011713213,0.0016435748,nan,nan,nan,nan,nan,nan,nan,nan,0
8164000,8164000,0.0,0.010072372,0.009465866,0.00060650683,nan,nan,nan,nan,nan,nan,nan,nan,0
8264000,8264000,0.00090878416,0.0078020934,0.008710878,0.0,nan,nan,nan,nan,nan,nan,nan,nan,0
8364000,8364000,0.0005459458,0.010808076,0.0070883576,0.001747035,nan,nan,nan,nan,nan,nan,nan,nan,0
8464000,8464000,0.001549931,0.010904041,0.012453974,0.0,nan,nan,nan,nan,nan,nan,nan,nan,0
8564000,8564000,0.0,0.00877084,0.009258607,0.00019274621,nan,nan,nan,nan,nan,nan,nan,nan,0
8664000,8664000,9.464814e-05,0.007581962,0.007124552,0.000115415576,nan,nan,nan,nan,nan,nan,nan,nan,0
8764000,8764000,0.00013831537,0.007044832,0.0071831485,0.0,nan,nan,nan,nan,nan,nan,nan,nan,0
8864000,8864000,0.0,0.0131601775,0.010026224,0.0031339542,nan,nan,nan,nan,nan,nan,nan,nan,0
8964000,8964000,0.0005753764,0.010618242,0.008086309,0.00045290723,nan,nan,nan,nan,nan,nan,nan,nan,0
9064000,9064000,0.0032521642,0.0097239725,0.012976138,0.0,nan,nan,nan,nan,nan,nan,nan,nan,0
9164000,9164000,0.0015799423,0.0059938403,0.008469982,0.00035414263,nan,nan,nan,nan,nan,nan,nan,nan,0
9264000,9264000,0.0001332568,0.0066253957,0.005399183,0.0007447118,nan,nan,nan,nan,nan,nan,nan,nan,0
9364000,9364000,0.0005907647,0.010411241,0.007294826,0.0009817865,nan,nan,nan,nan,nan,nan,nan,nan,0
9464000,9464000,0.0016912787,0.007856005,0.009547284,0.0,nan,nan,nan,nan,nan,nan,nan,nan,0
9564000,9564000,0.0,0.011285795,0.011876178,0.0002332961,nan,nan,nan,nan,nan,nan,nan,nan,0
9664000,9664000,0.00035914948,0.0115100425,0.008246209,0.0019661076,nan,nan,nan,nan,nan,nan,nan,nan,0
9764000,9764000,4.6840887e-05,0.008079842,0.005897413,0.0020131785,nan,nan,nan,nan,nan,nan,nan,nan,0
9864000,9864000,0.00017701657,0.014432692,0.009476695,0.004316379,nan,nan,nan,nan,nan,nan,nan,nan,0
9964000,9964000,0.00049901044,0.011863731,0.009611076,0.00044956512,nan,nan,nan,nan,nan,nan,nan,nan,0
10064000,10064000,0.0,0.01182421,0.011097714,0.00072649773,nan,nan,nan,nan,nan,nan,nan,nan,0
10160000,10160000,5.6099775e-06,0.01081357,0.005172352,0.005620948,nan,nan,nan,nan,nan,nan,nan,nan,0
10264000,10264000,2.0181042e-05,0.009240718,0.0086022215,0.0005655764,nan,nan,nan,nan,nan,nan,nan,nan,0
10364000,10364000,0.0,0.010917948,0.008314278,0.0026036708,nan,nan,nan,nan,nan,nan,nan,nan,0
10464000,10464000,0.0007093714,0.007253456,0.0034284166,0.0012618446,nan,nan,nan,nan,nan,nan,nan,nan,0
10564000,10564000,0.0,0.012625528,0.011385365,0.0012401631,nan,nan,nan,nan,nan,nan,nan,nan,0
10664000,10664000,0.000643802,0.008981844,0.006162335,0.00049323845,nan,nan,nan,nan,nan,nan,nan,nan,0
10764000,10764000,0.0,0.008385832,0.0071353996,0.0012504333,nan,nan,nan,nan,nan,nan,nan,nan,0
10864000,10864000,0.000121902034,0.011247486,0.009478383,0.0013286318,nan,nan,nan,nan,nan,nan,nan,nan,0
10964000,10964000,0.0,0.014739239,0.008839106,0.0059001334,nan,nan,nan,nan,nan,nan,nan,nan,0
11064000,11064000,0.00040849554,0.009638157,0.010046653,0.0,nan,nan,nan,nan,nan,nan,nan,nan,0
11164000,11164000,0.0002484754,0.008377025,0.0072540347,0.00022516624,nan,nan,nan,nan,nan,nan,nan,nan,0
11260000,11260000,0.0,0.009644819,0.009026197,0.00061862497,nan,nan,nan,nan,nan,nan,nan,nan,0
11364000,11364000,0.00035591048,0.0142106665,0.007964001,0.0049606445,nan,nan,nan,nan,nan,nan,nan,nan,0
11464000,11464000,0.0,0.010602216,0.0062020468,0.0044001704,nan,nan,nan,nan,nan,nan,nan,nan,0
11564000,11564000,0.00033635067,0.012291995,0.0081255715,0.002951077,nan,nan,nan,nan,nan,nan,nan,nan,0
11664000,11664000,0.00020288277,0.011255974,0.006535493,0.0039873994,nan,nan,nan,nan,nan,nan,nan,nan,0
11764000,11764000,0.0013888418,0.008354671,0.009743514,0.0,nan,nan,nan,nan,nan,nan,nan,nan,0
11864000,11864000,0.00035606313,0.012023279,0.007929726,0.0028069797,nan,nan,nan,nan,nan,nan,nan,nan,0
11964000,11964000,0.00034311673,0.015635984,0.0076273037,0.0067688855,nan,nan,nan,nan,nan,nan,nan,nan,0
12064000,12064000,0.00039916649,0.012159637,0.008148247,0.0025690685,nan,nan,nan,nan,nan,nan,nan,nan,0
12164000,12164000,0.0001652816,0.009445232,0.008068094,0.00077992113,nan,nan,nan,nan,nan,nan,nan,nan,0
12264000,12264000,0.0,0.010422037,0.007727383,0.002694655,nan,nan,nan,nan,nan,nan,nan,nan,0
12364000,12364000,0.0,0.011128592,0.0070480253,0.004080568,nan,nan,nan,nan,nan,nan,nan,nan,0
12464000,12464000,0.0004285428,0.010406205,0.006275441,0.0025822974,nan,nan,nan,nan,nan,nan,nan,nan,0
12564000,12564000,0.0,0.013541968,0.0085095195,0.005032449,nan,nan,nan,nan,nan,nan,nan,nan,0
12664000,12664000,0.0,0.011604222,0.009091007,0.0025132145,nan,nan,nan,nan,nan,nan,nan,nan,0
12764000,12764000,0.0002882442,0.0102357175,0.0083380835,0.00085611327,nan,nan,nan,nan,nan,nan,nan,nan,0
12864000,12864000,0.00028932383,0.009389701,0.007850003,0.0004942763,nan,nan,nan,nan,nan,nan,nan,nan,0
12964000,12964000,0.0,0.0083951345,0.008013937,0.00038119848,nan,nan,nan,nan,nan,nan,nan,nan,0
13064000,13064000,0.00022853116,0.010226061,0.0071192724,0.0022810302,nan,nan,nan,nan,nan,nan,nan,nan,0
13164000,13164000,0.0011136285,0.007194029,0.008307658,0.0,nan,nan,nan,nan,nan,nan,nan,nan,0
13264000,13264000,0.0,0.0143348435,0.009207713,0.005127131,nan,nan,nan,nan,nan,nan,nan,nan,0
13364000,13364000,0.0004519572,0.010940307,0.007582677,0.001724559,nan,nan,nan,nan,nan,nan,nan,nan,0
13464000,13464000,8.9933135e-05,0.0075986357,0.0066685732,0.00060510566,nan,nan,nan,nan,nan,nan,nan,nan,0
13564000,13564000,0.0,0.012906945,0.00839438,0.004512566,nan,nan,nan,nan,nan,nan,nan,nan,0
13664000,13664000,0.0010037604,0.008591513,0.009595275,0.0,nan,nan,nan,nan,nan,nan,nan,nan,0
13764000,13764000,0.0,0.009599495,0.0072832634,0.0023162318,nan,nan,nan,nan,nan,nan,nan,nan,0
13864000,13864000,9.486341e-05,0.0080590695,0.005748651,0.0019676462,nan,nan,nan,nan,nan,nan,nan,nan,0
13964000,13964000,0.0005108652,0.009807233,0.0073334225,0.0006278859,nan,nan,nan,nan,nan,nan,nan,nan,0
14064000,14064000,0.00046336875,0.014037885,0.00867697,0.00368661,nan,nan,nan,nan,nan,nan,nan,nan,0
14164000,14164000,0.0,0.010023476,0.006435451,0.0035880257,nan,nan,nan,nan,nan,nan,nan,nan,0
14264000,14264000,0.0,0.009665833,0.0062793065,0.0033865268,nan,nan,nan,nan,nan,nan,nan,nan,0
14364000,14364000,0.00025586865,0.011856911,0.008159111,0.0027732607,nan,nan,nan,nan,nan,nan,nan,nan,0
14464000,14464000,0.00040135664,0.013549006,0.009037335,0.0030614361,nan,nan,nan,nan,nan,nan,nan,nan,0
14564000,14564000,0.0001271435,0.011009588,0.0059941076,0.0045560687,nan,nan,nan,nan,nan,nan,nan,nan,0
14664000,14664000,0.0,0.012516247,0.010114231,0.002402018,nan,nan,nan,nan,nan,nan,nan,nan,0
14764000,14764000,5.887396e-05,0.010933174,0.008545078,0.0021753658,nan,nan,nan,nan,nan,nan,nan,nan,0
14864000,14864000,6.366902e-05,0.012600895,0.008541812,0.0038290266,nan,nan,nan,nan,nan,nan,nan,nan,0
14960000,14960000,0.0006458973,0.0125816185,0.0067089833,0.0035387934,nan,nan,nan,nan,nan,nan,nan,nan,0
15060000,15060000,0.0004770825,0.010162436,0.008438579,0.0,nan,nan,nan,nan,nan,nan,nan,nan,0
15164000,15164000,0.0005216609,0.013045813,0.01116088,0.0,nan,nan,nan,nan,nan,nan,nan,nan,0
15264000,15264000,0.0,0.012274162,0.008365217,0.003908946,nan,nan,nan,nan,nan,nan,nan,nan,0
15360000,15360000,0.00024182751,0.008982684,0.0054392903,0.002669592,nan,nan,nan,nan,nan,nan,nan,nan,0
15464000,15464000,0.0,0.013100966,0.008167594,0.004933373,nan,nan,nan,nan,nan,nan,nan,nan,0
15564000,15564000,0.00014834329,0.013918353,0.00886218,0.004520161,nan,nan,nan,nan,nan,nan,nan,nan,0
15664000,15664000,0.0005111662,0.009252717,0.0038291388,0.0035765641,nan,nan,nan,nan,nan,nan,nan,nan,0
15764000,15764000,3.2405107e-05,0.0124821365,0.008637323,0.0037277236,nan,nan,nan,nan,nan,nan,nan,nan,0
15864000,15864000,0.0,0.008197791,0.006864381,0.0013334111,nan,nan,nan,nan,nan,nan,nan,nan,0
15964000,15964000,0.0,0.011125511,0.0076158773,0.0035096328,nan,nan,nan,nan,nan,nan,nan,nan,0
16064000,16064000,0.0,0.012354738,0.008441592,0.0039131474,nan,nan,nan,nan,nan,nan,nan,nan,0
16164000,16164000,0.00085677975,0.0144955665,0.006145074,0.0052546635,nan,nan,nan,nan,nan,nan,nan,nan,0
16260000,16260000,0.00061988056,0.011604729,0.008153538,0.0012113566,nan,nan,nan,nan,nan,nan,nan,nan,0
16364000,16364000,0.0,0.008686232,0.0062592896,0.0024269437,nan,nan,nan,nan,nan,nan,nan,nan,0
16464000,16464000,0.0,0.011399321,0.006137133,0.0052621877,nan,nan,nan,nan,nan,nan,nan,nan,0
16564000,16564000,0.0,0.011235251,0.0075313584,0.0037038936,nan,nan,nan,nan,nan,nan,nan,nan,0
16660000,16660000,0.0,0.010684452,0.007266917,0.0034175364,nan,nan,nan,nan,nan,nan,nan,nan,0
16764000,16764000,0.0,0.012374888,0.0072166305,0.0051582586,nan,nan,nan,nan,nan,nan,nan,nan,0
16864000,16864000,0.0,0.0117426235,0.006376103,0.0053665205,nan,nan,nan,nan,nan,nan,nan,nan,0
16964000,16964000,0.0,0.013934364,0.007718804,0.0062155607,nan,nan,nan,nan,nan,nan,nan,nan,0
17064000,17064000,0.0,0.01482352,0.010164619,0.004658901,nan,nan,nan,nan,nan,nan,nan,nan,0
17160000,17160000,0.000616913,0.014699833,0.007984745,0.0044859755,nan,nan,nan,nan,nan,nan,nan,nan,0
17264000,17264000,0.0,0.013679427,0.008116129,0.005563299,nan,nan,nan,nan,nan,nan,nan,nan,0
17360000,17360000,7.0216054e-05,0.009116124,0.0065325145,0.0023298971,nan,nan,nan,nan,nan,nan,nan,nan,0
17464000,17464000,0.0,0.015143194,0.009355018,0.0057881773,nan,nan,nan,nan,nan,nan,nan,nan,0
17564000,17564000,0.0,0.012682001,0.00751986,0.005162142,nan,nan,nan,nan,nan,nan,nan,nan,0
17664000,17664000,0.0,0.013072142,0.0073088617,0.0057632807,nan,nan,nan,nan,nan,nan,nan,nan,0
17760000,17760000,0.0,0.011091386,0.0053177867,0.0057735993,nan,nan,nan,nan,nan,nan,nan,nan,0
17860000,17860000,0.0,0.012224751,0.008566482,0.003658269,nan,nan,nan,nan,nan,nan,nan,nan,0
17964000,17964000,0.00011321452,0.011880407,0.007948441,0.0035228848,nan,nan,nan,nan,nan,nan,nan,nan,0
18064000,18064000,0.00030569464,0.01396386,0.008886489,0.0039727967,nan,nan,nan,nan,nan,nan,nan,nan,0
18160000,18160000,0.0,0.012079594,0.008038821,0.004040774,nan,nan,nan,nan,nan,nan,nan,nan,0
18260000,18260000,0.0005405795,0.008628886,0.0056991586,0.00097643497,nan,nan,nan,nan,nan,nan,nan,nan,0
18364000,18364000,0.0,0.015257777,0.008253289,0.0070044883,nan,nan,nan,nan,nan,nan,nan,nan,0
18464000,18464000,9.337551e-05,0.012618432,0.0054343147,0.00684672,nan,nan,nan,nan,nan,nan,nan,nan,0
18564000,18564000,0.0,0.015722137,0.011010033,0.004712104,nan,nan,nan,nan,nan,nan,nan,nan,0
18660000,18660000,0.0,0.015764933,0.009607634,0.0061573023,nan,nan,nan,nan,nan,nan,nan,nan,0
18764000,18764000,0.0002050399,0.012540931,0.0058816527,0.0059184004,nan,nan,nan,nan,nan,nan,nan,nan,0
18864000,18864000,0.0,0.013288219,0.008015588,0.0052726325,nan,nan,nan,nan,nan,nan,nan,nan,0
18964000,18964000,1.2396668e-05,0.013036089,0.008151649,0.0048396476,nan,nan,nan,nan,nan,nan,nan,nan,0
19064000,19064000,0.00064162863,0.014825512,0.007878784,0.0046283114,nan,nan,nan,nan,nan,nan,nan,nan,0
19164000,19164000,0.0,0.014312103,0.0075034876,0.0068086158,nan,nan,nan,nan,nan,nan,nan,nan,0
19260000,19260000,0.0,0.013261959,0.007484315,0.005777644,nan,nan,nan,nan,nan,nan,nan,nan,0
19364000,19364000,0.0,0.014858017,0.0076278597,0.0072301566,nan,nan,nan,nan,nan,nan,nan,nan,0
19464000,19464000,0.0007814614,0.014712976,0.0049347514,0.006954544,nan,nan,nan,nan,nan,nan,nan,nan,0
19564000,19564000,0.0,0.011382992,0.00798491,0.003398083,nan,nan,nan,nan,nan,nan,nan,nan,0
19664000,19664000,0.0008790778,0.015349305,0.0061826156,0.0059902896,nan,nan,nan,nan,nan,nan,nan,nan,0
19764000,19764000,0.0,0.016191699,0.0098436605,0.006348038,nan,nan,nan,nan,nan,nan,nan,nan,0
19864000,19864000,3.476947e-05,0.013957424,0.008465811,0.00536598,nan,nan,nan,nan,nan,nan,nan,nan,0
19964000,19964000,0.00025028634,0.013679998,0.0067399917,0.0060356394,nan,nan,nan,nan,nan,nan,nan,nan,0
20064000,20064000,0.0,0.012360062,0.0061944094,0.006165653,nan,nan,nan,nan,nan,nan,nan,nan,0
20164000,20164000,0.0,0.015822534,0.007718072,0.008104461,nan,nan,nan,nan,nan,nan,nan,nan,0
20264000,20264000,0.0,0.01533135,0.0070144013,0.008316949,nan,nan,nan,nan,nan,nan,nan,nan,0
20364000,20364000,0.00014714911,0.019247701,0.008519272,0.01019673,nan,nan,nan,nan,nan,nan,nan,nan,0
20464000,20464000,0.00032950428,0.015005027,0.0075286212,0.006285798,nan,nan,nan,nan,nan,nan,nan,nan,0
20564000,20564000,0.0,0.013523781,0.008443427,0.0050803544,nan,nan,nan,nan,nan,nan,nan,nan,0
20664000,20664000,0.00013340093,0.014380476,0.0051358184,0.008762635,nan,nan,nan,nan,nan,nan,nan,nan,0
20764000,20764000,0.0,0.020171346,0.009506891,0.010664457,nan,nan,nan,nan,nan,nan,nan,nan,0
20864000,20864000,0.0,0.016621403,0.009896323,0.0067250803,nan,nan,nan,nan,nan,nan,nan,nan,0
20964000,20964000,0.0,0.016250312,0.007143546,0.009106768,nan,nan,nan,nan,nan,nan,nan,nan,0
21064000,21064000,0.0,0.014974629,0.005996681,0.008977949,nan,nan,nan,nan,nan,nan,nan,nan,0
21164000,21164000,0.0,0.015822072,0.0061773686,0.009644703,nan,nan,nan,nan,nan,nan,nan,nan,0
21260000,21260000,0.0,0.013584969,0.006896575,0.0066883946,nan,nan,nan,nan,nan,nan,nan,nan,0
21364000,21364000,0.00018789207,0.01742426,0.006970054,0.009775289,nan,nan,nan,nan,nan,nan,nan,nan,0
21464000,21464000,0.0006424671,0.012791627,0.0058456827,0.004624497,nan,nan,nan,nan,nan,nan,nan,nan,0
21564000,21564000,0.0,0.014454516,0.007270472,0.007184043,nan,nan,nan,nan,nan,nan,nan,nan,0
21664000,21664000,0.0,0.012806737,0.006214644,0.006592094,nan,nan,nan,nan,nan,nan,nan,nan,0
21764000,21764000,0.0006134806,0.017539077,0.007269714,0.008052652,nan,nan,nan,nan,nan,nan,nan,nan,0
21864000,21864000,5.92056e-05,0.015789403,0.008957945,0.006617529,nan,nan,nan,nan,nan,nan,nan,nan,0
21964000,21964000,0.00029559177,0.018468251,0.010320344,0.007079836,nan,nan,nan,nan,nan,nan,nan,nan,0
22060000,22060000,0.0,0.017660338,0.008572525,0.009087815,nan,nan,nan,nan,nan,nan,nan,nan,0
22164000,22164000,0.0,0.01704165,0.007826321,0.009215329,nan,nan,nan,nan,nan,nan,nan,nan,0
22264000,22264000,0.0,0.011009737,0.007588301,0.0034214368,nan,nan,nan,nan,nan,nan,nan,nan,0
22364000,22364000,0.00014721153,0.0119218435,0.006954816,0.0044351043,nan,nan,nan,nan,nan,nan,nan,nan,0
22464000,22464000,0.00037858018,0.01177571,0.0042313132,0.00617646,nan,nan,nan,nan,nan,nan,nan,nan,0
22564000,22564000,0.0,0.012769727,0.005346733,0.007422994,nan,nan,nan,nan,nan,nan,nan,nan,0
22664000,22664000,0.0,0.013428686,0.0069335587,0.0064951275,nan,nan,nan,nan,nan,nan,nan,nan,0
22764000,22764000,0.0,0.0106304595,0.0073942035,0.003236256,nan,nan,nan,nan,nan,nan,nan,nan,0
22864000,22864000,0.00042225097,0.014832911,0.0069323895,0.006374789,nan,nan,nan,nan,nan,nan,nan,nan,0
22964000,22964000,0.00028345414,0.01766152,0.008268513,0.008368792,nan,nan,nan,nan,nan,nan,nan,nan,0
23064000,23064000,0.00020006632,0.015371309,0.007511144,0.007137259,nan,nan,nan,nan,nan,nan,nan,nan,0
23164000,23164000,0.00027176394,0.014595693,0.005960368,0.007653352,nan,nan,nan,nan,nan,nan,nan,nan,0
23264000,23264000,0.00028147653,0.017085632,0.0075411806,0.008527383,nan,nan,nan,nan,nan,nan,nan,nan,0
23364000,23364000,0.0,0.012439758,0.0065539745,0.0058857827,nan,nan,nan,nan,nan,nan,nan,nan,0
23460000,23460000,0.0,0.010042346,0.0071605723,0.0028817747,nan,nan,nan,nan,nan,nan,nan,nan,0
23564000,23564000,4.865579e-05,0.010010257,0.004441701,0.005392748,nan,nan,nan,nan,nan,nan,nan,nan,0
23664000,23664000,0.0,0.00955854,0.0040008416,0.005557698,nan,nan,nan,nan,nan,nan,nan,nan,0
23764000,23764000,0.0005372621,0.013114372,0.004731247,0.0064418186,nan,nan,nan,nan,nan,nan,nan,nan,0
23864000,23864000,0.00028702946,0.010589482,0.0056053144,0.0039470354,nan,nan,nan,nan,nan,nan,nan,nan,0
23964000,23964000,0.0,0.015107618,0.0071535707,0.007954048,nan,nan,nan,nan,nan,nan,nan,nan,0
24064000,24064000,0.00013747756,0.012273445,0.005068111,0.0067085824,nan,nan,nan,nan,nan,nan,nan,nan,0
24164000,24164000,0.00022137632,0.018197827,0.0086442465,0.008753674,nan,nan,nan,nan,nan,nan,nan,nan,0
24264000,24264000,0.00037555955,0.015892966,0.007563485,0.00697246,nan,nan,nan,nan,nan,nan,nan,nan,0
24364000,24364000,0.0,0.014927269,0.0095115965,0.0054156743,nan,nan,nan,nan,nan,nan,nan,nan,0
24464000,24464000,0.0,0.013946888,0.006027399,0.007919489,nan,nan,nan,nan,nan,nan,nan,nan,0
24564000,24564000,0.0,0.013188248,0.0062611,0.006927149,nan,nan,nan,nan,nan,nan,nan,nan,0
24664000,24664000,0.0,0.011151074,0.0070191068,0.0041319686,nan,nan,nan,nan,nan,nan,nan,nan,0
24764000,24764000,0.0,0.0150689995,0.0060580825,0.0090109175,nan,nan,nan,nan,nan,nan,nan,nan,0
24864000,24864000,0.0,0.013105806,0.006504354,0.0066014514,nan,nan,nan,nan,nan,nan,nan,nan,0
24964000,24964000,0.0,0.012306439,0.004873287,0.007433152,nan,nan,nan,nan,nan,nan,nan,nan,0
25064000,25064000,0.00016796328,0.015032686,0.006522063,0.0079037165,nan,nan,nan,nan,nan,nan,nan,nan,0
25164000,25164000,0.0,0.012877256,0.0058698775,0.0070073777,nan,nan,nan,nan,nan,nan,nan,nan,0
25260000,25260000,0.00038399518,0.016114255,0.006526666,0.008200087,nan,nan,nan,nan,nan,nan,nan,nan,0
25364000,25364000,0.0,0.009965341,0.005748089,0.0042172526,nan,nan,nan,nan,nan,nan,nan,nan,0
25464000,25464000,0.0,0.013352874,0.0074150097,0.005937865,nan,nan,nan,nan,nan,nan,nan,nan,0
25564000,25564000,4.3200216e-05,0.011468458,0.007691061,0.0036212998,nan,nan,nan,nan,nan,nan,nan,nan,0
25664000,25664000,0.0,0.00816535,0.003748851,0.0044164993,nan,nan,nan,nan,nan,nan,nan,nan,0
25764000,25764000,0.00012682313,0.010318614,0.004521565,0.005338795,nan,nan,nan,nan,nan,nan,nan,nan,0
25864000,25864000,0.0,0.013282079,0.0077682375,0.005513842,nan,nan,nan,nan,nan,nan,nan,nan,0
25960000,25960000,0.00019440665,0.014136385,0.007273982,0.006159948,nan,nan,nan,nan,nan,nan,nan,nan,0
26064000,26064000,0.0,0.011999932,0.005485705,0.006514228,nan,nan,nan,nan,nan,nan,nan,nan,0
26164000,26164000,0.0004341159,0.011088613,0.004578913,0.004941095,nan,nan,nan,nan,nan,nan,nan,nan,0
26264000,26264000,7.589308e-05,0.010323706,0.004468675,0.005580805,nan,nan,nan,nan,nan,nan,nan,nan,0
26364000,26364000,0.0,0.008454968,0.0067516537,0.001703316,nan,nan,nan,nan,nan,nan,nan,nan,0
26464000,26464000,0.0,0.012132975,0.0058958316,0.0062371446,nan,nan,nan,nan,nan,nan,nan,nan,0
26564000,26564000,0.00026061802,0.015265031,0.008475373,0.00584796,nan,nan,nan,nan,nan,nan,nan,nan,0
26664000,26664000,9.6277465e-05,0.012776208,0.0049376716,0.007490654,nan,nan,nan,nan,nan,nan,nan,nan,0
26760000,26760000,0.0,0.015137418,0.0060495846,0.0090878345,nan,nan,nan,nan,nan,nan,nan,nan,0
26860000,26860000,0.0,0.009161983,0.004946339,0.0042156437,nan,nan,nan,nan,nan,nan,nan,nan,0
26964000,26964000,0.0,0.01073359,0.0046140077,0.0061195837,nan,nan,nan,nan,nan,nan,nan,nan,0
27064000,27064000,0.0,0.014263383,0.007844769,0.0064186146,nan,nan,nan,nan,nan,nan,nan,nan,0
27164000,27164000,0.0006838756,0.014181268,0.0064089377,0.00530126,nan,nan,nan,nan,nan,nan,nan,nan,0
27264000,27264000,0.000185546,0.009175113,0.0031095555,0.005395119,nan,nan,nan,nan,nan,nan,nan,nan,0
27364000,27364000,0.0004650981,0.014137825,0.005277591,0.0071796807,nan,nan,nan,nan,nan,nan,nan,nan,0
27460000,27460000,0.0,0.016341519,0.0080506345,0.008290884,nan,nan,nan,nan,nan,nan,nan,nan,0
27564000,27564000,0.0,0.0093954755,0.005383699,0.0040117763,nan,nan,nan,nan,nan,nan,nan,nan,0
27664000,27664000,0.0,0.016137447,0.0064293295,0.009708118,nan,nan,nan,nan,nan,nan,nan,nan,0
27764000,27764000,0.0001207744,0.011875795,0.005640281,0.0057991175,nan,nan,nan,nan,nan,nan,nan,nan,0
27864000,27864000,0.0,0.008206937,0.0056026103,0.0026043274,nan,nan,nan,nan,nan,nan,nan,nan,0
27964000,27964000,0.0,0.013965957,0.006299723,0.0076662335,nan,nan,nan,nan,nan,nan,nan,nan,0
28064000,28064000,0.0,0.012321106,0.0059159882,0.006405119,nan,nan,nan,nan,nan,nan,nan,nan,0
28164000,28164000,0.0,0.011824055,0.0044161417,0.0074079125,nan,nan,nan,nan,nan,nan,nan,nan,0
28264000,28264000,0.0004241599,0.015455009,0.006632016,0.0072903624,nan,nan,nan,nan,nan,nan,nan,nan,0
28364000,28364000,0.00065195136,0.009497274,0.0027826359,0.0043589207,nan,nan,nan,nan,nan,nan,nan,nan,0
28460000,28460000,0.0,0.013993727,0.008150298,0.0058434294,nan,nan,nan,nan,nan,nan,nan,nan,0
28564000,28564000,0.00043604776,0.0111596,0.006679823,0.0029041904,nan,nan,nan,nan,nan,nan,nan,nan,0
28664000,28664000,0.0,0.012986636,0.005707576,0.007279059,nan,nan,nan,nan,nan,nan,nan,nan,0
28764000,28764000,0.0002958277,0.013082348,0.0066743135,0.005339111,nan,nan,nan,nan,nan,nan,nan,nan,0
28860000,28860000,0.00014226466,0.012287435,0.004750731,0.007022654,nan,nan,nan,nan,nan,nan,nan,nan,0
28964000,28964000,2.3704964e-05,0.013747642,0.0070321187,0.00662987,nan,nan,nan,nan,nan,nan,nan,nan,0
29060000,29060000,0.0,0.012775709,0.008324952,0.004450758,nan,nan,nan,nan,nan,nan,nan,nan,0
29160000,29160000,0.0,0.0116499625,0.0055247103,0.0061252518,nan,nan,nan,nan,nan,nan,nan,nan,0
29264000,29264000,0.0,0.012670085,0.0065512834,0.0061188014,nan,nan,nan,nan,nan,nan,nan,nan,0
29364000,29364000,0.0010491414,0.016170511,0.0075708153,0.0048087994,nan,nan,nan,nan,nan,nan,nan,nan,0
29460000,29460000,0.00012185801,0.010953636,0.004952791,0.0055605317,nan,nan,nan,nan,nan,nan,nan,nan,0
29564000,29564000,0.0,0.012614588,0.0077922842,0.0048223045,nan,nan,nan,nan,nan,nan,nan,nan,0
29664000,29664000,0.00048204884,0.012578689,0.007332622,0.0035042646,nan,nan,nan,nan,nan,nan,nan,nan,0
29764000,29764000,0.0001517602,0.011519457,0.0062996834,0.0046714135,nan,nan,nan,nan,nan,nan,nan,nan,0
29864000,29864000,0.00033687198,0.013098116,0.007047099,0.0048337863,nan,nan,nan,nan,nan,nan,nan,nan,0
29964000,29964000,4.7490175e-06,0.014607706,0.006952524,0.007638022,nan,nan,nan,nan,nan,nan,nan,nan,0
30060000,30060000,0.0,0.0096108755,0.0063002384,0.0033106375,nan,nan,nan,nan,nan,nan,nan,nan,0
30164000,30164000,0.0,0.011869417,0.009313725,0.0025556928,nan,nan,nan,nan,nan,nan,nan,nan,0
30260000,30260000,0.0,0.010728278,0.0066186734,0.004109605,nan,nan,nan,nan,nan,nan,nan,nan,0
30364000,30364000,4.4087355e-05,0.012584283,0.0078128055,0.004612176,nan,nan,nan,nan,nan,nan,nan,nan,0
30464000,30464000,0.0,0.008916327,0.0062130075,0.0027033207,nan,nan,nan,nan,nan,nan,nan,nan,0
30564000,30564000,1.9609826e-05,0.013480743,0.007946621,0.0054632677,nan,nan,nan,nan,nan,nan,nan,nan,0
30664000,30664000,0.0004790867,0.013353138,0.0072594425,0.004362596,nan,nan,nan,nan,nan,nan,nan,nan,0
30764000,30764000,0.00059768156,0.012512341,0.007058626,0.0032940933,nan,nan,nan,nan,nan,nan,nan,nan,0
30864000,30864000,8.200755e-05,0.010829718,0.0069753644,0.003558034,nan,nan,nan,nan,nan,nan,nan,nan,0
30964000,30964000,0.0001540102,0.013477913,0.0076935953,0.0052278284,nan,nan,nan,nan,nan,nan,nan,nan,0
31060000,31060000,0.00011114996,0.017334534,0.009233063,0.007699849,nan,nan,nan,nan,nan,nan,nan,nan,0
31164000,31164000,0.0,0.015805194,0.0096521415,0.006153053,nan,nan,nan,nan,nan,nan,nan,nan,0
31264000,31264000,0.0,0.007850528,0.0057753893,0.002075139,nan,nan,nan,nan,nan,nan,nan,nan,0
31364000,31364000,0.00016442464,0.0101965675,0.0041852104,0.0054172366,nan,nan,nan,nan,nan,nan,nan,nan,0
31464000,31464000,0.0,0.012473187,0.007751283,0.004721905,nan,nan,nan,nan,nan,nan,nan,nan,0
31564000,31564000,0.0,0.014916442,0.009743094,0.0051733484,nan,nan,nan,nan,nan,nan,nan,nan,0
31664000,31664000,0.00072581915,0.013743106,0.0056570717,0.005463409,nan,nan,nan,nan,nan,nan,nan,nan,0
31764000,31764000,0.00093293254,0.014443152,0.005584995,0.005487162,nan,nan,nan,nan,nan,nan,nan,nan,0
31860000,31860000,0.001212929,0.013375038,0.007769438,0.0012228843,nan,nan,nan,nan,nan,nan,nan,nan,0
31964000,31964000,0.00030797144,0.016532412,0.008501099,0.00691851,nan,nan,nan,nan,nan,nan,nan,nan,0
32064000,32064000,0.0,0.013166272,0.008455361,0.004710912,nan,nan,nan,nan,nan,nan,nan,nan,0
32164000,32164000,7.4922995e-05,0.009715166,0.00858792,0.00085652445,nan,nan,nan,nan,nan,nan,nan,nan,0
32260000,32260000,0.0,0.014519672,0.007965797,0.006553876,nan,nan,nan,nan,nan,nan,nan,nan,0
32364000,32364000,0.0,0.011762082,0.009031216,0.0027308667,nan,nan,nan,nan,nan,nan,nan,nan,0
32460000,32460000,1.5977163e-05,0.014029675,0.009420867,0.0045510787,nan,nan,nan,nan,nan,nan,nan,nan,0
32564000,32564000,0.00038069446,0.010077231,0.007233811,0.0014678448,nan,nan,nan,nan,nan,nan,nan,nan,0
32664000,32664000,0.0011282834,0.018350542,0.00830936,0.0059643174,nan,nan,nan,nan,nan,nan,nan,nan,0
32760000,32760000,0.0,0.013135559,0.0090642795,0.0040712804,nan,nan,nan,nan,nan,nan,nan,nan,0
32864000,32864000,0.0,0.007505177,0.004884381,0.0026207964,nan,nan,nan,nan,nan,nan,nan,nan,0
32964000,32964000,0.00016932201,0.014089134,0.009400299,0.0040770187,nan,nan,nan,nan,nan,nan,nan,nan,0
33060000,33060000,0.00017679886,0.011264292,0.0054222113,0.005203246,nan,nan,nan,nan,nan,nan,nan,nan,0
33164000,33164000,0.0,0.005769689,0.0060682683,0.00011798699,nan,nan,nan,nan,nan,nan,nan,nan,0
33264000,33264000,0.00019884319,0.012931565,0.0067101084,0.0055029714,nan,nan,nan,nan,nan,nan,nan,nan,0
33364000,33364000,0.0009861626,0.0121896835,0.0051881364,0.003438214,nan,nan,nan,nan,nan,nan,nan,nan,0
33464000,33464000,0.00019030698,0.014339176,0.008115976,0.0055355565,nan,nan,nan,nan,nan,nan,nan,nan,0
33564000,33564000,0.0008075057,0.013141261,0.009709935,0.00051354023,nan,nan,nan,nan,nan,nan,nan,nan,0
33660000,33660000,0.0,0.014003333,0.0083628725,0.0056404606,nan,nan,nan,nan,nan,nan,nan,nan,0
33764000,33764000,0.0,0.008483556,0.005973558,0.0025099982,nan,nan,nan,nan,nan,nan,nan,nan,0
33864000,33864000,0.00045866516,0.01071972,0.0076209344,0.001441475,nan,nan,nan,nan,nan,nan,nan,nan,0
33964000,33964000,0.00011301487,0.009393419,0.006674049,0.0023110104,nan,nan,nan,nan,nan,nan,nan,nan,0
34060000,34060000,0.0,0.010705338,0.008299992,0.0024053461,nan,nan,nan,nan,nan,nan,nan,nan,0
34160000,34160000,0.0005938094,0.014556426,0.008172698,0.004238097,nan,nan,nan,nan,nan,nan,nan,nan,0
34264000,34264000,9.791032e-06,0.011991616,0.008103098,0.0038531413,nan,nan,nan,nan,nan,nan,nan,nan,0
34364000,34364000,0.0,0.015829403,0.008098094,0.0077313115,nan,nan,nan,nan,nan,nan,nan,nan,0
34464000,34464000,0.00012183038,0.008787051,0.005631165,0.0027156721,nan,nan,nan,nan,nan,nan,nan,nan,0
34564000,34564000,0.0,0.0067444528,0.0057297572,0.001014696,nan,nan,nan,nan,nan,nan,nan,nan,0
34664000,34664000,0.0,0.011336615,0.0068984046,0.0044382103,nan,nan,nan,nan,nan,nan,nan,nan,0
34764000,34764000,0.00013269007,0.012101135,0.0062526176,0.0053690644,nan,nan,nan,nan,nan,nan,nan,nan,0
34864000,34864000,0.0,0.010677432,0.007182572,0.0034948604,nan,nan,nan,nan,nan,nan,nan,nan,0
34960000,34960000,0.0,0.014035826,0.008833038,0.005202789,nan,nan,nan,nan,nan,nan,nan,nan,0
35064000,35064000,2.5269377e-05,0.01367071,0.009573293,0.0040061106,nan,nan,nan,nan,nan,nan,nan,nan,0
35164000,35164000,0.0,0.013995103,0.007194202,0.006800902,nan,nan,nan,nan,nan,nan,nan,nan,0
35260000,35260000,0.0,0.01329409,0.0071325796,0.00616151,nan,nan,nan,nan,nan,nan,nan,nan,0
35364000,35364000,0.00015326588,0.010652484,0.008619866,0.0014788192,nan,nan,nan,nan,nan,nan,nan,nan,0
35464000,35464000,0.0004019874,0.010685852,0.0065523447,0.002680994,nan,nan,nan,nan,nan,nan,nan,nan,0
35564000,35564000,0.00014370913,0.012851151,0.005906303,0.00642558,nan,nan,nan,nan,nan,nan,nan,nan,0
35664000,35664000,0.0,0.009134877,0.0076098037,0.0015250734,nan,nan,nan,nan,nan,nan,nan,nan,0
35764000,35764000,0.0,0.012184212,0.006859396,0.005324816,nan,nan,nan,nan,nan,nan,nan,nan,0
35860000,35860000,0.0,0.012833049,0.007877396,0.004955653,nan,nan,nan,nan,nan,nan,nan,nan,0
35964000,35964000,0.00028936603,0.010924486,0.005934653,0.003944258,nan,nan,nan,nan,nan,nan,nan,nan,0
36064000,36064000,0.0005455728,0.008171182,0.0033147957,0.0028850515,nan,nan,nan,nan,nan,nan,nan,nan,0
36164000,36164000,0.0,0.010130207,0.007372123,0.0027580846,nan,nan,nan,nan,nan,nan,nan,nan,0
36260000,36260000,0.0,0.0118628135,0.0062821973,0.005580617,nan,nan,nan,nan,nan,nan,nan,nan,0
36364000,36364000,0.00018735397,0.015998384,0.0092408955,0.0060805157,nan,nan,nan,nan,nan,nan,nan,nan,0
36464000,36464000,4.509017e-05,0.0074462886,0.00573978,0.0015435833,nan,nan,nan,nan,nan,nan,nan,nan,0
36564000,36564000,0.00016296876,0.011328261,0.0076230434,0.003116358,nan,nan,nan,nan,nan,nan,nan,nan,0
36664000,36664000,0.0,0.009810087,0.008241649,0.0015684401,nan,nan,nan,nan,nan,nan,nan,nan,0
36764000,36764000,0.00050088484,0.012904425,0.0055426746,0.0055518867,nan,nan,nan,nan,nan,nan,nan,nan,0
36864000,36864000,0.0,0.007285907,0.0060630017,0.0012229066,nan,nan,nan,nan,nan,nan,nan,nan,0
36964000,36964000,0.0,0.013375982,0.007815306,0.0055606766,nan,nan,nan,nan,nan,nan,nan,nan,0
37060000,37060000,0.0,0.010179957,0.0064452877,0.0037346696,nan,nan,nan,nan,nan,nan,nan,nan,0
37164000,37164000,1.6489952e-05,0.009914183,0.008625919,0.0012286806,nan,nan,nan,nan,nan,nan,nan,nan,0
37264000,37264000,0.0,0.009107084,0.007525651,0.0015814335,nan,nan,nan,nan,nan,nan,nan,nan,0
37364000,37364000,0.0,0.009493678,0.0059924237,0.0035012541,nan,nan,nan,nan,nan,nan,nan,nan,0
37464000,37464000,0.0,0.009252738,0.004625741,0.0046269977,nan,nan,nan,nan,nan,nan,nan,nan,0
37564000,37564000,0.00018222771,0.0137802195,0.008934839,0.00418693,nan,nan,nan,nan,nan,nan,nan,nan,0
37664000,37664000,0.0,0.0110792,0.0067790747,0.004300125,nan,nan,nan,nan,nan,nan,nan,nan,0
37760000,37760000,0.0,0.011833193,0.00864315,0.003190041,nan,nan,nan,nan,nan,nan,nan,nan,0
37860000,37860000,0.0,0.012309208,0.0076404884,0.0046687205,nan,nan,nan,nan,nan,nan,nan,nan,0
37964000,37964000,5.954358e-05,0.01375014,0.007428169,0.006106821,nan,nan,nan,nan,nan,nan,nan,nan,0
38064000,38064000,0.0,0.012044819,0.0063278507,0.00571697,nan,nan,nan,nan,nan,nan,nan,nan,0
38164000,38164000,0.0,0.006907849,0.005280105,0.0016277444,nan,nan,nan,nan,nan,nan,nan,nan,0
38264000,38264000,0.00041091704,0.011804851,0.0068279034,0.0034921668,nan,nan,nan,nan,nan,nan,nan,nan,0
38364000,38364000,0.0,0.009970942,0.0041749743,0.0057959678,nan,nan,nan,nan,nan,nan,nan,nan,0
38460000,38460000,0.0,0.01390265,0.0062023895,0.007700261,nan,nan,nan,nan,nan,nan,nan,nan,0
38564000,38564000,0.0,0.012879161,0.007841369,0.0050377916,nan,nan,nan,nan,nan,nan,nan,nan,0
38660000,38660000,0.0,0.009062469,0.0052128327,0.0038496365,nan,nan,nan,nan,nan,nan,nan,nan,0
38764000,38764000,0.0,0.010397076,0.005184907,0.005212169,nan,nan,nan,nan,nan,nan,nan,nan,0
38860000,38860000,0.0,0.012289803,0.00957475,0.0027150537,nan,nan,nan,nan,nan,nan,nan,nan,0
38964000,38964000,0.0,0.0074795475,0.0051768394,0.002302709,nan,nan,nan,nan,nan,nan,nan,nan,0
39064000,39064000,6.247897e-06,0.010689068,0.007451138,0.0032153546,nan,nan,nan,nan,nan,nan,nan,nan,0
39164000,39164000,0.00046968705,0.00932607,0.007628934,0.0,nan,nan,nan,nan,nan,nan,nan,nan,0
39264000,39264000,0.0,0.012171089,0.0072280513,0.0049430383,nan,nan,nan,nan,nan,nan,nan,nan,0
39364000,39364000,0.0,0.012384384,0.0076445336,0.004739851,nan,nan,nan,nan,nan,nan,nan,nan,0
39464000,39464000,0.00046655207,0.014764305,0.0071716537,0.005906844,nan,nan,nan,nan,nan,nan,nan,nan,0
39564000,39564000,0.00026318402,0.011614831,0.0058976007,0.0047662603,nan,nan,nan,nan,nan,nan,nan,nan,0
39664000,39664000,0.0002646996,0.0078036212,0.0050036437,0.00184353,nan,nan,nan,nan,nan,nan,nan,nan,0
39764000,39764000,0.001246494,0.012909839,0.00402998,0.004375862,nan,nan,nan,nan,nan,nan,nan,nan,0
39864000,39864000,0.00011040183,0.005129425,0.004730507,0.0,nan,nan,nan,nan,nan,nan,nan,nan,0
39964000,39964000,0.00035210833,0.010443099,0.0050240196,0.004146794,nan,nan,nan,nan,nan,nan,nan,nan,0
40064000,40064000,1.0813734e-05,0.007634994,0.0058430806,0.0017528402,nan,nan,nan,nan,nan,nan,nan,nan,0
40160000,40160000,0.00091532496,0.012101391,0.006278648,0.002515371,nan,nan,nan,nan,nan,nan,nan,nan,0
40264000,40264000,0.0,0.011087874,0.00567965,0.0054082233,nan,nan,nan,nan,nan,nan,nan,nan,0
40364000,40364000,0.0,0.0086185075,0.006114498,0.0025040102,nan,nan,nan,nan,nan,nan,nan,nan,0
40464000,40464000,0.00027553158,0.009771437,0.0053187143,0.003457136,nan,nan,nan,nan,nan,nan,nan,nan,0
40564000,40564000,0.0,0.0056690346,0.0038146882,0.0018543471,nan,nan,nan,nan,nan,nan,nan,nan,0
40664000,40664000,0.0004565109,0.009145564,0.004010586,0.0034854528,nan,nan,nan,nan,nan,nan,nan,nan,0
40760000,40760000,0.0,0.0065953434,0.0046772063,0.0019181372,nan,nan,nan,nan,nan,nan,nan,nan,0
40864000,40864000,0.0,0.004685127,0.003062673,0.0016224544,nan,nan,nan,nan,nan,nan,nan,nan,0
40964000,40964000,0.0,0.007998367,0.0030853595,0.0049130074,nan,nan,nan,nan,nan,nan,nan,nan,0
41064000,41064000,2.3443961e-05,0.00833045,0.005139779,0.003105961,nan,nan,nan,nan,nan,nan,nan,nan,0
41164000,41164000,0.0,0.010529504,0.0058747157,0.0046547893,nan,nan,nan,nan,nan,nan,nan,nan,0
41264000,41264000,0.00016339104,0.006796375,0.005246622,0.0009593665,nan,nan,nan,nan,nan,nan,nan,nan,0
41364000,41364000,0.0006715561,0.0012932568,0.0009042279,0.001130959,nan,nan,nan,nan,nan,nan,nan,nan,0
41460000,41460000,0.0005646736,0.010773773,0.006736862,0.0019965586,nan,nan,nan,nan,nan,nan,nan,nan,0
41564000,41564000,0.001101596,0.005132488,0.0006770594,0.00047499512,nan,nan,nan,nan,nan,nan,nan,nan,0
41664000,41664000,7.3510186e-05,0.008945066,0.0061360328,0.0025434163,nan,nan,nan,nan,nan,nan,nan,nan,0
41764000,41764000,0.0003276324,0.006046464,0.003940666,0.000921954,nan,nan,nan,nan,nan,nan,nan,nan,0
41864000,41864000,0.0003306371,0.0077129635,0.0029803975,0.0035378637,nan,nan,nan,nan,nan,nan,nan,nan,0
41964000,41964000,0.00059752597,0.010201447,0.0039532916,0.004089096,nan,nan,nan,nan,nan,nan,nan,nan,0
42064000,42064000,0.0009888669,0.010523858,0.0049299216,0.0020208308,nan,nan,nan,nan,nan,nan,nan,nan,0
42164000,42164000,0.0,0.007562705,0.0062117726,0.0013509325,nan,nan,nan,nan,nan,nan,nan,nan,0
42260000,42260000,0.00013356184,0.008938813,0.004916596,0.0035396148,nan,nan,nan,nan,nan,nan,nan,nan,0
42364000,42364000,0.00041812076,0.003155348,0.0035734691,0.0,nan,nan,nan,nan,nan,nan,nan,nan,0
42460000,42460000,0.00019226348,0.0037701589,0.0015359715,0.0015394755,nan,nan,nan,nan,nan,nan,nan,nan,0
42564000,42564000,8.820898e-05,0.0061363857,0.0048872866,0.000930372,nan,nan,nan,nan,nan,nan,nan,nan,0
42664000,42664000,0.0,0.0038250568,0.0030497815,0.00077527587,nan,nan,nan,nan,nan,nan,nan,nan,0
42764000,42764000,0.0,0.00591123,0.0039927415,0.0019184889,nan,nan,nan,nan,nan,nan,nan,nan,0
42864000,42864000,0.0,0.0047589373,0.0029555412,0.0018033969,nan,nan,nan,nan,nan,nan,nan,nan,0
42964000,42964000,0.0,0.003163362,0.0019834943,0.001179868,nan,nan,nan,nan,nan,nan,nan,nan,0
43064000,43064000,0.00026829678,0.005632863,0.0031483243,0.001515093,nan,nan,nan,nan,nan,nan,nan,nan,0
43164000,43164000,0.00033780106,0.0033078934,0.0036456948,0.0,nan,nan,nan,nan,nan,nan,nan,nan,0
43264000,43264000,0.00096976507,0.002513841,0.0034836065,0.0,nan,nan,nan,nan,nan,nan,nan,nan,0
43364000,43364000,0.0,0.0049041514,0.0022816057,0.0026225466,nan,nan,nan,nan,nan,nan,nan,nan,0
43464000,43464000,0.0,0.004738846,0.0019619635,0.0027768826,nan,nan,nan,nan,nan,nan,nan,nan,0
43564000,43564000,0.0004730222,0.00097020436,0.002310202,0.00034259495,nan,nan,nan,nan,nan,nan,nan,nan,0
43664000,43664000,0.0,0.0055325804,0.0045011123,0.0010314689,nan,nan,nan,nan,nan,nan,nan,nan,0
43764000,43764000,0.00025231906,0.0009849283,0.00045160353,0.0023111487,nan,nan,nan,nan,nan,nan,nan,nan,0
43864000,43864000,9.264397e-05,0.007828062,0.0048014815,0.0026918277,nan,nan,nan,nan,nan,nan,nan,nan,0
43964000,43964000,0.0,0.004498736,0.0030240442,0.0014746923,nan,nan,nan,nan,nan,nan,nan,nan,0
44064000,44064000,0.00021364441,0.0026639139,0.0018919457,0.0,nan,nan,nan,nan,nan,nan,nan,nan,0
44164000,44164000,0.0,0.0028691632,0.002758983,0.00011018047,nan,nan,nan,nan,nan,nan,nan,nan,0
44264000,44264000,0.00027437706,0.004756153,0.00092288863,0.0028418489,nan,nan,nan,nan,nan,nan,nan,nan,0
44364000,44364000,0.00033704223,0.004288211,0.002031205,0.0010391604,nan,nan,nan,nan,nan,nan,nan,nan,0
44460000,44460000,0.0,0.0026525047,0.0029093872,0.00010150974,nan,nan,nan,nan,nan,nan,nan,nan,0
44564000,44564000,0.0,0.003155867,8.951174e-05,0.0030663554,nan,nan,nan,nan,nan,nan,nan,nan,0
44660000,44660000,0.0007358433,0.0035192273,0.0042550713,0.0,nan,nan,nan,nan,nan,nan,nan,nan,0
44764000,44764000,0.0,0.0023948401,0.0014841484,0.00091069174,nan,nan,nan,nan,nan,nan,nan,nan,0
44864000,44864000,0.0007032774,0.0020604276,0.0009763023,0.00025999232,nan,nan,nan,nan,nan,nan,nan,nan,0
44964000,44964000,0.0008641727,0.002110697,0.0008940436,0.00013108645,nan,nan,nan,nan,nan,nan,nan,nan,0
45064000,45064000,0.0010348508,0.0,0.002580961,0.00061096274,nan,nan,nan,nan,nan,nan,nan,nan,0
45164000,45164000,0.00024536764,0.003907815,0.0027518983,0.00026932237,nan,nan,nan,nan,nan,nan,nan,nan,0
45264000,45264000,0.00024713622,0.00033114897,0.0012458261,0.0021758885,nan,nan,nan,nan,nan,nan,nan,nan,0
45364000,45364000,0.0006550252,0.0056259194,0.0012555027,0.002003593,nan,nan,nan,nan,nan,nan,nan,nan,0
45460000,45460000,0.0,0.005033863,0.0033649008,0.0016689622,nan,nan,nan,nan,nan,nan,nan,nan,0
45564000,45564000,0.00049902237,0.0038101864,0.0008594669,0.0011475856,nan,nan,nan,nan,nan,nan,nan,nan,0
45664000,45664000,0.00015753802,0.0029715465,0.0024023096,0.0,nan,nan,nan,nan,nan,nan,nan,nan,0
45764000,45764000,0.0,0.0054239584,0.003175147,0.002248812,nan,nan,nan,nan,nan,nan,nan,nan,0
45860000,45860000,0.00018402892,0.00407414,0.0021151407,0.0012940422,nan,nan,nan,nan,nan,nan,nan,nan,0
45964000,45964000,0.00059402036,0.0048195915,0.0024401678,0.00023303047,nan,nan,nan,nan,nan,nan,nan,nan,0
46064000,46064000,0.0011164487,0.001161878,0.0017216731,0.0,nan,nan,nan,nan,nan,nan,nan,nan,0
46164000,46164000,0.0,0.0043901065,0.0017033375,0.0026867692,nan,nan,nan,nan,nan,nan,nan,nan,0
46264000,46264000,0.0,0.0054681804,0.0020364746,0.0034317058,nan,nan,nan,nan,nan,nan,nan,nan,0
46364000,46364000,0.0008118639,0.0038178843,0.004629749,0.0,nan,nan,nan,nan,nan,nan,nan,nan,0
46460000,46460000,0.0,0.0028805032,0.0028659774,1.45263e-05,nan,nan,nan,nan,nan,nan,nan,nan,0
46564000,46564000,0.00027345898,0.0017578664,0.0006603036,0.0013083708,nan,nan,nan,nan,nan,nan,nan,nan,0
46664000,46664000,6.541406e-06,0.0013596776,0.001667561,0.0009662197,nan,nan,nan,nan,nan,nan,nan,nan,0
46764000,46764000,0.0,0.0033405744,0.0016103548,0.0017302199,nan,nan,nan,nan,nan,nan,nan,nan,0
46864000,46864000,0.0004168402,0.0006122363,0.0019421029,0.0010288204,nan,nan,nan,nan,nan,nan,nan,nan,0
46964000,46964000,3.4136814e-05,0.0026260286,0.003227299,0.00022410903,nan,nan,nan,nan,nan,nan,nan,nan,0
47060000,47060000,0.0004632004,0.0019612801,0.0015755192,0.0,nan,nan,nan,nan,nan,nan,nan,nan,0
47160000,47160000,0.0019876298,0.0,0.0012966193,0.0007157505,nan,nan,nan,nan,nan,nan,nan,nan,0
47260000,47260000,4.4950626e-05,0.0024902688,0.00068775425,0.001640093,nan,nan,nan,nan,nan,nan,nan,nan,0
47364000,47364000,0.0010456503,0.000921948,0.000549747,0.0014826544,nan,nan,nan,nan,nan,nan,nan,nan,0
47464000,47464000,0.00013129388,0.005921341,0.0021635427,0.0032833898,nan,nan,nan,nan,nan,nan,nan,nan,0
47564000,47564000,0.0010036452,0.0054263016,0.0017997968,0.0,nan,nan,nan,nan,nan,nan,nan,nan,0
47664000,47664000,0.00027374376,0.007013528,0.0025086654,0.0035157357,nan,nan,nan,nan,nan,nan,nan,nan,0
47764000,47764000,0.00021086156,0.0020646518,0.0016888581,3.5628356e-05,nan,nan,nan,nan,nan,nan,nan,nan,0
47860000,47860000,0.0,0.0030538652,0.0013935545,0.0016603111,nan,nan,nan,nan,nan,nan,nan,nan,0
47964000,47964000,3.5146575e-05,0.0038267102,0.00369037,9.344483e-06,nan,nan,nan,nan,nan,nan,nan,nan,0
48064000,48064000,0.001552959,0.0003445591,0.0018762476,0.00022623406,nan,nan,nan,nan,nan,nan,nan,nan,0
48164000,48164000,0.0002966562,0.0068183853,0.0022230123,0.0035234552,nan,nan,nan,nan,nan,nan,nan,nan,0
48264000,48264000,8.7123684e-05,0.0032903831,0.00026980802,0.0027057682,nan,nan,nan,nan,nan,nan,nan,nan,0
48364000,48364000,0.0005945611,0.001634056,0.0011710576,0.00060032494,nan,nan,nan,nan,nan,nan,nan,nan,0
48464000,48464000,0.0010531037,0.00039125775,0.001282481,0.0012731573,nan,nan,nan,nan,nan,nan,nan,nan,0
48560000,48560000,0.0007458451,0.0027007817,0.00055337296,0.0,nan,nan,nan,nan,nan,nan,nan,nan,0
48664000,48664000,0.0021130836,0.0015202393,0.0,0.0036333224,nan,nan,nan,nan,nan,nan,nan,nan,0
48764000,48764000,0.0003784942,0.0041077523,1.9732339e-05,0.0027203942,nan,nan,nan,nan,nan,nan,nan,nan,0
48864000,48864000,6.4117055e-05,0.003905101,0.0010705144,0.0026029104,nan,nan,nan,nan,nan,nan,nan,nan,0
48964000,48964000,0.0015071937,0.0005457085,0.00021644076,0.0017306568,nan,nan,nan,nan,nan,nan,nan,nan,0
49064000,49064000,0.0013014829,0.0023531187,0.00034539783,0.0,nan,nan,nan,nan,nan,nan,nan,nan,0
49164000,49164000,0.0008730675,0.0009313311,0.0008713917,0.0013242095,nan,nan,nan,nan,nan,nan,nan,nan,0
49264000,49264000,0.0006899114,0.0017451299,0.0002989189,0.003515135,nan,nan,nan,nan,nan,nan,nan,nan,0
49364000,49364000,0.0013366041,0.0011735642,0.0,0.0014898315,nan,nan,nan,nan,nan,nan,nan,nan,0
49464000,49464000,0.0016700698,0.0010032376,0.0005167246,0.00080996775,nan,nan,nan,nan,nan,nan,nan,nan,0
49564000,49564000,0.0014006114,0.0016190116,0.003019623,0.0,nan,nan,nan,nan,nan,nan,nan,nan,0
49664000,49664000,0.00041631525,0.0017328854,0.0,0.0021492005,nan,nan,nan,nan,nan,nan,nan,nan,0
49760000,49760000,0.0010235009,0.0011468955,0.0001566452,0.0016729581,nan,nan,nan,nan,nan,nan,nan,nan,0
49860000,49860000,0.00073130213,0.0029720115,8.772017e-05,0.00024185295,nan,nan,nan,nan,nan,nan,nan,nan,0
49964000,49964000,0.004583386,0.0011360187,0.0017085625,0.0,nan,nan,nan,nan,nan,nan,nan,nan,0
50060000,50060000,0.0011792438,0.00142345,0.0009398358,0.0004574702,nan,nan,nan,nan,nan,nan,nan,nan,0
50164000,50164000,0.006086647,0.0014630079,0.0,0.0075496547,nan,nan,nan,nan,nan,nan,nan,nan,0
50260000,50260000,0.00083485234,0.0017012162,0.00031585325,0.0036773516,nan,nan,nan,nan,nan,nan,nan,nan,0
50364000,50364000,0.00030527392,0.0015340705,0.00020285918,0.0025723418,nan,nan,nan,nan,nan,nan,nan,nan,0
50460000,50460000,0.0024610106,0.0005575399,0.0010500932,0.0,nan,nan,nan,nan,nan,nan,nan,nan,0
50564000,50564000,0.0017951274,0.0009719734,0.0001292768,0.0032342207,nan,nan,nan,nan,nan,nan,nan,nan,0
50664000,50664000,0.004347357,0.00030120942,0.0007618116,0.002823301,nan,nan,nan,nan,nan,nan,nan,nan,0
50764000,50764000,0.0046897954,0.00013386364,0.00036161204,0.003989426,nan,nan,nan,nan,nan,nan,nan,nan,0
50864000,50864000,0.0031460593,0.00012754898,0.0010552753,0.0017680068,nan,nan,nan,nan,nan,nan,nan,nan,0
50964000,50964000,0.005180103,0.0,0.0010851475,0.0040949546,nan,nan,nan,nan,nan,nan,nan,nan,0
51060000,51060000,0.004690952,0.0004084501,0.0017032211,0.001954102,nan,nan,nan,nan,nan,nan,nan,nan,0
51164000,51164000,0.0050312,0.0,0.0026478237,0.0023833765,nan,nan,nan,nan,nan,nan,nan,nan,0
51264000,51264000,0.0013440874,0.0,0.00091619114,0.001739721,nan,nan,nan,nan,nan,nan,nan,nan,0
51364000,51364000,0.0016867631,0.00058441446,0.00023397889,0.003116621,nan,nan,nan,nan,nan,nan,nan,nan,0
51460000,51460000,0.0008705119,0.001694547,4.731779e-05,0.0027360339,nan,nan,nan,nan,nan,nan,nan,nan,0
51564000,51564000,0.0022835818,0.0,0.0011037235,0.0011798579,nan,nan,nan,nan,nan,nan,nan,nan,0
51660000,51660000,0.0011751759,0.0,0.0006161122,0.0022087116,nan,nan,nan,nan,nan,nan,nan,nan,0
51764000,51764000,0.00019343152,0.0028611042,0.001215151,0.0009470207,nan,nan,nan,nan,nan,nan,nan,nan,0
51864000,51864000,0.0029613795,0.0003355898,0.0005610059,0.0015511259,nan,nan,nan,nan,nan,nan,nan,nan,0
51964000,51964000,0.0014652644,0.001522059,0.0,0.0010126765,nan,nan,nan,nan,nan,nan,nan,nan,0
52060000,52060000,0.0025126943,0.00012543425,0.0021952689,0.0,nan,nan,nan,nan,nan,nan,nan,nan,0
52164000,52164000,0.0023502943,0.0020235796,0.000120259574,0.004808412,nan,nan,nan,nan,nan,nan,nan,nan,0
52260000,52260000,0.0020758593,0.0,0.0013752524,0.0007006071,nan,nan,nan,nan,nan,nan,nan,nan,0
52364000,52364000,0.0048220805,0.0,0.004605431,0.00021664938,nan,nan,nan,nan,nan,nan,nan,nan,0
52464000,52464000,0.0017429735,0.0003511661,0.0003983042,0.0015075561,nan,nan,nan,nan,nan,nan,nan,nan,0
52564000,52564000,0.0041637914,0.0,0.0007541145,0.003409677,nan,nan,nan,nan,nan,nan,nan,nan,0
52664000,52664000,0.0045686644,0.00047516695,0.0015609855,0.0018052146,nan,nan,nan,nan,nan,nan,nan,nan,0
52764000,52764000,0.0013195972,0.0008486038,0.00026327366,0.0015685251,nan,nan,nan,nan,nan,nan,nan,nan,0
52864000,52864000,0.0042509437,0.0,0.0018897078,0.002361236,nan,nan,nan,nan,nan,nan,nan,nan,0
52964000,52964000,0.0029493764,0.0,0.003435587,0.00019213161,nan,nan,nan,nan,nan,nan,nan,nan,0
53064000,53064000,0.0023444754,0.00039916235,0.0,0.0013343496,nan,nan,nan,nan,nan,nan,nan,nan,0
53164000,53164000,0.0012817025,0.0008659995,0.0006621415,0.0011901561,nan,nan,nan,nan,nan,nan,nan,nan,0
53264000,53264000,0.0021173656,0.0,0.0015611891,0.00055617647,nan,nan,nan,nan,nan,nan,nan,nan,0
53364000,53364000,0.007011341,0.0,0.0022613176,0.0047500227,nan,nan,nan,nan,nan,nan,nan,nan,0
53464000,53464000,0.0028291887,0.00020051055,0.0011809488,0.0011408252,nan,nan,nan,nan,nan,nan,nan,nan,0
53560000,53560000,0.003972187,0.0006694761,0.0019775606,0.00030044187,nan,nan,nan,nan,nan,nan,nan,nan,0
53660000,53660000,0.005985734,0.0,0.0019595455,0.0040261876,nan,nan,nan,nan,nan,nan,nan,nan,0
53764000,53764000,0.0035182177,0.00025943347,0.00060262665,0.0022590652,nan,nan,nan,nan,nan,nan,nan,nan,0
53860000,53860000,0.0017528867,0.0009419422,0.0,0.0026948284,nan,nan,nan,nan,nan,nan,nan,nan,0
53964000,53964000,0.0005240153,0.0037490076,0.0010282774,0.0008272886,nan,nan,nan,nan,nan,nan,nan,nan,0
54064000,54064000,0.0021517412,0.0,0.001617948,0.0005337929,nan,nan,nan,nan,nan,nan,nan,nan,0
54164000,54164000,0.0019956725,0.0,4.8241112e-05,0.0021699832,nan,nan,nan,nan,nan,nan,nan,nan,0
54264000,54264000,0.00057963113,0.001919328,0.00034121115,0.0011598294,nan,nan,nan,nan,nan,nan,nan,nan,0
54360000,54360000,0.0018658107,0.00041237776,0.00022217176,0.0014996396,nan,nan,nan,nan,nan,nan,nan,nan,0
54464000,54464000,0.0041285586,0.0,0.0007962892,0.0033322687,nan,nan,nan,nan,nan,nan,nan,nan,0
54564000,54564000,0.0011562083,0.0015457284,0.002701937,0.0,nan,nan,nan,nan,nan,nan,nan,nan,0
54664000,54664000,0.00087936415,0.0015347678,0.0013146903,0.0002711776,nan,nan,nan,nan,nan,nan,nan,nan,0
54764000,54764000,0.0008211764,0.00074179075,0.00049315585,0.0033449032,nan,nan,nan,nan,nan,nan,nan,nan,0
54864000,54864000,0.0060808267,0.00068294996,0.0034150577,0.00093748706,nan,nan,nan,nan,nan,nan,nan,nan,0
54960000,54960000,0.002166777,0.0007127223,0.00041625195,0.0007042485,nan,nan,nan,nan,nan,nan,nan,nan,0
55060000,55060000,0.0049137766,0.0,0.0017389845,0.0031747916,nan,nan,nan,nan,nan,nan,nan,nan,0
55164000,55164000,0.005716277,0.00025700545,0.0059732823,0.0,nan,nan,nan,nan,nan,nan,nan,nan,0
55264000,55264000,0.0007739314,0.00064825005,0.0011200751,0.0014577431,nan,nan,nan,nan,nan,nan,nan,nan,0
55364000,55364000,0.0,0.0020864182,0.002991955,0.0003578331,nan,nan,nan,nan,nan,nan,nan,nan,0
55460000,55460000,0.0058730626,0.0,0.0033479815,0.002525081,nan,nan,nan,nan,nan,nan,nan,nan,0
55560000,55560000,0.0010532629,0.0,0.0022034002,0.0007433364,nan,nan,nan,nan,nan,nan,nan,nan,0
55660000,55660000,0.0022089814,0.0005671433,0.002776125,0.0,nan,nan,nan,nan,nan,nan,nan,nan,0
55764000,55764000,0.004442385,0.00037523726,0.0027552652,0.00073753955,nan,nan,nan,nan,nan,nan,nan,nan,0
55860000,55860000,0.005408694,0.0,0.0041449135,0.00126378,nan,nan,nan,nan,nan,nan,nan,nan,0
55964000,55964000,0.005464281,0.00050140615,0.002718436,0.0014769803,nan,nan,nan,nan,nan,nan,nan,nan,0
56064000,56064000,0.0042054234,0.0,0.002079113,0.0021263098,nan,nan,nan,nan,nan,nan,nan,nan,0
56164000,56164000,0.00395576,0.00029017427,0.0032214415,0.0,nan,nan,nan,nan,nan,nan,nan,nan,0
56264000,56264000,0.00097420753,0.0,0.0011590208,0.0018667714,nan,nan,nan,nan,nan,nan,nan,nan,0
56364000,56364000,0.0044768425,0.0,0.0030310669,0.0014457756,nan,nan,nan,nan,nan,nan,nan,nan,0
56464000,56464000,0.004290318,0.00012810486,0.0007039168,0.003262217,nan,nan,nan,nan,nan,nan,nan,nan,0
56564000,56564000,0.0019875946,0.0,0.00020165968,0.002716258,nan,nan,nan,nan,nan,nan,nan,nan,0
56660000,56660000,0.00427345,0.0,0.0037826572,0.0004907927,nan,nan,nan,nan,nan,nan,nan,nan,0
56764000,56764000,0.0029273746,0.0,0.0016137436,0.0013136308,nan,nan,nan,nan,nan,nan,nan,nan,0
56860000,56860000,0.0065741576,0.0,0.00614224,0.0004319176,nan,nan,nan,nan,nan,nan,nan,nan,0
56964000,56964000,0.00032853754,0.0018370217,0.0018344405,0.0,nan,nan,nan,nan,nan,nan,nan,nan,0
57064000,57064000,0.003919915,9.375523e-06,0.0035866695,0.00030951944,nan,nan,nan,nan,nan,nan,nan,nan,0
57164000,57164000,0.0032165493,0.0002228599,0.0034394092,0.0,nan,nan,nan,nan,nan,nan,nan,nan,0
57260000,57260000,0.0018751735,0.0,0.001769511,0.00035531516,nan,nan,nan,nan,nan,nan,nan,nan,0
57360000,57360000,0.0027900399,0.0,0.0013791111,0.0014109288,nan,nan,nan,nan,nan,nan,nan,nan,0
57460000,57460000,0.0038995882,0.0,0.0031249158,0.0007746725,nan,nan,nan,nan,nan,nan,nan,nan,0
57564000,57564000,0.0033533094,0.0,0.0033350792,1.8230174e-05,nan,nan,nan,nan,nan,nan,nan,nan,0
57664000,57664000,0.004255387,0.0006865561,0.004941943,0.0,nan,nan,nan,nan,nan,nan,nan,nan,0
57764000,57764000,0.0037645444,0.00015921418,0.0031948967,0.00016673801,nan,nan,nan,nan,nan,nan,nan,nan,0
57864000,57864000,0.005648597,0.0,0.0046022898,0.0010463073,nan,nan,nan,nan,nan,nan,nan,nan,0
57964000,57964000,0.0019300197,0.0008848276,0.0011851526,0.0,nan,nan,nan,nan,nan,nan,nan,nan,0
58064000,58064000,0.0019690385,0.00059848564,0.00019428381,0.003269536,nan,nan,nan,nan,nan,nan,nan,nan,0
58164000,58164000,0.0038592557,0.0,0.0026905215,0.0011687337,nan,nan,nan,nan,nan,nan,nan,nan,0
58264000,58264000,0.005048985,0.00016945919,0.0035326493,0.0010875004,nan,nan,nan,nan,nan,nan,nan,nan,0
58364000,58364000,0.0071865087,0.00061404833,0.0031621666,0.0024704235,nan,nan,nan,nan,nan,nan,nan,nan,0
58460000,58460000,0.0068484508,0.00036102114,0.0025881534,0.0033466928,nan,nan,nan,nan,nan,nan,nan,nan,0
58564000,58564000,0.00612058,0.0,0.00172511,0.00439547,nan,nan,nan,nan,nan,nan,nan,nan,0
58664000,58664000,0.0035189458,0.0,0.003935457,0.00016458915,nan,nan,nan,nan,nan,nan,nan,nan,0
58764000,58764000,0.003226859,0.0,0.0012250467,0.0020018122,nan,nan,nan,nan,nan,nan,nan,nan,0
58864000,58864000,0.004992915,0.0006803256,0.0022458956,0.0010253787,nan,nan,nan,nan,nan,nan,nan,nan,0
58960000,58960000,0.0046930364,0.003352334,0.008337406,0.000115401046,nan,nan,nan,nan,nan,nan,nan,nan,0
59060000,59060000,0.0031945081,0.0002563966,0.002545668,0.0,nan,nan,nan,nan,nan,nan,nan,nan,0
59164000,59164000,0.0057320297,0.0,0.0033809508,0.0023510787,nan,nan,nan,nan,nan,nan,nan,nan,0
59264000,59264000,0.0033258274,0.0,0.0025794075,0.0007464199,nan,nan,nan,nan,nan,nan,nan,nan,0
59364000,59364000,0.0066697383,0.0,0.0048818756,0.0017878623,nan,nan,nan,nan,nan,nan,nan,nan,0
59464000,59464000,0.006251736,0.0,0.0029174285,0.003334307,nan,nan,nan,nan,nan,nan,nan,nan,0
59564000,59564000,0.002356571,0.001691346,0.0042987484,9.911858e-05,nan,nan,nan,nan,nan,nan,nan,nan,0
59664000,59664000,0.034716517,0.01756003,0.02266876,0.028608987,nan,nan,nan,nan,nan,nan,nan,nan,0
59764000,59764000,0.046830993,0.035743646,0.03778713,0.045938306,nan,nan,nan,nan,nan,nan,nan,nan,0
59860000,59860000,0.06534475,0.049895782,0.055145208,0.06141568,nan,nan,nan,nan,nan,nan,nan,nan,0
59960000,59960000,0.08452232,0.06586985,0.07384274,0.078313135,nan,nan,nan,nan,nan,nan,nan,nan,0
60060000,60060000,0.10761934,0.087383285,0.09225347,0.10032127,nan,nan,nan,nan,nan,nan,nan,nan,0
60160000,60160000,0.12562537,0.109086655,0.11786664,0.119922034,nan,nan,nan,nan,nan,nan,nan,nan,0
60264000,60264000,0.15216827,0.13448395,0.14134072,0.14439344,nan,nan,nan,nan,nan,nan,nan,nan,0
60364000,60364000,0.17439194,0.16062197,0.16828007,0.16778125,nan,nan,nan,nan,nan,nan,nan,nan,0
60464000,60464000,0.20556727,0.18752146,0.1955715,0.1976151,nan,nan,nan,nan,nan,nan,nan,nan,0
60564000,60564000,0.23232065,0.22154416,0.22826225,0.22831595,nan,nan,nan,nan,nan,nan,nan,nan,0
60660000,60660000,0.2652381,0.24827833,0.25708285,0.25483805,nan,nan,nan,nan,nan,nan,nan,nan,0
60764000,60764000,0.30317387,0.2844792,0.29668942,0.28962308,nan,nan,nan,nan,nan,nan,nan,nan,0
60864000,60864000,0.33559296,0.3191885,0.3297052,0.3252521,nan,nan,nan,nan,nan,nan,nan,nan,0
60964000,60964000,0.3533287,0.3342996,0.3466936,0.3389758,nan,nan,nan,nan,nan,nan,nan,nan,0
61064000,61064000,0.36309245,0.34291014,0.353505,0.34901264,nan,nan,nan,nan,nan,nan,nan,nan,0
61164000,61164000,0.3770066,0.35199654,0.3668071,0.36566776,nan,nan,nan,nan,nan,nan,nan,nan,0
61260000,61260000,0.38486725,0.36657792,0.3769005,0.37235743,nan,nan,nan,nan,nan,nan,nan,nan,0
61364000,61364000,0.40167752,0.37660575,0.3918273,0.38915268,nan,nan,nan,nan,nan,nan,nan,nan,0
61464000,61464000,0.41276705,0.3894991,0.40289786,0.39682835,nan,nan,nan,nan,nan,nan,nan,nan,0
61564000,61564000,0.42871252,0.40423808,0.42012504,0.41173443,nan,nan,nan,nan,nan,nan,nan,nan,0
61664000,61664000,0.43807146,0.4167698,0.43366402,0.42080024,nan,nan,nan,nan,nan,nan,nan,nan,0
61764000,61764000,0.45626572,0.43189466,0.4512704,0.43739596,nan,nan,nan,nan,nan,nan,nan,nan,0
61864000,61864000,0.4682886,0.446515,0.4661956,0.4494835,nan,nan,nan,nan,nan,nan,nan,nan,0
61964000,61964000,0.48587945,0.46357948,0.48535898,0.46572685,nan,nan,nan,nan,nan,nan,nan,nan,0
62060000,62060000,0.49709025,0.48044518,0.5013791,0.4763079,nan,nan,nan,nan,nan,nan,nan,nan,0
62164000,62164000,0.5161443,0.5006863,0.51968056,0.49412498,nan,nan,nan,nan,nan,nan,nan,nan,0
62264000,62264000,0.5299615,0.5143232,0.5356447,0.5093338,nan,nan,nan,nan,nan,nan,nan,nan,0
62364000,62364000,0.531969,0.54317856,0.5403146,0.5357646,nan,nan,nan,nan,nan,nan,nan,nan,0
62464000,62464000,0.5420338,0.54699546,0.54066515,0.546428,nan,nan,nan,nan,nan,nan,nan,nan,0
62564000,62564000,0.54764235,0.54904854,0.5470513,0.55150664,nan,nan,nan,nan,nan,nan,nan,nan,0
62664000,62664000,0.5659413,0.56674504,0.5642225,0.5673567,nan,nan,nan,nan,nan,nan,nan,nan,0
62764000,62764000,0.5569773,0.5522132,0.5538526,0.55328983,nan,nan,nan,nan,nan,nan,nan,nan,0
62864000,62864000,0.54702747,0.54828596,0.5508237,0.54645526,nan,nan,nan,nan,nan,nan,nan,nan,0
62964000,62964000,0.5529712,0.55216694,0.5534414,0.55000645,nan,nan,nan,nan,nan,nan,nan,nan,0
63064000,63064000,0.5506453,0.5486667,0.5500206,0.5480642,nan,nan,nan,nan,nan,nan,nan,nan,0
63164000,63164000,0.5507697,0.5549788,0.5566731,0.5496999,nan,nan,nan,nan,nan,nan,nan,nan,0
63264000,63264000,0.546731,0.5519419,0.5480049,0.5514676,nan,nan,nan,nan,nan,nan,nan,nan,0
63364000,63364000,0.55258495,0.55718243,0.55546874,0.55103266,nan,nan,nan,nan,nan,nan,nan,nan,0
63464000,63464000,0.5508544,0.54900396,0.54895335,0.553259,nan,nan,nan,nan,nan,nan,nan,nan,0
63564000,63564000,0.552493,0.5578043,0.55407935,0.5564579,nan,nan,nan,nan,nan,nan,nan,nan,0
63660000,63660000,0.5525636,0.55421525,0.55151516,0.5532896,nan,nan,nan,nan,nan,nan,nan,nan,0
63764000,63764000,0.55688405,0.5601753,0.558733,0.5610632,nan,nan,nan,nan,nan,nan,nan,nan,0
63864000,63864000,0.5532414,0.5577415,0.55513257,0.5541592,nan,nan,nan,nan,nan,nan,nan,nan,0
63964000,63964000,0.56062794,0.5616838,0.55834544,0.562752,nan,nan,nan,nan,nan,nan,nan,nan,0
64060000,64060000,0.53883207,0.54363436,0.5390823,0.541393,nan,nan,nan,nan,nan,nan,nan,nan,0
