timestamp,timestamp_sample,time_last_fuse,device_id,observation[0],observation[1],observation[2],observation_variance[0],observation_variance[1],observation_variance[2],innovation[0],innovation[1],innovation[2],innovation_variance[0],innovation_variance[1],innovation_variance[2],test_ratio[0],test_ratio[1],test_ratio[2],estimator_instance,fusion_enabled,innovation_rejected,fused
3548000,3465838,0,0,-0.03963009,-0.30073735,0.4063592,0.0,0.0,0.0,0.03963009,0.30073735,-0.4063592,0.0,0.0,0.0,inf,inf,inf,0,0,1,0
3620000,3538950,0,0,-0.042981375,-0.30092776,0.4042762,0.0,0.0,0.0,-0.0032342784,0.005095005,-0.0011810958,0.0,0.0,0.0,inf,inf,inf,0,0,1,0
3692000,3611106,0,0,-0.040321022,-0.2991786,0.40610808,0.0,0.0,0.0,-0.005713865,0.003323108,-0.0030089617,0.0,0.0,0.0,inf,inf,inf,0,0,1,0
3764000,3683124,0,0,-0.042594574,-0.29600498,0.4121864,0.0,0.0,0.0,-0.002041541,0.00016701221,-0.008917183,0.0,0.0,0.0,inf,inf,inf,0,0,1,0
3836000,3754898,0,0,-0.039291363,-0.30018455,0.4057181,0.0,0.0,0.0,-0.005439628,0.0035192966,-0.001385212,0.0,0.0,0.0,inf,inf,inf,0,0,1,0
3908000,3827269,0,0,-0.04074255,-0.29675332,0.4141182,0.0,0.0,0.0,-0.0029688291,-8.46982e-05,-0.009800583,0.0,0.0,0.0,inf,inf,inf,0,0,1,0
3980000,3899384,0,0,-0.040442955,-0.3012492,0.40764615,0.0,0.0,0.0,-0.0028489567,0.0044742823,-0.0032370389,0.0,0.0,0.0,inf,inf,inf,0,0,1,0
4052000,3971390,0,0,-0.036077287,-0.29891044,0.40691498,0.0,0.0,0.0,-0.0068875737,0.0020590425,-0.0025272071,0.0,0.0,0.0,inf,inf,inf,0,0,1,0
4124000,4043122,0,0,-0.0374538,-0.29987466,0.40743867,0.0,0.0,0.0,-0.0048952103,0.002895236,-0.003079921,0.0,0.0,0.0,inf,inf,inf,0,0,1,0
4196000,4115491,0,0,-0.03784096,-0.29344034,0.40711862,0.0,0.0,0.0,-0.004045043,-0.003439784,-0.0026388168,0.0,0.0,0.0,inf,inf,inf,0,0,1,0
4268000,4187203,0,0,-0.03771499,-0.30020863,0.40678185,0.0,0.0,0.0,-0.00394259,0.0033160448,-0.002287507,0.0,0.0,0.0,inf,inf,inf,0,0,1,0
4340000,4259575,0,0,-0.040405434,-0.2949607,0.40492195,0.0,0.0,0.0,-0.0009183176,-0.0019963682,-0.00044074655,0.0,0.0,0.0,inf,inf,inf,0,0,1,0
4412000,4331638,0,0,-0.040439684,-0.30092075,0.4064658,0.0,0.0,0.0,-0.00089259073,0.0038962066,-0.002034992,0.0,0.0,0.0,inf,inf,inf,0,0,1,0
4484000,4403646,0,0,-0.038002923,-0.30550313,0.4073903,0.0,0.0,0.0,-0.003326431,0.00845331,-0.0029777884,0.0,0.0,0.0,inf,inf,inf,0,0,1,0
4556000,4475334,0,0,-0.039349444,-0.299833,0.40703058,0.0,0.0,0.0,-0.0016663149,0.002850324,-0.0025368035,0.0,0.0,0.0,inf,inf,inf,0,0,1,0
4628000,4547704,0,0,-0.038316306,-0.29611474,0.4084606,0.0,0.0,0.0,-0.0025802292,-0.00083476305,-0.00393039,0.0,0.0,0.0,inf,inf,inf,0,0,1,0
4700000,4617929,0,0,-0.04033087,-0.30049586,0.4052736,0.0,0.0,0.0,-0.0004940666,0.0034962296,-0.00077292323,0.0,0.0,0.0,inf,inf,inf,0,0,1,0
4772000,4691753,0,0,-0.04025187,-0.29920107,0.40138087,0.0,0.0,0.0,-0.0005877875,0.0021829605,0.0031047165,0.0,0.0,0.0,inf,inf,inf,0,0,1,0
4844000,4763062,0,0,-0.038645275,-0.30040395,0.40897167,0.0,0.0,0.0,-0.0022273138,0.003388226,-0.0044876337,0.0,0.0,0.0,inf,inf,inf,0,0,1,0
4916000,4835794,0,0,-0.03221136,-0.29565904,0.40526104,0.0,0.0,0.0,-0.008613471,-0.0013456047,-0.00076407194,0.0,0.0,0.0,inf,inf,inf,0,0,1,0
4988000,4906370,0,0,-0.039678503,-0.29992738,0.4071617,0.0,0.0,0.0,-0.0008331798,0.0028388798,-0.0026948452,0.0,0.0,0.0,inf,inf,inf,0,0,1,0
5060000,4979828,0,0,-0.048418544,-0.29758504,0.41811433,0.0,0.0,0.0,0.007837407,0.00053459406,-0.013626486,0.0,0.0,0.0,inf,inf,inf,0,0,1,0
5132000,5050763,0,0,-0.041678082,-0.3005622,0.40423808,0.0,0.0,0.0,0.0009930842,0.0035685897,0.0002810955,0.0,0.0,0.0,inf,inf,inf,0,0,1,0
5204000,5119855,0,0,-0.039661236,-0.29561156,0.4080959,0.0,0.0,0.0,-0.0010353699,-0.0012575984,-0.0034865737,0.0,0.0,0.0,inf,inf,inf,0,0,1,0
5276000,5189077,0,0,-0.038649615,-0.301222,0.40744382,0.0,0.0,0.0,-0.0020994432,0.0043394566,-0.0028495789,0.0,0.0,0.0,inf,inf,inf,0,0,1,0
5340000,5255878,0,0,-0.038934175,-0.30087534,0.40815026,0.0,0.0,0.0,-0.001700636,0.003952116,-0.0035743117,0.0,0.0,0.0,inf,inf,inf,0,0,1,0
5412000,5327533,0,0,-0.03949916,-0.2997505,0.40568027,0.0,0.0,0.0,-0.0011204369,0.0028877854,-0.0010584891,0.0,0.0,0.0,inf,inf,inf,0,0,1,0
5476000,5395898,0,0,-0.037547376,-0.30293345,0.41204295,0.0,0.0,0.0,-0.0030049123,0.006046325,-0.0074323714,0.0,0.0,0.0,inf,inf,inf,0,0,1,0
5548000,5465114,0,0,-0.03780089,-0.29915503,0.40793833,0.0,0.0,0.0,-0.002676595,0.0023097098,-0.003289491,0.0,0.0,0.0,inf,inf,inf,0,0,1,0
5612000,5531914,0,0,-0.042367265,-0.30311134,0.4010388,0.0,0.0,0.0,0.0018896163,0.006319076,0.0036488473,0.0,0.0,0.0,inf,inf,inf,0,0,1,0
5684000,5603199,0,0,-0.038878728,-0.299507,0.40754128,0.0,0.0,0.0,-0.0016384386,0.002746284,-0.0028344393,0.0,0.0,0.0,inf,inf,inf,0,0,1,0
5756000,5675929,0,0,-0.04069295,-0.29378128,0.41305912,0.0,0.0,0.0,0.00022591278,-0.003071487,-0.008414745,0.0,0.0,0.0,inf,inf,inf,0,0,1,0
5828000,5746849,0,0,-0.041745793,-0.2988361,0.40838298,0.0,0.0,0.0,0.0011604987,0.0020028353,-0.0037361383,0.0,0.0,0.0,inf,inf,inf,0,0,1,0
5900000,5819941,0,0,-0.039159976,-0.30067283,0.40349793,0.0,0.0,0.0,-0.0014634952,0.003807366,0.0011214018,0.0,0.0,0.0,inf,inf,inf,0,0,1,0
5972000,5891586,0,0,-0.03968059,-0.30078477,0.40607288,0.0,0.0,0.0,-0.0009281896,0.0038818717,-0.0014795065,0.0,0.0,0.0,inf,inf,inf,0,0,1,0
6044000,5959950,0,0,-0.036117136,-0.2954815,0.4026786,0.0,0.0,0.0,-0.004486695,-0.0014722347,0.0018779635,0.0,0.0,0.0,inf,inf,inf,0,0,1,0
6116000,6028758,0,0,-0.040627267,-0.3002607,0.40584517,0.0,0.0,0.0,0.00013738498,0.00331074,-0.0012743771,0.0,0.0,0.0,inf,inf,inf,0,0,1,0
6180000,6099959,0,0,-0.040799472,-0.29930496,0.40594912,0.0,0.0,0.0,0.00028173998,0.0024175048,-0.0013353229,0.0,0.0,0.0,inf,inf,inf,0,0,1,0
6252000,6167075,0,0,-0.040190987,-0.29828808,0.40679154,0.0,0.0,0.0,-0.0004281178,0.0013682544,-0.002211541,0.0,0.0,0.0,inf,inf,inf,0,0,1,0
6316000,6233965,0,0,-0.03875253,-0.30282134,0.40580922,0.0,0.0,0.0,-0.0019007735,0.0059391856,-0.0012050569,0.0,0.0,0.0,inf,inf,inf,0,0,1,0
6388000,6304770,0,0,-0.040434025,-0.29693022,0.40774208,0.0,0.0,0.0,-9.255856e-05,3.3050776e-05,-0.0031362772,0.0,0.0,0.0,inf,inf,inf,0,0,1,0
6452000,6371971,0,0,-0.03581585,-0.30136883,0.4036186,0.0,0.0,0.0,-0.00475727,0.004502803,0.0010053813,0.0,0.0,0.0,inf,inf,inf,0,0,1,0
6524000,6442156,0,0,-0.040112734,-0.29964352,0.40593734,0.0,0.0,0.0,-0.00036798418,0.0028492808,-0.0012514293,0.0,0.0,0.0,inf,inf,inf,0,0,1,0
6596000,6515976,0,0,-0.045758627,-0.3038109,0.40608934,0.0,0.0,0.0,0.005282961,0.0070153475,-0.0014038384,0.0,0.0,0.0,inf,inf,inf,0,0,1,0
6668000,6587979,0,0,-0.038647965,-0.30047637,0.40714678,0.0,0.0,0.0,-0.0018815547,0.0037625134,-0.0024068058,0.0,0.0,0.0,inf,inf,inf,0,0,1,0
6740000,6659980,0,0,-0.041875307,-0.30187553,0.40702558,0.0,0.0,0.0,0.0013545044,0.0051492453,-0.0022938251,0.0,0.0,0.0,inf,inf,inf,0,0,1,0
6812000,6731255,0,0,-0.039472237,-0.2991995,0.40595797,0.0,0.0,0.0,-0.0010385811,0.002507329,-0.0012001991,0.0,0.0,0.0,inf,inf,inf,0,0,1,0
6884000,6803983,0,0,-0.04614582,-0.30195737,0.40294358,0.0,0.0,0.0,0.0056769177,0.005392045,0.001911372,0.0,0.0,0.0,inf,inf,inf,0,0,1,0
6956000,6875258,0,0,-0.040125165,-0.30109197,0.40944967,0.0,0.0,0.0,-0.00040526316,0.004539013,-0.0045918226,0.0,0.0,0.0,inf,inf,inf,0,0,1,0
7028000,6947986,0,0,-0.035998184,-0.30130887,0.40534925,0.0,0.0,0.0,-0.004526254,0.00479722,-0.0004606247,0.0,0.0,0.0,inf,inf,inf,0,0,1,0
7100000,7018897,0,0,-0.040420067,-0.30037192,0.4069696,0.0,0.0,0.0,2.8725713e-05,0.0038812459,-0.0020522475,0.0,0.0,0.0,inf,inf,inf,0,0,1,0
7172000,7091988,0,0,-0.040588014,-0.29979292,0.40711775,0.0,0.0,0.0,0.0001559034,0.0032937229,-0.002210766,0.0,0.0,0.0,inf,inf,inf,0,0,1,0
7244000,7163262,0,0,-0.03839727,-0.29813844,0.4054835,0.0,0.0,0.0,-0.0020021014,0.0016438365,-0.0005697906,0.0,0.0,0.0,inf,inf,inf,0,0,1,0
7316000,7235990,0,0,-0.04238382,-0.3026569,0.41380528,0.0,0.0,0.0,0.0020869672,0.006122291,-0.008910686,0.0,0.0,0.0,inf,inf,inf,0,0,1,0
7388000,7306901,0,0,-0.039610136,-0.2989025,0.40770593,0.0,0.0,0.0,-0.00069264695,0.0023332238,-0.00283736,0.0,0.0,0.0,inf,inf,inf,0,0,1,0
7460000,7379992,0,0,-0.04167917,-0.30299357,0.40844166,0.0,0.0,0.0,0.0013726018,0.006324142,-0.0036467612,0.0,0.0,0.0,inf,inf,inf,0,0,1,0
7532000,7450902,0,0,-0.040873166,-0.29743013,0.4103412,0.0,0.0,0.0,0.0005430393,0.00081571937,-0.0055083632,0.0,0.0,0.0,inf,inf,inf,0,0,1,0
7604000,7523993,0,0,-0.040466078,-0.29843092,0.41276675,0.0,0.0,0.0,6.287545e-05,0.0018926263,-0.007885426,0.0,0.0,0.0,inf,inf,inf,0,0,1,0
7676000,7594904,0,0,-0.039181523,-0.30080736,0.4089727,0.0,0.0,0.0,-0.0012060925,0.004087031,-0.004223287,0.0,0.0,0.0,inf,inf,inf,0,0,1,0
7748000,7667995,0,0,-0.042094953,-0.2962972,0.4098177,0.0,0.0,0.0,0.0017985627,-0.0004157424,-0.0050537586,0.0,0.0,0.0,inf,inf,inf,0,0,1,0
7820000,7738905,0,0,-0.03885031,-0.29856429,0.4071544,0.0,0.0,0.0,-0.0014236532,0.0017880201,-0.0024346411,0.0,0.0,0.0,inf,inf,inf,0,0,1,0
7892000,7811996,0,0,-0.038743533,-0.30401048,0.39940277,0.0,0.0,0.0,-0.0015051737,0.007113546,0.005230993,0.0,0.0,0.0,inf,inf,inf,0,0,1,0
7964000,7883632,0,0,-0.039203078,-0.29977563,0.40490136,0.0,0.0,0.0,-0.0011733472,0.002882272,-0.00027769804,0.0,0.0,0.0,inf,inf,inf,0,0,1,0
8036000,7955996,0,0,-0.0412186,-0.29660684,0.41009685,0.0,0.0,0.0,0.000837259,-0.0002874434,-0.0054743886,0.0,0.0,0.0,inf,inf,inf,0,0,1,0
8108000,8027997,0,0,-0.039340742,-0.29933867,0.4076842,0.0,0.0,0.0,-0.0011085048,0.0024683177,-0.0030509233,0.0,0.0,0.0,inf,inf,inf,0,0,1,0
8180000,8099997,0,0,-0.040415622,-0.30136395,0.40537,0.0,0.0,0.0,2.9586256e-05,0.004489422,-0.00073343515,0.0,0.0,0.0,inf,inf,inf,0,0,1,0
8252000,8171998,0,0,-0.0386367,-0.3014101,0.40583694,0.0,0.0,0.0,-0.0017402321,0.004533857,-0.0012007952,0.0,0.0,0.0,inf,inf,inf,0,0,1,0
8324000,8243998,0,0,-0.04244955,-0.30066282,0.40234146,0.0,0.0,0.0,0.002095431,0.003773868,0.0022876859,0.0,0.0,0.0,inf,inf,inf,0,0,1,0
8396000,8315270,0,0,-0.040941026,-0.30051303,0.40764418,0.0,0.0,0.0,0.0004928671,0.00363487,-0.003016591,0.0,0.0,0.0,inf,inf,inf,0,0,1,0
8468000,8387998,0,0,-0.044938616,-0.2996675,0.40804106,0.0,0.0,0.0,0.004475482,0.0028140545,-0.003396809,0.0,0.0,0.0,inf,inf,inf,0,0,1,0
8540000,8459634,0,0,-0.04158852,-0.3000291,0.40686622,0.0,0.0,0.0,0.001081232,0.0031787753,-0.0022240877,0.0,0.0,0.0,inf,inf,inf,0,0,1,0
8612000,8531999,0,0,-0.04098944,-0.29934385,0.40626588,0.0,0.0,0.0,0.00040523335,0.0025550425,-0.0015863776,0.0,0.0,0.0,inf,inf,inf,0,0,1,0
8684000,8603635,0,0,-0.039947286,-0.29815003,0.40589073,0.0,0.0,0.0,-0.00058309734,0.0014222562,-0.0011610389,0.0,0.0,0.0,inf,inf,inf,0,0,1,0
8756000,8675999,0,0,-0.040347997,-0.299842,0.41058636,0.0,0.0,0.0,-0.00025865063,0.0031035542,-0.005872071,0.0,0.0,0.0,inf,inf,inf,0,0,1,0
8828000,8747271,0,0,-0.040739007,-0.30049932,0.40662524,0.0,0.0,0.0,7.932633e-05,0.003802359,-0.0018859506,0.0,0.0,0.0,inf,inf,inf,0,0,1,0
8900000,8819999,0,0,-0.039182566,-0.303162,0.40594432,0.0,0.0,0.0,-0.0014955476,0.0065326393,-0.0011572838,0.0,0.0,0.0,inf,inf,inf,0,0,1,0
8972000,8891999,0,0,-0.03992288,-0.30041248,0.40595564,0.0,0.0,0.0,-0.0006623715,0.003754586,-0.0011802018,0.0,0.0,0.0,inf,inf,inf,0,0,1,0
9044000,8963999,0,0,-0.040553436,-0.29567322,0.41108307,0.0,0.0,0.0,-5.0231814e-05,-0.0009836555,-0.006308675,0.0,0.0,0.0,inf,inf,inf,0,0,1,0
9116000,9034181,0,0,-0.04118802,-0.29969597,0.40530434,0.0,0.0,0.0,0.00059602037,0.0030258894,-0.00053855777,0.0,0.0,0.0,inf,inf,inf,0,0,1,0
9188000,9108000,0,0,-0.045418303,-0.30118123,0.40238327,0.0,0.0,0.0,0.0047859363,0.004535228,0.0023961663,0.0,0.0,0.0,inf,inf,inf,0,0,1,0
9260000,9179636,0,0,-0.04047035,-0.29897937,0.40735802,0.0,0.0,0.0,-0.00022782013,0.0023727417,-0.0025563538,0.0,0.0,0.0,inf,inf,inf,0,0,1,0
9332000,9252000,0,0,-0.040602297,-0.30412146,0.4055087,0.0,0.0,0.0,-0.00012794137,0.0074679554,-0.0007445812,0.0,0.0,0.0,inf,inf,inf,0,0,1,0
9404000,9323272,0,0,-0.04096377,-0.30085328,0.4063863,0.0,0.0,0.0,0.00019279122,0.0041824877,-0.0016389489,0.0,0.0,0.0,inf,inf,inf,0,0,1,0
9476000,9396000,0,0,-0.044626992,-0.3057007,0.4123428,0.0,0.0,0.0,0.0039294325,0.0090051,-0.0076062977,0.0,0.0,0.0,inf,inf,inf,0,0,1,0
9548000,9468000,0,0,-0.03991148,-0.29860213,0.40713406,0.0,0.0,0.0,-0.0008020401,0.0019662082,-0.0023554265,0.0,0.0,0.0,inf,inf,inf,0,0,1,0
9620000,9540000,0,0,-0.04218461,-0.30630845,0.4074646,0.0,0.0,0.0,0.001445014,0.009681284,-0.0026821196,0.0,0.0,0.0,inf,inf,inf,0,0,1,0
9692000,9611272,0,0,-0.04161578,-0.3006333,0.40937373,0.0,0.0,0.0,0.00078522786,0.004014969,-0.0045939684,0.0,0.0,0.0,inf,inf,inf,0,0,1,0
9764000,9684000,0,0,-0.041373346,-0.29951367,0.4020878,0.0,0.0,0.0,0.0005824901,0.002901405,0.0027003884,0.0,0.0,0.0,inf,inf,inf,0,0,1,0
9836000,9755636,0,0,-0.040964503,-0.298613,0.4055996,0.0,0.0,0.0,0.00018173829,0.002033472,-0.0007866025,0.0,0.0,0.0,inf,inf,inf,0,0,1,0
9908000,9828000,0,0,-0.03520979,-0.29954693,0.41105896,0.0,0.0,0.0,-0.0056089014,0.002990216,-0.0062328577,0.0,0.0,0.0,inf,inf,inf,0,0,1,0
9980000,9899272,0,0,-0.040246516,-0.3014616,0.40583387,0.0,0.0,0.0,-0.0006200224,0.004829973,-0.0010674298,0.0,0.0,0.0,inf,inf,inf,0,0,1,0
10052000,9968000,0,0,-0.036811754,-0.2991688,0.40095887,0.0,0.0,0.0,-0.004005894,0.0025376976,0.0038128197,0.0,0.0,0.0,inf,inf,inf,0,0,1,0
10124000,10037200,0,0,-0.041115694,-0.30047438,0.40598994,0.0,0.0,0.0,0.00032318383,0.0038312972,-0.0012245774,0.0,0.0,0.0,inf,inf,inf,0,0,1,0
10188000,10108000,0,0,-0.041874684,-0.3007246,0.41010338,0.0,0.0,0.0,0.001056023,0.0041412413,-0.0052967966,0.0,0.0,0.0,inf,inf,inf,0,0,1,0
10260000,10176000,0,0,-0.040447798,-0.30154774,0.4072444,0.0,0.0,0.0,-0.00035933033,0.005016148,-0.0023987591,0.0,0.0,0.0,inf,inf,inf,0,0,1,0
10332000,10246666,0,0,-0.04150699,-0.3005973,0.40875143,0.0,0.0,0.0,0.00074987113,0.003986895,-0.0039585233,0.0,0.0,0.0,inf,inf,inf,0,0,1,0
10396000,10314000,0,0,-0.03941886,-0.2984072,0.4055829,0.0,0.0,0.0,-0.0012811273,0.0017797351,-0.0007967055,0.0,0.0,0.0,inf,inf,inf,0,0,1,0
10468000,10386000,0,0,-0.04137338,-0.30033433,0.407424,0.0,0.0,0.0,0.0006858036,0.0036582947,-0.0026721656,0.0,0.0,0.0,inf,inf,inf,0,0,1,0
10540000,10458000,0,0,-0.039874792,-0.29990742,0.40829673,0.0,0.0,0.0,-0.0008457452,0.0032395422,-0.003542155,0.0,0.0,0.0,inf,inf,inf,0,0,1,0
10612000,10529000,0,0,-0.03952295,-0.29757416,0.4056067,0.0,0.0,0.0,-0.0012589358,0.0008879304,-0.00087177753,0.0,0.0,0.0,inf,inf,inf,0,0,1,0
10684000,10601500,0,0,-0.03925741,-0.29877123,0.4077105,0.0,0.0,0.0,-0.0015076958,0.0020562708,-0.0029949844,0.0,0.0,0.0,inf,inf,inf,0,0,1,0
10756000,10674000,0,0,-0.04211101,-0.29927975,0.4085303,0.0,0.0,0.0,0.0013642162,0.0026138425,-0.0037769675,0.0,0.0,0.0,inf,inf,inf,0,0,1,0
10828000,10745500,0,0,-0.04075142,-0.30077952,0.40630105,0.0,0.0,0.0,-1.2293458e-06,0.004071057,-0.0015794933,0.0,0.0,0.0,inf,inf,inf,0,0,1,0
10900000,10818000,0,0,-0.041474897,-0.2982603,0.40725446,0.0,0.0,0.0,0.0007976182,0.0015972555,-0.0024920702,0.0,0.0,0.0,inf,inf,inf,0,0,1,0
10972000,10888500,0,0,-0.039475515,-0.2983397,0.4094382,0.0,0.0,0.0,-0.0012419671,0.0016343296,-0.004710853,0.0,0.0,0.0,inf,inf,inf,0,0,1,0
11036000,10956000,0,0,-0.040226523,-0.29784924,0.40140292,0.0,0.0,0.0,-0.0005597286,0.0012313128,0.00338158,0.0,0.0,0.0,inf,inf,inf,0,0,1,0
11108000,11027555,0,0,-0.041633356,-0.30080053,0.40785557,0.0,0.0,0.0,0.0007718392,0.0041709244,-0.0030871332,0.0,0.0,0.0,inf,inf,inf,0,0,1,0
11180000,11100000,0,0,-0.03924176,-0.29978973,0.4049437,0.0,0.0,0.0,-0.0015373975,0.0031574368,-0.00016897917,0.0,0.0,0.0,inf,inf,inf,0,0,1,0
11252000,11172000,0,0,-0.041003857,-0.29903057,0.40712896,0.0,0.0,0.0,0.00028860942,0.0023730397,-0.0023662746,0.0,0.0,0.0,inf,inf,inf,0,0,1,0
11324000,11242666,0,0,-0.03936199,-0.30436432,0.40929568,0.0,0.0,0.0,-0.0013726428,0.0077009797,-0.004539281,0.0,0.0,0.0,inf,inf,inf,0,0,1,0
11396000,11315111,0,0,-0.040951945,-0.30032006,0.4079844,0.0,0.0,0.0,0.00022108108,0.0036177635,-0.003256172,0.0,0.0,0.0,inf,inf,inf,0,0,1,0
11468000,11382000,0,0,-0.039902657,-0.30305475,0.41150722,0.0,0.0,0.0,-0.00087089837,0.006334305,-0.0067965984,0.0,0.0,0.0,inf,inf,inf,0,0,1,0
11540000,11453600,0,0,-0.039836872,-0.30014884,0.40747508,0.0,0.0,0.0,-0.0010205768,0.0034785867,-0.0027361214,0.0,0.0,0.0,inf,inf,inf,0,0,1,0
11612000,11526000,0,0,-0.04023224,-0.30249047,0.40644324,0.0,0.0,0.0,-0.0007019639,0.005828619,-0.0017058551,0.0,0.0,0.0,inf,inf,inf,0,0,1,0
11684000,11597600,0,0,-0.040587295,-0.29899323,0.40814406,0.0,0.0,0.0,-0.00031433627,0.0023419857,-0.0033956766,0.0,0.0,0.0,inf,inf,inf,0,0,1,0
11748000,11668000,0,0,-0.042055145,-0.3000724,0.40791595,0.0,0.0,0.0,0.0012240261,0.0033960938,-0.0031787455,0.0,0.0,0.0,inf,inf,inf,0,0,1,0
11820000,11734666,0,0,-0.040113553,-0.30086762,0.40570766,0.0,0.0,0.0,-0.0006596446,0.0041599274,-0.000987649,0.0,0.0,0.0,inf,inf,inf,0,0,1,0
11884000,11802000,0,0,-0.046136692,-0.30210578,0.4091248,0.0,0.0,0.0,0.005365342,0.005430907,-0.004380524,0.0,0.0,0.0,inf,inf,inf,0,0,1,0
11956000,11873200,0,0,-0.04070469,-0.29889873,0.40608484,0.0,0.0,0.0,-0.00014000386,0.00222978,-0.0013436079,0.0,0.0,0.0,inf,inf,inf,0,0,1,0
12020000,11940000,0,0,-0.040421233,-0.29709652,0.4083179,0.0,0.0,0.0,-0.00044712424,0.0003670156,-0.003623426,0.0,0.0,0.0,inf,inf,inf,0,0,1,0
12092000,12011636,0,0,-0.04071824,-0.29905763,0.40712675,0.0,0.0,0.0,-0.0002383627,0.002344519,-0.0024291575,0.0,0.0,0.0,inf,inf,inf,0,0,1,0
12164000,12084000,0,0,-0.03748999,-0.29919463,0.40658486,0.0,0.0,0.0,-0.003476072,0.0025069714,-0.0018696189,0.0,0.0,0.0,inf,inf,inf,0,0,1,0
12236000,12155636,0,0,-0.041203227,-0.2975607,0.40598094,0.0,0.0,0.0,0.00028159842,0.00090813637,-0.0012354255,0.0,0.0,0.0,inf,inf,inf,0,0,1,0
12308000,12228000,0,0,-0.038543634,-0.30606532,0.4009235,0.0,0.0,0.0,-0.002339922,0.009493679,0.0038850904,0.0,0.0,0.0,inf,inf,inf,0,0,1,0
12380000,12299636,0,0,-0.040898014,-0.30020627,0.40590048,0.0,0.0,0.0,-3.766641e-05,0.003653109,-0.0010836124,0.0,0.0,0.0,inf,inf,inf,0,0,1,0
12452000,12372000,0,0,-0.03593112,-0.30141088,0.41063666,0.0,0.0,0.0,-0.0049561895,0.004873842,-0.0058030784,0.0,0.0,0.0,inf,inf,inf,0,0,1,0
12524000,12442909,0,0,-0.040507324,-0.30176744,0.40648413,0.0,0.0,0.0,-0.0002815649,0.0052355826,-0.0016367733,0.0,0.0,0.0,inf,inf,inf,0,0,1,0
12596000,12516000,0,0,-0.03983778,-0.30360332,0.41238308,0.0,0.0,0.0,-0.0009162091,0.007065624,-0.0075365305,0.0,0.0,0.0,inf,inf,inf,0,0,1,0
12668000,12587636,0,0,-0.040018052,-0.30200508,0.40593183,0.0,0.0,0.0,-0.00074243546,0.005475074,-0.0010803342,0.0,0.0,0.0,inf,inf,inf,0,0,1,0
12740000,12660000,0,0,-0.043256965,-0.30302987,0.4111389,0.0,0.0,0.0,0.0025834553,0.0064661503,-0.0063032806,0.0,0.0,0.0,inf,inf,inf,0,0,1,0
12812000,12731272,0,0,-0.03892743,-0.29974198,0.40494773,0.0,0.0,0.0,-0.0018133149,0.0031073391,-0.00017091632,0.0,0.0,0.0,inf,inf,inf,0,0,1,0
12884000,12804000,0,0,-0.03897405,-0.30141628,0.40251386,0.0,0.0,0.0,-0.0017386787,0.004769206,0.0022567809,0.0,0.0,0.0,inf,inf,inf,0,0,1,0
12956000,12875636,0,0,-0.039846867,-0.30009112,0.4066122,0.0,0.0,0.0,-0.00087313354,0.0034335554,-0.0018500388,0.0,0.0,0.0,inf,inf,inf,0,0,1,0
13028000,12948000,0,0,-0.03914442,-0.29541713,0.4045228,0.0,0.0,0.0,-0.0015513077,-0.0012642145,0.00022432208,0.0,0.0,0.0,inf,inf,inf,0,0,1,0
13100000,13019272,0,0,-0.04152233,-0.30071712,0.4052271,0.0,0.0,0.0,0.000860177,0.004125178,-0.00041112304,0.0,0.0,0.0,inf,inf,inf,0,0,1,0
13172000,13092000,0,0,-0.04507762,-0.29732686,0.40874577,0.0,0.0,0.0,0.0044421963,0.000780046,-0.003894031,0.0,0.0,0.0,inf,inf,inf,0,0,1,0
13244000,13163636,0,0,-0.040715773,-0.29905143,0.40777817,0.0,0.0,0.0,4.418567e-05,0.0025435388,-0.0029014945,0.0,0.0,0.0,inf,inf,inf,0,0,1,0
13316000,13236000,0,0,-0.03879351,-0.29712477,0.40748152,0.0,0.0,0.0,-0.0018899217,0.0005749464,-0.0026367605,0.0,0.0,0.0,inf,inf,inf,0,0,1,0
13388000,13307272,0,0,-0.039253328,-0.30007276,0.40533292,0.0,0.0,0.0,-0.0014666431,0.0035436451,-0.00047665834,0.0,0.0,0.0,inf,inf,inf,0,0,1,0
13460000,13380000,0,0,-0.042159785,-0.30254558,0.40728658,0.0,0.0,0.0,0.0014324374,0.0060486495,-0.0024074912,0.0,0.0,0.0,inf,inf,inf,0,0,1,0
13532000,13451636,0,0,-0.041658446,-0.30143097,0.40735337,0.0,0.0,0.0,0.0008762181,0.0049310923,-0.002481997,0.0,0.0,0.0,inf,inf,inf,0,0,1,0
13604000,13524000,0,0,-0.04242468,-0.30047286,0.41528028,0.0,0.0,0.0,0.0017012805,0.0039428473,-0.010425031,0.0,0.0,0.0,inf,inf,inf,0,0,1,0
13676000,13595636,0,0,-0.039425842,-0.30060917,0.40874022,0.0,0.0,0.0,-0.0013814047,0.0040571988,-0.0039095283,0.0,0.0,0.0,inf,inf,inf,0,0,1,0
13748000,13668000,0,0,-0.050106242,-0.3055153,0.41085306,0.0,0.0,0.0,0.009296879,0.008922309,-0.0060525537,0.0,0.0,0.0,inf,inf,inf,0,0,1,0
13820000,13739272,0,0,-0.04090831,-0.30045676,0.40784365,0.0,0.0,0.0,6.406382e-05,0.0038639903,-0.0030465722,0.0,0.0,0.0,inf,inf,inf,0,0,1,0
13892000,13812000,0,0,-0.04674986,-0.30318314,0.41269276,0.0,0.0,0.0,0.005905181,0.006654978,-0.007848352,0.0,0.0,0.0,inf,inf,inf,0,0,1,0
13964000,13884000,0,0,-0.03929358,-0.3000999,0.40622067,0.0,0.0,0.0,-0.0014976636,0.0036019683,-0.0013487935,0.0,0.0,0.0,inf,inf,inf,0,0,1,0
14036000,13956000,0,0,-0.036880143,-0.3060498,0.40648544,0.0,0.0,0.0,-0.003920801,0.009531677,-0.001629293,0.0,0.0,0.0,inf,inf,inf,0,0,1,0
14108000,14026545,0,0,-0.040007547,-0.29957348,0.40720144,0.0,0.0,0.0,-0.0007388443,0.0030093193,-0.0023734868,0.0,0.0,0.0,inf,inf,inf,0,0,1,0
14180000,14100000,0,0,-0.040888976,-0.2995069,0.41116527,0.0,0.0,0.0,0.00011108443,0.0029146075,-0.0063611567,0.0,0.0,0.0,inf,inf,inf,0,0,1,0
14252000,14171636,0,0,-0.038797654,-0.3019179,0.40637863,0.0,0.0,0.0,-0.0020027235,0.0053606927,-0.0015510917,0.0,0.0,0.0,inf,inf,inf,0,0,1,0
14324000,14244000,0,0,-0.035420924,-0.29990155,0.4036953,0.0,0.0,0.0,-0.0053618103,0.003330946,0.0011243224,0.0,0.0,0.0,inf,inf,inf,0,0,1,0
14396000,14315636,0,0,-0.04029238,-0.300056,0.40786648,0.0,0.0,0.0,-0.000453908,0.0035214722,-0.0030168593,0.0,0.0,0.0,inf,inf,inf,0,0,1,0
14468000,14388000,0,0,-0.035868045,-0.2985251,0.40094185,0.0,0.0,0.0,-0.0048638918,0.002015829,0.0039277077,0.0,0.0,0.0,inf,inf,inf,0,0,1,0
14540000,14459272,0,0,-0.040569562,-0.299478,0.4048496,0.0,0.0,0.0,-0.00018907711,0.0029068887,-2.798438e-05,0.0,0.0,0.0,inf,inf,inf,0,0,1,0
14612000,14532000,0,0,-0.04137703,-0.30052504,0.4046781,0.0,0.0,0.0,0.0005764589,0.0039366186,0.00012663007,0.0,0.0,0.0,inf,inf,inf,0,0,1,0
14684000,14603636,0,0,-0.0402081,-0.2991036,0.4076058,0.0,0.0,0.0,-0.00057573617,0.0025457442,-0.0027770102,0.0,0.0,0.0,inf,inf,inf,0,0,1,0
14756000,14676000,0,0,-0.036509626,-0.2972373,0.40887198,0.0,0.0,0.0,-0.004274361,0.00062569976,-0.00408262,0.0,0.0,0.0,inf,inf,inf,0,0,1,0
14828000,14748000,0,0,-0.04009587,-0.29966247,0.40810448,0.0,0.0,0.0,-0.00074636564,0.00307253,-0.0033050776,0.0,0.0,0.0,inf,inf,inf,0,0,1,0
14900000,14820000,0,0,-0.042407434,-0.30117387,0.4014177,0.0,0.0,0.0,0.001567971,0.004599333,0.003393203,0.0,0.0,0.0,inf,inf,inf,0,0,1,0
14972000,14891272,0,0,-0.040023047,-0.3003789,0.40641284,0.0,0.0,0.0,-0.0008501224,0.0038184822,-0.0015949309,0.0,0.0,0.0,inf,inf,inf,0,0,1,0
15044000,14964000,0,0,-0.034649048,-0.29897344,0.40636453,0.0,0.0,0.0,-0.0062682442,0.0024222136,-0.0015443861,0.0,0.0,0.0,inf,inf,inf,0,0,1,0
15116000,15036000,0,0,-0.03972014,-0.2998468,0.40859285,0.0,0.0,0.0,-0.0011419132,0.0033070743,-0.0037586987,0.0,0.0,0.0,inf,inf,inf,0,0,1,0
15188000,15108000,0,0,-0.042615555,-0.30350617,0.4082986,0.0,0.0,0.0,0.0018492863,0.0069657266,-0.0034553409,0.0,0.0,0.0,inf,inf,inf,0,0,1,0
15260000,15178909,0,0,-0.04132089,-0.2981512,0.40797225,0.0,0.0,0.0,0.0005686432,0.0016053319,-0.0031315088,0.0,0.0,0.0,inf,inf,inf,0,0,1,0
15332000,15252000,0,0,-0.04004716,-0.30339772,0.40262982,0.0,0.0,0.0,-0.0007221475,0.006871283,0.0022233427,0.0,0.0,0.0,inf,inf,inf,0,0,1,0
15404000,15322909,0,0,-0.03943468,-0.30059394,0.4089918,0.0,0.0,0.0,-0.0014098063,0.0040644705,-0.0041483343,0.0,0.0,0.0,inf,inf,inf,0,0,1,0
15476000,15396000,0,0,-0.03935763,-0.30038583,0.41055563,0.0,0.0,0.0,-0.0015259422,0.003927976,-0.005663663,0.0,0.0,0.0,inf,inf,inf,0,0,1,0
15548000,15466909,0,0,-0.03925232,-0.29789725,0.40773055,0.0,0.0,0.0,-0.0016307011,0.0014588535,-0.0028242767,0.0,0.0,0.0,inf,inf,inf,0,0,1,0
15620000,15540000,0,0,-0.037759997,-0.29650587,0.41445065,0.0,0.0,0.0,-0.0031300858,0.00011527538,-0.0095101595,0.0,0.0,0.0,inf,inf,inf,0,0,1,0
15692000,15612000,0,0,-0.038586136,-0.30048332,0.40820304,0.0,0.0,0.0,-0.002373848,0.004104227,-0.003261149,0.0,0.0,0.0,inf,inf,inf,0,0,1,0
15764000,15684000,0,0,-0.039419174,-0.30590355,0.40640604,0.0,0.0,0.0,-0.0015831739,0.009518266,-0.0014730096,0.0,0.0,0.0,inf,inf,inf,0,0,1,0
15836000,15755636,0,0,-0.038701348,-0.2984595,0.40754166,0.0,0.0,0.0,-0.0023362264,0.002077043,-0.002610147,0.0,0.0,0.0,inf,inf,inf,0,0,1,0
15908000,15828000,0,0,-0.039879493,-0.29870686,0.40993184,0.0,0.0,0.0,-0.0011292025,0.0023380816,-0.004987389,0.0,0.0,0.0,inf,inf,inf,0,0,1,0
15980000,15898909,0,0,-0.040109176,-0.300518,0.40722007,0.0,0.0,0.0,-0.00096876547,0.004175782,-0.0022631288,0.0,0.0,0.0,inf,inf,inf,0,0,1,0
16052000,15972000,0,0,-0.036039986,-0.29852647,0.40923998,0.0,0.0,0.0,-0.005042754,0.0022048652,-0.004268497,0.0,0.0,0.0,inf,inf,inf,0,0,1,0
16124000,16042909,0,0,-0.039406687,-0.30091444,0.40699002,0.0,0.0,0.0,-0.0016739368,0.0045833886,-0.0020252168,0.0,0.0,0.0,inf,inf,inf,0,0,1,0
16196000,16116000,0,0,-0.038680237,-0.29804096,0.4060365,0.0,0.0,0.0,-0.0024509765,0.0016557276,-0.0011164546,0.0,0.0,0.0,inf,inf,inf,0,0,1,0
16268000,16188000,0,0,-0.03906712,-0.3010634,0.40838918,0.0,0.0,0.0,-0.002068475,0.0046502054,-0.0034900606,0.0,0.0,0.0,inf,inf,inf,0,0,1,0
16340000,16260000,0,0,-0.036360674,-0.29995382,0.4026926,0.0,0.0,0.0,-0.0047866628,0.003516078,0.0021873116,0.0,0.0,0.0,inf,inf,inf,0,0,1,0
16412000,16332000,0,0,-0.0390485,-0.2996718,0.40918726,0.0,0.0,0.0,-0.0020375177,0.0032460392,-0.004292369,0.0,0.0,0.0,inf,inf,inf,0,0,1,0
16484000,16404000,0,0,-0.03781948,-0.30131453,0.4044829,0.0,0.0,0.0,-0.0032888763,0.0048086345,0.00035113096,0.0,0.0,0.0,inf,inf,inf,0,0,1,0
16556000,16475272,0,0,-0.040459882,-0.29917285,0.4071459,0.0,0.0,0.0,-0.0006488599,0.0026732981,-0.002307266,0.0,0.0,0.0,inf,inf,inf,0,0,1,0
16628000,16548000,0,0,-0.04263136,-0.30434063,0.41137496,0.0,0.0,0.0,0.00147954,0.007857114,-0.0065290034,0.0,0.0,0.0,inf,inf,inf,0,0,1,0
16700000,16619636,0,0,-0.040102392,-0.30199614,0.40555352,0.0,0.0,0.0,-0.0010828078,0.0055068433,-0.0007151365,0.0,0.0,0.0,inf,inf,inf,0,0,1,0
16772000,16692000,0,0,-0.03896751,-0.29917905,0.40827778,0.0,0.0,0.0,-0.0022315793,0.0026953518,-0.0034367144,0.0,0.0,0.0,inf,inf,inf,0,0,1,0
16844000,16763272,0,0,-0.041096818,-0.30180922,0.4056694,0.0,0.0,0.0,-5.2277e-05,0.005330831,-0.00081938505,0.0,0.0,0.0,inf,inf,inf,0,0,1,0
16916000,16832000,0,0,-0.045047183,-0.30006105,0.40396136,0.0,0.0,0.0,0.0039057918,0.003550291,0.00086578727,0.0,0.0,0.0,inf,inf,inf,0,0,1,0
16988000,16901600,0,0,-0.039397985,-0.30051923,0.40852934,0.0,0.0,0.0,-0.0017361939,0.0039773285,-0.0037243664,0.0,0.0,0.0,inf,inf,inf,0,0,1,0
17060000,16974000,0,0,-0.040222943,-0.30189043,0.40519392,0.0,0.0,0.0,-0.0009162277,0.00530988,-0.00041773915,0.0,0.0,0.0,inf,inf,inf,0,0,1,0
17132000,17045600,0,0,-0.039229196,-0.29900476,0.40755913,0.0,0.0,0.0,-0.0019211359,0.0024166107,-0.0027895868,0.0,0.0,0.0,inf,inf,inf,0,0,1,0
17204000,17118000,0,0,-0.043532964,-0.30054596,0.410778,0.0,0.0,0.0,0.002327513,0.003931433,-0.0060334206,0.0,0.0,0.0,inf,inf,inf,0,0,1,0
17276000,17189600,0,0,-0.03995253,-0.29821625,0.4051821,0.0,0.0,0.0,-0.0012865812,0.0015778244,-0.00045850873,0.0,0.0,0.0,inf,inf,inf,0,0,1,0
17348000,17262000,0,0,-0.04342681,-0.30049515,0.40900204,0.0,0.0,0.0,0.0022023171,0.0038551688,-0.0042781234,0.0,0.0,0.0,inf,inf,inf,0,0,1,0
17420000,17333200,0,0,-0.039091635,-0.29826015,0.407809,0.0,0.0,0.0,-0.0021816753,0.0016444921,-0.0030721724,0.0,0.0,0.0,inf,inf,inf,0,0,1,0
17484000,17400000,0,0,-0.042057037,-0.3000439,0.40703964,0.0,0.0,0.0,0.00084784627,0.0034362376,-0.0022904873,0.0,0.0,0.0,inf,inf,inf,0,0,1,0
17556000,17471272,0,0,-0.04120183,-0.30086806,0.4082632,0.0,0.0,0.0,-3.2916665e-05,0.0042471588,-0.0035262704,0.0,0.0,0.0,inf,inf,inf,0,0,1,0
17628000,17544000,0,0,-0.03884093,-0.29605117,0.40540978,0.0,0.0,0.0,-0.002376888,-0.0006056726,-0.00069752336,0.0,0.0,0.0,inf,inf,inf,0,0,1,0
17700000,17615636,0,0,-0.040227164,-0.3005298,0.4073712,0.0,0.0,0.0,-0.0009865575,0.0039185584,-0.002625078,0.0,0.0,0.0,inf,inf,inf,0,0,1,0
17772000,17688000,0,0,-0.043681543,-0.29392257,0.40891758,0.0,0.0,0.0,0.0025018565,-0.0025974512,-0.004101157,0.0,0.0,0.0,inf,inf,inf,0,0,1,0
17844000,17759272,0,0,-0.04011828,-0.3018693,0.4081473,0.0,0.0,0.0,-0.0009861849,0.005376518,-0.0033032596,0.0,0.0,0.0,inf,inf,inf,0,0,1,0
17916000,17832000,0,0,-0.042166583,-0.30565864,0.40127683,0.0,0.0,0.0,0.001072906,0.009188652,0.003584981,0.0,0.0,0.0,inf,inf,inf,0,0,1,0
17988000,17904000,0,0,-0.04031185,-0.29953605,0.40664595,0.0,0.0,0.0,-0.0008311942,0.0030691922,-0.0017868876,0.0,0.0,0.0,inf,inf,inf,0,0,1,0
18060000,17976000,0,0,-0.042066406,-0.29931805,0.40329933,0.0,0.0,0.0,0.0008127205,0.002860099,0.0015550256,0.0,0.0,0.0,inf,inf,inf,0,0,1,0
18132000,18047636,0,0,-0.04073847,-0.30209282,0.4071013,0.0,0.0,0.0,-0.00052375346,0.005676925,-0.0022170544,0.0,0.0,0.0,inf,inf,inf,0,0,1,0
18196000,18116000,0,0,-0.041013036,-0.30343458,0.40903962,0.0,0.0,0.0,-0.00030281767,0.006994158,-0.0041787624,0.0,0.0,0.0,inf,inf,inf,0,0,1,0
18268000,18185600,0,0,-0.041248757,-0.29945484,0.4085662,0.0,0.0,0.0,-2.3208559e-06,0.0029328763,-0.00375849,0.0,0.0,0.0,inf,inf,inf,0,0,1,0
18340000,18256000,0,0,-0.04100927,-0.29998457,0.4099299,0.0,0.0,0.0,-0.00022203475,0.00350824,-0.00508675,0.0,0.0,0.0,inf,inf,inf,0,0,1,0
18404000,18324000,0,0,-0.040127996,-0.29905263,0.40719822,0.0,0.0,0.0,-0.0011382513,0.0025413334,-0.0023842752,0.0,0.0,0.0,inf,inf,inf,0,0,1,0
18476000,18396000,0,0,-0.039915845,-0.30061328,0.40710682,0.0,0.0,0.0,-0.0014111996,0.0041073263,-0.0022950768,0.0,0.0,0.0,inf,inf,inf,0,0,1,0
18548000,18468000,0,0,-0.039660532,-0.29836273,0.41018477,0.0,0.0,0.0,-0.0016545914,0.0019239783,-0.005322665,0.0,0.0,0.0,inf,inf,inf,0,0,1,0
18620000,18538666,0,0,-0.03907032,-0.30139554,0.40397987,0.0,0.0,0.0,-0.0021886565,0.0049625933,0.00089225173,0.0,0.0,0.0,inf,inf,inf,0,0,1,0
18692000,18606000,0,0,-0.040886506,-0.3007949,0.4075278,0.0,0.0,0.0,-0.00038275123,0.004375756,-0.002646625,0.0,0.0,0.0,inf,inf,inf,0,0,1,0
18764000,18678000,0,0,-0.040457327,-0.29984772,0.4055941,0.0,0.0,0.0,-0.00085922703,0.0033873618,-0.0007479787,0.0,0.0,0.0,inf,inf,inf,0,0,1,0
18836000,18749000,0,0,-0.04000818,-0.30014715,0.40569562,0.0,0.0,0.0,-0.0013465509,0.003650695,-0.00087982416,0.0,0.0,0.0,inf,inf,inf,0,0,1,0
18900000,18816000,0,0,-0.037569936,-0.29853952,0.41039562,0.0,0.0,0.0,-0.003823001,0.002025336,-0.005596727,0.0,0.0,0.0,inf,inf,inf,0,0,1,0
18972000,18888000,0,0,-0.04117063,-0.2987854,0.40658972,0.0,0.0,0.0,-0.000253018,0.0022476614,-0.0018111765,0.0,0.0,0.0,inf,inf,inf,0,0,1,0
19044000,18958666,0,0,-0.038738098,-0.3004846,0.40660453,0.0,0.0,0.0,-0.002696652,0.0039315224,-0.0018383563,0.0,0.0,0.0,inf,inf,inf,0,0,1,0
19108000,19025500,0,0,-0.04034584,-0.2992874,0.4074279,0.0,0.0,0.0,-0.001045458,0.0028063953,-0.002604425,0.0,0.0,0.0,inf,inf,inf,0,0,1,0
19180000,19098000,0,0,-0.039137274,-0.29943067,0.40567,0.0,0.0,0.0,-0.002244085,0.0029236078,-0.000864625,0.0,0.0,0.0,inf,inf,inf,0,0,1,0
19252000,19169500,0,0,-0.039692942,-0.30221224,0.40823942,0.0,0.0,0.0,-0.0016490631,0.0057039857,-0.003430903,0.0,0.0,0.0,inf,inf,inf,0,0,1,0
19324000,19241000,0,0,-0.03970512,-0.29876003,0.40523475,0.0,0.0,0.0,-0.0016224608,0.0022167265,-0.0004504323,0.0,0.0,0.0,inf,inf,inf,0,0,1,0
19396000,19313000,0,0,-0.03861495,-0.3024724,0.4054904,0.0,0.0,0.0,-0.0027705505,0.0058988333,-0.0007341802,0.0,0.0,0.0,inf,inf,inf,0,0,1,0
19460000,19380000,0,0,-0.041585706,-0.29688323,0.4090693,0.0,0.0,0.0,0.00020842999,0.000271976,-0.0043399334,0.0,0.0,0.0,inf,inf,inf,0,0,1,0
19532000,19451555,0,0,-0.03960352,-0.2986804,0.405322,0.0,0.0,0.0,-0.0017996542,0.0020750463,-0.00059089065,0.0,0.0,0.0,inf,inf,inf,0,0,1,0
19604000,19524000,0,0,-0.041070253,-0.30082753,0.40782255,0.0,0.0,0.0,-0.00026984513,0.0042328537,-0.0030771494,0.0,0.0,0.0,inf,inf,inf,0,0,1,0
19676000,19595555,0,0,-0.040828224,-0.29914886,0.4072904,0.0,0.0,0.0,-0.0004953034,0.002585709,-0.0025202632,0.0,0.0,0.0,inf,inf,inf,0,0,1,0
19748000,19668000,0,0,-0.042106256,-0.2989766,0.40525955,0.0,0.0,0.0,0.00075513124,0.0024387538,-0.0004736781,0.0,0.0,0.0,inf,inf,inf,0,0,1,0
19820000,19739111,0,0,-0.03964146,-0.29960144,0.40665996,0.0,0.0,0.0,-0.0017548762,0.002996385,-0.0019279718,0.0,0.0,0.0,inf,inf,inf,0,0,1,0
19892000,19806000,0,0,-0.038381413,-0.30061996,0.40698382,0.0,0.0,0.0,-0.0030679405,0.004019141,-0.0022541285,0.0,0.0,0.0,inf,inf,inf,0,0,1,0
19964000,19877600,0,0,-0.040159177,-0.30010375,0.40745345,0.0,0.0,0.0,-0.0012356825,0.0034856498,-0.0027308762,0.0,0.0,0.0,inf,inf,inf,0,0,1,0
20036000,19950000,0,0,-0.041225463,-0.30112746,0.40939984,0.0,0.0,0.0,-0.00023818016,0.0044876635,-0.004700184,0.0,0.0,0.0,inf,inf,inf,0,0,1,0
20108000,20021600,0,0,-0.041307405,-0.2988817,0.40588498,0.0,0.0,0.0,-0.0001758635,0.0022716522,-0.0011655688,0.0,0.0,0.0,inf,inf,inf,0,0,1,0
20172000,20092000,0,0,-0.04118529,-0.30186248,0.40692514,0.0,0.0,0.0,-0.00030228496,0.005257547,-0.0022023916,0.0,0.0,0.0,inf,inf,inf,0,0,1,0
20244000,20159555,0,0,-0.042099647,-0.30045962,0.40866545,0.0,0.0,0.0,0.00059180707,0.0038128495,-0.003975421,0.0,0.0,0.0,inf,inf,inf,0,0,1,0
20316000,20232000,0,0,-0.041867025,-0.29722288,0.40520406,0.0,0.0,0.0,0.0002802685,0.0006920397,-0.00043720007,0.0,0.0,0.0,inf,inf,inf,0,0,1,0
20388000,20303555,0,0,-0.038838968,-0.30054688,0.4080079,0.0,0.0,0.0,-0.0027757138,0.004056126,-0.0032144785,0.0,0.0,0.0,inf,inf,inf,0,0,1,0
20460000,20376000,0,0,-0.039792545,-0.3010541,0.4102883,0.0,0.0,0.0,-0.0017950609,0.00458315,-0.005477637,0.0,0.0,0.0,inf,inf,inf,0,0,1,0
20532000,20447111,0,0,-0.040698543,-0.29997417,0.40616962,0.0,0.0,0.0,-0.00091542304,0.003546089,-0.0013302863,0.0,0.0,0.0,inf,inf,inf,0,0,1,0
20596000,20514000,0,0,-0.03636563,-0.30088437,0.40725815,0.0,0.0,0.0,-0.0052799433,0.0044216216,-0.0024474561,0.0,0.0,0.0,inf,inf,inf,0,0,1,0
20668000,20585200,0,0,-0.04170992,-0.29725653,0.40639248,0.0,0.0,0.0,0.00013271347,0.0008006096,-0.0015697777,0.0,0.0,0.0,inf,inf,inf,0,0,1,0
20732000,20652000,0,0,-0.03656664,-0.30172879,0.4082403,0.0,0.0,0.0,-0.0050042607,0.0053088367,-0.0033905506,0.0,0.0,0.0,inf,inf,inf,0,0,1,0
20804000,20724000,0,0,-0.041737657,-0.30017716,0.40730608,0.0,0.0,0.0,0.00012708828,0.0037977993,-0.002430737,0.0,0.0,0.0,inf,inf,inf,0,0,1,0
20876000,20796000,0,0,-0.042234734,-0.30025685,0.40490243,0.0,0.0,0.0,0.00067061186,0.003824979,-6.0766935e-05,0.0,0.0,0.0,inf,inf,inf,0,0,1,0
20948000,20866909,0,0,-0.04014963,-0.3004874,0.40825287,0.0,0.0,0.0,-0.0013459176,0.004065752,-0.00339666,0.0,0.0,0.0,inf,inf,inf,0,0,1,0
21020000,20940000,0,0,-0.042563133,-0.29663953,0.40076825,0.0,0.0,0.0,0.0010722056,0.000213027,0.0040848553,0.0,0.0,0.0,inf,inf,inf,0,0,1,0
21092000,21011636,0,0,-0.039768018,-0.29779786,0.40575925,0.0,0.0,0.0,-0.0017469153,0.0014340878,-0.0008626878,0.0,0.0,0.0,inf,inf,inf,0,0,1,0
21164000,21084000,0,0,-0.038449973,-0.30052894,0.40853748,0.0,0.0,0.0,-0.0031083077,0.0040954947,-0.0036963224,0.0,0.0,0.0,inf,inf,inf,0,0,1,0
21236000,21156000,0,0,-0.03926209,-0.2974535,0.40793362,0.0,0.0,0.0,-0.0023632608,0.00096681714,-0.0031383932,0.0,0.0,0.0,inf,inf,inf,0,0,1,0
21308000,21228000,0,0,-0.03917992,-0.29950705,0.40664035,0.0,0.0,0.0,-0.0024423748,0.003053099,-0.0018208027,0.0,0.0,0.0,inf,inf,inf,0,0,1,0
21380000,21299272,0,0,-0.040003117,-0.29848325,0.4073104,0.0,0.0,0.0,-0.0015246756,0.0020438433,-0.002470553,0.0,0.0,0.0,inf,inf,inf,0,0,1,0
21452000,21372000,0,0,-0.04886463,-0.2985688,0.4053196,0.0,0.0,0.0,0.0073725395,0.002112031,-0.0004887283,0.0,0.0,0.0,inf,inf,inf,0,0,1,0
21524000,21442909,0,0,-0.03963722,-0.29984853,0.40498644,0.0,0.0,0.0,-0.0019124486,0.0034055412,-0.0001514256,0.0,0.0,0.0,inf,inf,inf,0,0,1,0
21596000,21516000,0,0,-0.046817336,-0.30324838,0.41101205,0.0,0.0,0.0,0.0053379275,0.0067570508,-0.0062052608,0.0,0.0,0.0,inf,inf,inf,0,0,1,0
21668000,21587272,0,0,-0.040713925,-0.3004874,0.40651378,0.0,0.0,0.0,-0.00076454505,0.0039918423,-0.0017099679,0.0,0.0,0.0,inf,inf,inf,0,0,1,0
21740000,21660000,0,0,-0.035977334,-0.29613307,0.40618998,0.0,0.0,0.0,-0.005437091,-0.00038275123,-0.0013944507,0.0,0.0,0.0,inf,inf,inf,0,0,1,0
21812000,21731272,0,0,-0.040457167,-0.29971677,0.4082071,0.0,0.0,0.0,-0.00089559704,0.003153205,-0.0034402013,0.0,0.0,0.0,inf,inf,inf,0,0,1,0
21884000,21804000,0,0,-0.041100387,-0.29796055,0.4003056,0.0,0.0,0.0,-0.00017426535,0.0013795793,0.00445652,0.0,0.0,0.0,inf,inf,inf,0,0,1,0
21956000,21874909,0,0,-0.040956467,-0.29945084,0.4061272,0.0,0.0,0.0,-0.00031854212,0.002977699,-0.001286149,0.0,0.0,0.0,inf,inf,inf,0,0,1,0
22028000,21948000,0,0,-0.043056358,-0.29847297,0.4110316,0.0,0.0,0.0,0.0017759241,0.0020168722,-0.0061786175,0.0,0.0,0.0,inf,inf,inf,0,0,1,0
22100000,22019636,0,0,-0.041654836,-0.29858157,0.4083561,0.0,0.0,0.0,0.0003622286,0.002127111,-0.0035031736,0.0,0.0,0.0,inf,inf,inf,0,0,1,0
22172000,22092000,0,0,-0.04762882,-0.30085218,0.40772977,0.0,0.0,0.0,0.006302312,0.0044077635,-0.002872914,0.0,0.0,0.0,inf,inf,inf,0,0,1,0
22244000,22162909,0,0,-0.038899988,-0.2987047,0.4060692,0.0,0.0,0.0,-0.002428636,0.0022274554,-0.0012366474,0.0,0.0,0.0,inf,inf,inf,0,0,1,0
22316000,22236000,0,0,-0.033889834,-0.30074897,0.4099652,0.0,0.0,0.0,-0.0073805414,0.0042919815,-0.005111873,0.0,0.0,0.0,inf,inf,inf,0,0,1,0
22388000,22308000,0,0,-0.04197013,-0.29886872,0.40709293,0.0,0.0,0.0,0.0007046126,0.002424121,-0.0022299886,0.0,0.0,0.0,inf,inf,inf,0,0,1,0
22460000,22380000,0,0,-0.04156813,-0.30063173,0.40690777,0.0,0.0,0.0,0.00033305585,0.004202217,-0.00203076,0.0,0.0,0.0,inf,inf,inf,0,0,1,0
22532000,22451272,0,0,-0.039511465,-0.29950368,0.40707207,0.0,0.0,0.0,-0.0017380789,0.0031080246,-0.0021717548,0.0,0.0,0.0,inf,inf,inf,0,0,1,0
22604000,22524000,0,0,-0.03877306,-0.29726294,0.41261443,0.0,0.0,0.0,-0.0024880916,0.00088098645,-0.0077052116,0.0,0.0,0.0,inf,inf,inf,0,0,1,0
22676000,22595636,0,0,-0.03910835,-0.29947248,0.40677008,0.0,0.0,0.0,-0.0021487921,0.0030810237,-0.0018674135,0.0,0.0,0.0,inf,inf,inf,0,0,1,0
22748000,22668000,0,0,-0.043958608,-0.30675533,0.40233707,0.0,0.0,0.0,0.0027460046,0.010397106,0.002594471,0.0,0.0,0.0,inf,inf,inf,0,0,1,0
22820000,22739272,0,0,-0.039376486,-0.29831064,0.40680024,0.0,0.0,0.0,-0.0019109808,0.0019936264,-0.0018461645,0.0,0.0,0.0,inf,inf,inf,0,0,1,0
22892000,22812000,0,0,-0.04027154,-0.2971473,0.40283188,0.0,0.0,0.0,-0.0009878688,0.0007481873,0.002064973,0.0,0.0,0.0,inf,inf,inf,0,0,1,0
22964000,22883272,0,0,-0.041226853,-0.29995012,0.40615544,0.0,0.0,0.0,-2.4151057e-05,0.0035364032,-0.0012684762,0.0,0.0,0.0,inf,inf,inf,0,0,1,0
23036000,22956000,0,0,-0.041944634,-0.3032118,0.40923488,0.0,0.0,0.0,0.00068603083,0.0068089366,-0.0043407083,0.0,0.0,0.0,inf,inf,inf,0,0,1,0
23108000,23027636,0,0,-0.040865183,-0.2997566,0.4081881,0.0,0.0,0.0,-0.0004092455,0.003353238,-0.0032958984,0.0,0.0,0.0,inf,inf,inf,0,0,1,0
23180000,23096000,0,0,-0.042614117,-0.30082166,0.411059,0.0,0.0,0.0,0.0013189167,0.0043982863,-0.0061835945,0.0,0.0,0.0,inf,inf,inf,0,0,1,0
23252000,23165200,0,0,-0.041154698,-0.29925904,0.4061657,0.0,0.0,0.0,-0.000119164586,0.0028127134,-0.0013048947,0.0,0.0,0.0,inf,inf,inf,0,0,1,0
23316000,23232000,0,0,-0.042115342,-0.30228806,0.40694883,0.0,0.0,0.0,0.0008372627,0.005863428,-0.0020726025,0.0,0.0,0.0,inf,inf,inf,0,0,1,0
23388000,23303272,0,0,-0.042042308,-0.29975095,0.4051102,0.0,0.0,0.0,0.00071724504,0.0033097565,-0.00025090575,0.0,0.0,0.0,inf,inf,inf,0,0,1,0
23460000,23376000,0,0,-0.032491643,-0.2940551,0.40949583,0.0,0.0,0.0,-0.008808028,-0.0023965836,-0.0046416223,0.0,0.0,0.0,inf,inf,inf,0,0,1,0
23532000,23448000,0,0,-0.04165459,-0.29995695,0.4083641,0.0,0.0,0.0,0.00045702234,0.0035318732,-0.0034799874,0.0,0.0,0.0,inf,inf,inf,0,0,1,0
23596000,23516000,0,0,-0.035004165,-0.2920669,0.41291952,0.0,0.0,0.0,-0.0062397458,-0.004374057,-0.008051753,0.0,0.0,0.0,inf,inf,inf,0,0,1,0
23668000,23585200,0,0,-0.04301494,-0.30016702,0.4077373,0.0,0.0,0.0,0.0017750375,0.0037449896,-0.002855271,0.0,0.0,0.0,inf,inf,inf,0,0,1,0
23732000,23652000,0,0,-0.039114945,-0.29796377,0.41165584,0.0,0.0,0.0,-0.0021705255,0.0015071929,-0.0068036914,0.0,0.0,0.0,inf,inf,inf,0,0,1,0
23804000,23723272,0,0,-0.041399192,-0.29926577,0.4073163,0.0,0.0,0.0,7.34441e-05,0.002826482,-0.0024556518,0.0,0.0,0.0,inf,inf,inf,0,0,1,0
23876000,23796000,0,0,-0.04568333,-0.29521486,0.40582484,0.0,0.0,0.0,0.004397653,-0.0012429655,-0.0009736419,0.0,0.0,0.0,inf,inf,inf,0,0,1,0
23948000,23866909,0,0,-0.041025463,-0.30227152,0.4082565,0.0,0.0,0.0,-0.0002466403,0.0058347285,-0.0033885539,0.0,0.0,0.0,inf,inf,inf,0,0,1,0
24020000,23940000,0,0,-0.044351112,-0.30191728,0.4069471,0.0,0.0,0.0,0.003127616,0.005463034,-0.002086997,0.0,0.0,0.0,inf,inf,inf,0,0,1,0
24092000,24011636,0,0,-0.039042465,-0.2979676,0.40486068,0.0,0.0,0.0,-0.0022233054,0.00154984,2.1874905e-05,0.0,0.0,0.0,inf,inf,inf,0,0,1,0
24164000,24084000,0,0,-0.037484676,-0.2998229,0.40647003,0.0,0.0,0.0,-0.0038290024,0.0033943355,-0.0016002655,0.0,0.0,0.0,inf,inf,inf,0,0,1,0
24236000,24155636,0,0,-0.04206813,-0.30149737,0.40639982,0.0,0.0,0.0,0.00072260946,0.0050632656,-0.0015373826,0.0,0.0,0.0,inf,inf,inf,0,0,1,0
24308000,24228000,0,0,-0.044542436,-0.3020802,0.40456423,0.0,0.0,0.0,0.0031778552,0.005687326,0.00032639503,0.0,0.0,0.0,inf,inf,inf,0,0,1,0
24380000,24298545,0,0,-0.040487308,-0.2995392,0.4055886,0.0,0.0,0.0,-0.0008534454,0.003153503,-0.000690192,0.0,0.0,0.0,inf,inf,inf,0,0,1,0
24452000,24372000,0,0,-0.040206246,-0.29848593,0.40918562,0.0,0.0,0.0,-0.0011388734,0.0020706058,-0.004309416,0.0,0.0,0.0,inf,inf,inf,0,0,1,0
24524000,24442909,0,0,-0.039453767,-0.29958144,0.40615535,0.0,0.0,0.0,-0.0019398555,0.0031463206,-0.0012985468,0.0,0.0,0.0,inf,inf,inf,0,0,1,0
24596000,24516000,0,0,-0.03588606,-0.2991994,0.4128855,0.0,0.0,0.0,-0.0054829605,0.0028502643,-0.00796324,0.0,0.0,0.0,inf,inf,inf,0,0,1,0
24668000,24588000,0,0,-0.04013343,-0.29879606,0.40708825,0.0,0.0,0.0,-0.0012235045,0.0024359226,-0.0021728575,0.0,0.0,0.0,inf,inf,inf,0,0,1,0
24740000,24660000,0,0,-0.035267357,-0.2990546,0.4104954,0.0,0.0,0.0,-0.006046083,0.0027855337,-0.00550887,0.0,0.0,0.0,inf,inf,inf,0,0,1,0
24812000,24730909,0,0,-0.04117269,-0.30034247,0.40663323,0.0,0.0,0.0,-0.00015146285,0.0040430725,-0.0016699731,0.0,0.0,0.0,inf,inf,inf,0,0,1,0
24884000,24804000,0,0,-0.035142254,-0.30104604,0.40937647,0.0,0.0,0.0,-0.006210003,0.0047717392,-0.0043978095,0.0,0.0,0.0,inf,inf,inf,0,0,1,0
24956000,24874181,0,0,-0.038942803,-0.29879996,0.40720758,0.0,0.0,0.0,-0.0023622774,0.0024968982,-0.0022450984,0.0,0.0,0.0,inf,inf,inf,0,0,1,0
25028000,24948000,0,0,-0.04303959,-0.30061167,0.40718335,0.0,0.0,0.0,0.0017804503,0.0043174624,-0.002209723,0.0,0.0,0.0,inf,inf,inf,0,0,1,0
25100000,25019636,0,0,-0.040765412,-0.299568,0.4079751,0.0,0.0,0.0,-0.00053920597,0.0033060908,-0.0029824674,0.0,0.0,0.0,inf,inf,inf,0,0,1,0
25172000,25092000,0,0,-0.046829302,-0.2940292,0.40527067,0.0,0.0,0.0,0.005548004,-0.0022433102,-0.0002834201,0.0,0.0,0.0,inf,inf,inf,0,0,1,0
25244000,25162909,0,0,-0.03879554,-0.2991438,0.40610176,0.0,0.0,0.0,-0.002515532,0.0028356314,-0.0011436343,0.0,0.0,0.0,inf,inf,inf,0,0,1,0
25316000,25236000,0,0,-0.041230712,-0.29945934,0.40523517,0.0,0.0,0.0,-7.819384e-06,0.0031763315,-0.00025126338,0.0,0.0,0.0,inf,inf,inf,0,0,1,0
25388000,25307636,0,0,-0.039123174,-0.29982013,0.40812758,0.0,0.0,0.0,-0.0020932294,0.0035498142,-0.0031321347,0.0,0.0,0.0,inf,inf,inf,0,0,1,0
25460000,25380000,0,0,-0.04273105,-0.29628685,0.40687868,0.0,0.0,0.0,0.0015416481,-1.7851591e-05,-0.0019056499,0.0,0.0,0.0,inf,inf,inf,0,0,1,0
25532000,25451272,0,0,-0.040597975,-0.3002262,0.40821242,0.0,0.0,0.0,-0.00056539476,0.003992498,-0.0031847954,0.0,0.0,0.0,inf,inf,inf,0,0,1,0
25604000,25524000,0,0,-0.03925609,-0.29895955,0.40756392,0.0,0.0,0.0,-0.0018593594,0.0027084947,-0.0025440454,0.0,0.0,0.0,inf,inf,inf,0,0,1,0
25676000,25595272,0,0,-0.041478325,-0.29949483,0.40678516,0.0,0.0,0.0,0.00034839287,0.0032980144,-0.0017271936,0.0,0.0,0.0,inf,inf,inf,0,0,1,0
25748000,25668000,0,0,-0.04165553,-0.29737616,0.40090385,0.0,0.0,0.0,0.00051737204,0.0011664033,0.004143864,0.0,0.0,0.0,inf,inf,inf,0,0,1,0
25820000,25739636,0,0,-0.039675336,-0.29861584,0.40567806,0.0,0.0,0.0,-0.0014536269,0.0024307668,-0.00061139464,0.0,0.0,0.0,inf,inf,inf,0,0,1,0
25892000,25812000,0,0,-0.041289497,-0.29338905,0.41260618,0.0,0.0,0.0,0.00018458441,-0.0028047264,-0.0075434446,0.0,0.0,0.0,inf,inf,inf,0,0,1,0
25964000,25883272,0,0,-0.041027967,-0.30091015,0.40756145,0.0,0.0,0.0,-4.00953e-05,0.004678279,-0.0025227666,0.0,0.0,0.0,inf,inf,inf,0,0,1,0
26036000,25956000,0,0,-0.042049587,-0.29541123,0.4101019,0.0,0.0,0.0,0.0010023117,-0.00080245733,-0.005047798,0.0,0.0,0.0,inf,inf,inf,0,0,1,0
26108000,26027272,0,0,-0.041203815,-0.30027413,0.40651694,0.0,0.0,0.0,0.00017832592,0.004021853,-0.0014889538,0.0,0.0,0.0,inf,inf,inf,0,0,1,0
26180000,26100000,0,0,-0.041748084,-0.30486912,0.4131147,0.0,0.0,0.0,0.00066832453,0.008605301,-0.008100599,0.0,0.0,0.0,inf,inf,inf,0,0,1,0
26252000,26171636,0,0,-0.03964332,-0.29979596,0.40669486,0.0,0.0,0.0,-0.0014076941,0.0035723746,-0.0016483963,0.0,0.0,0.0,inf,inf,inf,0,0,1,0
26324000,26244000,0,0,-0.04337202,-0.29729977,0.40671182,0.0,0.0,0.0,0.002367407,0.0010929108,-0.0016484559,0.0,0.0,0.0,inf,inf,inf,0,0,1,0
26396000,26315636,0,0,-0.040695567,-0.29878446,0.40630203,0.0,0.0,0.0,-0.00039210543,0.0026110113,-0.0012226701,0.0,0.0,0.0,inf,inf,inf,0,0,1,0
26468000,26388000,0,0,-0.041526884,-0.29826844,0.40431502,0.0,0.0,0.0,0.00043523312,0.002038598,0.0007227659,0.0,0.0,0.0,inf,inf,inf,0,0,1,0
26540000,26458909,0,0,-0.040098667,-0.29800463,0.40434256,0.0,0.0,0.0,-0.0009950995,0.0017922521,0.00070774555,0.0,0.0,0.0,inf,inf,inf,0,0,1,0
26612000,26532000,0,0,-0.042055666,-0.29300284,0.40800565,0.0,0.0,0.0,0.0009895265,-0.0032313466,-0.0029684901,0.0,0.0,0.0,inf,inf,inf,0,0,1,0
26684000,26603272,0,0,-0.03901098,-0.30082023,0.4053184,0.0,0.0,0.0,-0.0020583346,0.0045678616,-0.00029483438,0.0,0.0,0.0,inf,inf,inf,0,0,1,0
26756000,26676000,0,0,-0.04198472,-0.29433653,0.40541926,0.0,0.0,0.0,0.0009297542,-0.0018956363,-0.00037947297,0.0,0.0,0.0,inf,inf,inf,0,0,1,0
26828000,26747636,0,0,-0.040551357,-0.29874542,0.407596,0.0,0.0,0.0,-0.00046730787,0.002506882,-0.0025571883,0.0,0.0,0.0,inf,inf,inf,0,0,1,0
26900000,26820000,0,0,-0.04407264,-0.29444194,0.40243545,0.0,0.0,0.0,0.0029740445,-0.0018414259,0.0025624335,0.0,0.0,0.0,inf,inf,inf,0,0,1,0
26972000,26892000,0,0,-0.040872663,-0.29868203,0.40502137,0.0,0.0,0.0,-0.0002771616,0.0024145842,-1.7046928e-05,0.0,0.0,0.0,inf,inf,inf,0,0,1,0
27044000,26964000,0,0,-0.04666512,-0.30382213,0.40725812,0.0,0.0,0.0,0.005490396,0.0075873435,-0.002232492,0.0,0.0,0.0,inf,inf,inf,0,0,1,0
27116000,27035272,0,0,-0.040851437,-0.29754123,0.40628615,0.0,0.0,0.0,-0.00033534318,0.0012652874,-0.0012917817,0.0,0.0,0.0,inf,inf,inf,0,0,1,0
27188000,27108000,0,0,-0.03932046,-0.2942353,0.4007858,0.0,0.0,0.0,-0.0018649772,-0.0021131039,0.0041556656,0.0,0.0,0.0,inf,inf,inf,0,0,1,0
27260000,27180000,0,0,-0.041766435,-0.30086145,0.40732273,0.0,0.0,0.0,0.00061020255,0.004498273,-0.0023891032,0.0,0.0,0.0,inf,inf,inf,0,0,1,0
27332000,27252000,0,0,-0.04055613,-0.29471865,0.40595928,0.0,0.0,0.0,-0.0005924441,-0.0016578734,-0.0010346472,0.0,0.0,0.0,inf,inf,inf,0,0,1,0
27404000,27323636,0,0,-0.039297182,-0.3008099,0.40743932,0.0,0.0,0.0,-0.0018901937,0.0045059025,-0.0024655163,0.0,0.0,0.0,inf,inf,inf,0,0,1,0
27476000,27396000,0,0,-0.04021897,-0.29181576,0.40578988,0.0,0.0,0.0,-0.0009271726,-0.0044626594,-0.0007931888,0.0,0.0,0.0,inf,inf,inf,0,0,1,0
27548000,27467636,0,0,-0.041354597,-0.2996812,0.40421543,0.0,0.0,0.0,0.00026512146,0.0033532977,0.0007507801,0.0,0.0,0.0,inf,inf,inf,0,0,1,0
27620000,27540000,0,0,-0.03993587,-0.29625124,0.40701103,0.0,0.0,0.0,-0.0011744834,-2.6345253e-05,-0.0020100474,0.0,0.0,0.0,inf,inf,inf,0,0,1,0
27692000,27612000,0,0,-0.041268338,-0.3014616,0.4061446,0.0,0.0,0.0,0.00017600134,0.005232364,-0.0011064708,0.0,0.0,0.0,inf,inf,inf,0,0,1,0
27764000,27684000,0,0,-0.048567746,-0.30636162,0.40314463,0.0,0.0,0.0,0.007491488,0.010112524,0.0018805265,0.0,0.0,0.0,inf,inf,inf,0,0,1,0
27836000,27754545,0,0,-0.040514525,-0.30049595,0.40691918,0.0,0.0,0.0,-0.00057284907,0.0042384267,-0.001901269,0.0,0.0,0.0,inf,inf,inf,0,0,1,0
27908000,27828000,0,0,-0.041175056,-0.3001097,0.40218183,0.0,0.0,0.0,0.00014293566,0.0038234591,0.0028207004,0.0,0.0,0.0,inf,inf,inf,0,0,1,0
27980000,27899272,0,0,-0.037322808,-0.30052647,0.40778437,0.0,0.0,0.0,-0.003714528,0.0042452216,-0.0027787685,0.0,0.0,0.0,inf,inf,inf,0,0,1,0
28052000,27972000,0,0,-0.044402447,-0.30445763,0.40404144,0.0,0.0,0.0,0.003294807,0.008153409,0.0009403229,0.0,0.0,0.0,inf,inf,inf,0,0,1,0
28124000,28042909,0,0,-0.040937327,-0.29950643,0.4091247,0.0,0.0,0.0,-0.00019382685,0.0031686127,-0.0041699708,0.0,0.0,0.0,inf,inf,inf,0,0,1,0
28196000,28116000,0,0,-0.04353869,-0.30187455,0.41396886,0.0,0.0,0.0,0.0024617314,0.0055789053,-0.008977711,0.0,0.0,0.0,inf,inf,inf,0,0,1,0
28268000,28187636,0,0,-0.038376175,-0.30105972,0.40651232,0.0,0.0,0.0,-0.0027296767,0.004769385,-0.0015202761,0.0,0.0,0.0,inf,inf,inf,0,0,1,0
28340000,28260000,0,0,-0.036965005,-0.30091608,0.40601698,0.0,0.0,0.0,-0.004128225,0.004631579,-0.0010193288,0.0,0.0,0.0,inf,inf,inf,0,0,1,0
28412000,28332000,0,0,-0.03939003,-0.2988064,0.40803242,0.0,0.0,0.0,-0.0017180108,0.0025229752,-0.0030355453,0.0,0.0,0.0,inf,inf,inf,0,0,1,0
28484000,28404000,0,0,-0.04232916,-0.29994982,0.40729663,0.0,0.0,0.0,0.0012960248,0.0036658049,-0.0022926629,0.0,0.0,0.0,inf,inf,inf,0,0,1,0
28556000,28474909,0,0,-0.041373383,-0.29962987,0.40683937,0.0,0.0,0.0,0.00035911426,0.0032885075,-0.0018753409,0.0,0.0,0.0,inf,inf,inf,0,0,1,0
28628000,28548000,0,0,-0.035344582,-0.30130512,0.40660805,0.0,0.0,0.0,-0.005717803,0.0049527884,-0.0016569495,0.0,0.0,0.0,inf,inf,inf,0,0,1,0
28700000,28619272,0,0,-0.038235214,-0.29955542,0.40707436,0.0,0.0,0.0,-0.0027176775,0.0032339394,-0.0020896792,0.0,0.0,0.0,inf,inf,inf,0,0,1,0
28772000,28692000,0,0,-0.041655257,-0.30244726,0.41127676,0.0,0.0,0.0,0.0007522404,0.006141782,-0.0062752664,0.0,0.0,0.0,inf,inf,inf,0,0,1,0
28844000,28762909,0,0,-0.04075177,-0.3023818,0.40669915,0.0,0.0,0.0,-0.00016409159,0.006072223,-0.0017018914,0.0,0.0,0.0,inf,inf,inf,0,0,1,0
28916000,28836000,0,0,-0.035876527,-0.29727632,0.40417084,0.0,0.0,0.0,-0.0050793737,0.0010093749,0.0008535087,0.0,0.0,0.0,inf,inf,inf,0,0,1,0
28988000,28907636,0,0,-0.039572015,-0.29991788,0.40651384,0.0,0.0,0.0,-0.0013327599,0.0036222935,-0.0015053153,0.0,0.0,0.0,inf,inf,inf,0,0,1,0
29060000,28980000,0,0,-0.038567103,-0.29591396,0.40731546,0.0,0.0,0.0,-0.002244316,-0.0003886521,-0.0023026168,0.0,0.0,0.0,inf,inf,inf,0,0,1,0
29132000,29051636,0,0,-0.040617865,-0.29999965,0.40694752,0.0,0.0,0.0,-0.0001408793,0.0037061572,-0.0019227564,0.0,0.0,0.0,inf,inf,inf,0,0,1,0
29204000,29124000,0,0,-0.038511198,-0.30269212,0.4052123,0.0,0.0,0.0,-0.00222959,0.006373614,-0.0002039671,0.0,0.0,0.0,inf,inf,inf,0,0,1,0
29276000,29196000,0,0,-0.040699404,-0.30041614,0.40775776,0.0,0.0,0.0,-9.1884285e-05,0.0040973127,-0.0027548075,0.0,0.0,0.0,inf,inf,inf,0,0,1,0
29348000,29268000,0,0,-0.03663879,-0.29680327,0.40598807,0.0,0.0,0.0,-0.0041473433,0.00047180057,-0.000993818,0.0,0.0,0.0,inf,inf,inf,0,0,1,0
29420000,29340000,0,0,-0.039198097,-0.30126286,0.40800342,0.0,0.0,0.0,-0.0015281625,0.004882127,-0.0030391514,0.0,0.0,0.0,inf,inf,inf,0,0,1,0
29492000,29412000,0,0,-0.034906458,-0.29688856,0.41562074,0.0,0.0,0.0,-0.0057733096,0.00050216913,-0.010655999,0.0,0.0,0.0,inf,inf,inf,0,0,1,0
29564000,29482909,0,0,-0.039419312,-0.30036187,0.40776053,0.0,0.0,0.0,-0.0011917613,0.0039538145,-0.002804786,0.0,0.0,0.0,inf,inf,inf,0,0,1,0
29636000,29556000,0,0,-0.043493047,-0.29571003,0.41630673,0.0,0.0,0.0,0.0028848648,-0.0006695986,-0.01132983,0.0,0.0,0.0,inf,inf,inf,0,0,1,0
29708000,29627272,0,0,-0.040785708,-0.29969096,0.40865245,0.0,0.0,0.0,0.0001533851,0.0033202171,-0.0036714375,0.0,0.0,0.0,inf,inf,inf,0,0,1,0
29780000,29700000,0,0,-0.0363857,-0.30036375,0.39829418,0.0,0.0,0.0,-0.0042024404,0.003948003,0.006658286,0.0,0.0,0.0,inf,inf,inf,0,0,1,0
29852000,29771636,0,0,-0.041085787,-0.29900572,0.40685564,0.0,0.0,0.0,0.0005117133,0.002580136,-0.001908958,0.0,0.0,0.0,inf,inf,inf,0,0,1,0
29924000,29844000,0,0,-0.032861087,-0.30171636,0.40905932,0.0,0.0,0.0,-0.007617604,0.005292952,-0.0041014254,0.0,0.0,0.0,inf,inf,inf,0,0,1,0
29996000,29915636,0,0,-0.041492533,-0.29864493,0.4074072,0.0,0.0,0.0,0.0010625087,0.002191931,-0.0024661422,0.0,0.0,0.0,inf,inf,inf,0,0,1,0
30068000,29988000,0,0,-0.038276784,-0.3091563,0.40874386,0.0,0.0,0.0,-0.0021783486,0.0126975775,-0.0038094819,0.0,0.0,0.0,inf,inf,inf,0,0,1,0
30140000,30058909,0,0,-0.04093411,-0.30088428,0.40951353,0.0,0.0,0.0,0.00045207888,0.0044068396,-0.0045955777,0.0,0.0,0.0,inf,inf,inf,0,0,1,0
30212000,30132000,0,0,-0.038347337,-0.2976083,0.40663213,0.0,0.0,0.0,-0.0022066645,0.0011100769,-0.0017365813,0.0,0.0,0.0,inf,inf,inf,0,0,1,0
30284000,30203636,0,0,-0.04089763,-0.29917163,0.40594852,0.0,0.0,0.0,0.00029803067,0.0026795566,-0.0010530353,0.0,0.0,0.0,inf,inf,inf,0,0,1,0
30356000,30276000,0,0,-0.034458958,-0.30539298,0.40087727,0.0,0.0,0.0,-0.006009929,0.008840561,0.003987044,0.0,0.0,0.0,inf,inf,inf,0,0,1,0
30428000,30347636,0,0,-0.041494522,-0.29980275,0.40665412,0.0,0.0,0.0,0.0010537393,0.0032071173,-0.0018185377,0.0,0.0,0.0,inf,inf,inf,0,0,1,0
30500000,30420000,0,0,-0.043138187,-0.3042042,0.40672466,0.0,0.0,0.0,0.0026898794,0.0075921714,-0.0019019246,0.0,0.0,0.0,inf,inf,inf,0,0,1,0
30572000,30491636,0,0,-0.039468817,-0.3009799,0.40702,0.0,0.0,0.0,-0.0009338334,0.0044073164,-0.0021637976,0.0,0.0,0.0,inf,inf,inf,0,0,1,0
30644000,30564000,0,0,-0.039323356,-0.30466488,0.40554786,0.0,0.0,0.0,-0.0011448301,0.008063823,-0.00071907043,0.0,0.0,0.0,inf,inf,inf,0,0,1,0
30716000,30636000,0,0,-0.04208311,-0.29938132,0.40529925,0.0,0.0,0.0,0.0017193519,0.002775669,-0.0004633665,0.0,0.0,0.0,inf,inf,inf,0,0,1,0
30788000,30708000,0,0,-0.03937496,-0.29859474,0.40926087,0.0,0.0,0.0,-0.001009766,0.0019866824,-0.0044288933,0.0,0.0,0.0,inf,inf,inf,0,0,1,0
30860000,30779636,0,0,-0.039355896,-0.29949006,0.40829426,0.0,0.0,0.0,-0.0010432228,0.002873212,-0.0034701228,0.0,0.0,0.0,inf,inf,inf,0,0,1,0
30932000,30852000,0,0,-0.039052542,-0.29947254,0.40641442,0.0,0.0,0.0,-0.0013404824,0.0028781593,-0.0015732348,0.0,0.0,0.0,inf,inf,inf,0,0,1,0
31004000,30923636,0,0,-0.040537298,-0.29970634,0.40872827,0.0,0.0,0.0,0.00014001131,0.0031068325,-0.0038912296,0.0,0.0,0.0,inf,inf,inf,0,0,1,0
31076000,30996000,0,0,-0.03755537,-0.3052201,0.40329134,0.0,0.0,0.0,-0.0027877204,0.008549511,0.0014989972,0.0,0.0,0.0,inf,inf,inf,0,0,1,0
31148000,31067272,0,0,-0.039251216,-0.3000115,0.40734205,0.0,0.0,0.0,-0.0010559484,0.0033335388,-0.0025535822,0.0,0.0,0.0,inf,inf,inf,0,0,1,0
31220000,31140000,0,0,-0.041249286,-0.29563245,0.40675783,0.0,0.0,0.0,0.0008897744,-0.0010740459,-0.0019954145,0.0,0.0,0.0,inf,inf,inf,0,0,1,0
31292000,31212000,0,0,-0.040924754,-0.30004722,0.4048555,0.0,0.0,0.0,0.00052815303,0.0032984614,-0.00012779236,0.0,0.0,0.0,inf,inf,inf,0,0,1,0
31364000,31284000,0,0,-0.039539468,-0.30076525,0.4044016,0.0,0.0,0.0,-0.0007967688,0.0040198565,0.00033456087,0.0,0.0,0.0,inf,inf,inf,0,0,1,0
31436000,31355272,0,0,-0.039874095,-0.29981112,0.4056491,0.0,0.0,0.0,-0.00042430684,0.0030287504,-0.00093626976,0.0,0.0,0.0,inf,inf,inf,0,0,1,0
31508000,31428000,0,0,-0.046022717,-0.2998248,0.4096275,0.0,0.0,0.0,0.0057867207,0.0031288564,-0.0048451126,0.0,0.0,0.0,inf,inf,inf,0,0,1,0
31580000,31499272,0,0,-0.041247644,-0.2997466,0.40748593,0.0,0.0,0.0,0.00096888095,0.0030299127,-0.0027229786,0.0,0.0,0.0,inf,inf,inf,0,0,1,0
31652000,31572000,0,0,-0.041043933,-0.30020344,0.41623935,0.0,0.0,0.0,0.0008047931,0.0034229755,-0.011519253,0.0,0.0,0.0,inf,inf,inf,0,0,1,0
31724000,31644000,0,0,-0.03954627,-0.29870617,0.40730357,0.0,0.0,0.0,-0.0007459335,0.0019515157,-0.0025697947,0.0,0.0,0.0,inf,inf,inf,0,0,1,0
31796000,31716000,0,0,-0.042492352,-0.2908658,0.40850517,0.0,0.0,0.0,0.0022213683,-0.0058794916,-0.0037624538,0.0,0.0,0.0,inf,inf,inf,0,0,1,0
31868000,31787636,0,0,-0.038960375,-0.29893735,0.40667114,0.0,0.0,0.0,-0.0012737289,0.0021426976,-0.0019608438,0.0,0.0,0.0,inf,inf,inf,0,0,1,0
31940000,31860000,0,0,-0.040205948,-0.30410063,0.40288198,0.0,0.0,0.0,-3.965944e-05,0.0074011087,0.0018967986,0.0,0.0,0.0,inf,inf,inf,0,0,1,0
32012000,31931272,0,0,-0.04076952,-0.3,0.40631995,0.0,0.0,0.0,0.00049946085,0.003286779,-0.0015536249,0.0,0.0,0.0,inf,inf,inf,0,0,1,0
32084000,32004000,0,0,-0.0440295,-0.29780608,0.41716048,0.0,0.0,0.0,0.003715437,0.0010773838,-0.012409896,0.0,0.0,0.0,inf,inf,inf,0,0,1,0
32156000,32076000,0,0,-0.039566197,-0.30032802,0.40765205,0.0,0.0,0.0,-0.00078918785,0.0036022365,-0.002903372,0.0,0.0,0.0,inf,inf,inf,0,0,1,0
32228000,32148000,0,0,-0.042536967,-0.30065772,0.4120779,0.0,0.0,0.0,0.002197288,0.003943801,-0.0073189735,0.0,0.0,0.0,inf,inf,inf,0,0,1,0
32300000,32219636,0,0,-0.039674386,-0.30060852,0.40602756,0.0,0.0,0.0,-0.0005349219,0.003940761,-0.0012218356,0.0,0.0,0.0,inf,inf,inf,0,0,1,0
32372000,32292000,0,0,-0.039615866,-0.2963341,0.40530753,0.0,0.0,0.0,-0.0005729534,-0.0003286004,-0.00049608946,0.0,0.0,0.0,inf,inf,inf,0,0,1,0
32444000,32363636,0,0,-0.039483137,-0.30000132,0.40564036,0.0,0.0,0.0,-0.000620164,0.0033468306,-0.00081446767,0.0,0.0,0.0,inf,inf,inf,0,0,1,0
32516000,32436000,0,0,-0.03604671,-0.30035794,0.4066762,0.0,0.0,0.0,-0.004057426,0.0036688447,-0.0018756688,0.0,0.0,0.0,inf,inf,inf,0,0,1,0
32588000,32507272,0,0,-0.039245386,-0.29998472,0.40696707,0.0,0.0,0.0,-0.00093631074,0.0033148825,-0.0021601617,0.0,0.0,0.0,inf,inf,inf,0,0,1,0
32660000,32580000,0,0,-0.044824053,-0.30236152,0.4043097,0.0,0.0,0.0,0.0047392435,0.0056539476,0.00047916174,0.0,0.0,0.0,inf,inf,inf,0,0,1,0
32732000,32651636,0,0,-0.04198823,-0.29953048,0.40670538,0.0,0.0,0.0,0.0018617883,0.002845794,-0.0019038618,0.0,0.0,0.0,inf,inf,inf,0,0,1,0
32804000,32724000,0,0,-0.032771423,-0.29802924,0.40801504,0.0,0.0,0.0,-0.007410571,0.0013357401,-0.0032254755,0.0,0.0,0.0,inf,inf,inf,0,0,1,0
32876000,32795272,0,0,-0.039808262,-0.29871923,0.4073626,0.0,0.0,0.0,-0.00037525222,0.002058059,-0.0025495589,0.0,0.0,0.0,inf,inf,inf,0,0,1,0
32948000,32868000,0,0,-0.044169664,-0.298574,0.40426004,0.0,0.0,0.0,0.004048541,0.001909852,0.0005571544,0.0,0.0,0.0,inf,inf,inf,0,0,1,0
33020000,32939272,0,0,-0.04219243,-0.30038863,0.40803096,0.0,0.0,0.0,0.002036363,0.0037060976,-0.0032308102,0.0,0.0,0.0,inf,inf,inf,0,0,1,0
33092000,33012000,0,0,-0.040510323,-0.3053258,0.40533435,0.0,0.0,0.0,0.00037812814,0.008601487,-0.0005624294,0.0,0.0,0.0,inf,inf,inf,0,0,1,0
33164000,33082545,0,0,-0.041246507,-0.29940405,0.40884024,0.0,0.0,0.0,0.0011862852,0.002764672,-0.003998935,0.0,0.0,0.0,inf,inf,inf,0,0,1,0
33236000,33156000,0,0,-0.03876355,-0.29564103,0.40558,0.0,0.0,0.0,-0.0013577081,-0.001047641,-0.00078091025,0.0,0.0,0.0,inf,inf,inf,0,0,1,0
33308000,33227272,0,0,-0.040194094,-0.30163446,0.40578085,0.0,0.0,0.0,5.8174133e-05,0.0049569905,-0.0009749532,0.0,0.0,0.0,inf,inf,inf,0,0,1,0
33380000,33300000,0,0,-0.041231282,-0.3034984,0.41055483,0.0,0.0,0.0,0.0011317059,0.006788075,-0.0057694316,0.0,0.0,0.0,inf,inf,inf,0,0,1,0
33452000,33371636,0,0,-0.040971916,-0.29968324,0.4091371,0.0,0.0,0.0,0.0008600913,0.00297603,-0.0043506324,0.0,0.0,0.0,inf,inf,inf,0,0,1,0
33524000,33444000,0,0,-0.04068972,-0.29294226,0.40938693,0.0,0.0,0.0,0.000684008,-0.0037435591,-0.004574299,0.0,0.0,0.0,inf,inf,inf,0,0,1,0
