timestamp,timestamp_sample,time_last_fuse,device_id,observation,observation_variance,innovation,innovation_variance,test_ratio,estimator_instance,fusion_enabled,innovation_rejected,fused
3548000,3465838,3468000,0,1.5512426,0.0,-1.5512936,0.0,inf,0,0,1,0
3620000,3538950,3468000,0,1.5628549,0.0,0.013199806,0.0,inf,0,0,1,0
3692000,3611106,3468000,0,1.5553901,0.0,0.020602345,0.0,inf,0,0,1,0
3764000,3683124,3684000,0,1.5690997,0.0,0.008298874,0.14004871,7.2746574e-05,0,1,0,1
3836000,3754898,3756000,0,1.5560148,0.0,0.019700646,0.12215381,0.0004700102,0,1,0,1
3908000,3827269,3828000,0,1.5627304,0.0,0.009793401,0.113680005,0.00012480625,0,1,0,1
3980000,3899384,3900000,0,1.5597552,0.0,0.011519313,0.10874431,0.00018050945,0,1,0,1
4052000,3971390,3972000,0,1.5461609,0.0,0.023837328,0.105513826,0.0007966345,0,1,0,1
4124000,4043122,4044000,0,1.550306,0.0,0.017553806,0.10323224,0.0004415507,0,1,0,1
4196000,4115491,4116000,0,1.5547353,0.0,0.011965513,0.101534314,0.00020859465,0,1,0,1
4268000,4187203,4188000,0,1.5513355,0.0,0.014564633,0.10022676,0.0003130897,0,1,0,1
4340000,4259575,4260000,0,1.5627364,0.0,0.0021265745,0.09918271,6.7449478e-06,0,1,0,1
4412000,4331638,4332000,0,1.559982,0.0,0.004743099,0.09833643,3.3842567e-05,0,1,0,1
4484000,4403646,4404000,0,1.5499344,0.0,0.014667153,0.097633824,0.0003259453,0,1,0,1
4556000,4475334,4476000,0,1.5570872,0.0,0.006814599,0.097037084,7.079396e-05,0,1,0,1
4628000,4547704,4548000,0,1.5553411,0.0,0.008210659,0.096530475,0.00010331061,0,1,0,1
4700000,4617929,4620000,0,1.5599948,0.0,0.00323987,0.09609269,1.6159138e-05,0,1,0,1
4772000,4691753,4692000,0,1.5601352,0.0,0.002979517,0.095707245,1.3721458e-05,0,1,0,1
4844000,4763062,4764000,0,1.5543365,0.0,0.008886337,0.09537094,0.00012248498,0,1,0,1
4916000,4835794,4836000,0,1.5348403,0.0,0.02830255,0.09507253,0.001246377,0,1,0,1
4988000,4906370,4908000,0,1.5579176,0.0,0.0040386915,0.09480158,2.5451836e-05,0,1,0,1
5060000,4979828,4980000,0,1.5876881,0.0,-0.025816798,0.094562374,0.0010426529,0,1,0,1
5132000,5050763,5052000,0,1.5642167,0.0,-0.0016252995,0.09434403,4.1419585e-06,0,1,0,1
5204000,5119855,5124000,0,1.5597543,0.0,0.0028551817,0.09414794,1.2808847e-05,0,1,0,1
5276000,5189077,5196000,0,1.5536048,0.0,0.008880377,0.09396921,0.00012414539,0,1,0,1
5340000,5255878,5260000,0,1.5548577,0.0,0.0073908567,0.09380198,8.614517e-05,0,1,0,1
5412000,5327533,5332000,0,1.5569727,0.0,0.005022049,0.0936516,3.983823e-05,0,1,0,1
5476000,5395898,5396000,0,1.5492827,0.0,0.0125386715,0.09351269,0.00024870576,0,1,0,1
5548000,5465114,5468000,0,1.551783,0.0,0.00990653,0.09338158,0.00015546594,0,1,0,1
5612000,5531914,5532000,0,1.564752,0.0,-0.0032866,0.09326236,1.7133287e-05,0,1,0,1
5684000,5603199,5604000,0,1.5550268,0.0,0.006660342,0.093152225,7.04455e-05,0,1,0,1
5756000,5675929,5676000,0,1.5637094,0.0,-0.0022425652,0.09304635,7.9954725e-06,0,1,0,1
5828000,5746849,5748000,0,1.5645436,0.0,-0.0029392242,0.092950426,1.3748882e-05,0,1,0,1
5900000,5819941,5820000,0,1.555035,0.0,0.006564975,0.092860736,6.86574e-05,0,1,0,1
5972000,5891586,5892000,0,1.5566254,0.0,0.004820466,0.092773475,3.7051654e-05,0,1,0,1
6044000,5959950,5964000,0,1.5469174,0.0,0.014382482,0.0926943,0.0003301171,0,1,0,1
6116000,6028758,6036000,0,1.5599415,0.0,0.0010493994,0.09261973,1.7588607e-06,0,1,0,1
6180000,6099959,6100000,0,1.5608896,0.0,0.00016760826,0.09254623,4.4904045e-08,0,1,0,1
6252000,6167075,6172000,0,1.5591191,0.0,0.0020409822,0.092479944,6.6632215e-06,0,1,0,1
6316000,6233965,6236000,0,1.552379,0.0,0.008903503,0.09241686,0.000126889,0,1,0,1
6388000,6304770,6308000,0,1.5605974,0.0,0.0003118515,0.09235445,1.5577265e-07,0,1,0,1
6452000,6371971,6372000,0,1.5431097,0.0,0.017703056,0.092297725,0.000502295,0,1,0,1
6524000,6442156,6444000,0,1.5580658,0.0,0.0025074482,0.0922442,1.0082732e-05,0,1,0,1
6596000,6515976,6516000,0,1.5747924,0.0,-0.014028072,0.09219061,0.00031576402,0,1,0,1
6668000,6587979,6588000,0,1.5531329,0.0,0.007903576,0.09214237,0.00010028621,0,1,0,1
6740000,6659980,6660000,0,1.5629328,0.0,-0.0021172762,0.09209346,7.2007806e-06,0,1,0,1
6812000,6731255,6732000,0,1.5561398,0.0,0.0045746565,0.092049524,3.3631695e-05,0,1,0,1
6884000,6803983,6804000,0,1.5768499,0.0,-0.016105175,0.092007555,0.0004170237,0,1,0,1
6956000,6875258,6876000,0,1.5576351,0.0,0.0033745766,0.09196484,1.8317663e-05,0,1,0,1
7028000,6947986,6948000,0,1.5438287,0.0,0.017055035,0.09192648,0.0004680777,0,1,0,1
7100000,7018897,7020000,0,1.5590014,0.0,0.0016579628,0.09188969,4.425233e-06,0,1,0,1
7172000,7091988,7092000,0,1.5598093,0.0,0.0009754896,0.09185185,1.5325362e-06,0,1,0,1
7244000,7163262,7164000,0,1.5533538,0.0,0.0073937178,0.091818154,8.807457e-05,0,1,0,1
7316000,7235990,7236000,0,1.5646847,0.0,-0.0040990114,0.091785796,2.7079219e-05,0,1,0,1
7388000,7306901,7308000,0,1.5570797,0.0,0.0033426285,0.09175207,1.8014147e-05,0,1,0,1
7460000,7379992,7380000,0,1.5620229,0.0,-0.0016554594,0.091722205,4.4199355e-06,0,1,0,1
7532000,7450902,7452000,0,1.5619955,0.0,-0.0014544725,0.09169102,3.4130105e-06,0,1,0,1
7604000,7523993,7524000,0,1.5600007,0.0,0.00062668324,0.09166341,6.3380185e-07,0,1,0,1
7676000,7594904,7596000,0,1.5548805,0.0,0.005805135,0.09163682,5.4401135e-05,0,1,0,1
7748000,7667995,7668000,0,1.5667326,0.0,-0.006213188,0.09160856,6.233706e-05,0,1,0,1
7820000,7738905,7740000,0,1.5548075,0.0,0.0055259466,0.091583915,4.9322774e-05,0,1,0,1
7892000,7811996,7812000,0,1.5520264,0.0,0.008107305,0.0915601,0.00010619402,0,1,0,1
7964000,7883632,7884000,0,1.5552026,0.0,0.005185008,0.091534644,4.3447693e-05,0,1,0,1
8036000,7955996,7956000,0,1.5633396,0.0,-0.002945304,0.09151247,1.4022752e-05,0,1,0,1
8108000,8027997,8028000,0,1.5555987,0.0,0.0047808886,0.09149111,3.695657e-05,0,1,0,1
8180000,8099997,8100000,0,1.5582796,0.0,0.0019258261,0.09146783,5.998175e-06,0,1,0,1
8252000,8171998,8172000,0,1.5523858,0.0,0.0077615976,0.09144783,9.745008e-05,0,1,0,1
8324000,8243998,8244000,0,1.565144,0.0,-0.005183935,0.09142851,4.348013e-05,0,1,0,1
8396000,8315270,8316000,0,1.5600791,0.0,1.2397766e-05,0.0914073,2.4874788e-10,0,1,0,1
8468000,8387998,8388000,0,1.5735457,0.0,-0.013486624,0.0913892,0.0002944184,0,1,0,1
8540000,8459634,8460000,0,1.5623674,0.0,-0.0021301508,0.09136923,7.3463916e-06,0,1,0,1
8612000,8531999,8532000,0,1.5604943,0.0,-0.00018119812,0.09135225,5.3166918e-08,0,1,0,1
8684000,8603635,8604000,0,1.5575329,0.0,0.002581358,0.091335796,1.07921705e-05,0,1,0,1
8756000,8675999,8676000,0,1.5579774,0.0,0.0022531748,0.09131734,8.224128e-06,0,1,0,1
8828000,8747271,8748000,0,1.558781,0.0,0.0014569759,0.09130185,3.439367e-06,0,1,0,1
8900000,8819999,8820000,0,1.552462,0.0,0.007812738,0.09128685,9.891262e-05,0,1,0,1
8972000,8891999,8892000,0,1.5562329,0.0,0.0038776398,0.091269724,2.4370336e-05,0,1,0,1
9044000,8963999,8964000,0,1.5603408,0.0,-0.00028836727,0.09125557,1.3479877e-07,0,1,0,1
9116000,9034181,9036000,0,1.5605813,0.0,-0.0005979538,0.09124185,5.796883e-07,0,1,0,1
9188000,9108000,9108000,0,1.5737038,0.0,-0.013642073,0.091226034,0.00030178335,0,1,0,1
9260000,9179636,9180000,0,1.5583979,0.0,0.0018309355,0.09121312,5.4367842e-06,0,1,0,1
9332000,9252000,9252000,0,1.5564303,0.0,0.0037521124,0.09119806,2.2835968e-05,0,1,0,1
9404000,9323272,9324000,0,1.558878,0.0,0.0012544394,0.091185786,2.5528514e-06,0,1,0,1
9476000,9396000,9396000,0,1.568764,0.0,-0.008705735,0.09117387,0.00012296849,0,1,0,1
9548000,9468000,9468000,0,1.5566336,0.0,0.0035517216,0.09115988,2.0470452e-05,0,1,0,1
9620000,9540000,9540000,0,1.5606173,0.0,-0.00037109852,0.091148585,2.2350223e-07,0,1,0,1
9692000,9611272,9612000,0,1.5612298,0.0,-0.0007648468,0.09113763,9.495208e-07,0,1,0,1
9764000,9684000,9684000,0,1.5608449,0.0,-0.0006079674,0.09112442,6.000385e-07,0,1,0,1
9836000,9755636,9756000,0,1.5598339,0.0,0.00032317638,0.09111403,1.6956933e-07,0,1,0,1
9908000,9828000,9828000,0,1.5402746,0.0,0.019924521,0.09110391,0.0006446027,0,1,0,1
9980000,9899272,9900000,0,1.5558728,0.0,0.004211664,0.09109158,2.8805975e-05,0,1,0,1
10052000,9968000,9972000,0,1.5455375,0.0,0.014412522,0.09108195,0.00033736578,0,1,0,1
10124000,10037200,10044000,0,1.5591811,0.0,0.00066530704,0.09107257,7.1896875e-07,0,1,0,1
10188000,10108000,10108000,0,1.5614604,0.0,-0.0015983582,0.09106065,4.1502167e-06,0,1,0,1
10260000,10176000,10180000,0,1.556529,0.0,0.003436923,0.09105176,1.9191311e-05,0,1,0,1
10332000,10246666,10252000,0,1.5605599,0.0,-0.0006659031,0.0910407,7.205097e-07,0,1,0,1
10396000,10314000,10316000,0,1.5547047,0.0,0.0050570965,0.09103185,4.155875e-05,0,1,0,1
10468000,10386000,10388000,0,1.5603193,0.0,-0.00060784817,0.09102359,6.004677e-07,0,1,0,1
10540000,10458000,10460000,0,1.5555321,0.0,0.0042574406,0.09101322,2.9460902e-05,0,1,0,1
10612000,10529000,10532000,0,1.555055,0.0,0.0045928955,0.09100535,3.4289373e-05,0,1,0,1
10684000,10601500,10604000,0,1.5536913,0.0,0.0059324503,0.09099767,5.721255e-05,0,1,0,1
10756000,10674000,10676000,0,1.5630254,0.0,-0.0033202171,0.09098784,1.792268e-05,0,1,0,1
10828000,10745500,10748000,0,1.5578438,0.0,0.0018382072,0.09098053,5.4940656e-06,0,1,0,1
10900000,10818000,10820000,0,1.5615666,0.0,-0.0019179583,0.09097341,5.9815975e-06,0,1,0,1
10972000,10888500,10892000,0,1.554785,0.0,0.0048679113,0.09096412,3.8536167e-05,0,1,0,1
11036000,10956000,10956000,0,1.5572466,0.0,0.0024124384,0.09095693,9.465205e-06,0,1,0,1
11108000,11027555,11028000,0,1.5603799,0.0,-0.00065398216,0.09095029,6.9563447e-07,0,1,0,1
11180000,11100000,11100000,0,1.5531386,0.0,0.006501913,0.090941444,6.8766014e-05,0,1,0,1
11252000,11172000,11172000,0,1.5593992,0.0,0.000121474266,0.09093508,2.4004379e-08,0,1,0,1
11324000,11242666,11244000,0,1.5515909,0.0,0.007894635,0.09092889,0.00010139478,0,1,0,1
11396000,11315111,11316000,0,1.5586486,0.0,0.00090527534,0.09092053,1.3333764e-06,0,1,0,1
11468000,11382000,11388000,0,1.553762,0.0,0.0056848526,0.09091461,5.2584543e-05,0,1,0,1
11540000,11453600,11460000,0,1.5545564,0.0,0.0049397945,0.09090654,3.970782e-05,0,1,0,1
11612000,11526000,11532000,0,1.5546728,0.0,0.0049088,0.09090085,3.9213544e-05,0,1,0,1
11684000,11597600,11604000,0,1.5574636,0.0,0.00210917,0.09089532,7.23994e-06,0,1,0,1
11748000,11668000,11668000,0,1.5619268,0.0,-0.0024968386,0.09088718,1.01468595e-05,0,1,0,1
11820000,11734666,11740000,0,1.5553257,0.0,0.004040003,0.09088189,2.6566804e-05,0,1,0,1
11884000,11802000,11804000,0,1.5744812,0.0,-0.015096784,0.090876326,0.0003709979,0,1,0,1
11956000,11873200,11876000,0,1.5579861,0.0,0.0014749765,0.09086904,3.5416665e-06,0,1,0,1
12020000,11940000,11940000,0,1.5577763,0.0,0.0016666651,0.0908637,4.522303e-06,0,1,0,1
12092000,12011636,12012000,0,1.5575293,0.0,0.0018568039,0.09085886,5.6132985e-06,0,1,0,1
12164000,12084000,12084000,0,1.5467235,0.0,0.01265192,0.0908519,0.00026063467,0,1,0,1
12236000,12155636,12156000,0,1.559703,0.0,-0.0005196333,0.090847224,4.396789e-07,0,1,0,1
12308000,12228000,12228000,0,1.5474595,0.0,0.011741996,0.090842694,0.00022451596,0,1,0,1
12380000,12299636,12300000,0,1.5575923,0.0,0.0017707348,0.09083601,5.1062534e-06,0,1,0,1
12452000,12372000,12372000,0,1.5407848,0.0,0.01850307,0.09083166,0.0005575755,0,1,0,1
12524000,12442909,12444000,0,1.5558369,0.0,0.0032657385,0.09082737,1.7369985e-05,0,1,0,1
12596000,12516000,12516000,0,1.5529683,0.0,0.0061450005,0.09082097,6.1505096e-05,0,1,0,1
12668000,12587636,12588000,0,1.5543541,0.0,0.00488019,0.09081686,3.879362e-05,0,1,0,1
12740000,12660000,12660000,0,1.5646654,0.0,-0.005537033,0.09081065,4.9942562e-05,0,1,0,1
12812000,12731272,12732000,0,1.5518637,0.0,0.007388711,0.09080674,8.893499e-05,0,1,0,1
12884000,12804000,12804000,0,1.5512494,0.0,0.007838488,0.090802886,0.00010009635,0,1,0,1
12956000,12875636,12876000,0,1.5545946,0.0,0.00442636,0.090796925,3.192094e-05,0,1,0,1
13028000,12948000,12948000,0,1.5543345,0.0,0.004621029,0.09079323,3.479183e-05,0,1,0,1
13100000,13019272,13020000,0,1.5599138,0.0,-0.0009819269,0.090789616,1.5709975e-06,0,1,0,1
13172000,13092000,13092000,0,1.5733302,0.0,-0.014382243,0.09078391,0.00033705262,0,1,0,1
13244000,13163636,13164000,0,1.5580083,0.0,0.0010061264,0.090780474,1.6495519e-06,0,1,0,1
13316000,13236000,13236000,0,1.5523938,0.0,0.0065630674,0.090777084,7.0192524e-05,0,1,0,1
13388000,13307272,13308000,0,1.5525627,0.0,0.0064281225,0.09077158,6.733979e-05,0,1,0,1
13460000,13380000,13380000,0,1.5609893,0.0,-0.0019823313,0.09076831,6.404299e-06,0,1,0,1
13532000,13451636,13452000,0,1.5596281,0.0,-0.00066399574,0.090762936,7.1858045e-07,0,1,0,1
13604000,13524000,13524000,0,1.5626186,0.0,-0.0037977695,0.09075979,2.3508075e-05,0,1,0,1
13676000,13595636,13596000,0,1.5525299,0.0,0.0063796043,0.090756744,6.633794e-05,0,1,0,1
13748000,13668000,13668000,0,1.5849985,0.0,-0.026040196,0.09075161,0.0011053188,0,1,0,1
13820000,13739272,13740000,0,1.5576726,0.0,0.0015335083,0.09074871,3.8334088e-06,0,1,0,1
13892000,13812000,13812000,0,1.575514,0.0,-0.016233444,0.09074582,0.00042958395,0,1,0,1
13964000,13884000,13884000,0,1.5526129,0.0,0.006560445,0.09074085,7.016444e-05,0,1,0,1
14036000,13956000,13956000,0,1.5422683,0.0,0.016901493,0.09073806,0.00046570835,0,1,0,1
14108000,14026545,14028000,0,1.5551543,0.0,0.003799796,0.09073531,2.3539522e-05,0,1,0,1
14180000,14100000,14100000,0,1.5580479,0.0,0.00096452236,0.09073053,1.5167866e-06,0,1,0,1
14252000,14171636,14172000,0,1.5501275,0.0,0.008965373,0.09072792,0.00013105365,0,1,0,1
14324000,14244000,14244000,0,1.5399038,0.0,0.019217968,0.09072533,0.00060219853,0,1,0,1
14396000,14315636,14316000,0,1.5558444,0.0,0.0030856133,0.090720624,1.5524953e-05,0,1,0,1
14468000,14388000,14388000,0,1.5418369,0.0,0.01703906,0.09071815,0.00047342424,0,1,0,1
14540000,14459272,14460000,0,1.5568633,0.0,0.0019292831,0.09071361,6.069778e-06,0,1,0,1
14612000,14532000,14532000,0,1.5588171,0.0,-0.00013828278,0.09071123,3.118376e-08,0,1,0,1
14684000,14603636,14604000,0,1.5555593,0.0,0.0030593872,0.09070891,1.5264137e-05,0,1,0,1
14756000,14676000,14676000,0,1.5440748,0.0,0.014551282,0.09070459,0.0003453239,0,1,0,1
14828000,14748000,14748000,0,1.5547786,0.0,0.0038573742,0.09070232,2.4267136e-05,0,1,0,1
14900000,14820000,14820000,0,1.5617002,0.0,-0.003113389,0.09070012,1.5809286e-05,0,1,0,1
14972000,14891272,14892000,0,1.5541893,0.0,0.004516244,0.09069588,3.326753e-05,0,1,0,1
15044000,14964000,14964000,0,1.5367846,0.0,0.021888494,0.09069375,0.00078146183,0,1,0,1
15116000,15036000,15036000,0,1.5533046,0.0,0.0052684546,0.09069164,4.5274388e-05,0,1,0,1
15188000,15108000,15108000,0,1.5613508,0.0,-0.0029315948,0.0906875,1.4018897e-05,0,1,0,1
15260000,15178909,15180000,0,1.5595698,0.0,-0.0011497736,0.09068552,2.1564535e-06,0,1,0,1
15332000,15252000,15252000,0,1.553108,0.0,0.0053828955,0.09068152,4.7267917e-05,0,1,0,1
15404000,15322909,15324000,0,1.55203,0.0,0.006477475,0.09067959,6.844714e-05,0,1,0,1
15476000,15396000,15396000,0,1.5515853,0.0,0.0068125725,0.09067769,7.571382e-05,0,1,0,1
15548000,15466909,15468000,0,1.5523007,0.0,0.0060884953,0.09067381,6.0477163e-05,0,1,0,1
15620000,15540000,15540000,0,1.5477781,0.0,0.010560155,0.090671994,0.00018193688,0,1,0,1
15692000,15612000,15612000,0,1.5487324,0.0,0.009670258,0.0906702,0.0001525685,0,1,0,1
15764000,15684000,15684000,0,1.5489749,0.0,0.009298563,0.090666376,0.00014107134,0,1,0,1
15836000,15755636,15756000,0,1.5495567,0.0,0.0086967945,0.09066465,0.0001234053,0,1,0,1
15908000,15828000,15828000,0,1.553408,0.0,0.004822731,0.090662956,3.79498e-05,0,1,0,1
15980000,15898909,15900000,0,1.5532475,0.0,0.0050655603,0.09065926,4.1869345e-05,0,1,0,1
16052000,15972000,15972000,0,1.5405279,0.0,0.017754197,0.09065764,0.0005143409,0,1,0,1
16124000,16042909,16044000,0,1.5505933,0.0,0.0075564384,0.09065603,9.3173185e-05,0,1,0,1
16196000,16116000,16116000,0,1.5493273,0.0,0.00889039,0.090652436,0.00012897798,0,1,0,1
16268000,16188000,16188000,0,1.5491279,0.0,0.00889504,0.090650894,0.0001291151,0,1,0,1
16340000,16260000,16260000,0,1.5406057,0.0,0.017357588,0.09064738,0.00049167353,0,1,0,1
16412000,16332000,16332000,0,1.5495536,0.0,0.008212924,0.090645865,0.000110078116,0,1,0,1
16484000,16404000,16404000,0,1.5447536,0.0,0.012937188,0.09064442,0.00027314425,0,1,0,1
16556000,16475272,16476000,0,1.5543971,0.0,0.003358841,0.09064106,1.8412267e-05,0,1,0,1
16628000,16548000,16548000,0,1.5590743,0.0,-0.0013025999,0.090639666,2.769218e-06,0,1,0,1
16700000,16619636,16620000,0,1.5518438,0.0,0.0059890747,0.09063832,5.8541114e-05,0,1,0,1
16772000,16692000,16692000,0,1.549119,0.0,0.008620143,0.090634994,0.00012127922,0,1,0,1
16844000,16763272,16764000,0,1.5551997,0.0,0.0025345087,0.09063366,1.04845885e-05,0,1,0,1
16916000,16832000,16836000,0,1.5690308,0.0,-0.011282563,0.09063238,0.00020777127,0,1,0,1
16988000,16901600,16908000,0,1.5502044,0.0,0.007520199,0.09062917,9.230899e-05,0,1,0,1
17060000,16974000,16980000,0,1.5523769,0.0,0.005354643,0.09062792,4.6800702e-05,0,1,0,1
17132000,17045600,17052000,0,1.5502878,0.0,0.007466674,0.09062475,9.100409e-05,0,1,0,1
17204000,17118000,17124000,0,1.563728,0.0,-0.0058517456,0.09062354,5.5896315e-05,0,1,0,1
17276000,17189600,17196000,0,1.5529196,0.0,0.004982114,0.090622395,4.051773e-05,0,1,0,1
17348000,17262000,17268000,0,1.5633307,0.0,-0.0054916143,0.09061927,4.923034e-05,0,1,0,1
17420000,17333200,17340000,0,1.5498604,0.0,0.008011222,0.090618156,0.00010476969,0,1,0,1
17484000,17400000,17404000,0,1.5590485,0.0,-0.0012441874,0.090616696,2.5270667e-06,0,1,0,1
17556000,17471272,17476000,0,1.5558234,0.0,0.00202775,0.090613715,6.7125607e-06,0,1,0,1
17628000,17544000,17548000,0,1.5501436,0.0,0.007684469,0.09061265,9.640338e-05,0,1,0,1
17700000,17615636,17620000,0,1.5527409,0.0,0.0050154924,0.0906116,4.1067353e-05,0,1,0,1
17772000,17688000,17692000,0,1.5672373,0.0,-0.009542465,0.09060867,0.00014866363,0,1,0,1
17844000,17759272,17764000,0,1.5519396,0.0,0.005637288,0.09060769,5.1883442e-05,0,1,0,1
17916000,17832000,17836000,0,1.5570484,0.0,0.0004979372,0.0906067,4.0480157e-07,0,1,0,1
17988000,17904000,17908000,0,1.5534861,0.0,0.0041280985,0.090603895,2.782317e-05,0,1,0,1
18060000,17976000,17980000,0,1.5591886,0.0,-0.0014257431,0.09060294,3.3188958e-06,0,1,0,1
18132000,18047636,18052000,0,1.5535084,0.0,0.0042442083,0.0906001,2.941156e-05,0,1,0,1
18196000,18116000,18116000,0,1.5535837,0.0,0.0041058064,0.09059885,2.7525017e-05,0,1,0,1
18268000,18185600,18188000,0,1.5563198,0.0,0.0013526678,0.09059796,2.9875641e-06,0,1,0,1
18340000,18256000,18260000,0,1.5553393,0.0,0.0023436546,0.090595216,8.968819e-06,0,1,0,1
18404000,18324000,18324000,0,1.5527949,0.0,0.0049248934,0.090594016,3.9604773e-05,0,1,0,1
18476000,18396000,18396000,0,1.5512617,0.0,0.0064942837,0.090593174,6.886847e-05,0,1,0,1
18548000,18468000,18468000,0,1.551215,0.0,0.006406784,0.09059049,6.702718e-05,0,1,0,1
18620000,18538666,18540000,0,1.5482156,0.0,0.009372115,0.09058967,0.00014343327,0,1,0,1
18692000,18606000,18612000,0,1.5542437,0.0,0.0032241344,0.090588875,1.6974804e-05,0,1,0,1
18764000,18678000,18684000,0,1.5532432,0.0,0.0043480396,0.09058626,3.087294e-05,0,1,0,1
18836000,18749000,18756000,0,1.5515093,0.0,0.0060704947,0.09058549,6.017871e-05,0,1,0,1
18900000,18816000,18820000,0,1.5439848,0.0,0.013657451,0.09058441,0.00030460648,0,1,0,1
18972000,18888000,18892000,0,1.5556766,0.0,0.0018618107,0.09058181,5.6608724e-06,0,1,0,1
19044000,18958666,18964000,0,1.5469942,0.0,0.010655403,0.0905811,0.00018541956,0,1,0,1
19108000,19025500,19028000,0,1.5527806,0.0,0.0047364235,0.090580046,3.6637168e-05,0,1,0,1
19180000,19098000,19100000,0,1.5485935,0.0,0.008729339,0.09057754,0.00012445016,0,1,0,1
19252000,19169500,19172000,0,1.5493217,0.0,0.007953286,0.09057685,0.000103306906,0,1,0,1
19324000,19241000,19244000,0,1.5508517,0.0,0.0063672066,0.09057619,6.621207e-05,0,1,0,1
19396000,19313000,19316000,0,1.5455571,0.0,0.011676669,0.09057378,0.0002226839,0,1,0,1
19460000,19380000,19380000,0,1.5575937,0.0,-0.00051653385,0.0905728,4.357658e-07,0,1,0,1
19532000,19451555,19452000,0,1.5502205,0.0,0.006896496,0.090570495,7.768257e-05,0,1,0,1
19604000,19524000,19524000,0,1.5541728,0.0,0.0027936697,0.090569876,1.2747344e-05,0,1,0,1
19676000,19595555,19596000,0,1.5541351,0.0,0.002817154,0.09056928,1.2962644e-05,0,1,0,1
19748000,19668000,19668000,0,1.5583682,0.0,-0.0014097691,0.090566956,3.2462317e-06,0,1,0,1
19820000,19739111,19740000,0,1.5498009,0.0,0.007152796,0.09056639,8.3567604e-05,0,1,0,1
19892000,19806000,19812000,0,1.5450854,0.0,0.011917472,0.09056582,0.00023198362,0,1,0,1
19964000,19877600,19884000,0,1.5512667,0.0,0.005653858,0.09056352,5.221435e-05,0,1,0,1
20036000,19950000,19956000,0,1.5541865,0.0,0.002825141,0.09056298,1.3037157e-05,0,1,0,1
20108000,20021600,20028000,0,1.5554985,0.0,0.0016074181,0.090562455,4.2204897e-06,0,1,0,1
20172000,20092000,20092000,0,1.553733,0.0,0.0033336878,0.090559825,1.8153803e-05,0,1,0,1
20244000,20159555,20164000,0,1.5573387,0.0,-0.00020873547,0.09055932,7.117258e-08,0,1,0,1
20316000,20232000,20236000,0,1.5578381,0.0,-0.0006170273,0.09055884,6.2191526e-07,0,1,0,1
20388000,20303555,20308000,0,1.5461974,0.0,0.010986686,0.09055658,0.00019718177,0,1,0,1
20460000,20376000,20380000,0,1.5490897,0.0,0.00800395,0.09055609,0.000104651255,0,1,0,1
20532000,20447111,20452000,0,1.5524453,0.0,0.0046072006,0.09055387,3.4675326e-05,0,1,0,1
20596000,20514000,20516000,0,1.5376457,0.0,0.01938343,0.09055309,0.0006137781,0,1,0,1
20668000,20585200,20588000,0,1.556963,0.0,-6.055832e-05,0.09055261,5.9910095e-09,0,1,0,1
20732000,20652000,20652000,0,1.5381773,0.0,0.01882267,0.09055017,0.00057879736,0,1,0,1
20804000,20724000,20724000,0,1.555711,0.0,0.0012954473,0.090549715,2.7416108e-06,0,1,0,1
20876000,20796000,20796000,0,1.5575075,0.0,-0.0005184412,0.09054931,4.391038e-07,0,1,0,1
20948000,20866909,20868000,0,1.5506872,0.0,0.0062749386,0.0905472,6.432759e-05,0,1,0,1
21020000,20940000,20940000,0,1.5604233,0.0,-0.0035362244,0.0905468,2.04296e-05,0,1,0,1
21092000,21011636,21012000,0,1.5504652,0.0,0.0064543486,0.09054644,6.805919e-05,0,1,0,1
21164000,21084000,21084000,0,1.54484,0.0,0.012104988,0.09054441,0.00023939797,0,1,0,1
21236000,21156000,21156000,0,1.5486184,0.0,0.008345008,0.090544015,0.00011377507,0,1,0,1
21308000,21228000,21228000,0,1.547583,0.0,0.009453416,0.09054365,0.00014600673,0,1,0,1
21380000,21299272,21300000,0,1.5508208,0.0,0.0059986115,0.09054155,5.8790465e-05,0,1,0,1
21452000,21372000,21372000,0,1.5801702,0.0,-0.023393154,0.09054121,0.0008940971,0,1,0,1
21524000,21442909,21444000,0,1.5491362,0.0,0.007820606,0.09054092,9.992848e-05,0,1,0,1
21596000,21516000,21516000,0,1.5712018,0.0,-0.01433754,0.09053894,0.00033586688,0,1,0,1
21668000,21587272,21588000,0,1.5526904,0.0,0.0043035746,0.09053866,3.0260631e-05,0,1,0,1
21740000,21660000,21660000,0,1.5388035,0.0,0.01804769,0.090536736,0.00053219625,0,1,0,1
21812000,21731272,21732000,0,1.5523828,0.0,0.0043975115,0.0905364,3.1596872e-05,0,1,0,1
21884000,21804000,21804000,0,1.5555607,0.0,0.0011330843,0.090536095,2.0977611e-06,0,1,0,1
21956000,21874909,21876000,0,1.5543647,0.0,0.002385497,0.090534195,9.298192e-06,0,1,0,1
22028000,21948000,21948000,0,1.561575,0.0,-0.004904151,0.09053391,3.9297935e-05,0,1,0,1
22100000,22019636,22020000,0,1.55693,0.0,-0.0002104044,0.09053365,7.233574e-08,0,1,0,1
22172000,22092000,22092000,0,1.5755256,0.0,-0.018683791,0.09053179,0.00057040364,0,1,0,1
22244000,22162909,22164000,0,1.547777,0.0,0.009054303,0.09053156,0.00013395639,0,1,0,1
22316000,22236000,22236000,0,1.5304469,0.0,0.026305556,0.09053129,0.0011307058,0,1,0,1
22388000,22308000,22308000,0,1.5579057,0.0,-0.0012285709,0.09052941,2.4664034e-06,0,1,0,1
22460000,22380000,22380000,0,1.5558118,0.0,0.0007787943,0.09052918,9.910835e-07,0,1,0,1
22532000,22451272,22452000,0,1.5494963,0.0,0.0071436167,0.090527385,8.3389175e-05,0,1,0,1
22604000,22524000,22524000,0,1.5478532,0.0,0.008780122,0.09052713,0.00012597248,0,1,0,1
22676000,22595636,22596000,0,1.548153,0.0,0.008487105,0.090526894,0.000117705,0,1,0,1
22748000,22668000,22668000,0,1.560917,0.0,-0.0044027567,0.0905251,3.1676245e-05,0,1,0,1
22820000,22739272,22740000,0,1.549333,0.0,0.007246256,0.09052489,8.580502e-05,0,1,0,1
22892000,22812000,22812000,0,1.5530075,0.0,0.0035932064,0.090524666,2.1098458e-05,0,1,0,1
22964000,22883272,22884000,0,1.5548533,0.0,0.0016539097,0.09052284,4.4701155e-06,0,1,0,1
23036000,22956000,22956000,0,1.5556353,0.0,0.00078594685,0.09052264,1.0094445e-06,0,1,0,1
23108000,23027636,23028000,0,1.5534936,0.0,0.0028729439,0.09052245,1.3488116e-05,0,1,0,1
23180000,23096000,23100000,0,1.5588105,0.0,-0.0023177862,0.09052077,8.779138e-06,0,1,0,1
23252000,23165200,23172000,0,1.554904,0.0,0.0016534328,0.09052059,4.4676494e-06,0,1,0,1
23316000,23232000,23236000,0,1.5566077,0.0,-0.00014925003,0.0905201,3.6402998e-08,0,1,0,1
23388000,23303272,23308000,0,1.5573552,0.0,-0.0009044409,0.090518385,1.3368323e-06,0,1,0,1
23460000,23376000,23380000,0,1.5278327,0.0,0.028711438,0.090518214,0.0013471851,0,1,0,1
23532000,23448000,23452000,0,1.5562857,0.0,9.36985e-05,0.09051647,1.4347989e-08,0,1,0,1
23596000,23516000,23516000,0,1.5371245,0.0,0.019310951,0.09051599,0.0006094462,0,1,0,1
23668000,23585200,23588000,0,1.5604737,0.0,-0.0041593313,0.09051581,2.8273264e-05,0,1,0,1
23732000,23652000,23652000,0,1.5482935,0.0,0.007977128,0.090513855,0.00010399955,0,1,0,1
23804000,23723272,23724000,0,1.5552822,0.0,0.0010390282,0.0905137,1.7643863e-06,0,1,0,1
23876000,23796000,23796000,0,1.5715501,0.0,-0.015239477,0.09051356,0.0003795595,0,1,0,1
23948000,23866909,23868000,0,1.5529755,0.0,0.003402114,0.09051194,1.8916691e-05,0,1,0,1
24020000,23940000,23940000,0,1.5640141,0.0,-0.0078213215,0.09051181,9.997891e-05,0,1,0,1
24092000,24011636,24012000,0,1.5481524,0.0,0.0080708265,0.090511695,0.00010645957,0,1,0,1
24164000,24084000,24084000,0,1.5421267,0.0,0.014168143,0.090510115,0.00032808178,0,1,0,1
24236000,24155636,24156000,0,1.5562905,0.0,-0.00013458729,0.090509966,2.9605e-08,0,1,0,1
24308000,24228000,24228000,0,1.5640146,0.0,-0.007917404,0.09050986,0.000102452614,0,1,0,1
24380000,24298545,24300000,0,1.5519611,0.0,0.004216194,0.090508305,2.9054012e-05,0,1,0,1
24452000,24372000,24372000,0,1.5514609,0.0,0.0047545433,0.09050819,3.694733e-05,0,1,0,1
24524000,24442909,24444000,0,1.5483576,0.0,0.007813811,0.09050809,9.97911e-05,0,1,0,1
24596000,24516000,24516000,0,1.5365936,0.0,0.019541383,0.0905065,0.0006241431,0,1,0,1
24668000,24588000,24588000,0,1.5508796,0.0,0.0051578283,0.09050636,4.348185e-05,0,1,0,1
24740000,24660000,24660000,0,1.5347235,0.0,0.021346688,0.090504825,0.0007448051,0,1,0,1
24812000,24730909,24732000,0,1.5537364,0.0,0.0022953749,0.09050469,8.6117125e-06,0,1,0,1
24884000,24804000,24804000,0,1.5334407,0.0,0.02260232,0.0905046,0.00083500426,0,1,0,1
24956000,24874181,24876000,0,1.5469172,0.0,0.008957267,0.09050301,0.00013114187,0,1,0,1
25028000,24948000,24948000,0,1.5598501,0.0,-0.0039303303,0.09050291,2.5249275e-05,0,1,0,1
25100000,25019636,25020000,0,1.5528044,0.0,0.003277421,0.09050285,1.7557211e-05,0,1,0,1
25172000,25092000,25092000,0,1.575512,0.0,-0.019592643,0.090501286,0.000627458,0,1,0,1
25244000,25162909,25164000,0,1.5465583,0.0,0.009587884,0.09050126,0.0001502603,0,1,0,1
25316000,25236000,25236000,0,1.5545838,0.0,0.001424551,0.090501174,3.3170738e-06,0,1,0,1
25388000,25307636,25308000,0,1.5474788,0.0,0.008511543,0.09049968,0.000118419426,0,1,0,1
25460000,25380000,25380000,0,1.5611906,0.0,-0.0051198006,0.090499595,4.2846248e-05,0,1,0,1
25532000,25451272,25452000,0,1.5524571,0.0,0.0036568642,0.09049809,2.1859067e-05,0,1,0,1
25604000,25524000,25524000,0,1.5488627,0.0,0.0073798895,0.09049804,8.9025394e-05,0,1,0,1
25676000,25595272,25596000,0,1.5559981,0.0,0.0003247261,0.09049796,1.7236495e-07,0,1,0,1
25748000,25668000,25668000,0,1.5574778,0.0,-0.0012584925,0.09049646,2.5889462e-06,0,1,0,1
25820000,25739636,25740000,0,1.5503193,0.0,0.005893588,0.09049641,5.6778194e-05,0,1,0,1
25892000,25812000,25812000,0,1.5579146,0.0,-0.0017758608,0.090496354,5.1551356e-06,0,1,0,1
25964000,25883272,25884000,0,1.5540789,0.0,0.002212882,0.09049492,8.004711e-06,0,1,0,1
26036000,25956000,25956000,0,1.5599052,0.0,-0.0036438704,0.09049488,2.1704771e-05,0,1,0,1
26108000,26027272,26028000,0,1.5549971,0.0,0.00119555,0.09049485,2.3364955e-06,0,1,0,1
26180000,26100000,26100000,0,1.5544857,0.0,0.0016543865,0.09049346,4.4741455e-06,0,1,0,1
26252000,26171636,26172000,0,1.5497719,0.0,0.006233096,0.090493426,6.351028e-05,0,1,0,1
26324000,26244000,26244000,0,1.563476,0.0,-0.0073554516,0.09049339,8.844132e-05,0,1,0,1
26396000,26315636,26316000,0,1.5537139,0.0,0.0024636984,0.09049202,9.922433e-06,0,1,0,1
26468000,26388000,26388000,0,1.5568151,0.0,-0.0005506277,0.09049198,4.95632e-07,0,1,0,1
26540000,26458909,26460000,0,1.5521084,0.0,0.0040836334,0.090490595,2.7261103e-05,0,1,0,1
26612000,26532000,26532000,0,1.5608237,0.0,-0.004745245,0.09049056,3.6810132e-05,0,1,0,1
26684000,26603272,26604000,0,1.5474174,0.0,0.008774042,0.09049055,0.00012584894,0,1,0,1
26756000,26676000,26676000,0,1.5600861,0.0,-0.0039616823,0.09048917,2.5657599e-05,0,1,0,1
26828000,26747636,26748000,0,1.5533057,0.0,0.002683401,0.09048916,1.1771397e-05,0,1,0,1
26900000,26820000,26820000,0,1.5667387,0.0,-0.010824442,0.09048915,0.00019154372,0,1,0,1
26972000,26892000,26892000,0,1.5541501,0.0,0.0019817352,0.09048787,6.4202845e-06,0,1,0,1
27044000,26964000,26964000,0,1.5707464,0.0,-0.014505625,0.090487845,0.00034398222,0,1,0,1
27116000,27035272,27036000,0,1.5546285,0.0,0.0016922951,0.09048788,4.681824e-06,0,1,0,1
27188000,27108000,27108000,0,1.5510005,0.0,0.0052648783,0.09048651,4.531544e-05,0,1,0,1
27260000,27180000,27180000,0,1.5561686,0.0,-3.33786e-06,0.09048649,1.8214022e-11,0,1,0,1
27332000,27252000,27252000,0,1.5549468,0.0,0.0012607574,0.09048518,2.5985973e-06,0,1,0,1
27404000,27323636,27324000,0,1.5480325,0.0,0.008226156,0.09048517,0.00011062922,0,1,0,1
27476000,27396000,27396000,0,1.5549387,0.0,0.0011395216,0.09048515,2.122859e-06,0,1,0,1
27548000,27467636,27468000,0,1.5555222,0.0,0.0005886555,0.09048387,5.665061e-07,0,1,0,1
27620000,27540000,27540000,0,1.5522238,0.0,0.0039355755,0.09048387,2.5322042e-05,0,1,0,1
27692000,27612000,27612000,0,1.5543755,0.0,0.0017217398,0.09048386,4.8463776e-06,0,1,0,1
27764000,27684000,27684000,0,1.5758799,0.0,-0.019785643,0.09048258,0.0006400129,0,1,0,1
27836000,27754545,27756000,0,1.5524089,0.0,0.0037674904,0.09048262,2.3205583e-05,0,1,0,1
27908000,27828000,27828000,0,1.555027,0.0,0.0011717081,0.09048262,2.2445383e-06,0,1,0,1
27980000,27899272,27900000,0,1.54215,0.0,0.014135838,0.090481326,0.00032669125,0,1,0,1
28052000,27972000,27972000,0,1.5634935,0.0,-0.0071686506,0.0904813,8.401741e-05,0,1,0,1
28124000,28042909,28044000,0,1.5542611,0.0,0.0020896196,0.09048133,7.13886e-06,0,1,0,1
28196000,28116000,28116000,0,1.561761,0.0,-0.0055059195,0.09048002,4.9563318e-05,0,1,0,1
28268000,28187636,28188000,0,1.545198,0.0,0.011083245,0.09048005,0.00020083267,0,1,0,1
28340000,28260000,28260000,0,1.54068,0.0,0.01562965,0.09047875,0.0003993974,0,1,0,1
28412000,28332000,28332000,0,1.5494843,0.0,0.0068405867,0.090478726,7.650566e-05,0,1,0,1
28484000,28404000,28404000,0,1.5588571,0.0,-0.0026304722,0.09047873,1.1312908e-05,0,1,0,1
28556000,28474909,28476000,0,1.5558686,0.0,0.00028407574,0.09047752,1.3194136e-07,0,1,0,1
28628000,28548000,28548000,0,1.5351511,0.0,0.020998359,0.09047753,0.00072091375,0,1,0,1
28700000,28619272,28620000,0,1.5456104,0.0,0.010426879,0.09047751,0.0001777548,0,1,0,1
28772000,28692000,28692000,0,1.5556935,0.0,0.00028705597,0.09047628,1.3472611e-07,0,1,0,1
28844000,28762909,28764000,0,1.5528644,0.0,0.0032002926,0.09047631,1.6745487e-05,0,1,0,1
28916000,28836000,28836000,0,1.5387672,0.0,0.017359257,0.09047631,0.0004926979,0,1,0,1
28988000,28907636,28908000,0,1.54992,0.0,0.0060020685,0.09047502,5.890153e-05,0,1,0,1
29060000,28980000,28980000,0,1.5484418,0.0,0.007358432,0.09047505,8.8530935e-05,0,1,0,1
29132000,29051636,29052000,0,1.5537355,0.0,0.0021090508,0.0904739,7.272841e-06,0,1,0,1
29204000,29124000,29124000,0,1.5457687,0.0,0.010060906,0.09047392,0.00016550235,0,1,0,1
29276000,29196000,29196000,0,1.553667,0.0,0.00212574,0.09047392,7.3883975e-06,0,1,0,1
29348000,29268000,29268000,0,1.5416619,0.0,0.014058232,0.09047272,0.00032314478,0,1,0,1
29420000,29340000,29340000,0,1.548395,0.0,0.007181525,0.09047272,8.4327476e-05,0,1,0,1
29492000,29412000,29412000,0,1.5358838,0.0,0.019620657,0.09047273,0.00062945223,0,1,0,1
29564000,29482909,29484000,0,1.5497451,0.0,0.005682349,0.090471566,5.2795524e-05,0,1,0,1
29636000,29556000,29556000,0,1.5651518,0.0,-0.009803057,0.09047157,0.00015713186,0,1,0,1
29708000,29627272,29628000,0,1.5545026,0.0,0.0009863377,0.09047163,1.5907141e-06,0,1,0,1
29780000,29700000,29700000,0,1.5399412,0.0,0.015514016,0.09047048,0.0003935455,0,1,0,1
29852000,29771636,29772000,0,1.5559412,0.0,-0.0005415678,0.09047048,4.7957013e-07,0,1,0,1
29924000,29844000,29844000,0,1.5280164,0.0,0.027394772,0.090470515,0.0012271048,0,1,0,1
29996000,29915636,29916000,0,1.5578266,0.0,-0.0025327206,0.090469316,1.04888195e-05,0,1,0,1
30068000,29988000,29988000,0,1.5429107,0.0,0.012398839,0.09046935,0.00025137028,0,1,0,1
30140000,30058909,30060000,0,1.5548685,0.0,0.00047779083,0.09046816,3.732787e-07,0,1,0,1
30212000,30132000,30132000,0,1.5475558,0.0,0.00784874,0.09046819,0.00010072964,0,1,0,1
30284000,30203636,30204000,0,1.5553206,0.0,0.00020039082,0.09046822,6.566182e-08,0,1,0,1
30356000,30276000,30276000,0,1.5320685,0.0,0.023283482,0.090467066,0.0008864591,0,1,0,1
30428000,30347636,30348000,0,1.5573558,0.0,-0.0020581484,0.09046705,6.9265393e-06,0,1,0,1
30500000,30420000,30420000,0,1.5608889,0.0,-0.005454898,0.090467095,4.865595e-05,0,1,0,1
30572000,30491636,30492000,0,1.5503651,0.0,0.0050109625,0.09046594,4.1059207e-05,0,1,0,1
30644000,30564000,30564000,0,1.5481224,0.0,0.00719738,0.09046597,8.4706546e-05,0,1,0,1
30716000,30636000,30636000,0,1.5598898,0.0,-0.004459858,0.09046601,3.252445e-05,0,1,0,1
30788000,30708000,30708000,0,1.5512679,0.0,0.0042597055,0.09046488,2.967102e-05,0,1,0,1
30860000,30779636,30780000,0,1.5507408,0.0,0.0047385693,0.09046491,3.6717036e-05,0,1,0,1
30932000,30852000,30852000,0,1.5496324,0.0,0.005706191,0.09046384,5.324403e-05,0,1,0,1
31004000,30923636,30924000,0,1.554386,0.0,0.0009317398,0.09046386,1.4196049e-06,0,1,0,1
31076000,30996000,30996000,0,1.5426881,0.0,0.01271677,0.0904639,0.00026444276,0,1,0,1
31148000,31067272,31068000,0,1.5503864,0.0,0.0049637556,0.09046279,4.029064e-05,0,1,0,1
31220000,31140000,31140000,0,1.5588472,0.0,-0.0034365654,0.09046281,1.9312234e-05,0,1,0,1
31292000,31212000,31212000,0,1.5558032,0.0,-0.00029861927,0.09046286,1.4582054e-07,0,1,0,1
31364000,31284000,31284000,0,1.5510123,0.0,0.0043741465,0.090461776,3.128779e-05,0,1,0,1
31436000,31355272,31356000,0,1.5525885,0.0,0.0027338266,0.09046181,1.2221655e-05,0,1,0,1
31508000,31428000,31428000,0,1.5729296,0.0,-0.0176543,0.09046186,0.0005096697,0,1,0,1
31580000,31499272,31500000,0,1.557213,0.0,-0.0018520355,0.09046087,5.609075e-06,0,1,0,1
31652000,31572000,31572000,0,1.5564077,0.0,-0.0010707378,0.09046091,1.8748161e-06,0,1,0,1
31724000,31644000,31644000,0,1.5519375,0.0,0.0033509731,0.09046096,1.8362594e-05,0,1,0,1
31796000,31716000,31716000,0,1.5653511,0.0,-0.010162234,0.09045993,0.00016887896,0,1,0,1
31868000,31787636,31788000,0,1.5498759,0.0,0.005176306,0.09045999,4.38164e-05,0,1,0,1
31940000,31860000,31860000,0,1.5518616,0.0,0.0032994747,0.09045902,1.7802915e-05,0,1,0,1
32012000,31931272,31932000,0,1.5553038,0.0,-0.00020110607,0.09045905,6.613809e-08,0,1,0,1
32084000,32004000,32004000,0,1.5669334,0.0,-0.011750102,0.090459086,0.00022577947,0,1,0,1
32156000,32076000,32076000,0,1.5511857,0.0,0.004200816,0.09045808,2.8858472e-05,0,1,0,1
32228000,32148000,32148000,0,1.5608336,0.0,-0.0054483414,0.09045812,4.8543872e-05,0,1,0,1
32300000,32219636,32220000,0,1.5519569,0.0,0.0034905672,0.09045819,1.992496e-05,0,1,0,1
32372000,32292000,32292000,0,1.5536597,0.0,0.0017720461,0.090457134,5.135238e-06,0,1,0,1
32444000,32363636,32364000,0,1.5517498,0.0,0.0035136938,0.09045717,2.0190086e-05,0,1,0,1
32516000,32436000,32436000,0,1.540179,0.0,0.015010238,0.09045721,0.00036845572,0,1,0,1
32588000,32507272,32508000,0,1.5505618,0.0,0.004554391,0.0904562,3.3921544e-05,0,1,0,1
32660000,32580000,32580000,0,1.5680557,0.0,-0.013048768,0.09045623,0.00027845427,0,1,0,1
32732000,32651636,32652000,0,1.560141,0.0,-0.0048906803,0.0904553,3.911631e-05,0,1,0,1
32804000,32724000,32724000,0,1.5299754,0.0,0.025301456,0.09045535,0.0010469118,0,1,0,1
32876000,32795272,32796000,0,1.5531107,0.0,0.0021654367,0.09045534,7.6684955e-06,0,1,0,1
32948000,32868000,32868000,0,1.5678566,0.0,-0.01256299,0.09045429,0.0002581132,0,1,0,1
33020000,32939272,32940000,0,1.5605019,0.0,-0.005065322,0.09045436,4.1960237e-05,0,1,0,1
33092000,33012000,33012000,0,1.5529647,0.0,0.002473116,0.090454414,1.0002592e-05,0,1,0,1
33164000,33082545,33084000,0,1.5580958,0.0,-0.0026841164,0.09045344,1.1782324e-05,0,1,0,1
33236000,33156000,33156000,0,1.5514556,0.0,0.0040875673,0.09045349,2.7324855e-05,0,1,0,1
33308000,33227272,33228000,0,1.5536411,0.0,0.0019733906,0.09045353,6.3687457e-06,0,1,0,1
33380000,33300000,33300000,0,1.5561846,0.0,-0.00072073936,0.0904525,8.495506e-07,0,1,0,1
33452000,33371636,33372000,0,1.5569382,0.0,-0.0015095472,0.09045254,3.7267137e-06,0,1,0,1
33524000,33444000,33444000,0,1.5593047,0.0,-0.003956437,0.090452604,2.560005e-05,0,1,0,1
33596000,33514909,33516000,0,1.5556042,0.0,-0.000207901,0.09045169,7.068867e-08,0,1,0,1
33668000,33588000,33588000,0,1.5590959,0.0,-0.0036286116,0.090451725,2.153364e-05,0,1,0,1
33740000,33659272,33660000,0,1.5509874,0.0,0.004622221,0.090450756,3.4941582e-05,0,1,0,1
33812000,33732000,33732000,0,1.5505995,0.0,0.0049800873,0.090450786,4.0561583e-05,0,1,0,1
33884000,33803636,33804000,0,1.5585947,0.0,-0.00297153,0.090450816,1.4441127e-05,0,1,0,1
33956000,33876000,33876000,0,1.5562943,0.0,-0.00063347816,0.090449855,6.563096e-07,0,1,0,1
34028000,33946545,33948000,0,1.5576377,0.0,-0.0020900965,0.0904499,7.1445997e-06,0,1,0,1
34100000,34020000,34020000,0,1.5353547,0.0,0.020162582,0.090449944,0.00066487095,0,1,0,1
34172000,34090909,34092000,0,1.5588661,0.0,-0.003354311,0.090449,1.8401628e-05,0,1,0,1
34244000,34164000,34164000,0,1.5491184,0.0,0.0064042807,0.09044904,6.707954e-05,0,1,0,1
34316000,34235272,34236000,0,1.5521431,0.0,0.0033427477,0.090449095,1.8274954e-05,0,1,0,1
34388000,34308000,34308000,0,1.5131677,0.0,0.04241526,0.09044816,0.0029423742,0,1,0,1
34460000,34380000,34380000,0,1.5504591,0.0,0.0048838854,0.090448104,3.90108e-05,0,1,0,1
34532000,34452000,34452000,0,1.5567949,0.0,-0.0014078617,0.09044712,3.241743e-06,0,1,0,1
34604000,34523272,34524000,0,1.5512841,0.0,0.0040661097,0.090447165,2.7040614e-05,0,1,0,1
34676000,34596000,34596000,0,1.5525575,0.0,0.0027228594,0.090447195,1.2125753e-05,0,1,0,1
34748000,34668000,34668000,0,1.5549371,0.0,0.0005021095,0.090446316,4.1234372e-07,0,1,0,1
34820000,34740000,34740000,0,1.5381297,0.0,0.017263174,0.09044635,0.00048742024,0,1,0,1
34892000,34811272,34812000,0,1.5551573,0.0,0.00017940998,0.090446346,5.2644804e-08,0,1,0,1
34964000,34884000,34884000,0,1.578572,0.0,-0.023221135,0.090445444,0.0008819288,0,1,0,1
35036000,34954545,34956000,0,1.5615945,0.0,-0.006106138,0.090445526,6.09817e-05,0,1,0,1
35108000,35028000,35028000,0,1.5401242,0.0,0.015411019,0.090445615,0.00038844414,0,1,0,1
35180000,35100000,35100000,0,1.5543499,0.0,0.0010790825,0.09044468,1.9044941e-06,0,1,0,1
35252000,35172000,35172000,0,1.5679437,0.0,-0.012438178,0.09044471,0.00025303685,0,1,0,1
35324000,35242545,35244000,0,1.5535098,0.0,0.002046585,0.090444766,6.850614e-06,0,1,0,1
35396000,35316000,35316000,0,1.5514642,0.0,0.0040141344,0.09044385,2.6354704e-05,0,1,0,1
35468000,35387272,35388000,0,1.5509831,0.0,0.0044697523,0.09044388,3.267692e-05,0,1,0,1
35540000,35460000,35460000,0,1.5605828,0.0,-0.005107045,0.09044302,4.265969e-05,0,1,0,1
35612000,35531272,35532000,0,1.5560112,0.0,-0.00053048134,0.09044307,4.6027597e-07,0,1,0,1
35684000,35604000,35604000,0,1.5639236,0.0,-0.008528829,0.090443105,0.00011897527,0,1,0,1
35756000,35674909,35676000,0,1.5555855,0.0,7.200241e-05,0.09044226,8.479613e-09,0,1,0,1
35828000,35748000,35748000,0,1.543795,0.0,0.011857629,0.09044229,0.00022997333,0,1,0,1
35900000,35819272,35820000,0,1.5517386,0.0,0.0039418936,0.09044233,2.5415075e-05,0,1,0,1
35972000,35892000,35892000,0,1.5416157,0.0,0.014160514,0.0904414,0.00032797753,0,1,0,1
36044000,35963636,35964000,0,1.5580573,0.0,-0.0023024082,0.0904414,8.670631e-06,0,1,0,1
36116000,36036000,36036000,0,1.5458797,0.0,0.009793282,0.090441436,0.0001568709,0,1,0,1
36188000,36107636,36108000,0,1.5578219,0.0,-0.002264142,0.09044053,8.3848945e-06,0,1,0,1
36260000,36180000,36180000,0,1.5615723,0.0,-0.0058449507,0.09044056,5.5879413e-05,0,1,0,1
36332000,36251636,36252000,0,1.5507269,0.0,0.0050207376,0.09043973,4.12315e-05,0,1,0,1
36404000,36324000,36324000,0,1.5697939,0.0,-0.0141580105,0.09043975,0.00032786754,0,1,0,1
36476000,36395272,36396000,0,1.5539455,0.0,0.0016520023,0.09043982,4.463905e-06,0,1,0,1
36548000,36468000,36468000,0,1.5497867,0.0,0.005809188,0.090439,5.5198645e-05,0,1,0,1
36620000,36539272,36540000,0,1.5557208,0.0,-0.00016283989,0.09043902,4.3372964e-08,0,1,0,1
36692000,36612000,36612000,0,1.5936787,0.0,-0.03800118,0.09043905,0.0023620632,0,1,0,1
36764000,36683272,36684000,0,1.5553825,0.0,0.0005469322,0.0904383,4.892919e-07,0,1,0,1
36836000,36756000,36756000,0,1.564296,0.0,-0.008420944,0.09043832,0.0001159905,0,1,0,1
36908000,36827272,36828000,0,1.5499038,0.0,0.0059484243,0.090438366,5.7876805e-05,0,1,0,1
36980000,36900000,36900000,0,1.554303,0.0,0.0014175177,0.09043752,3.2867122e-06,0,1,0,1
37052000,36971636,36972000,0,1.5538946,0.0,0.0018140078,0.09043754,5.382486e-06,0,1,0,1
37124000,37044000,37044000,0,1.551109,0.0,0.004763365,0.0904376,3.711351e-05,0,1,0,1
37196000,37114909,37116000,0,1.5589521,0.0,-0.0031323433,0.09043676,1.6048967e-05,0,1,0,1
37268000,37188000,37188000,0,1.5582516,0.0,-0.0024222136,0.090436794,9.596945e-06,0,1,0,1
37340000,37259272,37260000,0,1.5557144,0.0,0.00013184547,0.09043599,2.8434298e-08,0,1,0,1
37412000,37332000,37332000,0,1.5558319,0.0,-0.000116467476,0.090436004,2.218816e-08,0,1,0,1
37484000,37403636,37404000,0,1.55106,0.0,0.0046645403,0.090436034,3.559013e-05,0,1,0,1
37556000,37476000,37476000,0,1.5541266,0.0,0.0016967058,0.090435244,4.709e-06,0,1,0,1
37628000,37547272,37548000,0,1.5554241,0.0,0.00038027763,0.09043527,2.3654682e-07,0,1,0,1
37700000,37620000,37620000,0,1.5431097,0.0,0.01265049,0.09043529,0.00026177615,0,1,0,1
37772000,37690545,37692000,0,1.5474356,0.0,0.008365989,0.09043443,0.00011448644,0,1,0,1
37844000,37764000,37764000,0,1.5773855,0.0,-0.021558762,0.09043443,0.00076026877,0,1,0,1
37916000,37835636,37836000,0,1.5579613,0.0,-0.0020291805,0.09043452,6.735355e-06,0,1,0,1
37988000,37908000,37908000,0,1.5379401,0.0,0.018141866,0.090433694,0.0005383776,0,1,0,1
38060000,37979636,37980000,0,1.5509754,0.0,0.005044818,0.09043367,4.1630745e-05,0,1,0,1
38132000,38052000,38052000,0,1.5562333,0.0,-0.00035393238,0.09043283,2.0491221e-07,0,1,0,1
38204000,38124000,38124000,0,1.5545467,0.0,0.00142169,0.090432845,3.3062595e-06,0,1,0,1
38276000,38196000,38196000,0,1.5553498,0.0,0.0005685091,0.09043287,5.28691e-07,0,1,0,1
38348000,38267636,38268000,0,1.5511545,0.0,0.0048555136,0.09043206,3.8565704e-05,0,1,0,1
38420000,38340000,38340000,0,1.5511466,0.0,0.004853606,0.09043207,3.8535407e-05,0,1,0,1
38492000,38412000,38412000,0,1.5516614,0.0,0.00424242,0.09043207,2.9441384e-05,0,1,0,1
38564000,38484000,38484000,0,1.5607656,0.0,-0.0047613382,0.09043125,3.7084537e-05,0,1,0,1
38636000,38555636,38556000,0,1.5464549,0.0,0.009646535,0.09043129,0.00015222197,0,1,0,1
38708000,38628000,38628000,0,1.5456096,0.0,0.010508537,0.090431295,0.00018064216,0,1,0,1
38780000,38699636,38700000,0,1.5544157,0.0,0.0016263723,0.09043044,4.3269183e-06,0,1,0,1
38852000,38772000,38772000,0,1.56868,0.0,-0.012727618,0.090430446,0.00026499212,0,1,0,1
38924000,38843636,38844000,0,1.5520995,0.0,0.0039497614,0.09043049,2.5519972e-05,0,1,0,1
38996000,38916000,38916000,0,1.5376829,0.0,0.018375516,0.09042971,0.00055235886,0,1,0,1
39068000,38987636,38988000,0,1.5560819,0.0,-0.0001232624,0.09042968,2.4854419e-08,0,1,0,1
39140000,39060000,39060000,0,1.5592123,0.0,-0.0032906532,0.090428926,1.7713739e-05,0,1,0,1
39212000,39131272,39132000,0,1.5524126,0.0,0.0034956932,0.09042895,1.9989986e-05,0,1,0,1
39284000,39204000,39204000,0,1.5489091,0.0,0.0068883896,0.090428956,7.762136e-05,0,1,0,1
39356000,39275636,39276000,0,1.5549306,0.0,0.0008716583,0.090428196,1.2429167e-06,0,1,0,1
39428000,39348000,39348000,0,1.5582112,0.0,-0.0023912191,0.09042821,9.353802e-06,0,1,0,1
39500000,39420000,39420000,0,1.5528475,0.0,0.0029845238,0.09042823,1.4571336e-05,0,1,0,1
39572000,39492000,39492000,0,1.5317038,0.0,0.024078846,0.090427466,0.0009484716,0,1,0,1
39644000,39563636,39564000,0,1.5477585,0.0,0.007932544,0.09042742,0.000102938575,0,1,0,1
39716000,39636000,39636000,0,1.5713564,0.0,-0.015742302,0.09042741,0.0004054056,0,1,0,1
39788000,39707636,39708000,0,1.551032,0.0,0.0046020746,0.090426706,3.4646862e-05,0,1,0,1
39860000,39780000,39780000,0,1.5435389,0.0,0.012055397,0.0904267,0.00023774954,0,1,0,1
39932000,39851272,39852000,0,1.5525036,0.0,0.0031118393,0.09042594,1.584144e-05,0,1,0,1
40004000,39924000,39924000,0,1.5622274,0.0,-0.0067591667,0.090425946,7.4738884e-05,0,1,0,1
40076000,39995272,39996000,0,1.5562474,0.0,-0.00067448616,0.09042597,7.4422843e-07,0,1,0,1
40148000,40068000,40068000,0,1.5600224,0.0,-0.00441885,0.09042522,3.1943484e-05,0,1,0,1
40220000,40138181,40140000,0,1.5505525,0.0,0.0051778555,0.09042524,4.3859487e-05,0,1,0,1
40292000,40212000,40212000,0,1.5714906,0.0,-0.015839815,0.09042524,0.00041045347,0,1,0,1
40364000,40284000,40284000,0,1.5525335,0.0,0.0033088923,0.090424515,1.791152e-05,0,1,0,1
40436000,40356000,40356000,0,1.5553935,0.0,0.0005456209,0.09042451,4.870227e-07,0,1,0,1
40508000,40428000,40428000,0,1.5543321,0.0,0.0017203093,0.090424515,4.841503e-06,0,1,0,1
40580000,40500000,40500000,0,1.5546583,0.0,0.0014708042,0.09042371,3.5390015e-06,0,1,0,1
40652000,40571272,40572000,0,1.5630842,0.0,-0.0069584846,0.09042371,7.9213714e-05,0,1,0,1
40724000,40644000,40644000,0,1.5398995,0.0,0.016296387,0.09042374,0.00043446373,0,1,0,1
40796000,40715636,40716000,0,1.5519124,0.0,0.004102111,0.09042293,2.7528944e-05,0,1,0,1
40868000,40788000,40788000,0,1.54842,0.0,0.007493615,0.09042292,9.186659e-05,0,1,0,1
40940000,40860000,40860000,0,1.556122,0.0,-0.00027120113,0.090422206,1.2032649e-07,0,1,0,1
41012000,40932000,40932000,0,1.5358241,0.0,0.0200907,0.090422206,0.0006603412,0,1,0,1
41084000,41003636,41004000,0,1.5549589,0.0,0.0007157326,0.09042217,8.380694e-07,0,1,0,1
41156000,41076000,41076000,0,1.5376298,0.0,0.018127441,0.09042146,0.00053759455,0,1,0,1
41228000,41147636,41148000,0,1.5504428,0.0,0.005205393,0.09042142,4.4329114e-05,0,1,0,1
41300000,41220000,41220000,0,1.530999,0.0,0.024646044,0.09042141,0.0009937485,0,1,0,1
41372000,41292000,41292000,0,1.549323,0.0,0.0062283278,0.090420656,6.346418e-05,0,1,0,1
41444000,41364000,41364000,0,1.5521754,0.0,0.0033596754,0.09042064,1.846632e-05,0,1,0,1
41516000,41434909,41436000,0,1.5603442,0.0,-0.0047142506,0.090420626,3.6358935e-05,0,1,0,1
41588000,41508000,41508000,0,1.5561075,0.0,-0.00046384335,0.09041989,3.5199142e-07,0,1,0,1
41660000,41578909,41580000,0,1.5575954,0.0,-0.0020029545,0.09041989,6.5634404e-06,0,1,0,1
41732000,41652000,41652000,0,1.5610855,0.0,-0.0055104494,0.09041919,4.9678307e-05,0,1,0,1
41804000,41722909,41724000,0,1.5569376,0.0,-0.0013813972,0.0904192,3.121978e-06,0,1,0,1
41876000,41796000,41796000,0,1.5806239,0.0,-0.024912834,0.0904192,0.0010154041,0,1,0,1
41948000,41867272,41868000,0,1.552687,0.0,0.0030155182,0.09041854,1.4877151e-05,0,1,0,1
42020000,41940000,41940000,0,1.5515343,0.0,0.004137635,0.09041853,2.8009172e-05,0,1,0,1
42092000,42011272,42012000,0,1.5509995,0.0,0.004749775,0.090418525,3.6909823e-05,0,1,0,1
42164000,42084000,42084000,0,1.537191,0.0,0.018402219,0.09041782,0.0005540382,0,1,0,1
42236000,42155272,42156000,0,1.5593965,0.0,-0.0039526224,0.09041778,2.5560548e-05,0,1,0,1
42308000,42228000,42228000,0,1.5443969,0.0,0.0111147165,0.09041777,0.00020211398,0,1,0,1
42380000,42299636,42300000,0,1.5491217,0.0,0.006239176,0.09041707,6.368796e-05,0,1,0,1
42452000,42372000,42372000,0,1.5574288,0.0,-0.0020632744,0.09041706,6.964933e-06,0,1,0,1
42524000,42444000,42444000,0,1.5602008,0.0,-0.0045799017,0.09041706,3.4317472e-05,0,1,0,1
42596000,42516000,42516000,0,1.5519361,0.0,0.0035533905,0.09041636,2.0658188e-05,0,1,0,1
42668000,42587636,42588000,0,1.5492188,0.0,0.006386757,0.09041634,6.673708e-05,0,1,0,1
42740000,42660000,42660000,0,1.5639666,0.0,-0.008441687,0.09041563,0.00011659188,0,1,0,1
42812000,42732000,42732000,0,1.5480334,0.0,0.007592678,0.09041564,9.4319126e-05,0,1,0,1
42884000,42804000,42804000,0,1.5635101,0.0,-0.007794738,0.09041562,9.9406076e-05,0,1,0,1
42956000,42876000,42876000,0,1.5508618,0.0,0.0048327446,0.09041492,3.8212103e-05,0,1,0,1
43028000,42948000,42948000,0,1.5601119,0.0,-0.004400134,0.090414904,3.167708e-05,0,1,0,1
43100000,43018909,43020000,0,1.5476235,0.0,0.00797224,0.0904149,0.000103985825,0,1,0,1
43172000,43092000,43092000,0,1.5646173,0.0,-0.009030104,0.09041423,0.00013341419,0,1,0,1
43244000,43164000,43164000,0,1.5566106,0.0,-0.00104177,0.09041425,1.7756613e-06,0,1,0,1
43316000,43236000,43236000,0,1.5550083,0.0,0.0005983114,0.09041424,5.856944e-07,0,1,0,1
43388000,43307636,43308000,0,1.557093,0.0,-0.0014539957,0.09041357,3.4589636e-06,0,1,0,1
43460000,43380000,43380000,0,1.5498314,0.0,0.0058624744,0.09041357,5.623176e-05,0,1,0,1
43532000,43450909,43452000,0,1.5611702,0.0,-0.005473852,0.090412855,4.902406e-05,0,1,0,1
43604000,43524000,43524000,0,1.5597647,0.0,-0.0040040016,0.090412855,2.6230806e-05,0,1,0,1
43676000,43595272,43596000,0,1.5575484,0.0,-0.0016269684,0.09041286,4.330932e-06,0,1,0,1
43748000,43668000,43668000,0,1.555551,0.0,0.00026595592,0.090412185,1.1572993e-07,0,1,0,1
43820000,43739272,43740000,0,1.5536326,0.0,0.0022593737,0.09041218,8.352232e-06,0,1,0,1
43892000,43812000,43812000,0,1.5509511,0.0,0.0048588514,0.09041216,3.8627248e-05,0,1,0,1
43964000,43883636,43884000,0,1.5568842,0.0,-0.0010666847,0.090411454,1.8616671e-06,0,1,0,1
44036000,43956000,43956000,0,1.5603186,0.0,-0.0043519735,0.09041144,3.0988638e-05,0,1,0,1
44108000,44027272,44028000,0,1.5587844,0.0,-0.002691865,0.09041144,1.1855955e-05,0,1,0,1
44180000,44100000,44100000,0,1.5695432,0.0,-0.013656497,0.090410754,0.00030514895,0,1,0,1
44252000,44171636,44172000,0,1.5617727,0.0,-0.0057673454,0.09041078,5.4423326e-05,0,1,0,1
44324000,44244000,44244000,0,1.5391519,0.0,0.016875744,0.090410754,0.00046597124,0,1,0,1
44396000,44316000,44316000,0,1.558039,0.0,-0.002252102,0.09041008,8.298747e-06,0,1,0,1
44468000,44388000,44388000,0,1.5735509,0.0,-0.01768601,0.090410076,0.0005117952,0,1,0,1
44540000,44459272,44460000,0,1.5506426,0.0,0.005354047,0.09040949,4.690333e-05,0,1,0,1
44612000,44532000,44532000,0,1.5642121,0.0,-0.008194923,0.09040946,0.00010988269,0,1,0,1
44684000,44603272,44604000,0,1.5546991,0.0,0.0013295412,0.090409465,2.8922982e-06,0,1,0,1
44756000,44676000,44676000,0,1.5787104,0.0,-0.022687793,0.09040881,0.00084222294,0,1,0,1
44828000,44748000,44748000,0,1.5551168,0.0,0.0010555983,0.09040885,1.8232229e-06,0,1,0,1
44900000,44820000,44820000,0,1.5545053,0.0,0.0016607046,0.090408824,4.512605e-06,0,1,0,1
44972000,44891272,44892000,0,1.5609595,0.0,-0.0047180653,0.09040816,3.642282e-05,0,1,0,1
45044000,44964000,44964000,0,1.546446,0.0,0.009854674,0.09040816,0.00015890233,0,1,0,1
45116000,45035636,45036000,0,1.5489069,0.0,0.007237911,0.090408124,8.571808e-05,0,1,0,1
45188000,45108000,45108000,0,1.5398057,0.0,0.016432285,0.09040746,0.00044181966,0,1,0,1
45260000,45179636,45180000,0,1.5626956,0.0,-0.0064651966,0.09040741,6.839318e-05,0,1,0,1
45332000,45252000,45252000,0,1.5652456,0.0,-0.009055257,0.09040677,0.00013416955,0,1,0,1
45404000,45323272,45324000,0,1.560083,0.0,-0.0037283897,0.09040677,2.2745475e-05,0,1,0,1
45476000,45396000,45396000,0,1.5303128,0.0,0.025990605,0.09040675,0.001105313,0,1,0,1
45548000,45467272,45468000,0,1.5615921,0.0,-0.0054963827,0.09040605,4.9432183e-05,0,1,0,1
45620000,45540000,45540000,0,1.5456091,0.0,0.010499001,0.090406045,0.0001803648,0,1,0,1
45692000,45611636,45612000,0,1.5566884,0.0,-0.0006182194,0.09040601,6.253761e-07,0,1,0,1
45764000,45684000,45684000,0,1.5650345,0.0,-0.008978844,0.09040538,0.00013191673,0,1,0,1
45836000,45755272,45756000,0,1.5545362,0.0,0.001598835,0.09040538,4.182793e-06,0,1,0,1
45908000,45828000,45828000,0,1.5408087,0.0,0.015332818,0.090405345,0.0003846832,0,1,0,1
45980000,45898909,45900000,0,1.556001,0.0,4.3988228e-05,0.09040468,3.1661782e-09,0,1,0,1
46052000,45972000,45972000,0,1.565746,0.0,-0.009653568,0.09040466,0.00015248892,0,1,0,1
46124000,46043272,46044000,0,1.5504667,0.0,0.0056608915,0.09040466,5.243632e-05,0,1,0,1
46196000,46116000,46116000,0,1.5815519,0.0,-0.025328279,0.09040404,0.0010497282,0,1,0,1
46268000,46186909,46188000,0,1.5521224,0.0,0.0041588545,0.09040408,2.8301716e-05,0,1,0,1
46340000,46260000,46260000,0,1.5631664,0.0,-0.0068255663,0.09040343,7.62335e-05,0,1,0,1
46412000,46330909,46332000,0,1.5495603,0.0,0.00673306,0.09040342,7.418112e-05,0,1,0,1
46484000,46404000,46404000,0,1.5494618,0.0,0.006675601,0.09040339,7.2920455e-05,0,1,0,1
46556000,46475636,46476000,0,1.5568303,0.0,-0.0006159544,0.0904028,6.2082415e-07,0,1,0,1
46628000,46548000,46548000,0,1.5450871,0.0,0.011089563,0.09040277,0.00020123359,0,1,0,1
46700000,46620000,46620000,0,1.5572884,0.0,-0.0011582375,0.09040271,2.1951648e-06,0,1,0,1
46772000,46692000,46692000,0,1.5518764,0.0,0.004257083,0.090402104,2.9655077e-05,0,1,0,1
46844000,46763272,46764000,0,1.5562348,0.0,-4.3153763e-05,0.090402074,3.0472795e-09,0,1,0,1
46916000,46836000,46836000,0,1.5668613,0.0,-0.01068759,0.090402044,0.0001869109,0,1,0,1
46988000,46907636,46908000,0,1.561681,0.0,-0.005429983,0.09040147,4.82475e-05,0,1,0,1
47060000,46980000,46980000,0,1.5579027,0.0,-0.0016024113,0.090401456,4.201708e-06,0,1,0,1
47132000,47050909,47052000,0,1.5579334,0.0,-0.0016034842,0.09040082,4.207366e-06,0,1,0,1
47204000,47124000,47124000,0,1.5443681,0.0,0.011974812,0.0904008,0.00023464888,0,1,0,1
47276000,47195636,47196000,0,1.5609275,0.0,-0.00457716,0.09040075,3.4282577e-05,0,1,0,1
47348000,47268000,47268000,0,1.5505707,0.0,0.0057764053,0.09040016,5.4600856e-05,0,1,0,1
47420000,47339636,47340000,0,1.5562489,0.0,0.00012242794,0.090400115,2.4527058e-08,0,1,0,1
47492000,47412000,47412000,0,1.5517337,0.0,0.004560232,0.09040008,3.402973e-05,0,1,0,1
47564000,47483636,47484000,0,1.5545217,0.0,0.0017510653,0.09039949,5.0175536e-06,0,1,0,1
47636000,47556000,47556000,0,1.5557865,0.0,0.00037312508,0.09039946,2.278224e-07,0,1,0,1
47708000,47627272,47628000,0,1.5554643,0.0,0.0005503893,0.09039943,4.957099e-07,0,1,0,1
47780000,47700000,47700000,0,1.5655354,0.0,-0.009465456,0.090398885,0.0001466133,0,1,0,1
47852000,47771636,47772000,0,1.5564272,0.0,-0.00023460388,0.090398885,9.006596e-08,0,1,0,1
47924000,47844000,47844000,0,1.5628936,0.0,-0.0067806244,0.09039884,7.523673e-05,0,1,0,1
47996000,47914545,47916000,0,1.5586334,0.0,-0.0024352074,0.09039828,9.7043185e-06,0,1,0,1
48068000,47988000,47988000,0,1.5564061,0.0,-0.000113368034,0.09039826,2.1031708e-08,0,1,0,1
48140000,48059272,48060000,0,1.5577368,0.0,-0.0013828278,0.090397656,3.129193e-06,0,1,0,1
48212000,48132000,48132000,0,1.5710908,0.0,-0.014708281,0.090397626,0.00035401375,0,1,0,1
48284000,48202909,48204000,0,1.5527333,0.0,0.003633976,0.090397626,2.1610282e-05,0,1,0,1
48356000,48276000,48276000,0,1.5739912,0.0,-0.017562509,0.09039704,0.0005047452,0,1,0,1
48428000,48346909,48348000,0,1.5577836,0.0,-0.0012927055,0.090397045,2.7346284e-06,0,1,0,1
48500000,48420000,48420000,0,1.5415778,0.0,0.014878988,0.09039702,0.0003622814,0,1,0,1
48572000,48492000,48492000,0,1.5546736,0.0,0.0016435385,0.09039642,4.420403e-06,0,1,0,1
48644000,48564000,48564000,0,1.5634965,0.0,-0.007196903,0.09039639,8.476052e-05,0,1,0,1
48716000,48636000,48636000,0,1.5579063,0.0,-0.0015701056,0.09039635,4.0342256e-06,0,1,0,1
48788000,48708000,48708000,0,1.5607793,0.0,-0.004488468,0.09039581,3.2968666e-05,0,1,0,1
48860000,48779272,48780000,0,1.5492936,0.0,0.007055998,0.090395786,8.147456e-05,0,1,0,1
48932000,48852000,48852000,0,1.5535595,0.0,0.0028277636,0.09039519,1.3085617e-05,0,1,0,1
49004000,48924000,48924000,0,1.5565491,0.0,-0.00018799305,0.09039515,5.783514e-08,0,1,0,1
49076000,48996000,48996000,0,1.5510714,0.0,0.005399227,0.09039512,4.770584e-05,0,1,0,1
49148000,49066909,49068000,0,1.5565602,0.0,-0.00017559528,0.09039451,5.045881e-08,0,1,0,1
49220000,49140000,49140000,0,1.5557729,0.0,0.0006902218,0.09039448,7.796304e-07,0,1,0,1
49292000,49211272,49212000,0,1.5508053,0.0,0.005847931,0.090394445,5.596494e-05,0,1,0,1
49364000,49284000,49284000,0,1.5516497,0.0,0.0048787594,0.09039385,3.8952316e-05,0,1,0,1
49436000,49355272,49356000,0,1.5534885,0.0,0.0030026436,0.090393804,1.4754423e-05,0,1,0,1
49508000,49428000,49428000,0,1.5543263,0.0,0.002229929,0.09039375,8.137612e-06,0,1,0,1
49580000,49499272,49500000,0,1.5494338,0.0,0.0070745945,0.090393186,8.190695e-05,0,1,0,1
49652000,49572000,49572000,0,1.5853356,0.0,-0.028892994,0.09039314,0.0013661643,0,1,0,1
49724000,49643272,49644000,0,1.5577769,0.0,-0.0011965036,0.09039317,2.342857e-06,0,1,0,1
49796000,49716000,49716000,0,1.5611489,0.0,-0.004613757,0.09039263,3.4836125e-05,0,1,0,1
49868000,49788000,49788000,0,1.5565364,0.0,-4.6014786e-05,0.090392604,3.465096e-09,0,1,0,1
49940000,49860000,49860000,0,1.5383874,0.0,0.018117309,0.09039207,0.00053716835,0,1,0,1
50012000,49931636,49932000,0,1.5531992,0.0,0.0031987429,0.09039199,1.674488e-05,0,1,0,1
50084000,50004000,50004000,0,1.569541,0.0,-0.013266325,0.09039195,0.00028802146,0,1,0,1
50156000,50075272,50076000,0,1.5548166,0.0,0.0015393496,0.09039148,3.8779335e-06,0,1,0,1
50228000,50148000,50148000,0,1.5555001,0.0,0.0007740259,0.090391435,9.804762e-07,0,1,0,1
50300000,50218909,50220000,0,1.5529941,0.0,0.003165245,0.09039139,1.6396116e-05,0,1,0,1
50372000,50292000,50292000,0,1.5400937,0.0,0.016084194,0.090390876,0.0004233771,0,1,0,1
50444000,50363636,50364000,0,1.5525504,0.0,0.0036164522,0.0903908,2.1403983e-05,0,1,0,1
50516000,50436000,50436000,0,1.5649141,0.0,-0.008892179,0.090390764,0.00012940339,0,1,0,1
50588000,50506545,50508000,0,1.5534049,0.0,0.0026711226,0.09039026,1.167668e-05,0,1,0,1
50660000,50580000,50580000,0,1.550355,0.0,0.0057610273,0.09039021,5.4316504e-05,0,1,0,1
50732000,50652000,50652000,0,1.552529,0.0,0.0035007,0.09038966,2.0056004e-05,0,1,0,1
50804000,50724000,50724000,0,1.5381438,0.0,0.017744541,0.09038962,0.00051530503,0,1,0,1
50876000,50795272,50796000,0,1.553795,0.0,0.0020558834,0.09038954,6.9172283e-06,0,1,0,1
50948000,50868000,50868000,0,1.5668848,0.0,-0.011081338,0.09038902,0.00020096575,0,1,0,1
51020000,50940000,50940000,0,1.5548853,0.0,0.00092196465,0.090389,1.3911255e-06,0,1,0,1
51092000,51012000,51012000,0,1.5639691,0.0,-0.008152485,0.09038895,0.00010877223,0,1,0,1
51164000,51084000,51084000,0,1.5576574,0.0,-0.0017281771,0.09038846,4.8878383e-06,0,1,0,1
51236000,51156000,51156000,0,1.5487942,0.0,0.007210374,0.09038843,8.50856e-05,0,1,0,1
51308000,51227636,51228000,0,1.555574,0.0,0.0003912449,0.09038837,2.5051753e-07,0,1,0,1
51380000,51300000,51300000,0,1.5690569,0.0,-0.0130188465,0.090387836,0.00027738846,0,1,0,1
51452000,51371636,51372000,0,1.5557238,0.0,0.00042951107,0.09038782,3.019202e-07,0,1,0,1
51524000,51444000,51444000,0,1.5562776,0.0,-0.00013315678,0.090387784,2.901818e-08,0,1,0,1
51596000,51515636,51516000,0,1.5556583,0.0,0.0004068613,0.09038724,2.709187e-07,0,1,0,1
