timestamp,timestamp_sample,gyro_device_id,gyro_bias[0],gyro_bias[1],gyro_bias[2],gyro_bias_limit,gyro_bias_variance[0],gyro_bias_variance[1],gyro_bias_variance[2],accel_device_id,accel_bias[0],accel_bias[1],accel_bias[2],accel_bias_limit,accel_bias_variance[0],accel_bias_variance[1],accel_bias_variance[2],mag_device_id,mag_bias[0],mag_bias[1],mag_bias[2],mag_bias_limit,mag_bias_variance[0],mag_bias_variance[1],mag_bias_variance[2],gyro_bias_valid,gyro_bias_stable,accel_bias_valid,accel_bias_stable,mag_bias_valid,mag_bias_stable
3424000,3420000,1310988,0.0,0.0,0.0,0.15,0.009960121,0.009960121,0.009960121,1310988,0.0,0.0,0.0,0.4,0.039840482,0.039840482,0.039840482,197388,0.0,0.0,0.0,0.5,0.0,0.0,0.0,1,0,1,0,1,0
3724000,3644000,1310988,-0.0007146792,-0.0051957574,3.1296877e-05,0.15,0.00022036603,0.00022036603,0.00022036603,1310988,-2.9711735e-08,-1.9938755e-09,-1.1000499e-06,0.4,0.04279958,0.04279958,0.042799566,197388,0.0,0.0,0.0,0.5,0.0,0.0,0.0,1,0,1,0,1,0
3748000,3668000,1310988,-0.0007271899,-0.0051962035,3.1756517e-05,0.15,0.00022234334,0.00022234335,0.00022264208,1310988,-0.0025984792,0.0011302921,-0.12302957,0.4,0.04083208,0.040830154,0.004479955,197388,0.0,0.0,0.0,0.5,0.0,0.0,0.0,1,0,1,0,1,0
3788000,3708000,1310988,-0.0007332349,-0.005239399,3.2020507e-05,0.15,0.00022605584,0.00022605585,0.00022635957,1310988,-0.00262008,0.0011396882,-0.12405231,0.4,0.04151378,0.041511822,0.0045547527,197388,0.0,0.0,0.0,0.5,0.0025000002,0.0025000002,0.0025000002,1,0,1,0,1,0
3836000,3756000,1310988,-0.00074022217,-0.0052893506,3.5489455e-05,0.15,0.0002303853,0.00023038533,0.0002306917,1310988,-0.0026450474,0.0011505494,-0.12523447,0.4,0.042308763,0.04230677,0.0046419804,197388,0.0,0.0,0.0,0.5,0.0025000002,0.0025000002,0.0025000002,1,0,1,0,1,0
3884000,3804000,1310988,-0.0007469233,-0.005337235,3.581074e-05,0.15,0.00023457607,0.00023457609,0.00023488805,1310988,-0.0026689928,0.0011609652,-0.12636821,0.4,0.043078277,0.043076247,0.004726413,197388,0.0,0.0,0.0,0.5,0.0025000002,0.0025000002,0.0025000002,1,0,1,0,1,0
3932000,3852000,1310988,-0.0014136339,-0.006067426,7.935473e-05,0.15,0.00011596957,0.00011596958,0.000116045514,1310988,-0.0030087705,0.001075108,-0.12745528,0.4,0.041866366,0.04186444,0.004807932,197388,0.0,0.0,0.0,0.5,0.0025000002,0.0025000002,0.0025000002,1,0,1,0,1,0
3964000,3884000,1310988,-0.0014220764,-0.0060998555,7.9795434e-05,0.15,0.000117233605,0.00011723361,0.00011732109,1310988,-0.003345667,0.00078010716,-0.12842488,0.4,0.040540136,0.04053829,0.00482676,197388,0.0,0.0,0.0,0.5,0.0025000002,0.0025000002,0.0025000002,1,0,1,0,1,0
4012000,3932000,1310988,-0.0014332815,-0.0061479295,8.2893865e-05,0.15,0.00011908871,0.00011908872,0.00011917259,1310988,-0.0033737146,0.0007858933,-0.12943672,0.4,0.04118147,0.041179597,0.0049031223,197388,0.0,0.0,0.0,0.5,0.0025000002,0.0025000002,0.0025000002,1,0,1,0,1,0
4068000,3988000,1310988,-0.001445731,-0.00620137,9.0246336e-05,0.15,0.00012116703,0.00012116704,0.0001212442,1310988,-0.0034060257,0.0007920638,-0.13056098,0.4,0.04189996,0.041898057,0.0049886717,197388,0.0,0.0,0.0,0.5,0.0025000002,0.0025000002,0.0025000002,1,0,1,0,1,0
4124000,4044000,1310988,-0.0015478482,-0.0062532923,-0.00021436714,0.15,7.952798e-05,7.952798e-05,7.961776e-05,1310988,-0.0055985134,-0.00066320127,-0.13163446,0.4,0.029097095,0.029096121,0.005069776,197388,0.0,0.0,0.0,0.5,0.0025000002,0.0025000002,0.0025000002,1,0,1,0,1,0
4164000,4084000,1310988,-0.0015581177,-0.0062879384,-0.00021555096,0.15,8.038075e-05,8.0380756e-05,8.04993e-05,1310988,-0.005609575,-0.0008874224,-0.13328324,0.4,0.02895854,0.02895757,0.0049892245,197388,0.0,0.0,0.0,0.5,0.0025000002,0.0025000002,0.0025000002,1,0,1,0,1,0
4228000,4148000,1310988,-0.001571117,-0.006340398,-0.00021421061,0.15,8.172796e-05,8.1727965e-05,8.1841514e-05,1310988,-0.0056615733,-0.00089602935,-0.134395,0.4,0.02944365,0.029442683,0.005072811,197388,0.0,0.0,0.0,0.5,0.0025000002,0.0025000002,0.0025000002,1,0,1,0,1,0
4292000,4212000,1310988,-0.0015833065,-0.006389597,-0.00021145912,0.15,8.30014e-05,8.300141e-05,8.310752e-05,1310988,-0.005711233,-0.00090431963,-0.13543704,0.4,0.02990219,0.029901221,0.005151809,197388,0.0,0.0,0.0,0.5,0.0025000002,0.0025000002,0.0025000002,1,0,1,0,1,0
4332000,4252000,1310988,-0.0013114964,-0.0064142183,-8.5384556e-05,0.15,6.094321e-05,6.0943217e-05,6.112459e-05,1310988,-0.0065075904,-0.0018653009,-0.13606015,0.4,0.026495878,0.026495202,0.005198728,197388,0.0,0.0,0.0,0.5,0.0025000002,0.0025000002,0.0025000002,1,0,1,0,1,0
4372000,4292000,1310988,-0.0013185542,-0.0064390255,-8.520214e-05,0.15,6.142177e-05,6.142178e-05,6.1652485e-05,1310988,-0.0066413707,-0.0019087573,-0.13843365,0.4,0.026676383,0.026675727,0.0049539017,197388,0.0,0.0,0.0,0.5,0.0025000002,0.0025000002,0.0025000002,1,0,1,0,1,0
4444000,4364000,1310988,-0.0013282653,-0.006486454,-8.4496896e-05,0.15,6.233054e-05,6.2330546e-05,6.25569e-05,1310988,-0.006692214,-0.0019232052,-0.13946044,0.4,0.027070766,0.027070116,0.00502713,197388,0.0,0.0,0.0,0.5,0.0025000002,0.0025000002,0.0025000002,1,0,1,0,1,0
4524000,4444000,1310988,-0.0015039307,-0.006268618,-0.00012848666,0.15,4.9382816e-05,4.938282e-05,4.9516926e-05,1310988,-0.006488607,-0.0017880127,-0.14050102,0.4,0.02746532,0.027464673,0.005102741,197388,0.0,0.0,0.0,0.5,0.0025000002,0.0025000002,0.0025000002,1,0,1,0,1,0
4580000,4500000,1310988,-0.0015090471,-0.006285549,-0.00012721075,0.15,4.9436934e-05,4.9436952e-05,4.9990922e-05,1310988,-0.0071380786,-0.0017350698,-0.1437698,0.4,0.02695746,0.026956936,0.004703099,197388,0.0,0.0,0.0,0.5,0.0025000002,0.0025000002,0.0025000002,1,0,1,0,1,0
4668000,4588000,1310988,-0.001519605,-0.0063295485,-0.00012572145,0.15,5.013198e-05,5.0132e-05,5.068564e-05,1310988,-0.007190458,-0.001747719,-0.14477816,0.4,0.027336022,0.0273355,0.004769021,197388,0.0,0.0,0.0,0.5,0.0025000002,0.0025000002,0.0025000002,1,0,1,0,1,0
4764000,4684000,1310988,-0.0014829482,-0.0063810516,-0.00012106389,0.15,4.0742936e-05,4.0742976e-05,4.1866744e-05,1310988,-0.0073699933,-0.0018142696,-0.14576876,0.4,0.027471175,0.027470713,0.0048344443,197388,0.0,0.0,0.0,0.5,0.0025000002,0.0025000002,0.0025000002,1,0,1,0,1,0
4788000,4708000,1310988,-0.0014882333,-0.0063906135,-0.0001204338,0.15,4.0730654e-05,4.0730698e-05,4.1992927e-05,1310988,-0.007391275,-0.0018145739,-0.14911002,0.4,0.027555933,0.027555466,0.0042865914,197388,0.0,0.0,0.0,0.5,0.0025000002,0.0025000002,0.0025000002,1,0,1,0,1,0
4900000,4820000,1310988,-0.0014984503,-0.006434486,-0.00011864577,0.15,4.1292456e-05,4.1292504e-05,4.2563854e-05,1310988,-0.007444081,-0.0018276734,-0.15013178,0.4,0.027935345,0.027934879,0.0043454817,197388,0.0,0.0,0.0,0.5,0.0025000002,0.0025000002,0.0025000002,1,0,1,0,1,0
4996000,4916000,1310988,-0.001502464,-0.0064328527,0.0002493395,0.15,3.370557e-05,3.370566e-05,3.6136236e-05,1310988,-0.00742758,-0.0021989043,-0.15398587,0.4,0.028126797,0.028126338,0.0037835164,197388,0.0,0.0,0.0,0.5,0.0025000002,0.0025000002,0.0025000002,1,0,1,0,1,0
5124000,5044000,1310988,-0.0013328517,-0.0061974577,0.00019123402,0.15,2.96238e-05,2.9623872e-05,3.145522e-05,1310988,-0.0068995417,-0.0025759316,-0.15492818,0.4,0.028448801,0.028448341,0.0038289549,197388,0.0,0.0,0.0,0.5,0.0025000002,0.0025000002,0.0025000002,1,0,1,0,1,0
5204000,5124000,1310988,-0.001430939,-0.006209666,0.0001924284,0.15,2.7712142e-05,2.7712298e-05,3.1651067e-05,1310988,-0.0069148,-0.002924001,-0.15842432,0.4,0.028609425,0.028608952,0.0032673506,197388,0.0,0.0,0.0,0.5,0.0025000002,0.0025000002,0.0025000002,1,0,1,0,1,0
5340000,5260000,1310988,-0.0013238782,-0.0060071955,0.00013836888,0.15,2.4895566e-05,2.4895688e-05,2.798113e-05,1310988,-0.006366543,-0.0032130762,-0.15922831,0.4,0.028874928,0.028874457,0.0032992011,197388,0.0,0.0,0.0,0.5,0.0025000002,0.0025000002,0.0025000002,1,0,1,0,1,0
5412000,5332000,1310988,-0.0014136086,-0.0060460432,0.0001400629,0.15,2.257759e-05,2.257781e-05,2.8103623e-05,1310988,-0.006310368,-0.003350495,-0.16234532,0.4,0.029000396,0.028999921,0.0027876694,197388,0.0,0.0,0.0,0.5,0.0025000002,0.0025000002,0.0025000002,1,0,1,0,1,0
5620000,5540000,1310988,-0.0014862176,-0.0060570086,8.1597216e-05,0.15,1.82865e-05,1.8286735e-05,2.5228896e-05,1310988,-0.0061705364,-0.0032739693,-0.16552676,0.4,0.029309148,0.02930866,0.0023676516,197388,0.0,0.0,0.0,0.5,0.0025000002,0.0025000002,0.0025000002,1,0,1,0,1,0
5828000,5748000,1310988,-0.0013829379,-0.0060865777,0.0001824228,0.15,1.4798824e-05,1.4798959e-05,2.2854047e-05,1310988,-0.006156542,-0.0035739646,-0.1683315,0.4,0.029548584,0.029548092,0.0020122516,197388,0.0,0.0,0.0,0.5,0.0025000002,0.0025000002,0.0025000002,1,0,1,0,1,0
6036000,5956000,1310988,-0.0013942054,-0.006050706,0.00019418325,0.15,1.2018996e-05,1.2018989e-05,2.086868e-05,1310988,-0.005871637,-0.0034822065,-0.17063889,0.4,0.029731806,0.029731309,0.0017175024,197388,0.0,0.0,0.0,0.5,0.0025000002,0.0025000002,0.0025000002,1,0,1,0,1,0
6244000,6164000,1310988,-0.0014460598,-0.0060765557,0.00012595896,0.15,9.824112e-06,9.823989e-06,1.917526e-05,1310988,-0.005828812,-0.003314275,-0.17256042,0.4,0.029870505,0.029870017,0.0014755443,197388,0.0,0.0,0.0,0.5,0.0025000002,0.0025000002,0.0025000002,1,0,1,0,1,0
6452000,6372000,1310988,-0.0014661695,-0.0060864124,0.00023517224,0.15,8.095116e-06,8.094901e-06,1.7713475e-05,1310988,-0.005723883,-0.0032905005,-0.17401974,0.4,0.029974636,0.029974148,0.0012767782,197388,0.0,0.0,0.0,0.5,0.0025000002,0.0025000002,0.0025000002,1,0,1,0,1,0
6660000,6580000,1310988,-0.0014598941,-0.0060604457,0.00018077769,0.15,6.730317e-06,6.7300175e-06,1.6458773e-05,1310988,-0.005601565,-0.0034141839,-0.17516941,0.4,0.030052533,0.030052038,0.0011137587,197388,0.0,0.0,0.0,0.5,0.0025000002,0.0025000002,0.0025000002,1,0,1,0,1,0
6924000,6844000,1310988,-0.0013996403,-0.0059903194,0.0002491088,0.15,5.512529e-06,5.5121545e-06,1.4375694e-05,1310988,-0.005311563,-0.0038460442,-0.17613058,0.4,0.03012185,0.030121349,0.0009794678,197388,0.0,0.0,0.0,0.5,0.0025000002,0.0025000002,0.0025000002,1,0,1,0,1,0
7284000,7204000,1310988,-0.0013198786,-0.005856603,0.00022520569,0.15,4.0857203e-06,4.085128e-06,1.351948e-05,1310988,-0.004755012,-0.0041971775,-0.17711762,0.4,0.030184377,0.03018385,0.0007775491,197388,0.0,0.0,0.0,0.5,0.0025000002,0.0025000002,0.0025000002,1,0,1,0,1,0
7700000,7620000,1310988,-0.0011204053,-0.00583931,0.00012094478,0.15,3.0580015e-06,3.0570593e-06,1.2057802e-05,1310988,-0.004565522,-0.00503739,-0.1777822,0.4,0.030221425,0.030220848,0.00077905395,197388,0.0,0.0,0.0,0.5,0.0025000002,0.0025000002,0.0025000002,1,0,1,0,1,0
8700000,8620000,1310988,-0.0009977983,-0.005814849,-8.847449e-05,0.15,1.8561449e-06,1.8551731e-06,9.458605e-06,1310988,-0.0042274245,-0.005644118,-0.17834164,0.4,0.030243782,0.030243235,0.000780629,197388,0.0,0.0,0.0,0.5,0.0025000002,0.0025000002,0.0025000002,1,0,1,0,1,0
9700000,9620000,1310988,-0.00097263564,-0.005789309,-0.00016160563,0.15,1.7834606e-06,1.7824841e-06,7.7520335e-06,1310988,-0.0039502843,-0.005842776,-0.17839096,0.4,0.030254526,0.030254,0.0007810893,197388,0.0,0.0,0.0,0.5,0.0025000002,0.0025000002,0.0025000002,1,0,1,0,1,0
10700000,10620000,1310988,-0.0009373795,-0.0057600797,-0.00016154481,0.15,1.6422566e-06,1.6412863e-06,6.5471063e-06,1310988,-0.0036928514,-0.0060986876,-0.17846017,0.4,0.03024924,0.030248763,0.00078120356,197388,0.0,0.0,0.0,0.5,0.0025000002,0.0025000002,0.0025000002,1,0,1,0,1,0
11700000,11620000,1310988,-0.0009375686,-0.005762627,-0.00021406986,0.15,1.455274e-06,1.4543467e-06,5.6504623e-06,1310988,-0.003677355,-0.0060958974,-0.17860182,0.4,0.030237991,0.030237565,0.00078124227,197388,0.0,0.0,0.0,0.5,0.0025000002,0.0025000002,0.0025000002,1,0,1,0,1,0
12700000,12620000,1310988,-0.00094451685,-0.0057138125,-0.00022056964,0.15,1.1099141e-06,1.1091181e-06,4.956578e-06,1310988,-0.0033062526,-0.0060044993,-0.17808071,0.4,0.03021623,0.030215878,0.00078124634,197388,0.0,0.0,0.0,0.5,0.0025000002,0.0025000002,0.0025000002,1,0,1,0,1,0
13700000,13620000,1310988,-0.00097242394,-0.0057158144,-0.00022678643,0.15,8.800681e-07,8.793572e-07,4.402415e-06,1310988,-0.0033506167,-0.0057754926,-0.17783473,0.4,0.030200446,0.030200208,0.00078124634,197388,0.0,0.0,0.0,0.5,0.0025000002,0.0025000002,0.0025000002,1,0,1,0,1,0
14692000,14612000,1310988,-0.00096578227,-0.005686086,-0.00022986972,0.15,6.25109e-07,6.245303e-07,3.948935e-06,1310988,-0.00316845,-0.0057776,-0.17684707,0.4,0.03018204,0.030182043,0.00078124576,197388,0.0,0.0,0.0,0.5,0.0025000002,0.0025000002,0.0025000002,1,1,1,0,1,0
15692000,15612000,1310988,-0.00096909044,-0.0056809117,-0.000227687,0.15,5.113207e-07,5.1082213e-07,3.570752e-06,1310988,-0.0031625854,-0.0057165455,-0.17606239,0.4,0.030172283,0.030172568,0.0007812475,197388,0.0,0.0,0.0,0.5,0.0025000002,0.0025000002,0.0025000002,1,1,1,0,1,0
16692000,16612000,1310988,-0.0009716746,-0.0056604845,-0.00018772543,0.15,3.9894115e-07,3.9852483e-07,3.255241e-06,1310988,-0.0030350238,-0.0056225085,-0.17515454,0.4,0.0301618,0.030162698,0.00078124576,197388,0.0,0.0,0.0,0.5,0.0025000002,0.0025000002,0.0025000002,1,1,1,0,1,0
17492000,17412000,1310988,-0.0009867986,-0.0056573236,-0.00015278484,0.15,3.502654e-07,3.498844e-07,3.0280119e-06,1310988,-0.0032199633,-0.005376901,-0.17324847,0.4,0.030156448,0.03015798,0.00078124576,197388,0.0,0.0,0.0,0.5,0.0025000002,0.0025000002,0.0025000002,1,1,1,0,1,0
18492000,18412000,1310988,-0.0009896518,-0.0056449655,-0.00014245734,0.15,3.1586316e-07,3.1550533e-07,2.782618e-06,1310988,-0.0031815232,-0.00529663,-0.17241395,0.4,0.030151354,0.030153688,0.00078124576,197388,0.0,0.0,0.0,0.5,0.0025000002,0.0025000002,0.0025000002,1,1,1,0,1,0
19092000,19012000,1310988,-0.0010056221,-0.0056485073,-0.0001197283,0.15,2.8810302e-07,2.8777453e-07,2.6524278e-06,1310988,-0.0033918798,-0.0050648185,-0.17111126,0.4,0.030146886,0.030150093,0.00078124576,197388,0.0,0.0,0.0,0.5,0.0025000002,0.0025000002,0.0025000002,1,1,1,0,1,0
19884000,19804000,1310988,-0.0010186068,-0.0056451103,-0.00013839788,0.15,2.6753557e-07,2.6722972e-07,2.4923922e-06,1310988,-0.003528488,-0.004853134,-0.1698637,0.4,0.030142685,0.030146776,0.00078124576,197388,0.0,0.0,0.0,0.5,0.0025000002,0.0025000002,0.0025000002,1,1,1,0,1,0
20692000,20612000,1310988,-0.0010339217,-0.0056346315,-9.6490636e-05,0.15,2.5131237e-07,2.5102528e-07,2.3432044e-06,1310988,-0.0036080182,-0.0045652203,-0.16840048,0.4,0.030138541,0.030143624,0.00078124576,197388,0.0,0.0,0.0,0.5,0.0025000002,0.0025000002,0.0025000002,1,1,1,0,1,0
21492000,21412000,1310988,-0.001050518,-0.0056177843,-7.290839e-05,0.15,2.3822793e-07,2.379519e-07,2.211426e-06,1310988,-0.0036068473,-0.004260805,-0.16704528,0.4,0.030134838,0.030140864,0.00078124576,197388,0.0,0.0,0.0,0.5,0.0025000002,0.0025000002,0.0025000002,1,1,1,0,1,0
22284000,22204000,1310988,-0.0010687592,-0.005610207,-8.535416e-05,0.15,2.273884e-07,2.2712177e-07,2.0908144e-06,1310988,-0.0037358974,-0.003955223,-0.16547102,0.4,0.030131545,0.030138316,0.00078124576,197388,0.0,0.0,0.0,0.5,0.0025000002,0.0025000002,0.0025000002,1,1,1,0,1,0
23084000,23004000,1310988,-0.001075525,-0.005594977,-8.068307e-05,0.15,2.1835963e-07,2.1810496e-07,1.980155e-06,1310988,-0.0037022033,-0.003778872,-0.16424505,0.4,0.030128859,0.030136205,0.00078124576,197388,0.0,0.0,0.0,0.5,0.0025000002,0.0025000002,0.0025000002,1,1,1,0,1,0
23892000,23812000,1310988,-0.0010812059,-0.005579879,-8.623648e-05,0.15,2.1074892e-07,2.1050724e-07,1.8746568e-06,1310988,-0.0036642267,-0.0036210986,-0.16308202,0.4,0.030126553,0.030134423,0.00078124576,197388,0.0,0.0,0.0,0.5,0.0025000002,0.0025000002,0.0025000002,1,1,1,0,1,0
24684000,24604000,1310988,-0.0010948054,-0.0055657206,-8.651402e-05,0.15,2.0414514e-07,2.0391768e-07,1.780814e-06,1310988,-0.0036831945,-0.0033606444,-0.16129763,0.4,0.030124418,0.030132703,0.00078124576,197388,0.0,0.0,0.0,0.5,0.0025000002,0.0025000002,0.0025000002,1,1,1,0,1,0
25484000,25404000,1310988,-0.0011066672,-0.005562178,-6.622728e-05,0.15,1.9845723e-07,1.9824597e-07,1.6940255e-06,1310988,-0.003785082,-0.0031555025,-0.15958007,0.4,0.030122638,0.030131215,0.00078124576,197388,0.0,0.0,0.0,0.5,0.0025000002,0.0025000002,0.0025000002,1,1,1,0,1,0
26220000,26140000,1310988,-0.0011098642,-0.005557692,-5.027943e-05,0.15,1.9822816e-07,1.980249e-07,1.6164458e-06,1310988,-0.003803067,-0.0030767827,-0.15857892,0.4,0.030121796,0.030130515,0.00078124576,197388,0.0,0.0,0.0,0.5,0.0025000002,0.0025000002,0.0025000002,1,1,1,0,1,0
26684000,26604000,1310988,-0.0011117557,-0.005543795,-4.9215883e-05,0.15,1.9130013e-07,1.9111071e-07,1.5737559e-06,1310988,-0.0037480637,-0.002972721,-0.15701298,0.4,0.030120507,0.030129377,0.00078124576,197388,0.0,0.0,0.0,0.5,0.0025000002,0.0025000002,0.0025000002,1,1,1,0,1,0
27084000,27004000,1310988,-0.0011120798,-0.0055347024,-6.267558e-05,0.15,1.8924777e-07,1.8906482e-07,1.5387008e-06,1310988,-0.003710673,-0.002922857,-0.15594131,0.4,0.030119983,0.030128917,0.00078124576,197388,0.0,0.0,0.0,0.5,0.0025000002,0.0025000002,0.0025000002,1,1,1,0,1,0
27492000,27412000,1310988,-0.0011107461,-0.005527076,-5.6462013e-05,0.15,1.8735804e-07,1.8718086e-07,1.5016689e-06,1310988,-0.0036694482,-0.0029006586,-0.15492977,0.4,0.030119512,0.0301285,0.00078124576,197388,0.0,0.0,0.0,0.5,0.0025000002,0.0025000002,0.0025000002,1,1,1,0,1,0
27892000,27812000,1310988,-0.001108163,-0.005521288,-6.42298e-05,0.15,1.8554093e-07,1.853688e-07,1.4690658e-06,1310988,-0.0036420294,-0.0029048854,-0.1535069,0.4,0.030119168,0.030128194,0.00078124576,197388,0.0,0.0,0.0,0.5,0.0025000002,0.0025000002,0.0025000002,1,1,1,0,1,0
28292000,28212000,1310988,-0.0011071576,-0.005514613,-5.309054e-05,0.15,1.8384543e-07,1.8367822e-07,1.4344189e-06,1310988,-0.003607245,-0.0028946798,-0.15221535,0.4,0.030118879,0.030127924,0.00078124576,197388,0.0,0.0,0.0,0.5,0.0025000002,0.0025000002,0.0025000002,1,1,1,0,1,0
28692000,28612000,1310988,-0.001104373,-0.0055081374,-4.4785083e-05,0.15,1.8226065e-07,1.8209829e-07,1.4040572e-06,1310988,-0.0035582199,-0.0029083455,-0.1507873,0.4,0.030118613,0.030127665,0.00078124576,197388,0.0,0.0,0.0,0.5,0.0025000002,0.0025000002,0.0025000002,1,1,1,0,1,0
29092000,29012000,1310988,-0.0011036989,-0.0054986463,-3.2990232e-05,0.15,1.8077957e-07,1.8062232e-07,1.371661e-06,1310988,-0.0034932755,-0.0029008887,-0.14955863,0.4,0.030118397,0.030127449,0.00078124576,197388,0.0,0.0,0.0,0.5,0.0025000002,0.0025000002,0.0025000002,1,1,1,0,1,0
29492000,29412000,1310988,-0.0011014268,-0.0054897997,-2.8827211e-05,0.15,1.7939267e-07,1.792409e-07,1.34034e-06,1310988,-0.003434645,-0.002910078,-0.14843439,0.4,0.030118193,0.030127242,0.00078124576,197388,0.0,0.0,0.0,0.5,0.0025000002,0.0025000002,0.0025000002,1,1,1,0,1,0
29892000,29812000,1310988,-0.00109967,-0.005480103,-3.3194858e-05,0.15,1.7809214e-07,1.7794683e-07,1.3130053e-06,1310988,-0.0033592014,-0.002918155,-0.14714047,0.4,0.030118005,0.030127058,0.00078124576,197388,0.0,0.0,0.0,0.5,0.0025000002,0.0025000002,0.0025000002,1,1,1,0,1,0
30292000,30212000,1310988,-0.0010966606,-0.0054717865,-2.2925042e-05,0.15,1.7687194e-07,1.7673379e-07,1.2836567e-06,1310988,-0.0032761567,-0.0029444112,-0.14580977,0.4,0.030117797,0.030126862,0.00078124576,197388,0.0,0.0,0.0,0.5,0.0025000002,0.0025000002,0.0025000002,1,1,1,0,1,0
30692000,30612000,1310988,-0.0010978229,-0.005461869,-8.208792e-06,0.15,1.7572488e-07,1.7559583e-07,1.2581173e-06,1310988,-0.0031759746,-0.0029374105,-0.14422742,0.4,0.030117571,0.030126678,0.00078124576,197388,0.0,0.0,0.0,0.5,0.0025000002,0.0025000002,0.0025000002,1,1,1,0,1,0
31092000,31012000,1310988,-0.001098009,-0.005452071,-3.8323915e-06,0.15,1.7464865e-07,1.7452908e-07,1.2305868e-06,1310988,-0.003080008,-0.002933433,-0.1429524,0.4,0.030117344,0.0301265,0.00078124576,197388,0.0,0.0,0.0,0.5,0.0025000002,0.0025000002,0.0025000002,1,1,1,0,1,0
31492000,31412000,1310988,-0.0011004754,-0.0054441686,1.4533796e-06,0.15,1.7363821e-07,1.7352905e-07,1.2066905e-06,1310988,-0.002971592,-0.0029250907,-0.14126131,0.4,0.030117117,0.030126337,0.00078124576,197388,0.0,0.0,0.0,0.5,0.0025000002,0.0025000002,0.0025000002,1,1,1,0,1,0
31892000,31812000,1310988,-0.0011047001,-0.0054386603,-1.0228726e-05,0.15,1.7268759e-07,1.7258974e-07,1.1808236e-06,1310988,-0.0028899708,-0.002901862,-0.13997564,0.4,0.030116858,0.030126166,0.00078124576,197388,0.0,0.0,0.0,0.5,0.0025000002,0.0025000002,0.0025000002,1,1,1,0,1,0
32292000,32212000,1310988,-0.0011071543,-0.005426409,-1.9554924e-05,0.15,1.7179418e-07,1.7170787e-07,1.1584245e-06,1310988,-0.0027453913,-0.0028738284,-0.13851127,0.4,0.03011658,0.030125996,0.00078124576,197388,0.0,0.0,0.0,0.5,0.0025000002,0.0025000002,0.0025000002,1,1,1,0,1,0
32684000,32604000,1310988,-0.0011105504,-0.005420485,-1.9644465e-05,0.15,1.709155e-07,1.7084136e-07,1.1340262e-06,1310988,-0.0026536237,-0.0028502136,-0.13722081,0.4,0.030116307,0.03012584,0.00078124576,197388,0.0,0.0,0.0,0.5,0.0025000002,0.0025000002,0.0025000002,1,1,1,0,1,0
33092000,33012000,1310988,-0.0011171217,-0.0054139113,-1.6200996e-05,0.15,1.7018189e-07,1.7011979e-07,1.1105044e-06,1310988,-0.0025637343,-0.0027972138,-0.13594323,0.4,0.03011604,0.03012569,0.00078124576,197388,0.0,0.0,0.0,0.5,0.0025000002,0.0025000002,0.0025000002,1,1,1,0,1,0
33892000,33812000,1310988,-0.0011264951,-0.005401212,-1.6035987e-05,0.15,1.6874378e-07,1.6870585e-07,1.0679654e-06,1310988,-0.0023766553,-0.0026927222,-0.1339225,0.4,0.030115303,0.030125277,0.00078124576,197388,0.0,0.0,0.0,0.5,0.0025000002,0.0025000002,0.0025000002,1,1,1,0,1,0
34284000,34204000,1310988,-0.0011344039,-0.0053972,-1.4155894e-05,0.15,1.6803648e-07,1.6801009e-07,1.0488108e-06,1310988,-0.0022830488,-0.0026108024,-0.13262442,0.4,0.030114869,0.030125044,0.00078124576,197388,0.0,0.0,0.0,0.5,0.0025000002,0.0025000002,0.0025000002,1,1,1,0,1,0
34692000,34612000,1310988,-0.0011415035,-0.0053905505,-2.6106782e-06,0.15,1.6746455e-07,1.6744946e-07,1.0279474e-06,1310988,-0.0021357348,-0.0025051716,-0.13106754,0.4,0.030114304,0.030124709,0.00078124576,197388,0.0,0.0,0.0,0.5,0.0025000002,0.0025000002,0.0025000002,1,1,1,0,1,0
35492000,35412000,1310988,-0.0011536258,-0.0053704507,-4.061208e-06,0.15,1.663296e-07,1.663336e-07,9.902749e-07,1310988,-0.001766596,-0.0022992163,-0.12856965,0.4,0.030112986,0.030123917,0.00078124576,197388,0.0,0.0,0.0,0.5,0.0025000002,0.0025000002,0.0025000002,1,1,1,0,1,0
36292000,36212000,1310988,-0.001162469,-0.005347879,-5.673248e-07,0.15,1.6531166e-07,1.6533149e-07,9.547757e-07,1310988,-0.0014209304,-0.0021232115,-0.1269038,0.4,0.030111589,0.03012311,0.00078124576,197388,0.0,0.0,0.0,0.5,0.0025000002,0.0025000002,0.0025000002,1,1,1,0,1,0
37084000,37004000,1310988,-0.0011722184,-0.005321901,-1.2307674e-05,0.15,1.6437735e-07,1.644113e-07,9.212352e-07,1310988,-0.0010541788,-0.0019379585,-0.12556827,0.4,0.03011004,0.030122247,0.00078124576,197388,0.0,0.0,0.0,0.5,0.0025000002,0.0025000002,0.0025000002,1,1,1,0,1,0
37884000,37804000,1310988,-0.0011801273,-0.0052985405,-1.7797365e-05,0.15,1.6361875e-07,1.6366509e-07,8.8964157e-07,1310988,-0.0007444012,-0.0017901377,-0.12450785,0.4,0.030108577,0.030121487,0.00078124576,197388,0.0,0.0,0.0,0.5,0.0025000002,0.0025000002,0.0025000002,1,1,1,0,1,0
38692000,38612000,1310988,-0.0011815188,-0.005277278,-5.47789e-06,0.15,1.6298297e-07,1.6303825e-07,8.5988796e-07,1310988,-0.0004064293,-0.0017044393,-0.12242315,0.4,0.030107507,0.030121021,0.00078124576,197388,0.0,0.0,0.0,0.5,0.0025000002,0.0025000002,0.0025000002,1,1,1,0,1,0
39492000,39412000,1310988,-0.0011851866,-0.00525379,-3.5199785e-06,0.15,1.6235568e-07,1.6241712e-07,8.3173586e-07,1310988,-0.00017542015,-0.0016034766,-0.120833024,0.4,0.030106768,0.030120794,0.00078124576,197388,0.0,0.0,0.0,0.5,0.0025000002,0.0025000002,0.0025000002,1,1,1,0,1,0
39892000,39812000,1310988,-0.0011896418,-0.0052460637,-3.862083e-07,0.15,1.6207427e-07,1.62138e-07,8.172889e-07,1310988,-9.232797e-05,-0.0015525946,-0.1198113,0.4,0.030106505,0.030120745,0.00078124576,197388,0.0,0.0,0.0,0.5,0.0025000002,0.0025000002,0.0025000002,1,1,1,0,1,0
40692000,40612000,1310988,-0.0011963068,-0.005228381,2.287799e-06,0.15,1.6158054e-07,1.6164567e-07,7.9146054e-07,1310988,1.7524828e-05,-0.0014667715,-0.11824489,0.4,0.030106133,0.030120691,0.00078124576,197388,0.0,0.0,0.0,0.5,0.0025000002,0.0025000002,0.0025000002,1,1,1,0,1,0
41092000,41012000,1310988,-0.0011969208,-0.0052202945,9.56563e-06,0.15,1.6134463e-07,1.614093e-07,7.7817236e-07,1310988,0.000105524734,-0.001408564,-0.11654409,0.4,0.03010599,0.030120663,0.00078124576,197388,0.0,0.0,0.0,0.5,0.0025000002,0.0025000002,0.0025000002,1,1,1,0,1,0
41492000,41412000,1310988,-0.001200575,-0.0052099726,1.48262025e-05,0.15,1.6112462e-07,1.6118871e-07,7.6704816e-07,1310988,0.00013771719,-0.0013643773,-0.11550129,0.4,0.030105835,0.03012062,0.00078124576,197388,0.0,0.0,0.0,0.5,0.0025000002,0.0025000002,0.0025000002,1,1,1,0,1,0
41884000,41804000,1310988,-0.0012009202,-0.0052018403,1.2864143e-05,0.15,1.6087542e-07,1.6093803e-07,7.5440215e-07,1310988,0.00020747978,-0.0012992308,-0.11394265,0.4,0.030105684,0.030120574,0.00078124576,197388,0.0,0.0,0.0,0.5,0.0025000002,0.0025000002,0.0025000002,1,1,1,0,1,0
42284000,42204000,1310988,-0.0012030788,-0.00519335,1.647481e-05,0.15,1.6069468e-07,1.6075465e-07,7.4389743e-07,1310988,0.00026444948,-0.0012369382,-0.112183966,0.4,0.030105568,0.030120539,0.00078124576,197388,0.0,0.0,0.0,0.5,0.0025000002,0.0025000002,0.0025000002,1,1,1,0,1,0
42692000,42612000,1310988,-0.0012002029,-0.005187193,2.0114168e-05,0.15,1.6056141e-07,1.6061787e-07,7.320382e-07,1310988,0.00030792385,-0.0011861667,-0.110867776,0.4,0.030105472,0.030120514,0.00078124576,197388,0.0,0.0,0.0,0.5,0.0025000002,0.0025000002,0.0025000002,1,1,1,0,1,0
43092000,43012000,1310988,-0.0011983254,-0.00518018,2.3010589e-05,0.15,1.6037724e-07,1.6042928e-07,7.221162e-07,1310988,0.00038187555,-0.0011354365,-0.10905507,0.4,0.030105378,0.030120492,0.00078124576,197388,0.0,0.0,0.0,0.5,0.0025000002,0.0025000002,0.0025000002,1,1,1,0,1,0
43492000,43412000,1310988,-0.001198472,-0.0051768883,2.0237383e-05,0.15,1.6020596e-07,1.6025258e-07,7.1081297e-07,1310988,0.00043647495,-0.0010864013,-0.10728863,0.4,0.030105304,0.030120468,0.00078124576,197388,0.0,0.0,0.0,0.5,0.0025000002,0.0025000002,0.0025000002,1,1,1,0,1,0
43892000,43812000,1310988,-0.0011985857,-0.005172133,2.2876788e-05,0.15,1.6004515e-07,1.6008512e-07,6.9981945e-07,1310988,0.00047392034,-0.0010287757,-0.10529344,0.4,0.030105252,0.030120436,0.00078124576,197388,0.0,0.0,0.0,0.5,0.0025000002,0.0025000002,0.0025000002,1,1,1,0,1,0
44292000,44212000,1310988,-0.0011954043,-0.00516652,2.512971e-05,0.15,1.5989455e-07,1.5992747e-07,6.907157e-07,1310988,0.00052705273,-0.000959953,-0.10279522,0.4,0.030105222,0.03012041,0.00078124576,197388,0.0,0.0,0.0,0.5,0.0025000002,0.0025000002,0.0025000002,1,1,1,0,1,0
44684000,44604000,1310988,-0.0011875994,-0.0051615103,2.2095619e-05,0.15,1.5971032e-07,1.5973617e-07,6.8022297e-07,1310988,0.0005781361,-0.0009045865,-0.10111203,0.4,0.030105194,0.030120386,0.00078124576,197388,0.0,0.0,0.0,0.5,0.0025000002,0.0025000002,0.0025000002,1,1,1,0,1,0
45092000,45012000,1310988,-0.0011820751,-0.005160924,2.1680511e-05,0.15,1.5963246e-07,1.5965118e-07,6.7167707e-07,1310988,0.0006284192,-0.0008640523,-0.09936367,0.4,0.030105181,0.030120365,0.00078124576,197388,0.0,0.0,0.0,0.5,0.0025000002,0.0025000002,0.0025000002,1,1,1,0,1,0
45484000,45404000,1310988,-0.0011816986,-0.0051544504,2.9015058e-05,0.15,1.5945724e-07,1.5946868e-07,6.617168e-07,1310988,0.00065941806,-0.0007997525,-0.097463846,0.4,0.030105166,0.030120336,0.00078124576,197388,0.0,0.0,0.0,0.5,0.0025000002,0.0025000002,0.0025000002,1,1,1,0,1,0
45884000,45804000,1310988,-0.001177253,-0.0051490143,2.8486218e-05,0.15,1.593476e-07,1.5935233e-07,6.5357756e-07,1310988,0.0007070752,-0.0007453604,-0.09579037,0.4,0.030105151,0.0301203,0.00078124576,197388,0.0,0.0,0.0,0.5,0.0025000002,0.0025000002,0.0025000002,1,1,1,0,1,0
46292000,46212000,1310988,-0.0011746532,-0.0051472285,2.8491315e-05,0.15,1.5928285e-07,1.5928133e-07,6.442518e-07,1310988,0.0007373696,-0.00067069556,-0.093617596,0.4,0.03010513,0.030120237,0.00078124576,197388,0.0,0.0,0.0,0.5,0.0025000002,0.0025000002,0.0025000002,1,1,1,0,1,0
46692000,46612000,1310988,-0.0011714237,-0.0051455516,3.0519364e-05,0.15,1.5916471e-07,1.5915766e-07,6.365535e-07,1310988,0.00075534824,-0.00056804804,-0.09107412,0.4,0.030105107,0.030120147,0.00078124576,197388,0.0,0.0,0.0,0.5,0.0025000002,0.0025000002,0.0025000002,1,1,1,0,1,0
47084000,47004000,1310988,-0.0011698646,-0.00514256,2.9550012e-05,0.15,1.5901043e-07,1.5899901e-07,6.2757516e-07,1310988,0.00077797176,-0.0004810849,-0.089340456,0.4,0.03010506,0.030120002,0.00078124576,197388,0.0,0.0,0.0,0.5,0.0025000002,0.0025000002,0.0025000002,1,1,1,0,1,0
47484000,47404000,1310988,-0.0011667544,-0.005139114,3.5014007e-05,0.15,1.5891987e-07,1.5890491e-07,6.202938e-07,1310988,0.0008039537,-0.00039315523,-0.08771435,0.4,0.03010497,0.030119792,0.00078124576,197388,0.0,0.0,0.0,0.5,0.0025000002,0.0025000002,0.0025000002,1,1,1,0,1,0
47892000,47812000,1310988,-0.0011649334,-0.005136185,3.0208159e-05,0.15,1.5887537e-07,1.5885753e-07,6.11892e-07,1310988,0.00082548783,-0.0003166377,-0.086253785,0.4,0.030104877,0.030119563,0.00078124576,197388,0.0,0.0,0.0,0.5,0.0025000002,0.0025000002,0.0025000002,1,1,1,0,1,0
48284000,48204000,1310988,-0.00116197,-0.005133052,3.0366848e-05,0.15,1.5873363e-07,1.5871368e-07,6.035864e-07,1310988,0.00085349224,-0.00019792015,-0.08430352,0.4,0.030104782,0.03011931,0.00078124576,197388,0.0,0.0,0.0,0.5,0.0025000002,0.0025000002,0.0025000002,1,1,1,0,1,0
48684000,48604000,1310988,-0.0011574893,-0.0051306193,2.8734248e-05,0.15,1.5865845e-07,1.5863705e-07,5.9689154e-07,1310988,0.0008824728,-0.0001187248,-0.082873665,0.4,0.030104693,0.03011904,0.00078124576,197388,0.0,0.0,0.0,0.5,0.0025000002,0.0025000002,0.0025000002,1,1,1,0,1,0
49092000,49012000,1310988,-0.0011581135,-0.0051246616,3.0173338e-05,0.15,1.5862955e-07,1.5860738e-07,5.8912366e-07,1310988,0.0009156432,2.7430524e-05,-0.08107736,0.4,0.030104615,0.030118762,0.00078124576,197388,0.0,0.0,0.0,0.5,0.0025000002,0.0025000002,0.0025000002,1,1,1,0,1,0
49492000,49412000,1310988,-0.0011529021,-0.005122156,3.6202266e-05,0.15,1.5854623e-07,1.585238e-07,5.827884e-07,1310988,0.0009526535,0.00012300414,-0.079573184,0.4,0.030104548,0.030118486,0.00078124576,197388,0.0,0.0,0.0,0.5,0.0025000002,0.0025000002,0.0025000002,1,1,1,0,1,0
49892000,49812000,1310988,-0.0011489982,-0.0051197563,3.354543e-05,0.15,1.5847158e-07,1.5844927e-07,5.7534737e-07,1310988,0.0009920697,0.0002392102,-0.07777789,0.4,0.030104488,0.030118229,0.00078124576,197388,0.0,0.0,0.0,0.5,0.0025000002,0.0025000002,0.0025000002,1,1,1,0,1,0
50284000,50204000,1310988,-0.0011424713,-0.005116386,3.0239393e-05,0.15,1.5836012e-07,1.5833814e-07,5.692846e-07,1310988,0.0010342414,0.00032533464,-0.07616614,0.4,0.030104434,0.030118013,0.00078124576,197388,0.0,0.0,0.0,0.5,0.0025000002,0.0025000002,0.0025000002,1,1,1,0,1,0
50692000,50612000,1310988,-0.0011351721,-0.005110215,2.9093597e-05,0.15,1.5835448e-07,1.5833295e-07,5.6227134e-07,1310988,0.0010874753,0.00038485124,-0.07489532,0.4,0.030104378,0.030117813,0.00078124576,197388,0.0,0.0,0.0,0.5,0.0025000002,0.0025000002,0.0025000002,1,1,1,0,1,0
51092000,51012000,1310988,-0.0011275852,-0.005108259,2.8615472e-05,0.15,1.5829161e-07,1.5827068e-07,5.5538044e-07,1310988,0.0011320026,0.00044169373,-0.07344656,0.4,0.030104332,0.03011764,0.00078124576,197388,0.0,0.0,0.0,0.5,0.0025000002,0.0025000002,0.0025000002,1,1,1,0,1,0
51492000,51412000,1310988,-0.0011203951,-0.005105327,2.8025612e-05,0.15,1.5823369e-07,1.5821372e-07,5.498616e-07,1310988,0.0011843306,0.00051257847,-0.07184381,0.4,0.030104289,0.030117469,0.00078124576,197388,0.0,0.0,0.0,0.5,0.0025000002,0.0025000002,0.0025000002,1,1,1,0,1,0
51884000,51804000,1310988,-0.0011144117,-0.005102646,2.7816146e-05,0.15,1.5813653e-07,1.5811794e-07,5.43244e-07,1310988,0.0012367005,0.0005874979,-0.070219904,0.4,0.030104246,0.030117296,0.00078124576,197388,0.0,0.0,0.0,0.5,0.0025000002,0.0025000002,0.0025000002,1,1,1,0,1,0
52284000,52204000,1310988,-0.0011087309,-0.005100542,2.8121782e-05,0.15,1.5810078e-07,1.5808386e-07,5.380186e-07,1310988,0.0012830291,0.0006615097,-0.06856133,0.4,0.030104203,0.030117135,0.00078124576,197388,0.0,0.0,0.0,0.5,0.0025000002,0.0025000002,0.0025000002,1,1,1,0,1,0
52684000,52604000,1310988,-0.0011008693,-0.0050974917,2.6912121e-05,0.15,1.5806256e-07,1.580478e-07,5.3178496e-07,1310988,0.0013421951,0.00072385446,-0.06697491,0.4,0.030104153,0.03011696,0.00078124576,197388,0.0,0.0,0.0,0.5,0.0025000002,0.0025000002,0.0025000002,1,1,1,0,1,0
53092000,53012000,1310988,-0.0010939642,-0.0050945487,2.6355832e-05,0.15,1.5806798e-07,1.580559e-07,5.2690075e-07,1310988,0.0013993806,0.0007972941,-0.065265864,0.4,0.030104114,0.030116804,0.00078124576,197388,0.0,0.0,0.0,0.5,0.0025000002,0.0025000002,0.0025000002,1,1,1,0,1,0
53492000,53412000,1310988,-0.0010872507,-0.0050927214,3.2560623e-05,0.15,1.580158e-07,1.5800697e-07,5.209708e-07,1310988,0.0014447708,0.0008684526,-0.06370933,0.4,0.03010409,0.030116651,0.00078124576,197388,0.0,0.0,0.0,0.5,0.0025000002,0.0025000002,0.0025000002,1,1,1,0,1,0
53892000,53812000,1310988,-0.0010762572,-0.005089856,3.1869276e-05,0.15,1.5796785e-07,1.5796242e-07,5.162867e-07,1310988,0.0015142113,0.0009408955,-0.0617664,0.4,0.030104043,0.030116478,0.00078124576,197388,0.0,0.0,0.0,0.5,0.0025000002,0.0025000002,0.0025000002,1,1,1,0,1,0
54284000,54204000,1310988,-0.0010695225,-0.0050883982,3.1102947e-05,0.15,1.5788144e-07,1.5787957e-07,5.105806e-07,1310988,0.0015657047,0.0010150913,-0.059978325,0.4,0.030104011,0.030116329,0.00078124576,197388,0.0,0.0,0.0,0.5,0.0025000002,0.0025000002,0.0025000002,1,1,1,0,1,0
54692000,54612000,1310988,-0.0010639726,-0.0050893626,3.605944e-05,0.15,1.579e-07,1.5790151e-07,5.051489e-07,1310988,0.0016108656,0.0010955563,-0.058068097,0.4,0.03010398,0.030116197,0.00078124576,197388,0.0,0.0,0.0,0.5,0.0025000002,0.0025000002,0.0025000002,1,1,1,0,1,0
55092000,55012000,1310988,-0.0010600701,-0.005089787,4.0239553e-05,0.15,1.5785895e-07,1.5786438e-07,5.0084117e-07,1310988,0.0016389644,0.0011477725,-0.05684044,0.4,0.030103948,0.030116074,0.00078124576,197388,0.0,0.0,0.0,0.5,0.0025000002,0.0025000002,0.0025000002,1,1,1,0,1,0
55492000,55412000,1310988,-0.0010571262,-0.005089013,3.5129866e-05,0.15,1.5782163e-07,1.5783063e-07,4.9561055e-07,1310988,0.0016866762,0.0012093104,-0.055203807,0.4,0.030103913,0.030115962,0.00078124576,197388,0.0,0.0,0.0,0.5,0.0025000002,0.0025000002,0.0025000002,1,1,1,0,1,0
55884000,55804000,1310988,-0.0010509152,-0.005087388,4.304644e-05,0.15,1.5774339e-07,1.5775628e-07,4.914673e-07,1310988,0.0017424469,0.0012618842,-0.053703915,0.4,0.030103866,0.030115848,0.00078124576,197388,0.0,0.0,0.0,0.5,0.0025000002,0.0025000002,0.0025000002,1,1,1,0,1,0
56284000,56204000,1310988,-0.0010454652,-0.005086947,4.8170587e-05,0.15,1.5772565e-07,1.5774256e-07,4.8648957e-07,1310988,0.0017970944,0.0013242816,-0.05195198,0.4,0.030103816,0.030115731,0.00078124576,197388,0.0,0.0,0.0,0.5,0.0025000002,0.0025000002,0.0025000002,1,1,1,0,1,0
56692000,56612000,1310988,-0.0010398339,-0.005088432,4.757631e-05,0.15,1.5774854e-07,1.5776936e-07,4.8170756e-07,1310988,0.0018553433,0.0013695002,-0.050382003,0.4,0.030103749,0.030115608,0.00078124576,197388,0.0,0.0,0.0,0.5,0.0025000002,0.0025000002,0.0025000002,1,1,1,0,1,0
57084000,57004000,1310988,-0.0010341571,-0.0050871316,5.039331e-05,0.15,1.5766865e-07,1.5769325e-07,4.779022e-07,1310988,0.0019432442,0.0014307221,-0.048427597,0.4,0.03010367,0.030115495,0.00078124576,197388,0.0,0.0,0.0,0.5,0.0025000002,0.0025000002,0.0025000002,1,1,1,0,1,0
57492000,57412000,1310988,-0.0010285422,-0.0050865626,5.173923e-05,0.15,1.5769312e-07,1.5772133e-07,4.7336556e-07,1310988,0.0020233726,0.0014748886,-0.0468686,0.4,0.030103574,0.03011538,0.00078124576,197388,0.0,0.0,0.0,0.5,0.0025000002,0.0025000002,0.0025000002,1,1,1,0,1,0
57892000,57812000,1310988,-0.0010230211,-0.005088858,5.233942e-05,0.15,1.5765862e-07,1.5769074e-07,4.688865e-07,1310988,0.0020714805,0.0014957029,-0.045751054,0.4,0.030103475,0.030115267,0.00078124576,197388,0.0,0.0,0.0,0.5,0.0025000002,0.0025000002,0.0025000002,1,1,1,0,1,0
58284000,58204000,1310988,-0.0010151216,-0.005085913,4.7027843e-05,0.15,1.5758373e-07,1.5761995e-07,4.6539054e-07,1310988,0.0021566367,0.0015239709,-0.044413563,0.4,0.030103369,0.03011515,0.00078124576,197388,0.0,0.0,0.0,0.5,0.0025000002,0.0025000002,0.0025000002,1,1,1,0,1,0
58692000,58612000,1310988,-0.0010100539,-0.00508462,4.7994203e-05,0.15,1.5761363e-07,1.5765413e-07,4.6118603e-07,1310988,0.0022289003,0.0015669727,-0.0429286,0.4,0.030103263,0.030115029,0.00078124576,197388,0.0,0.0,0.0,0.5,0.0025000002,0.0025000002,0.0025000002,1,1,1,0,1,0
59092000,59012000,1310988,-0.0010072418,-0.005083227,5.2404663e-05,0.15,1.575826e-07,1.576269e-07,4.5794056e-07,1310988,0.0022944105,0.0016023291,-0.041629218,0.4,0.03010312,0.030114885,0.00078124576,197388,0.0,0.0,0.0,0.5,0.0025000002,0.0025000002,0.0025000002,1,1,1,0,1,0
59492000,59412000,1310988,-0.0010022126,-0.0050852457,5.1492178e-05,0.15,1.5755413e-07,1.5760179e-07,4.5388535e-07,1310988,0.0023688143,0.0016221872,-0.040076215,0.4,0.030102935,0.030114723,0.00078124576,197388,0.0,0.0,0.0,0.5,0.0025000002,0.0025000002,0.0025000002,1,1,1,0,1,0
60284000,60204000,1310988,-0.000996924,-0.0050898264,4.669624e-05,0.15,1.5746139e-07,1.5751665e-07,4.4689165e-07,1310988,0.0024171968,0.0016293791,-0.03857164,0.4,0.030102583,0.030114368,0.00078124576,197388,0.0,0.0,0.0,0.5,0.0025000002,0.0025000002,0.0025000002,1,1,1,0,1,0
60692000,60612000,1310988,-0.0009954629,-0.0050979126,4.4617173e-05,0.15,1.5760617e-07,1.576652e-07,4.4406542e-07,1310988,0.002417528,0.0016435871,-0.037385274,0.4,0.030102406,0.030114172,0.00078124576,197388,0.0,0.0,0.0,0.5,0.0025000002,0.0025000002,0.0025000002,1,0,1,0,1,0
61092000,61012000,1310988,-0.0009949178,-0.0050983187,4.432951e-05,0.15,1.5779324e-07,1.5785626e-07,4.4209068e-07,1310988,0.0024489223,0.0016845962,-0.036358748,0.4,0.030102268,0.030113991,0.00078124576,197388,0.0,0.0,0.0,0.5,0.0025000002,0.0025000002,0.0025000002,1,0,1,0,1,0
61492000,61412000,1310988,-0.0009954782,-0.0051005604,4.2075306e-05,0.15,1.5797595e-07,1.5804208e-07,4.4014664e-07,1310988,0.0024730135,0.0017350665,-0.035189606,0.4,0.030102156,0.03011381,0.00078124576,197388,0.0,0.0,0.0,0.5,0.0025000002,0.0025000002,0.0025000002,1,0,1,0,1,0
62292000,62212000,1310988,-0.0010015712,-0.005102674,4.0547675e-05,0.15,1.5832659e-07,1.5839515e-07,4.3718921e-07,1310988,0.0025029315,0.0018537767,-0.03328293,0.4,0.030101987,0.030113405,0.00078124576,197388,0.0,0.0,0.0,0.5,0.0025000002,0.0025000002,0.0025000002,1,0,1,0,1,0
63092000,63012000,1310988,-0.0010084223,-0.0051040375,4.1979558e-05,0.15,1.584909e-07,1.5855618e-07,4.343253e-07,1310988,0.0025246788,0.0022940203,-0.03198284,0.4,0.030067416,0.030078463,0.00078124576,197388,0.0,0.0,0.0,0.5,0.0025000002,0.0025000002,0.0025000002,1,0,1,0,1,0
63492000,63412000,1310988,-0.0010155807,-0.005107571,4.215057e-05,0.15,1.5851423e-07,1.5858302e-07,4.3250938e-07,1310988,0.002085799,0.00330839,-0.03104185,0.4,0.030015117,0.030026034,0.00078124576,197388,0.0,0.0,0.0,0.5,0.0025000002,0.0025000002,0.0025000002,1,0,1,0,1,0
63884000,63804000,1310988,-0.0010197319,-0.0051101125,4.469385e-05,0.15,1.585032e-07,1.585744e-07,4.306582e-07,1310988,0.0017441453,0.004001708,-0.030189078,0.4,0.029948141,0.02995893,0.00078124576,197388,0.0,0.0,0.0,0.5,0.0025000002,0.0025000002,0.0025000002,1,0,1,0,1,0
64292000,64212000,1310988,-0.0010229549,-0.0051135016,4.5559205e-05,0.15,1.586312e-07,1.5870116e-07,4.2978252e-07,1310988,0.0013032006,0.0045547322,-0.02880874,0.4,0.02988706,0.029897688,0.00078124576,197388,0.0,0.0,0.0,0.5,0.0025000002,0.0025000002,0.0025000002,1,0,1,0,1,0
64692000,64612000,1310988,-0.0010274125,-0.0051161028,4.5506476e-05,0.15,1.5931788e-07,1.5938541e-07,4.3215377e-07,1310988,0.0023822198,0.0027558366,-0.028067438,0.4,0.029436544,0.029446287,0.00078124576,197388,0.0,0.0,0.0,0.5,0.0025000002,0.0025000002,0.0025000002,1,0,1,0,1,0
65092000,65012000,1310988,-0.0010320598,-0.0051181335,4.5446992e-05,0.15,1.6101167e-07,1.6107693e-07,4.3534905e-07,1310988,0.0048065917,-0.0029318042,-0.02699712,0.4,0.027045311,0.027053043,0.00078124576,197388,0.0,0.0,0.0,0.5,0.0025000002,0.0025000002,0.0025000002,1,0,1,0,1,0
65492000,65412000,1310988,-0.0010351558,-0.0051188143,4.5372504e-05,0.15,1.6362563e-07,1.6368972e-07,4.3854317e-07,1310988,0.0063053314,-0.010720475,-0.02592061,0.4,0.023725364,0.023731388,0.00078124576,197388,0.0,0.0,0.0,0.5,0.0025000002,0.0025000002,0.0025000002,1,0,1,0,1,0
65892000,65812000,1310988,-0.0010354834,-0.0051191477,4.5425204e-05,0.15,1.666261e-07,1.6668987e-07,4.4173294e-07,1310988,0.008316465,-0.012306713,-0.025098518,0.4,0.021000193,0.021005323,0.00078124576,197388,0.0,0.0,0.0,0.5,0.0025000002,0.0025000002,0.0025000002,1,0,1,0,1,0
66284000,66204000,1310988,-0.0010357213,-0.0051191477,4.538188e-05,0.15,1.6962535e-07,1.6968916e-07,4.448561e-07,1310988,0.008042996,-0.010806389,-0.023830965,0.4,0.019192716,0.019197442,0.00078124576,197388,0.0,0.0,0.0,0.5,0.0025000002,0.0025000002,0.0025000002,1,0,1,0,1,0
66692000,66612000,1310988,-0.0010358383,-0.005118906,4.5537417e-05,0.15,1.7273871e-07,1.7280256e-07,4.480981e-07,1310988,0.009065201,-0.011897189,-0.023141287,0.4,0.018027894,0.018032541,0.00078124576,197388,0.0,0.0,0.0,0.5,0.0025000002,0.0025000002,0.0025000002,1,0,1,0,1,0
67092000,67012000,1310988,-0.0010362229,-0.0051189014,4.5492056e-05,0.15,1.7578354e-07,1.7584742e-07,4.512733e-07,1310988,0.008525762,-0.011517084,-0.021979822,0.4,0.017280726,0.017285412,0.00078124576,197388,0.0,0.0,0.0,0.5,0.0025000002,0.0025000002,0.0025000002,1,0,1,0,1,0
67492000,67412000,1310988,-0.0010362598,-0.0051188827,4.538399e-05,0.15,1.7884355e-07,1.7890743e-07,4.5443434e-07,1310988,0.007996223,-0.0121139875,-0.020885153,0.4,0.016784778,0.016789464,0.00078124576,197388,0.0,0.0,0.0,0.5,0.0025000002,0.0025000002,0.0025000002,1,0,1,0,1,0
68292000,68212000,1310988,-0.0010370956,-0.0051190513,4.5306002e-05,0.15,1.8505361e-07,1.8511743e-07,4.607328e-07,1310988,0.0066012274,-0.0106027,-0.019974964,0.4,0.016201891,0.016206456,0.00078124576,197388,0.0,0.0,0.0,0.5,0.0025000002,0.0025000002,0.0025000002,1,0,1,0,1,0
69084000,69004000,1310988,-0.0010376036,-0.0051189167,4.569208e-05,0.15,1.9131625e-07,1.9138004e-07,4.6692028e-07,1310988,0.006708714,-0.010034329,-0.018963518,0.4,0.015896583,0.01590104,0.00078124576,197388,0.0,0.0,0.0,0.5,0.0025000002,0.0025000002,0.0025000002,1,0,1,0,1,0
70084000,70004000,1310988,-0.0010376746,-0.00511889,4.6109966e-05,0.15,1.992675e-07,1.9933132e-07,4.7464871e-07,1310988,0.006784941,-0.010457104,-0.018834325,0.4,0.015719363,0.015723845,0.0007812487,197388,0.0,0.0,0.0,0.5,0.0025000002,0.0025000002,0.0025000002,1,0,1,0,1,0
70692000,70612000,1310988,-0.0010376682,-0.0051196143,4.5627563e-05,0.15,2.0390513e-07,2.0396888e-07,4.793089e-07,1310988,0.0070467344,-0.010423487,-0.01991142,0.4,0.015637029,0.015641533,0.00078124576,197388,0.0,0.0,0.0,0.5,0.0025000002,0.0025000002,0.0025000002,1,1,1,0,1,0
71484000,71404000,1310988,-0.001039129,-0.0051210783,4.5422592e-05,0.15,2.0948148e-07,2.0954491e-07,4.8529756e-07,1310988,0.007087592,-0.010506197,-0.020957269,0.4,0.015631141,0.015635673,0.00078124576,197388,0.0,0.0,0.0,0.5,0.0025000002,0.0025000002,0.0025000002,1,1,1,0,1,0
72484000,72404000,1310988,-0.001038501,-0.005125102,4.6330406e-05,0.15,2.1602045e-07,2.1608308e-07,4.9272853e-07,1310988,0.0072632325,-0.010478106,-0.021935295,0.4,0.015625441,0.01563002,0.0007812487,197388,0.0,0.0,0.0,0.5,0.0025000002,0.0025000002,0.0025000002,1,1,1,0,1,0
73484000,73404000,1310988,-0.0010361428,-0.005128823,4.7208672e-05,0.15,2.1989317e-07,2.199535e-07,4.9999625e-07,1310988,0.0073961094,-0.010335892,-0.022183277,0.4,0.015613061,0.015617731,0.00078124576,197388,0.0,0.0,0.0,0.5,0.0025000002,0.0025000002,0.0025000002,1,1,1,0,1,0
74484000,74404000,1310988,-0.0010358539,-0.005129689,4.912308e-05,0.15,2.2427206e-07,2.243309e-07,5.070776e-07,1310988,0.0074205957,-0.010318839,-0.02304903,0.4,0.015606011,0.015610722,0.00078124576,197388,0.0,0.0,0.0,0.5,0.0025000002,0.0025000002,0.0025000002,1,1,1,0,1,0
74892000,74812000,1310988,-0.001042069,-0.0051292493,5.048061e-05,0.15,2.2208934e-07,2.2214677e-07,5.098849e-07,1310988,0.0073976107,-0.010527206,-0.024296852,0.4,0.015599009,0.015603748,0.00078124576,197388,0.0,0.0,0.0,0.5,0.0025000002,0.0025000002,0.0025000002,1,1,1,0,1,0
75892000,75812000,1310988,-0.0010534317,-0.0051237047,5.1498457e-05,0.15,2.2291415e-07,2.2296878e-07,5.166583e-07,1310988,0.007244811,-0.010853496,-0.025209576,0.4,0.015592747,0.015597481,0.0007812481,197388,0.0,0.0,0.0,0.5,0.0025000002,0.0025000002,0.0025000002,1,1,1,0,1,0
76892000,76812000,1310988,-0.0010648576,-0.005115321,5.2350297e-05,0.15,2.1742446e-07,2.1747051e-07,5.231857e-07,1310988,0.007064087,-0.011088745,-0.025895419,0.4,0.015586459,0.015591159,0.00078124576,197388,0.0,0.0,0.0,0.5,0.0025000002,0.0025000002,0.0025000002,1,1,1,0,1,0
77684000,77604000,1310988,-0.0010627417,-0.0051134517,5.2179457e-05,0.15,2.1347016e-07,2.1351028e-07,5.281783e-07,1310988,0.0070240945,-0.011046741,-0.02479419,0.4,0.015584608,0.01558929,0.00078124576,197388,0.0,0.0,0.0,0.5,0.0025000002,0.0025000002,0.0025000002,1,1,1,0,1,0
78684000,78604000,1310988,-0.0010665964,-0.005112874,5.2197807e-05,0.15,2.1062311e-07,2.1065846e-07,5.34362e-07,1310988,0.007010597,-0.0110869035,-0.024699233,0.4,0.015582995,0.015587675,0.00078124576,197388,0.0,0.0,0.0,0.5,0.0025000002,0.0025000002,0.0025000002,1,1,1,0,1,0
79684000,79604000,1310988,-0.0010618743,-0.005110264,5.1985884e-05,0.15,2.0758313e-07,2.0761411e-07,5.401067e-07,1310988,0.0069759325,-0.011038688,-0.02448503,0.4,0.015581924,0.015586608,0.0007812486,197388,0.0,0.0,0.0,0.5,0.0025000002,0.0025000002,0.0025000002,1,1,1,0,1,0
80684000,80604000,1310988,-0.0010547957,-0.0051240814,5.1417726e-05,0.15,1.9919702e-07,1.9922311e-07,5.4551924e-07,1310988,0.007021915,-0.010989925,-0.02384635,0.4,0.015581269,0.0155859655,0.0007812475,197388,0.0,0.0,0.0,0.5,0.0025000002,0.0025000002,0.0025000002,1,1,1,0,1,0
81684000,81604000,1310988,-0.001051796,-0.005139755,4.864925e-05,0.15,1.9142792e-07,1.9145651e-07,5.5057626e-07,1310988,0.0070204083,-0.010967554,-0.023175435,0.4,0.015581085,0.015585796,0.00078124576,197388,0.0,0.0,0.0,0.5,0.0025000002,0.0025000002,0.0025000002,1,1,1,0,1,0
82092000,82012000,1310988,-0.0010594364,-0.005144492,4.6540154e-05,0.15,1.897364e-07,1.8976927e-07,5.524648e-07,1310988,0.0070892014,-0.011069417,-0.02203393,0.4,0.015579938,0.015584642,0.00078124576,197388,0.0,0.0,0.0,0.5,0.0025000002,0.0025000002,0.0025000002,1,1,1,0,1,0
82884000,82804000,1310988,-0.0010735615,-0.0051588826,4.6841014e-05,0.15,1.8696049e-07,1.8700081e-07,5.560936e-07,1310988,0.007792344,-0.011787734,-0.021098733,0.4,0.015556846,0.015561503,0.00078124576,197388,0.0,0.0,0.0,0.5,0.0025000002,0.0025000002,0.0025000002,1,1,1,0,1,0
83684000,83604000,1310988,-0.0010823075,-0.0051691127,4.2799427e-05,0.15,1.8484172e-07,1.8488163e-07,5.595365e-07,1310988,0.008594511,-0.012459388,-0.020199137,0.4,0.015507513,0.015512078,0.00078124576,197388,0.0,0.0,0.0,0.5,0.0025000002,0.0025000002,0.0025000002,1,1,1,0,1,0
84492000,84412000,1310988,-0.0010903737,-0.005176164,4.3296954e-05,0.15,1.829927e-07,1.8302934e-07,5.6279254e-07,1310988,0.0091365855,-0.013047541,-0.018700005,0.4,0.015461437,0.015465939,0.00078124576,197388,0.0,0.0,0.0,0.5,0.0025000002,0.0025000002,0.0025000002,1,1,1,0,1,0
85292000,85212000,1310988,-0.00110213,-0.005185617,4.416139e-05,0.15,1.8116397e-07,1.8119441e-07,5.654071e-07,1310988,0.00970621,-0.013741627,-0.017544767,0.4,0.0154323215,0.015436783,0.00078124576,197388,0.0,0.0,0.0,0.5,0.0025000002,0.0025000002,0.0025000002,1,1,1,0,1,0
86092000,86012000,1310988,-0.0011139042,-0.005186913,4.169355e-05,0.15,1.7936729e-07,1.7938086e-07,5.680544e-07,1310988,0.009814063,-0.014149205,-0.015866842,0.4,0.0154215675,0.015426069,0.00078124576,197388,0.0,0.0,0.0,0.5,0.0025000002,0.0025000002,0.0025000002,1,1,1,0,1,0
86652000,86572000,1310988,-0.0011334154,-0.0051721106,4.102019e-05,0.15,1.7965668e-07,1.7968038e-07,5.6979854e-07,1310988,0.009837227,-0.014214123,-0.015719332,0.4,0.015415791,0.015425502,0.00078124576,197388,0.0007441806,-0.0019479272,-0.00018952342,0.5,0.0013229145,0.0016930863,0.001635723,1,1,1,0,1,0
86868000,86788000,1310988,-0.0011334146,-0.005172112,4.1020165e-05,0.15,1.8138468e-07,1.8140837e-07,5.715265e-07,1310988,0.0098370025,-0.014214411,-0.01573445,0.4,0.015415807,0.015425518,0.0007812486,197388,0.0012473838,-0.0008511277,0.00021911766,0.5,0.0006306523,0.0013950047,0.0013055223,1,1,1,0,1,0
87292000,87212000,1310988,-0.0011521172,-0.005146984,4.4106222e-05,0.15,1.7680068e-07,1.7950565e-07,5.715557e-07,1310988,0.011753467,-0.014365333,-0.0146164,0.4,0.0153823905,0.015419721,0.00078124576,197388,0.0013392408,-0.00077600736,0.00014773862,0.5,0.0003649699,0.0013057839,0.0012115312,1,1,1,0,1,0
87692000,87612000,1310988,-0.001160018,-0.0051455894,5.0933308e-05,0.15,1.7651914e-07,1.8159824e-07,5.724421e-07,1310988,0.012718153,-0.0141195515,-0.013811894,0.4,0.015323525,0.015408115,0.00078124576,197388,0.0018560536,-0.0008671696,-9.409481e-05,0.5,0.00028312014,0.0012793001,0.0011900289,1,1,1,0,1,0
88492000,88412000,1310988,-0.0011503117,-0.00515663,4.976075e-05,0.15,1.7624055e-07,1.859253e-07,5.768733e-07,1310988,0.010325333,-0.013184275,-0.012180934,0.4,0.015119229,0.015336771,0.00078124576,197388,0.0019071376,-0.00034724953,-0.0003289652,0.5,0.0001473317,0.001105615,0.0008956431,1,1,1,0,1,0
88892000,88812000,1310988,-0.0011428777,-0.005164538,4.8510432e-05,0.15,1.760752e-07,1.8709943e-07,5.799888e-07,1310988,0.00819871,-0.0127237905,-0.010945917,0.4,0.014973298,0.015255417,0.00078124576,197388,0.0018245962,-0.0006010056,-0.00023303319,0.5,0.00012415674,0.0010077056,0.00079471734,1,1,1,0,1,0
89292000,89212000,1310988,-0.001138016,-0.005181952,4.626744e-05,0.15,1.7587863e-07,1.8697929e-07,5.828377e-07,1310988,0.005446036,-0.010354634,-0.010096158,0.4,0.014801486,0.015131785,0.00078124576,197388,0.0016315777,-0.0005256294,-3.8415772e-05,0.5,0.00010730803,0.0009251342,0.0007235965,1,1,1,0,1,0
89692000,89612000,1310988,-0.0011428209,-0.005197985,4.0803418e-05,0.15,1.7559654e-07,1.8545916e-07,5.8485716e-07,1310988,0.00489611,-0.0071171494,-0.009797245,0.4,0.014606865,0.014964112,0.00078124576,197388,0.001583206,-0.00093593023,-0.00028485965,0.5,9.59161e-05,0.0008878811,0.00068798417,1,1,1,0,1,0
90092000,90012000,1310988,-0.0011517149,-0.0052155415,3.2109485e-05,0.15,1.7523745e-07,1.8277737e-07,5.8564297e-07,1310988,0.0045425273,-0.003451053,-0.009015848,0.4,0.014393748,0.014760576,0.00078124576,197388,0.0015881245,-0.0009371896,-0.00026345358,0.5,8.88116e-05,0.0008669394,0.0006676294,1,1,1,0,1,0
90492000,90412000,1310988,-0.0011546836,-0.00524025,2.9266126e-05,0.15,1.7480721e-07,1.788092e-07,5.837366e-07,1310988,0.0019551243,0.00030882665,-0.008213272,0.4,0.014151513,0.014536239,0.00078124576,197388,0.0017576943,-0.0012456288,-0.000358146,0.5,8.19652e-05,0.0008154655,0.00062992657,1,1,1,0,1,0
90892000,90812000,1310988,-0.0011619414,-0.0052569853,1.9945384e-05,0.15,1.7455564e-07,1.7493066e-07,5.790515e-07,1310988,0.0008881236,0.0030450511,-0.0074679577,0.4,0.013902165,0.014352347,0.00078124576,197388,0.0018260813,-0.0009831334,-0.0002893656,0.5,7.6185126e-05,0.0007623602,0.00059391686,1,1,1,0,1,0
91284000,91204000,1310988,-0.0011709888,-0.0052664634,5.280067e-06,0.15,1.7458638e-07,1.7226479e-07,5.728092e-07,1310988,0.0010764344,0.004778726,-0.0070249625,0.4,0.013660334,0.014243589,0.00078124576,197388,0.0019286047,-0.0013217705,-0.00013443423,0.5,7.192699e-05,0.00072481314,0.0005731103,1,1,1,0,1,0
91692000,91612000,1310988,-0.001181106,-0.0052735303,-1.32914465e-05,0.15,1.7506922e-07,1.7108502e-07,5.661813e-07,1310988,0.0002696004,0.0059567606,-0.0063270465,0.4,0.013414432,0.014198363,0.00078124576,197388,0.0020372232,-0.0019297847,-6.137204e-05,0.5,6.7475914e-05,0.00067957083,0.00055797887,1,1,1,0,1,0
92028000,91948000,1310988,-0.0011811157,-0.005273537,-1.3286449e-05,0.15,1.7775615e-07,1.73772e-07,5.6886904e-07,1310988,0.0002476916,0.0059543806,-0.0063067297,0.4,0.013406708,0.014198328,0.0007812487,197388,0.0022152723,-0.0029396706,-7.508768e-05,0.5,6.436017e-05,0.00063602877,0.0005500423,1,1,1,0,1,0
92092000,92012000,1310988,-0.001186708,-0.0052708187,-2.5519143e-05,0.15,1.7581425e-07,1.7096818e-07,5.598177e-07,1310988,-0.00051232846,0.006408471,-0.005838336,0.4,0.013144952,0.014182379,0.00078124576,197388,0.0022378007,-0.0030844258,-2.046872e-05,0.5,6.380601e-05,0.0006269848,0.0005486869,1,1,1,0,1,0
92484000,92404000,1310988,-0.0011978276,-0.005265945,-4.725847e-05,0.15,1.767508e-07,1.715581e-07,5.553433e-07,1310988,-0.0024546543,0.0075707473,-0.0053045475,0.4,0.012867957,0.014162428,0.00078124576,197388,0.0022295956,-0.0033732909,2.8670305e-05,0.5,6.1344275e-05,0.0005807899,0.0005416717,1,1,1,0,1,0
92892000,92812000,1310988,-0.0012134928,-0.0052630543,-7.015929e-05,0.15,1.7772327e-07,1.725428e-07,5.5375e-07,1310988,-0.005196598,0.0092793675,-0.0050789188,0.4,0.012598947,0.014111106,0.00078124576,197388,0.0020861288,-0.0029810206,6.240854e-05,0.5,5.9071484e-05,0.00053218135,0.00053868745,1,1,1,0,1,0
93284000,93204000,1310988,-0.0012354498,-0.0052603898,-9.173916e-05,0.15,1.781434e-07,1.7330883e-07,5.543443e-07,1310988,-0.01038002,0.01151184,-0.0046781916,0.4,0.012335163,0.01401149,0.00078124576,197388,0.0020016078,-0.002752793,-0.00040747382,0.5,5.7646805e-05,0.00048840203,0.0005284102,1,1,1,0,1,0
93692000,93612000,1310988,-0.001256565,-0.0052404027,-0.000103146995,0.15,1.78055e-07,1.7355596e-07,5.5699616e-07,1310988,-0.014209482,0.018076349,-0.004833464,0.4,0.012043517,0.01383291,0.00078124576,197388,0.0019983908,-0.0025808418,-0.00089694874,0.5,5.6460518e-05,0.00044467338,0.0004932046,1,1,1,0,1,0
94092000,94012000,1310988,-0.0012810188,-0.0052219885,-0.00010233526,0.15,1.7742602e-07,1.7283666e-07,5.597175e-07,1310988,-0.018085143,0.024457097,-0.005460124,0.4,0.01173116,0.013584589,0.00078124576,197388,0.002007351,-0.0032004628,-5.804688e-05,0.5,5.5271106e-05,0.0004193863,0.00042566122,1,1,1,0,1,0
94492000,94412000,1310988,-0.001302916,-0.0052107945,-9.199853e-05,0.15,1.7622267e-07,1.711191e-07,5.6026386e-07,1310988,-0.021533955,0.028952673,-0.0061845914,0.4,0.011412931,0.013265851,0.00078124576,197388,0.001969366,-0.0035913752,-0.00043275362,0.5,5.4415865e-05,0.00040249567,0.00038884833,1,1,1,0,1,0
94668000,94588000,1310988,-0.0013020528,-0.0052109594,-8.945361e-05,0.15,1.76951e-07,1.7221221e-07,5.5844856e-07,1310988,-0.020751305,0.027835669,-0.00616559,0.4,0.011216817,0.012896519,0.00078124576,197388,0.0020009412,-0.0036647925,-0.0004782352,0.5,5.402557e-05,0.0003913916,0.0003810055,1,1,1,0,1,0
94740000,94660000,1310988,-0.0012998912,-0.005211953,-8.8670655e-05,0.15,1.7722662e-07,1.7265326e-07,5.575875e-07,1310988,-0.020423565,0.025767565,-0.0061328923,0.4,0.011128473,0.012731445,0.00078124576,197388,0.0020248715,-0.0036404005,-0.0006112768,0.5,5.3897606e-05,0.00038750403,0.0003795486,1,1,1,0,1,0
94892000,94812000,1310988,-0.0013196062,-0.005230314,-6.625423e-05,0.15,1.7343122e-07,1.6886911e-07,5.5229583e-07,1310988,-0.02676369,0.023180079,-0.0066610426,0.4,0.010695676,0.012176799,0.00078124576,197388,0.0020152996,-0.0036248653,-0.00059929886,0.5,5.361365e-05,0.00038072103,0.0003770542,1,1,1,0,1,0
95028000,94948000,1310988,-0.0013184584,-0.0052303253,-6.1514e-05,0.15,1.7411935e-07,1.6983465e-07,5.5100185e-07,1310988,-0.02550167,0.022020608,-0.0065675057,0.4,0.010559508,0.0119341,0.00078124576,197388,0.0020674628,-0.0038515616,-0.00084075186,0.5,5.3257012e-05,0.0003763223,0.0003742461,1,1,1,0,1,0
95164000,95084000,1310988,-0.0013164941,-0.0052315393,-6.544601e-05,0.15,1.7486306e-07,1.7081616e-07,5.4991455e-07,1310988,-0.026362045,0.020964822,-0.0066015813,0.4,0.010435781,0.011710637,0.00078124576,197388,0.0020167138,-0.0037780064,-0.00072228233,0.5,5.2894473e-05,0.00037376457,0.000372033,1,1,1,0,1,0
95292000,95212000,1310988,-0.0013158177,-0.0052505597,-5.5938373e-05,0.15,1.7155688e-07,1.6760109e-07,5.4722494e-07,1310988,-0.02719887,0.016532535,-0.0067647044,0.4,0.01013557,0.011413876,0.00078124576,197388,0.0020335393,-0.0038629007,-0.0006811124,0.5,5.2726897e-05,0.0003727528,0.00037121333,1,1,1,0,1,0
95444000,95364000,1310988,-0.0013146127,-0.005250968,-5.6692e-05,0.15,1.7241113e-07,1.6872634e-07,5.454925e-07,1310988,-0.027307652,0.015421139,-0.0067868135,0.4,0.009982732,0.011138324,0.00078124576,197388,0.0020114218,-0.0039101043,-0.0006256692,0.5,5.226231e-05,0.0003697859,0.0003687043,1,1,1,0,1,0
95588000,95508000,1310988,-0.0013132069,-0.005251159,-5.518143e-05,0.15,1.7334135e-07,1.6981994e-07,5.4484093e-07,1310988,-0.02689736,0.0139009785,-0.0067669824,0.4,0.0098899845,0.010973268,0.00078124576,197388,0.0020064723,-0.0040302896,-0.0005918025,0.5,5.197817e-05,0.00036795874,0.00036708632,1,1,1,0,1,0
95684000,95604000,1310988,-0.0013216538,-0.0052662436,-4.6270332e-05,0.15,1.7033673e-07,1.6691791e-07,5.4342763e-07,1310988,-0.029408906,0.0112615535,-0.007074866,0.4,0.009647273,0.01075127,0.00078124576,197388,0.0020199437,-0.0040509137,-0.0005633381,0.5,5.1840816e-05,0.00036717404,0.00036641926,1,1,1,0,1,0
95940000,95860000,1310988,-0.0013200598,-0.00526653,-4.5945195e-05,0.15,1.720145e-07,1.688843e-07,5.422409e-07,1310988,-0.02923414,0.009904522,-0.0071014166,0.4,0.00949498,0.010489501,0.00078124576,197388,0.002010288,-0.004111608,-0.00052932795,0.5,5.135594e-05,0.00036502007,0.00036446674,1,1,1,0,1,0
96084000,96004000,1310988,-0.0013283435,-0.005275253,-3.7554386e-05,0.15,1.6962855e-07,1.6664956e-07,5.413131e-07,1310988,-0.030273387,0.0077026077,-0.007615702,0.4,0.009262679,0.010256737,0.00078124576,197388,0.0020630562,-0.00420773,-0.00061384676,0.5,5.1104456e-05,0.00036469245,0.00036374363,1,1,1,0,1,0
96228000,96148000,1310988,-0.0013269343,-0.00527551,-3.8439095e-05,0.15,1.706283e-07,1.677674e-07,5.4085365e-07,1310988,-0.030408729,0.0064344765,-0.0076682,0.4,0.009193438,0.010150927,0.00078124576,197388,0.002061735,-0.004228645,-0.0006410075,0.5,5.080671e-05,0.00036430158,0.00036309983,1,1,1,0,1,0
96484000,96404000,1310988,-0.0013399589,-0.005281463,-3.0875213e-05,0.15,1.6918456e-07,1.6652889e-07,5.3992676e-07,1310988,-0.03180598,0.0054867365,-0.0074866796,0.4,0.008994143,0.009944137,0.00078124576,197388,0.002110927,-0.0041260375,-0.0006954061,0.5,5.0183415e-05,0.00036024908,0.00036226978,1,1,1,0,1,0
96716000,96636000,1310988,-0.0013402468,-0.0052807257,-2.4881256e-05,0.15,1.708241e-07,1.6832297e-07,5.3841546e-07,1310988,-0.030540792,0.005170277,-0.0074819904,0.4,0.008860467,0.009754907,0.00078124576,197388,0.002197715,-0.0037327986,-0.0007502476,0.5,4.9147748e-05,0.00034685776,0.00036192013,1,1,1,0,1,0
96932000,96852000,1310988,-0.0013503641,-0.005289525,-1.6850996e-05,0.15,1.691134e-07,1.6671731e-07,5.37337e-07,1310988,-0.030454133,0.004126352,-0.00763988,0.4,0.00874574,0.009610465,0.00078124576,197388,0.0022682664,-0.0033746324,-0.0007940017,0.5,4.832815e-05,0.00033326168,0.00036180564,1,1,1,0,1,0
97276000,97196000,1310988,-0.0013496133,-0.0052890363,-1.4281871e-05,0.15,1.7164652e-07,1.6940297e-07,5.367146e-07,1310988,-0.029985772,0.0028547153,-0.0076763825,0.4,0.008624572,0.009411333,0.00078124576,197388,0.0023157578,-0.0031226873,-0.0008345888,0.5,4.7047175e-05,0.00031070728,0.0003616779,1,1,1,0,1,0
97556000,97476000,1310988,-0.00136443,-0.0053003444,-7.1290033e-06,0.15,1.7044917e-07,1.682398e-07,5.3564736e-07,1310988,-0.029199475,0.0024009072,-0.0072121667,0.4,0.008539388,0.0092513235,0.00078124576,197388,0.0024031103,-0.0026530034,-0.00089292065,0.5,4.6139943e-05,0.00029517783,0.00036157927,1,1,1,0,1,0
97684000,97604000,1310988,-0.001375229,-0.0053149452,-3.6478584e-06,0.15,1.6823587e-07,1.658934e-07,5.336978e-07,1310988,-0.028312208,0.003278269,-0.0075935284,0.4,0.008483878,0.009159035,0.00078124576,197388,0.0024125567,-0.0025547086,-0.0009355089,0.5,4.592911e-05,0.00029173095,0.0003615427,1,1,1,0,1,0
