timestamp,timestamp_sample,accel_device_id,gyro_device_id,delta_angle[0],delta_angle[1],delta_angle[2],delta_velocity[0],delta_velocity[1],delta_velocity[2],delta_angle_dt,delta_velocity_dt,delta_angle_clipping,delta_velocity_clipping,accel_calibration_count,gyro_calibration_count
3832000,3832000,1310988,1310988,-4.261085e-06,-3.621899e-05,4.2610886e-06,6.629855e-05,0.00018322139,-0.039940685,4000,4000,0,0,1,1
4332000,4332000,1310988,1310988,8.522127e-06,-4.367584e-05,7.4568893e-06,6.1510145e-05,0.0001640678,-0.03984491,4000,4000,0,0,1,1
4832000,4832000,1310988,1310988,-8.522112e-06,-4.2610576e-05,-1.597898e-05,-2.9469551e-05,0.00030771992,-0.039768293,4000,4000,0,0,1,1
5332000,5332000,1310988,1310988,1.0652646e-05,-5.326321e-06,-1.0652645e-05,-6.2988285e-05,0.0003843344,-0.03999814,4000,4000,0,0,1,1
5832000,5832000,1310988,1310988,-1.8109486e-05,-1.917478e-05,-6.3915695e-06,-0.00015875645,0.0002885663,-0.04016095,4000,4000,0,0,1,1
6332000,6332000,1310988,1310988,-1.9174751e-05,3.1957748e-06,-1.2783193e-05,6.1510145e-05,0.0001927982,-0.03983055,4000,4000,0,0,1,1
6832000,6832000,1310988,1310988,-2.1305386e-06,-1.7044234e-05,-5.3263175e-06,-7.256514e-05,6.829975e-05,-0.039773084,4000,4000,0,0,1,1
7332000,7332000,1310988,1310988,2.1305198e-06,-3.195794e-05,-1.9174762e-05,-4.8623086e-05,7.308815e-05,-0.039806604,4000,4000,0,0,1,1
7832000,7832000,1310988,1310988,-1.3848444e-05,-7.456844e-06,1.0652445e-06,-4.383475e-05,0.00035081554,-0.040007718,4000,4000,0,0,1,1
8332000,8332000,1310988,1310988,-1.5979012e-05,-3.19579e-05,-8.522165e-06,-0.00019706358,0.00025025898,-0.040093914,4000,4000,0,0,1,1
8832000,8832000,1310988,1310988,-2.5566364e-05,-3.941478e-05,-7.456851e-06,-0.00017312163,0.0001497026,-0.03987364,4000,4000,0,0,1,1
9332000,9332000,1310988,1310988,-2.2370521e-05,-3.5153756e-05,5.3263366e-06,-7.3897843e-07,0.00036996914,-0.040213622,4000,4000,0,0,1,1
9832000,9832000,1310988,1310988,-1.9174759e-05,-1.0652665e-05,1.2783161e-05,2.7991357e-05,0.00036996912,-0.039859276,4000,4000,0,0,1,1
10332000,10332000,1310988,1310988,5.3263116e-06,-3.4088473e-05,-9.587371e-06,-5.3411488e-05,5.87229e-05,-0.040093914,4000,4000,0,0,1,1
10832000,10832000,1310988,1310988,-8.52206e-06,-2.556638e-05,-4.2610573e-05,0.00024825794,0.00031729668,-0.039926313,4000,4000,0,0,1,1
11332000,11332000,1310988,1310988,-5.326298e-06,-2.450109e-05,-4.2610545e-06,-0.000355081,0.0003460271,-0.040022086,4000,4000,0,0,1,1
11832000,11832000,1310988,1310988,9.587392e-06,-1.4913706e-05,-7.4568356e-06,0.0001093942,0.00023110544,-0.040007718,4000,4000,0,0,1,1
12332000,12332000,1310988,1310988,1.0652542e-06,-3.9414786e-05,6.404511e-12,-1.9892694e-05,0.00011139528,-0.039729986,4000,4000,0,0,1,1
12832000,12832000,1310988,1310988,1.8109495e-05,-2.0240062e-05,-2.5566324e-05,-4.383475e-05,0.0001880098,-0.040108275,4000,4000,0,0,1,1
13332000,13332000,1310988,1310988,-5.229484e-11,-4.9002167e-05,9.587418e-06,3.7568152e-05,5.872284e-05,-0.039978992,4000,4000,0,0,1,1
13832000,13832000,1310988,1310988,7.4568584e-06,-3.3023218e-05,-8.522053e-06,-5.3411488e-05,0.00029335474,-0.039840125,4000,4000,0,0,1,1
14332000,14332000,1310988,1310988,-9.587391e-06,-1.0652634e-05,2.1305375e-06,4.0494206e-06,0.00013054888,-0.03991195,4000,4000,0,0,1,1
14832000,14832000,1310988,1310988,-4.2610636e-06,-2.2370554e-05,8.522125e-06,-5.3411488e-05,0.000154491,-0.040012505,4000,4000,0,0,1,1
15332000,15332000,1310988,1310988,1.3848442e-05,-1.0652638e-05,1.0652891e-06,5.193335e-05,0.00020716345,-0.039950255,4000,4000,0,0,1,1
15832000,15832000,1310988,1310988,-1.1717962e-05,-3.408845e-05,-4.261063e-06,0.0002817768,0.0001401258,-0.0401801,4000,4000,0,0,1,1
16332000,16332000,1310988,1310988,-6.3916336e-06,-2.5566342e-05,2.1304843e-06,0.0002913536,0.00040827645,-0.04025193,4000,4000,0,0,1,1
16832000,16832000,1310988,1310988,-1.3848445e-05,-3.1957934e-05,3.1957989e-06,-0.00015875645,-0.0001663321,-0.03955282,4000,4000,0,0,1,1
17332000,17332000,1310988,1310988,6.3915872e-06,2.130532e-06,-1.0652626e-06,-3.904635e-05,-1.7891607e-05,-0.039792243,4000,4000,0,0,1,1
17832000,17832000,1310988,1310988,8.522103e-06,-2.9827412e-05,3.5036123e-11,-7.256514e-05,0.0003460271,-0.0398066,4000,4000,0,0,1,1
18332000,18332000,1310988,1310988,-2.6631602e-05,-1.0652681e-05,-4.2610263e-06,7.108701e-05,-8.492923e-05,-0.039677322,4000,4000,0,0,1,1
18832000,18832000,1310988,1310988,-8.522089e-06,-2.3435827e-05,5.3263443e-06,-1.5104294e-05,0.00013054888,-0.039926313,4000,4000,0,0,1,1
19332000,19332000,1310988,1310988,-1.2783176e-05,-1.0652575e-06,2.1305268e-06,0.00017643184,0.00012097208,-0.039897583,4000,4000,0,0,1,1
19832000,19832000,1310988,1310988,-2.2370572e-05,-2.8762131e-05,1.0652182e-06,0.00011897105,0.00035560393,-0.039792243,4000,4000,0,0,1,1
20332000,20332000,1310988,1310988,-2.024003e-05,-3.089267e-05,-3.2502383e-11,0.00017643184,0.00022152864,-0.039662957,4000,4000,0,0,1,1
20832000,20832000,1310988,1310988,-2.1305073e-06,-2.4501087e-05,-1.44233505e-11,4.7144953e-05,8.745335e-05,-0.03966774,4000,4000,0,0,1,1
21332000,21332000,1310988,1310988,4.2610623e-06,-1.4913704e-05,-1.0652549e-06,0.00024346955,0.00025983577,-0.03991195,4000,4000,0,0,1,1
21832000,21832000,1310988,1310988,-1.2783178e-05,-2.1305295e-05,-4.261022e-06,0.0002099507,0.00024068223,-0.03966295,4000,4000,0,0,1,1
22332000,22332000,1310988,1310988,1.491372e-05,-3.089268e-05,-1.2783142e-05,-0.00016354484,-8.314809e-06,-0.039792243,4000,4000,0,0,1,1
22832000,22832000,1310988,1310988,-3.2057766e-11,-4.4741126e-05,2.8762122e-05,0.00012854779,-9.450605e-05,-0.03951451,4000,4000,0,0,1,1
23332000,23332000,1310988,1310988,1.0653088e-06,-2.6631615e-05,-7.456838e-06,-2.9469551e-05,0.00014012573,-0.03966774,4000,4000,0,0,1,1
23832000,23832000,1310988,1310988,-6.3915772e-06,-2.3435812e-05,7.456888e-06,4.7144953e-05,0.00030293147,-0.0396438,4000,4000,0,0,1,1
24332000,24332000,1310988,1310988,-3.0892665e-05,-3.408847e-05,6.3916164e-06,-7.256514e-05,-1.310321e-05,-0.039706048,4000,4000,0,0,1,1
24832000,24832000,1310988,1310988,-1.3848463e-05,-5.1132694e-05,-3.1958302e-06,0.00018600863,0.00039869946,-0.039907165,4000,4000,0,0,1,1
25332000,25332000,1310988,1310988,-1.5978982e-05,-1.4913696e-05,1.5978962e-05,0.0001668551,0.00014970252,-0.03957676,4000,4000,0,0,1,1
25832000,25832000,1310988,1310988,-3.621906e-05,-3.3023156e-05,1.1717855e-05,0.00036796805,0.00024547058,-0.040093914,4000,4000,0,0,1,1
26332000,26332000,1310988,1310988,-1.7044207e-05,-3.089268e-05,3.1958102e-06,-0.00018269844,0.00027420107,-0.03971084,4000,4000,0,0,1,1
26832000,26832000,1310988,1310988,1.2671806e-11,-2.982741e-05,1.0652217e-06,4.0494206e-06,0.00025504743,-0.039753936,4000,4000,0,0,1,1
27332000,27332000,1310988,1310988,-2.1305382e-06,-4.1545307e-05,-8.522155e-06,0.00021473909,0.00032687347,-0.03982097,4000,4000,0,0,1,1
27832000,27832000,1310988,1310988,-1.0652519e-06,-3.6219e-05,2.1305493e-06,0.00022910435,0.00022152864,-0.03958155,4000,4000,0,0,1,1
28332000,28332000,1310988,1310988,-1.7044209e-05,-2.556636e-05,-4.2611023e-06,0.00025304628,0.00013054894,-0.03981139,4000,4000,0,0,1,1
28832000,28832000,1310988,1310988,6.3915804e-06,-1.3848438e-05,-9.587386e-06,-4.383475e-05,0.00026941267,-0.03955761,4000,4000,0,0,1,1
29332000,29332000,1310988,1310988,-1.3848473e-05,-2.982739e-05,-3.195811e-06,-0.00014917964,0.00018322137,-0.03966774,4000,4000,0,0,1,1
29832000,29832000,1310988,1310988,1.49137195e-05,-3.0892665e-05,2.1305286e-05,-3.904635e-05,-9.450605e-05,-0.039538454,4000,4000,0,0,1,1
30332000,30332000,1310988,1310988,-3.0892672e-05,-2.130528e-05,2.4501089e-05,0.00025783473,0.00018322139,-0.039801817,4000,4000,0,0,1,1
30832000,30832000,1310988,1310988,-2.1305357e-06,-2.1305246e-05,-2.8762175e-05,0.00010939414,0.00037475757,-0.03973957,4000,4000,0,0,1,1
31332000,31332000,1310988,1310988,-7.456844e-06,-1.4913703e-05,4.2610745e-06,-8.693034e-05,-0.00017112048,-0.03974915,4000,4000,0,0,1,1
31832000,31832000,1310988,1310988,1.0652715e-06,-1.4913703e-05,-1.0652685e-06,6.629855e-05,0.00031250832,-0.039653376,4000,4000,0,0,1,1
32332000,32332000,1310988,1310988,1.8109522e-05,-7.4568707e-06,-1.9174733e-05,0.0001046058,0.00016885619,-0.039701257,4000,4000,0,0,1,1
32832000,32832000,1310988,1310988,-2.0239915e-05,-4.7936952e-05,6.3916195e-06,0.00015727831,0.00034123872,-0.039619856,4000,4000,0,0,1,1
33332000,33332000,1310988,1310988,-1.8109562e-05,-2.8762104e-05,6.3915804e-06,7.108701e-05,0.0001497026,-0.04003166,4000,4000,0,0,1,1
33832000,33832000,1310988,1310988,-2.663163e-05,-2.6631596e-05,-2.1305746e-06,-8.214194e-05,0.00015927946,-0.039720412,4000,4000,0,0,1,1
34332000,34332000,1310988,1310988,1.065262e-06,-7.4568516e-06,1.2783175e-05,-0.00017312163,8.266495e-05,-0.039801817,4000,4000,0,0,1,1
34832000,34832000,1310988,1310988,-1.0652669e-05,-2.130529e-05,-2.130528e-05,-0.00015396804,0.00030771992,-0.03966774,4000,4000,0,0,1,1
35332000,35332000,1310988,1310988,1.0652658e-05,-2.1305286e-05,-3.1957723e-06,-1.9892694e-05,0.000274201,-0.04011785,4000,4000,0,0,1,1
35832000,35832000,1310988,1310988,4.255454e-12,-1.5978967e-05,2.1305292e-05,-0.00019227517,0.0001927982,-0.039792243,4000,4000,0,0,1,1
36332000,36332000,1310988,1310988,-1.2783192e-05,-1.9174753e-05,5.32631e-06,-1.0315895e-05,0.00017843294,-0.039955046,4000,4000,0,0,1,1
36832000,36832000,1310988,1310988,1.2783184e-05,-1.0652637e-05,1.2783175e-05,4.049361e-06,0.0001449142,-0.03971084,4000,4000,0,0,1,1
37332000,37332000,1310988,1310988,-2.5566342e-05,-1.4913715e-05,6.391592e-06,-0.00018748683,1.5627302e-05,-0.03955282,4000,4000,0,0,1,1
37832000,37832000,1310988,1310988,-1.20098445e-11,-1.5978972e-05,-4.2610445e-06,4.7144953e-05,6.351136e-05,-0.039998136,4000,4000,0,0,1,1
38332000,38332000,1310988,1310988,7.456869e-06,-2.6631616e-05,-8.522089e-06,7.108701e-05,0.0002837779,-0.039504934,4000,4000,0,0,1,1
38832000,38832000,1310988,1310988,-9.587389e-06,3.1957939e-06,8.522107e-06,-3.425795e-05,-3.2256776e-05,-0.039801817,4000,4000,0,0,1,1
39332000,39332000,1310988,1310988,-1.8109478e-05,-4.0480052e-05,8.522137e-06,-0.00036465778,-0.00020942776,-0.03954803,4000,4000,0,0,1,1
39832000,39832000,1310988,1310988,7.4568566e-06,-1.2783179e-05,-1.8109495e-05,0.00013812471,0.00025983577,-0.03952888,4000,4000,0,0,1,1
40332000,40332000,1310988,1310988,-1.2783172e-05,-2.1305288e-05,2.4501087e-05,-0.00024973607,-0.00019506256,-0.03944748,4000,4000,0,0,1,1
40832000,40832000,1310988,1310988,6.391582e-06,-3.0892672e-05,4.210996e-11,0.00025783473,0.00033645026,-0.039926313,4000,4000,0,0,1,1
41332000,41332000,1310988,1310988,1.2783184e-05,-1.5978943e-05,1.384846e-05,-7.256514e-05,0.00010660687,-0.039299037,4000,4000,0,0,1,1
41832000,41832000,1310988,1310988,-1.3848439e-05,-7.4568493e-06,2.1305304e-06,-0.00013481433,0.0001640678,-0.039868858,4000,4000,0,0,1,1
42332000,42332000,1310988,1310988,9.5873565e-06,-2.7696888e-05,-5.32632e-06,5.193335e-05,5.393449e-05,-0.039548032,4000,4000,0,0,1,1
42832000,42832000,1310988,1310988,5.326285e-06,-3.1957938e-05,1.2783194e-05,8.83776e-06,8.266495e-05,-0.039619856,4000,4000,0,0,1,1
43332000,43332000,1310988,1310988,-8.522112e-06,-4.5806402e-05,-1.4913633e-05,3.2779753e-05,3.4780835e-05,-0.03952888,4000,4000,0,0,1,1
43832000,43832000,1310988,1310988,-1.4913687e-05,-1.1717939e-05,-9.587373e-06,-0.00014439125,8.7453336e-05,-0.03928467,4000,4000,0,0,1,1
44332000,44332000,1310988,1310988,1.3848421e-05,-1.17179325e-05,-1.0652561e-06,0.00018600863,-0.00013281326,-0.03991674,4000,4000,0,0,1,1
44832000,44832000,1310988,1310988,-9.587408e-06,-2.3435812e-05,1.1717907e-05,-0.00010129553,0.000101818485,-0.03952888,4000,4000,0,0,1,1
45332000,45332000,1310988,1310988,3.5153706e-05,-1.8109544e-05,-4.2610664e-06,7.108701e-05,0.00025983577,-0.039682105,4000,4000,0,0,1,1
45832000,45832000,1310988,1310988,-3.1958157e-06,-5.3263207e-06,2.1305288e-05,7.58754e-05,-0.00013281331,-0.039686896,4000,4000,0,0,1,1
46332000,46332000,1310988,1310988,1.4913687e-05,-2.9827424e-05,-8.522091e-06,-9.650714e-05,-9.929445e-05,-0.039595917,4000,4000,0,0,1,1
46832000,46832000,1310988,1310988,6.3915936e-06,-2.0240022e-05,2.1305198e-06,8.54522e-05,-7.535241e-05,-0.039289456,4000,4000,0,0,1,1
47332000,47332000,1310988,1310988,-5.3263393e-06,-2.0240037e-05,2.2370543e-05,5.672175e-05,2.04157e-05,-0.039634224,4000,4000,0,0,1,1
47832000,47832000,1310988,1310988,2.8762148e-05,-1.9174755e-05,-6.3915872e-06,-0.000120449135,0.000274201,-0.039706048,4000,4000,0,0,1,1
48332000,48332000,1310988,1310988,-4.2610486e-06,-4.261059e-05,-1.4913675e-05,3.2779753e-05,0.00023589382,-0.039490573,4000,4000,0,0,1,1
48832000,48832000,1310988,1310988,5.32629e-06,-9.5874075e-06,2.4501081e-05,-0.00019706358,-0.00013281331,-0.039236784,4000,4000,0,0,1,1
49332000,49332000,1310988,1310988,-1.0652642e-06,-1.0652648e-05,-1.1717908e-05,-7.256514e-05,-0.0001759089,-0.039504934,4000,4000,0,0,1,1
49832000,49832000,1310988,1310988,9.587383e-06,-3.408847e-05,6.3915845e-06,9.98174e-05,0.00018322137,-0.03911229,4000,4000,0,0,1,1
50332000,50332000,1310988,1310988,-5.3263325e-06,-1.3848433e-05,3.1958034e-06,-8.693034e-05,1.5627296e-05,-0.039255936,4000,4000,0,0,1,1
50832000,50832000,1310988,1310988,-6.39161e-06,-2.769687e-05,1.3848444e-05,-0.00017312163,-0.0001711205,-0.039164953,4000,4000,0,0,1,1
51332000,51332000,1310988,1310988,-2.6631582e-05,-5.965483e-05,-3.1957752e-06,4.2356554e-05,0.00011139528,-0.039600708,4000,4000,0,0,1,1
51832000,51832000,1310988,1310988,-1.3848446e-05,-1.5978987e-05,-1.4913676e-05,-7.256514e-05,8.7453336e-05,-0.039361283,4000,4000,0,0,1,1
52332000,52332000,1310988,1310988,-1.2783191e-05,-3.3023196e-05,-7.456879e-06,-5.527497e-06,-0.00023336975,-0.039485786,4000,4000,0,0,1,1
52832000,52832000,1310988,1310988,1.1717919e-05,-2.2370552e-05,-1.0652908e-06,-0.00021621717,-2.2680017e-05,-0.039164953,4000,4000,0,0,1,1
53332000,53332000,1310988,1310988,-1.8109517e-05,-1.1717881e-05,-7.456859e-06,8.0663805e-05,-0.00013760172,-0.03911229,4000,4000,0,0,1,1
53832000,53832000,1310988,1310988,1.3848444e-05,-9.58737e-06,-1.4913706e-05,-5.3411488e-05,4.914609e-05,-0.039346915,4000,4000,0,0,1,1
54332000,54332000,1310988,1310988,7.4568748e-06,-3.8349513e-05,5.3263307e-06,7.108701e-05,-0.00010408283,-0.039198477,4000,4000,0,0,1,1
54832000,54832000,1310988,1310988,2.9827364e-05,-2.9827415e-05,2.6631655e-05,-0.00016354484,-0.00014239005,-0.03942353,4000,4000,0,0,1,1
55332000,55332000,1310988,1310988,2.130531e-06,-1.1717911e-05,4.2610577e-06,-7.256514e-05,2.999243e-05,-0.0391889,4000,4000,0,0,1,1
55832000,55832000,1310988,1310988,1.4913719e-05,-2.4501078e-05,-5.3263147e-06,-0.00023058237,8.7453336e-05,-0.039337344,4000,4000,0,0,1,1
56332000,56332000,1310988,1310988,4.26103e-06,-3.7284255e-05,8.5221245e-06,-0.0002545245,6.05044e-06,-0.039380435,4000,4000,0,0,1,1
56832000,56832000,1310988,1310988,-8.522149e-06,-2.1305288e-05,1.2783158e-05,0.0001141826,-3.5263565e-06,-0.039476205,4000,4000,0,0,1,1
57332000,57332000,1310988,1310988,-1.06526295e-05,-9.5873675e-06,-2.6631626e-05,9.502906e-05,-0.00012323646,-0.03941396,4000,4000,0,0,1,1
57832000,57832000,1310988,1310988,-1.0652677e-05,-1.3848444e-05,1.5978943e-05,-0.00013960278,0.00010181848,-0.03915538,4000,4000,0,0,1,1
58332000,58332000,1310988,1310988,-1.065274e-06,-3.515373e-05,1.1207165e-11,9.02406e-05,1.2620445e-06,-0.039586335,4000,4000,0,0,1,1
58832000,58832000,1310988,1310988,-2.7696862e-05,-1.2783195e-05,-9.587405e-06,4.049361e-06,5.3934487e-05,-0.03930382,4000,4000,0,0,1,1
59332000,59332000,1310988,1310988,-1.7044242e-05,-2.8762151e-05,-1.3848407e-05,-0.000120449135,-0.000113659655,-0.039121863,4000,4000,0,0,1,1
59832000,59832000,1310988,1310988,1.1717906e-05,-2.1305295e-05,-7.4568416e-06,1.3626219e-05,-8.31482e-06,-0.03921763,4000,4000,0,0,1,1
60332000,60332000,1310988,1310988,1.7044249e-05,-1.7044224e-05,-9.587374e-06,6.629855e-05,4.914603e-05,-0.039222423,4000,4000,0,0,1,1
60832000,60832000,1310988,1310988,-5.326346e-06,-9.587376e-06,1.0652639e-05,0.00025783473,-3.526359e-06,-0.039322976,4000,4000,0,0,1,1
61332000,61332000,1310988,1310988,1.384846e-05,-2.1305275e-05,7.45686e-06,-5.8199887e-05,0.00011618368,-0.039289456,4000,4000,0,0,1,1
61832000,61832000,1310988,1310988,-2.130536e-06,-2.876213e-05,9.5874175e-06,-0.00024015916,8.745333e-05,-0.03904525,4000,4000,0,0,1,1
62332000,62332000,1310988,1310988,7.456901e-06,0.0002130529,-2.1305277e-05,-0.000355081,-5.6198824e-05,-0.04007954,4000,4000,0,0,1,1
62832000,62832000,1310988,1310988,-3.7284335e-05,-0.00022903185,-7.4568284e-06,1.8414617e-05,2.5204097e-05,-0.04292864,4000,4000,0,0,1,1
63332000,63332000,1310988,1310988,-2.4501116e-05,6.178533e-05,-1.0652628e-05,0.0001046058,-8.014078e-05,-0.04207152,4000,4000,0,0,1,1
63832000,63832000,1310988,1310988,-2.3435825e-05,-9.58738e-06,-1.3848435e-05,-2.4681092e-05,-3.2256732e-05,-0.042229537,4000,4000,0,0,1,1
64332000,64332000,1310988,1310988,5.1132694e-05,-2.3435838e-05,-1.0651828e-06,7.108701e-05,0.00017364458,-0.039571974,4000,4000,0,0,1,1
64832000,64832000,1310988,1310988,-1.8109502e-05,6.3915795e-06,-5.3263234e-06,-0.00010608399,-0.00033871466,-0.039011728,4000,4000,0,0,1,1
65332000,65332000,1310988,1310988,-6.604643e-05,-7.8829595e-05,-1.5978763e-05,0.00032487235,-0.00012802488,-0.039452266,4000,4000,0,0,1,1
65832000,65832000,1310988,1310988,-8.096011e-05,-2.2370576e-05,2.7696815e-05,9.5029e-05,-0.00044884795,-0.039504934,4000,4000,0,0,1,1
66332000,66332000,1310988,1310988,0.0001054612,-2.982736e-05,8.522227e-06,-6.2988285e-05,1.2620465e-06,-0.039701257,4000,4000,0,0,1,1
66832000,66832000,1310988,1310988,4.580637e-05,-2.1305308e-05,4.261039e-06,1.8414617e-05,9.2241746e-05,-0.039725203,4000,4000,0,0,1,1
67332000,67332000,1310988,1310988,-9.800435e-05,-1.81094e-05,1.7044315e-05,-1.5104294e-05,-0.00030040738,-0.03937086,4000,4000,0,0,1,1
67832000,67832000,1310988,1310988,-7.456851e-06,-1.384846e-05,-1.4913686e-05,-6.777668e-05,-8.4929234e-05,-0.039299037,4000,4000,0,0,1,1
68332000,68332000,1310988,1310988,5.858958e-05,-3.195788e-05,1.0652673e-05,0.0002099507,-1.7891618e-05,-0.039203264,4000,4000,0,0,1,1
68832000,68832000,1310988,1310988,2.4501061e-05,-4.793692e-05,-3.1957907e-06,-4.383475e-05,-8.314812e-06,-0.03966295,4000,4000,0,0,1,1
69332000,69332000,1310988,1310988,-8.20254e-05,-8.2025355e-05,5.326343e-06,4.7144953e-05,-0.0004296943,-0.039461836,4000,4000,0,0,1,1
69832000,69832000,1310988,1310988,-6.072006e-05,-1.06526995e-05,1.0652694e-05,6.629855e-05,-0.00026210016,-0.03942353,4000,4000,0,0,1,1
70332000,70332000,1310988,1310988,5.6459026e-05,4.261077e-06,-5.326275e-06,9.5029e-05,-0.0002908305,-0.04372831,4000,4000,0,0,1,1
70832000,70832000,1310988,1310988,-8.522116e-06,-2.3435823e-05,6.391579e-06,0.0001716435,-9.929428e-05,-0.049383413,4000,4000,0,0,1,1
71332000,71332000,1310988,1310988,-2.7696886e-05,-4.4741108e-05,5.326285e-06,0.00020995075,0.00014012572,-0.038106717,4000,4000,0,0,1,1
71832000,71832000,1310988,1310988,-4.9002163e-05,-2.0240042e-05,-5.3263198e-06,-8.214194e-05,-2.2680004e-05,-0.03988322,4000,4000,0,0,1,1
72332000,72332000,1310988,1310988,3.3023185e-05,-1.5979018e-05,1.1717895e-05,-8.693034e-05,-0.00015196687,-0.03952888,4000,4000,0,0,1,1
72832000,72832000,1310988,1310988,-3.195793e-05,-2.1305111e-06,-7.456896e-06,-0.00020185197,-0.00024294658,-0.03924636,4000,4000,0,0,1,1
73332000,73332000,1310988,1310988,-2.2370594e-05,-5.4328473e-05,9.587392e-06,-8.214194e-05,-0.0001759089,-0.039691683,4000,4000,0,0,1,1
73832000,73832000,1310988,1310988,4.0480067e-05,-3.6218997e-05,8.522053e-06,0.0001477015,-0.00025731177,-0.03966295,4000,4000,0,0,1,1
74332000,74332000,1310988,1310988,-2.450108e-05,-1.0652639e-05,4.261104e-06,-5.8199887e-05,-0.00023815817,-0.039605495,4000,4000,0,0,1,1
74832000,74832000,1310988,1310988,-3.3023196e-05,-4.474111e-05,-1.5978983e-05,0.000118970995,-0.00020942776,-0.03955761,4000,4000,0,0,1,1
75332000,75332000,1310988,1310988,-4.2610727e-06,-1.9174771e-05,-1.2783155e-05,-1.9892694e-05,-0.00043927116,-0.039390013,4000,4000,0,0,1,1
75832000,75832000,1310988,1310988,-4.687165e-05,-3.1958089e-06,8.522079e-06,4.7144953e-05,-8.0140795e-05,-0.039500143,4000,4000,0,0,1,1
76332000,76332000,1310988,1310988,1.065268e-05,-9.1612754e-05,-1.0652167e-06,-3.425795e-05,-0.00033871466,-0.04011785,4000,4000,0,0,1,1
76832000,76832000,1310988,1310988,2.5566329e-05,-6.391588e-05,-6.3915695e-06,-6.2988285e-05,-0.0002812538,-0.03936607,4000,4000,0,0,1,1
77332000,77332000,1310988,1310988,1.3848477e-05,2.8762135e-05,-1.1717882e-05,-0.00015396804,-0.00019027414,-0.039169744,4000,4000,0,0,1,1
77832000,77832000,1310988,1310988,-4.26106e-05,-3.302317e-05,2.1306e-06,0.00025783473,0.000111395275,-0.039299037,4000,4000,0,0,1,1
78332000,78332000,1310988,1310988,-5.326325e-05,-6.178533e-05,-3.1957718e-06,-0.00023058237,-0.00020463935,-0.03909313,4000,4000,0,0,1,1
78832000,78832000,1310988,1310988,1.4913719e-05,-1.1717898e-05,-1.3848434e-05,-0.00014439119,0.00014012579,-0.03954803,4000,4000,0,0,1,1
79332000,79332000,1310988,1310988,-6.3915977e-06,-2.4501083e-05,6.391583e-06,-7.735354e-05,0.00010660687,-0.039366074,4000,4000,0,0,1,1
79832000,79832000,1310988,1310988,-5.219793e-05,1.9174824e-05,2.2370563e-05,8.837819e-06,-1.310322e-05,-0.03909313,4000,4000,0,0,1,1
80332000,80332000,1310988,1310988,1.1718003e-05,-5.752427e-05,3.1957927e-06,0.000118970995,-8.314816e-06,-0.039409168,4000,4000,0,0,1,1
80832000,80832000,1310988,1310988,2.4501109e-05,1.5978922e-05,4.2610923e-06,0.00032487235,7.787654e-05,-0.039251152,4000,4000,0,0,1,1
81332000,81332000,1310988,1310988,-3.302321e-05,-2.8762126e-05,6.3916177e-06,-1.9892694e-05,8.7453336e-05,-0.03926073,4000,4000,0,0,1,1
81832000,81832000,1310988,1310988,-4.261058e-05,5.3263175e-06,-6.3915872e-06,-4.383475e-05,-0.00031477262,-0.037608724,4000,4000,0,0,1,1
82332000,82332000,1310988,1310988,-0.00010759167,-9.161278e-05,-8.522355e-06,0.00018600863,-0.00012323652,-0.035516195,4000,4000,0,0,1,1
82832000,82832000,1310988,1310988,-6.391593e-06,8.522114e-06,3.1957936e-06,-3.425795e-05,-1.789168e-05,-0.035597596,4000,4000,0,0,1,1
83332000,83332000,1310988,1310988,6.711166e-05,-5.3264375e-06,1.3848436e-05,-7.3909763e-07,-0.00022379297,-0.036612738,4000,4000,0,0,1,1
83832000,83832000,1310988,1310988,5.1132673e-05,1.2783184e-05,1.171801e-05,-0.0002545245,-0.00041054073,-0.03694314,4000,4000,0,0,1,1
84332000,84332000,1310988,1310988,-2.237054e-05,-4.1545336e-05,-6.391527e-06,7.108701e-05,-0.00020463938,-0.037354942,4000,4000,0,0,1,1
84832000,84832000,1310988,1310988,-6.391597e-06,-2.663161e-05,8.5221245e-06,0.0001716435,-0.00015675531,-0.03744592,4000,4000,0,0,1,1
85332000,85332000,1310988,1310988,-5.219792e-05,-5.113272e-05,-3.302323e-05,4.7144953e-05,-0.00019027412,-0.038183335,4000,4000,0,0,1,1
85832000,85832000,1310988,1310988,-0.00016192012,0.00018002979,-9.587246e-06,-0.00012523754,-7.056405e-05,-0.03825037,4000,4000,0,0,1,1
86332000,86332000,1310988,1310988,-0.0010897686,0.0019430408,-0.0003920187,0.00037275642,-0.00017112051,-0.04014179,4000,4000,0,0,1,1
86832000,86832000,1310988,1310988,0.00024714138,-0.00037390794,-0.00066259445,0.00046852455,0.00022152867,-0.04107553,4000,4000,0,0,1,1
87332000,87332000,1310988,1310988,0.00027590297,-0.00058269995,-0.00022370544,0.0005978114,0.00047531395,-0.03986407,4000,4000,0,0,1,1
87832000,87832000,1310988,1310988,0.0016309142,-0.0017683449,-7.4561365e-05,0.0009617301,0.0006189661,-0.039150592,4000,4000,0,0,1,1
88332000,88332000,1310988,1310988,0.00015659432,0.00050813105,8.520963e-06,0.00081328955,0.0005040443,-0.039164953,4000,4000,0,0,1,1
88832000,88832000,1310988,1310988,0.00016618124,-2.0239699e-05,-3.941508e-05,0.002336002,0.00076740654,-0.039567187,4000,4000,0,0,1,1
89332000,89332000,1310988,1310988,-0.00036218992,-2.1305435e-05,-5.326322e-05,0.00570225,0.000571082,-0.03924636,4000,4000,0,0,1,1
89832000,89832000,1310988,1310988,1.4913663e-05,-2.7696851e-05,-4.0480085e-05,0.0061571486,0.00049925596,-0.038609505,4000,4000,0,0,1,1
90332000,90332000,1310988,1310988,0.00041119184,5.7524834e-05,0.0002876217,0.012473053,4.9146092e-05,-0.039452266,4000,4000,0,0,1,1
90832000,90832000,1310988,1310988,-8.522189e-05,7.776431e-05,0.00063702813,0.011184974,-0.00034350305,-0.03964859,4000,4000,0,0,1,1
91332000,91332000,1310988,1310988,-0.00025033695,9.0546986e-05,0.0007073358,0.009647895,-0.0006786914,-0.03907398,4000,4000,0,0,1,1
91832000,91832000,1310988,1310988,-0.00010972258,3.0893298e-05,0.0005358279,0.010495442,-0.00079840136,-0.039366074,4000,4000,0,0,1,1
92332000,92332000,1310988,1310988,-0.00044208474,2.4499532e-05,0.00033875418,0.004313613,-0.0011575315,-0.03852331,4000,4000,0,0,1,1
92832000,92832000,1310988,1310988,-0.0018098847,-3.621974e-05,0.00028229406,-0.00063280837,-0.0009612071,-0.04004603,4000,4000,0,0,1,1
93332000,93332000,1310988,1310988,0.00070947164,0.004515656,0.00016191896,-0.00051309814,-0.00090374623,-0.043814503,4000,4000,0,0,1,1
93832000,93832000,1310988,1310988,-9.0547575e-05,0.0007392935,-2.2370332e-05,0.00042542885,-0.0007074217,-0.041089896,4000,4000,0,0,1,1
94332000,94332000,1310988,1310988,-0.0006881585,-0.002020808,-0.00027909817,-0.00027846647,-0.0007026333,-0.04266049,4000,4000,0,0,1,1
94832000,94832000,1310988,1310988,0.0012484893,-0.0030487897,-0.00055392634,0.0002243159,-0.00052067393,-0.040371634,4000,4000,0,0,1,1
95332000,95332000,1310988,1310988,0.00059015665,-2.3435909e-05,-0.00010439564,0.0027909004,-0.00022379291,-0.039634224,4000,4000,0,0,1,1
95832000,95832000,1310988,1310988,-0.00034621108,-0.00012783322,-0.00072224904,0.006377415,-0.0006978449,-0.04121439,4000,4000,0,0,1,1
96332000,96332000,1310988,1310988,0.0009385013,-5.0065926e-05,-0.0023542333,0.0013304373,-0.0003961755,-0.03728312,4000,4000,0,0,1,1
96832000,96832000,1310988,1310988,-7.4566606e-06,-2.2369266e-05,-0.00071905367,0.0049121636,-0.00022858132,-0.03954803,4000,4000,0,0,1,1
97332000,97332000,1310988,1310988,-2.4501414e-05,-6.285075e-05,-0.00013528849,0.010754016,-0.0004057523,-0.03958155,4000,4000,0,0,1,1
97832000,97832000,1310988,1310988,7.456878e-05,-4.4740988e-05,8.9482055e-05,0.01706513,-0.00020463933,-0.03971563,4000,4000,0,0,1,1
98332000,98332000,1310988,1310988,0.00017257317,-8.2025574e-05,0.00022370524,0.02261968,-0.00040575254,-0.02542224,4000,4000,0,0,1,1
98832000,98832000,1310988,1310988,0.00012889733,-0.00016405073,0.00021731379,0.025909314,-0.000496732,-0.038006168,4000,4000,0,0,1,1
99332000,99332000,1310988,1310988,7.669902e-05,-0.00012889714,0.00022583603,0.026110427,-0.0002764654,-0.03927509,4000,4000,0,0,1,1
99832000,99832000,1310988,1310988,-4.1545558e-05,6.391958e-06,0.00020133493,0.018472923,-4.1833544e-05,-0.041415513,4000,4000,0,0,1,1
100332000,100332000,1310988,1310988,-0.00019494473,0.0005709814,0.00010865685,0.00570225,-0.00017590873,-0.048674732,4000,4000,0,0,1,1
100832000,100832000,1310988,1310988,-0.00022370556,9.05474e-05,2.13056e-05,-0.00119784,-0.00013760164,-0.04270838,4000,4000,0,0,1,1
101332000,101332000,1310988,1310988,-0.00010652632,0.00014913712,-2.1306137e-06,-0.0022656538,-0.00011844801,-0.041899137,4000,4000,0,0,1,1
101832000,101832000,1310988,1310988,-5.3263277e-05,6.178531e-05,-8.522076e-06,-0.0024476137,7.308816e-05,-0.040323757,4000,4000,0,0,1,1
102332000,102332000,1310988,1310988,-1.3848432e-05,-3.5153727e-05,-1.7044249e-05,-0.0022225587,-0.00010887123,-0.03867175,4000,4000,0,0,1,1
102832000,102832000,1310988,1310988,2.13052e-05,-9.9069606e-05,-2.450114e-05,-0.0014851444,-9.929449e-05,-0.03770928,4000,4000,0,0,1,1
103332000,103332000,1310988,1310988,1.0654321e-06,-0.00010759169,-4.1545412e-05,-0.00093447784,-0.00032434947,-0.037498597,4000,4000,0,0,1,1
103832000,103832000,1310988,1310988,1.384848e-05,-9.2678005e-05,-2.1304188e-06,2.7991357e-05,-0.000520674,-0.037805054,4000,4000,0,0,1,1
104332000,104332000,1310988,1310988,2.130519e-05,-7.669908e-05,9.587363e-06,0.00036317963,0.00014491417,-0.038173757,4000,4000,0,0,1,1
104832000,104832000,1310988,1310988,4.2610295e-06,-3.195794e-05,5.326325e-06,0.0006552723,3.956922e-05,-0.03867175,4000,4000,0,0,1,1
105332000,105332000,1310988,1310988,-3.941482e-05,-3.5153702e-05,1.065264e-05,0.0007175215,-0.000295619,-0.03886808,4000,4000,0,0,1,1
105832000,105832000,1310988,1310988,-0.00038456052,-1.3848324e-05,-2.1306787e-06,0.0010144026,-0.0004105407,-0.039380435,4000,4000,0,0,1,1
106332000,106332000,1310988,1310988,-0.0048373654,0.00034621207,-0.0005954883,0.0012969184,0.00022152864,-0.039629433,4000,4000,0,0,1,1
106832000,106832000,1310988,1310988,-0.0012325139,0.001430644,-0.001705492,0.0021301007,0.0004992561,-0.046993997,4000,4000,0,0,1,1
107332000,107332000,1310988,1310988,-0.00031638512,0.0020325263,-0.0024277365,0.0027430165,-0.00014238978,-0.056446303,4000,4000,0,0,1,1
107832000,107832000,1310988,1310988,-8.948422e-05,0.0023212112,-0.002050634,0.0028914572,-0.00070263294,-0.062197186,4000,4000,0,0,1,1
108332000,108332000,1310988,1310988,0.00026098857,0.0021070936,-0.0014466285,0.0026568251,-0.00041532872,-0.0611581,4000,4000,0,0,1,1
108832000,108832000,1310988,1310988,0.0005933509,0.0017257304,-0.0015872428,0.0019194108,3.4781144e-05,-0.057169355,4000,4000,0,0,1,1
109332000,109332000,1310988,1310988,0.0009289092,0.0014306497,-0.001822669,0.0014166285,-0.00045842447,-0.05422449,4000,4000,0,0,1,1
109832000,109832000,1310988,1310988,0.001303882,0.0010524783,-0.0014061533,0.0015219734,-0.00064517226,-0.051332295,4000,4000,0,0,1,1
110332000,110332000,1310988,1310988,0.0014817821,0.00055393577,-0.00079256005,0.00079892436,-0.000688268,-0.04622785,4000,4000,0,0,1,1
110832000,110832000,1310988,1310988,0.0012804477,0.00018002979,-0.00048789196,0.00088511565,-0.000343503,-0.04197575,4000,4000,0,0,1,1
111332000,111332000,1310988,1310988,0.00093956274,4.260674e-06,-0.00031425487,0.00093299965,-0.000118448064,-0.03868133,4000,4000,0,0,1,1
111832000,111832000,1310988,1310988,0.000644485,-8.62866e-05,-2.343547e-05,0.0015554922,-0.00041532912,-0.03787209,4000,4000,0,0,1,1
112332000,112332000,1310988,1310988,0.00037816903,-8.3090716e-05,0.00032064447,0.0016273182,-0.00035307987,-0.037527323,4000,4000,0,0,1,1
112832000,112832000,1310988,1310988,0.0001544634,-0.000101200894,0.00041864876,0.0021157356,-2.7468444e-05,-0.03753211,4000,4000,0,0,1,1
113332000,113332000,1310988,1310988,9.587015e-06,-4.4741726e-05,0.0003451457,0.0019050457,-0.00019985097,-0.03820249,4000,4000,0,0,1,1
113832000,113832000,1310988,1310988,-6.711185e-05,-1.9174291e-05,0.0002993393,0.0023551555,-0.0003147726,-0.038767524,4000,4000,0,0,1,1
114332000,114332000,1310988,1310988,-0.00012250566,-1.0652701e-05,0.00032064458,0.0019002572,-0.00013281331,-0.039030887,4000,4000,0,0,1,1
114832000,114832000,1310988,1310988,-0.00015552863,4.651609e-11,0.00034194993,0.0017997007,-0.00021421612,-0.038872864,4000,4000,0,0,1,1
115332000,115332000,1310988,1310988,-0.0001896172,-2.237077e-05,0.00023222755,0.001991237,-0.00034350305,-0.03921763,4000,4000,0,0,1,1
115832000,115832000,1310988,1310988,-0.00016618123,-9.587264e-06,0.00013741919,0.0016560486,-8.4929234e-05,-0.039131436,4000,4000,0,0,1,1
116332000,116332000,1310988,1310988,-0.00017470341,-5.4328408e-05,0.000101200116,0.0017374516,1.2620956e-06,-0.039102707,4000,4000,0,0,1,1
116832000,116832000,1310988,1310988,-0.000103330705,-2.7696777e-05,9.054746e-05,0.0016225298,-0.0002812538,-0.039184116,4000,4000,0,0,1,1
117332000,117332000,1310988,1310988,-9.0547495e-05,-2.6631627e-05,4.4741075e-05,0.0015459155,9.224173e-05,-0.038983002,4000,4000,0,0,1,1
117832000,117832000,1310988,1310988,-6.604642e-05,-3.1957912e-05,-6.391541e-06,0.0014597242,-0.00022858132,-0.039241567,4000,4000,0,0,1,1
118332000,118332000,1310988,1310988,-4.367582e-05,-2.5566309e-05,-4.0480107e-05,0.0013783212,-9.450607e-05,-0.03884892,4000,4000,0,0,1,1
118832000,118832000,1310988,1310988,-3.3023145e-05,-2.0240077e-05,-2.7696908e-05,0.0013735328,-0.00020942776,-0.038901594,4000,4000,0,0,1,1
119332000,119332000,1310988,1310988,1.0652293e-06,-3.9414786e-05,-1.17179125e-05,0.0015602807,-0.00034350305,-0.038983002,4000,4000,0,0,1,1
119832000,119832000,1310988,1310988,1.17178815e-05,-3.4088494e-05,-5.0067425e-05,0.0015363386,-0.00010887123,-0.039016515,4000,4000,0,0,1,1
120332000,120332000,1310988,1310988,2.4501109e-05,-1.491371e-05,-3.8349503e-05,0.0014357821,0.00011139527,-0.038997367,4000,4000,0,0,1,1
120832000,120832000,1310988,1310988,-0.00023542352,-4.7936668e-05,-1.9174877e-05,0.001541127,-0.0004344827,-0.039380435,4000,4000,0,0,1,1
121332000,121332000,1310988,1310988,-0.00026205517,-3.1958283e-05,-0.000106526066,0.00093299965,5.3934487e-05,-0.039198477,4000,4000,0,0,1,1
121832000,121832000,1310988,1310988,-0.00018109524,-6.3913258e-06,-0.00020559585,0.0013256489,-8.971763e-05,-0.039150592,4000,4000,0,0,1,1
122332000,122332000,1310988,1310988,-8.9482186e-05,-1.1717869e-05,-0.00029081723,0.0012873416,0.00029814307,-0.03894948,4000,4000,0,0,1,1
122832000,122832000,1310988,1310988,6.3916136e-06,1.38486175e-05,-0.00032170993,0.0009377881,-0.00024294658,-0.03934213,4000,4000,0,0,1,1
123332000,123332000,1310988,1310988,6.6046494e-05,2.3435592e-05,-0.0002545982,0.00096651854,-0.00026688862,-0.039294247,4000,4000,0,0,1,1
123832000,123832000,1310988,1310988,8.84173e-05,1.2782836e-05,-0.00020453066,0.0009569417,0.00010660687,-0.03911707,4000,4000,0,0,1,1
124332000,124332000,1310988,1310988,0.00014700662,-9.587579e-06,-0.00020666125,0.0009090577,-1.7891616e-05,-0.039255936,4000,4000,0,0,1,1
124832000,124832000,1310988,1310988,0.00013315819,-5.326328e-06,-0.00018855174,0.0010862286,-0.00014717848,-0.039457053,4000,4000,0,0,1,1
125332000,125332000,1310988,1310988,0.00012357082,2.3435714e-05,-9.3743154e-05,0.0011724199,-0.00024773498,-0.039571974,4000,4000,0,0,1,1
125832000,125832000,1310988,1310988,0.00010972229,-2.1304465e-06,-6.817688e-05,0.0010096142,5.8722886e-05,-0.039346915,4000,4000,0,0,1,1
126332000,126332000,1310988,1310988,4.4741108e-05,4.261076e-06,-2.1305299e-05,0.00084202003,0.00023589382,-0.039322976,4000,4000,0,0,1,1
126832000,126832000,1310988,1310988,5.1132694e-05,-1.8109513e-05,-3.1958607e-06,0.0008611736,-0.00020942776,-0.039227206,4000,4000,0,0,1,1
127332000,127332000,1310988,1310988,4.1545292e-05,-1.8109553e-05,-1.5978967e-05,0.0009904605,-2.2680015e-05,-0.039255936,4000,4000,0,0,1,1
127832000,127832000,1310988,1310988,2.3435909e-05,-3.8349463e-05,1.3848447e-05,0.001210727,1.2620367e-06,-0.039141014,4000,4000,0,0,1,1
128332000,128332000,1310988,1310988,3.1957998e-06,-1.1717909e-05,2.343582e-05,0.0010479214,5.393449e-05,-0.03940917,4000,4000,0,0,1,1
128832000,128832000,1310988,1310988,2.8762146e-05,1.2783166e-05,-1.0652478e-06,0.0012059388,-1.3103216e-05,-0.03937565,4000,4000,0,0,1,1
129332000,129332000,1310988,1310988,-6.391558e-06,-3.834953e-05,1.2783158e-05,0.0011484779,-5.1410414e-05,-0.039150592,4000,4000,0,0,1,1
129832000,129832000,1310988,1310988,6.3915772e-06,-1.0652653e-05,3.0892672e-05,0.0010000374,6.829974e-05,-0.039212845,4000,4000,0,0,1,1
130332000,130332000,1310988,1310988,-2.2370592e-05,-3.515372e-05,1.7044207e-05,0.0012729763,-0.0002812538,-0.03928946,4000,4000,0,0,1,1
130832000,130832000,1310988,1310988,0.004449611,0.00019068083,0.00043781864,0.00088990404,-0.00019027414,-0.039471414,4000,4000,0,0,1,1
131332000,131332000,1310988,1310988,0.0012378381,0.0011579383,0.001466872,0.0021061588,-0.0006499608,-0.04484401,4000,4000,0,0,1,1
131832000,131832000,1310988,1310988,0.00014274559,0.0016426371,0.0022317301,0.0023647323,-0.00047757808,-0.052409686,4000,4000,0,0,1,1
132332000,132332000,1310988,1310988,-0.00021838037,0.0017235973,0.0019750008,0.0027190745,0.0004034882,-0.055603545,4000,4000,0,0,1,1
132832000,132832000,1310988,1310988,-0.0005411514,0.0014242581,0.001304951,0.0021013701,0.00028856655,-0.053803112,4000,4000,0,0,1,1
133332000,133332000,1310988,1310988,-0.0006902907,0.0009608688,0.0011909662,0.0015123966,-9.929428e-05,-0.049479183,4000,4000,0,0,1,1
133832000,133832000,1310988,1310988,-0.0008223847,0.0007691193,0.001459413,0.0015219734,-0.00030040724,-0.04710413,4000,4000,0,0,1,1
134332000,134332000,1310988,1310988,-0.0009640619,0.00059441855,0.0012474264,0.0010000374,-0.00012802481,-0.045610152,4000,4000,0,0,1,1
134832000,134832000,1310988,1310988,-0.0010151964,0.0002940128,0.0006594,0.0012538227,0.00026941273,-0.042593453,4000,4000,0,0,1,1
135332000,135332000,1310988,1310988,-0.0008383635,9.587281e-05,0.0003217095,0.0012059388,0.0001449142,-0.040170528,4000,4000,0,0,1,1
135832000,135832000,1310988,1310988,-0.000655138,-2.9827796e-05,0.00029294714,0.0012394575,-0.00013760172,-0.03895906,4000,4000,0,0,1,1
136332000,136332000,1310988,1310988,-0.00045060675,-7.563388e-05,0.00018003,0.0011245358,-6.098725e-05,-0.03850416,4000,4000,0,0,1,1
136832000,136832000,1310988,1310988,-0.00030360042,-7.137268e-05,-3.834968e-05,0.0014309937,-0.00010887125,-0.038058836,4000,4000,0,0,1,1
137332000,137332000,1310988,1310988,0.0033278863,-0.00039947542,-1.9176967e-05,-0.000948843,-0.00023336982,-0.03488892,4000,4000,0,0,1,1
137832000,137832000,1310988,1310988,0.0024703497,0.0006199774,0.000965131,-0.00030240847,-0.0006595377,-0.038073204,4000,4000,0,0,1,1
138332000,138332000,1310988,1310988,0.00062424515,0.0014178705,0.0021582237,0.00054035056,-0.0007648824,-0.046946112,4000,4000,0,0,1,1
138832000,138832000,1310988,1310988,0.00024287982,0.002069808,0.0024831328,0.0032362218,0.00022631737,-0.05856757,4000,4000,0,0,1,1
139332000,139332000,1310988,1310988,-0.00014061715,0.0018844528,0.0016437033,0.0024892308,0.00033166222,-0.059740733,4000,4000,0,0,1,1
139832000,139832000,1310988,1310988,-0.0005273071,0.0012942967,0.0011590071,9.02406e-05,-0.00015675505,-0.051868595,4000,4000,0,0,1,1
140332000,140332000,1310988,1310988,-0.0007041378,0.0009374329,0.0015169375,-0.0012744545,-0.0005254622,-0.047784083,4000,4000,0,0,1,1
140832000,140832000,1310988,1310988,-0.0008575381,0.0007978852,0.0016532897,-0.0017580831,0.0001018186,-0.04640024,4000,4000,0,0,1,1
141332000,141332000,1310988,1310988,-0.0010120014,0.0005102608,0.0010663301,-0.002461979,1.08389795e-05,-0.044034768,4000,4000,0,0,1,1
141832000,141832000,1310988,1310988,-0.0010215894,0.00014167876,0.00042716996,-0.0028258974,9.70301e-05,-0.040654153,4000,4000,0,0,1,1
142332000,142332000,1310988,1310988,-0.00082664524,-4.047882e-05,0.00028975226,-0.0030270105,-8.0140846e-05,-0.038331777,4000,4000,0,0,1,1
142832000,142832000,1310988,1310988,-0.0006040047,-0.00013635399,0.0002897526,-0.0025816886,-6.0987295e-05,-0.03761352,4000,4000,0,0,1,1
143332000,143332000,1310988,1310988,-0.00044314985,-0.00015020266,8.202577e-05,-0.0030126453,0.0003651807,-0.037292693,4000,4000,0,0,1,1
143832000,143832000,1310988,1310988,-0.0002918821,-0.0001012002,-0.00023542384,-0.0028306858,6.351131e-05,-0.037311845,4000,4000,0,0,1,1
144332000,144332000,1310988,1310988,-0.0001704417,-5.965497e-05,-0.0003557986,-0.002892935,-7.056403e-05,-0.03801574,4000,4000,0,0,1,1
144832000,144832000,1310988,1310988,-4.7936992e-05,-4.6871704e-05,-0.00025566347,-0.0027444945,-0.00023336979,-0.038566407,4000,4000,0,0,1,1
145332000,145332000,1310988,1310988,4.1545347e-05,-3.1957996e-05,-0.00014594122,-0.0030461643,-6.0987248e-05,-0.03855683,4000,4000,0,0,1,1
145832000,145832000,1310988,1310988,1.27827125e-05,-1.2783142e-05,-0.00020559606,-0.0029934917,0.00012097207,-0.039102707,4000,4000,0,0,1,1
146332000,146332000,1310988,1310988,9.2678085e-05,7.456651e-06,-0.00028016456,-0.003127567,-1.7891614e-05,-0.0393948,4000,4000,0,0,1,1
146832000,146832000,1310988,1310988,8.3090956e-05,6.391641e-06,-0.00020133487,-0.0035106393,-0.00013760172,-0.03938044,4000,4000,0,0,1,1
147332000,147332000,1310988,1310988,0.000104395855,-3.728421e-05,-4.580656e-05,-0.0036590793,6.829974e-05,-0.039476205,4000,4000,0,0,1,1
147832000,147832000,1310988,1310988,9.374327e-05,-2.6631596e-05,-2.237064e-05,-0.0036495025,-0.00021900452,-0.039452266,4000,4000,0,0,1,1
148332000,148332000,1310988,1310988,5.539384e-05,-2.0239846e-05,-8.202536e-05,-0.0036255606,-0.00026210016,-0.03894948,4000,4000,0,0,1,1
148832000,148832000,1310988,1310988,5.8589543e-05,-4.4741068e-05,-5.5393797e-05,-0.00410919,-4.6621986e-05,-0.038906388,4000,4000,0,0,1,1
149332000,149332000,1310988,1310988,5.8589554e-05,-2.556635e-05,-4.9431237e-11,-0.0041139782,-0.00012323646,-0.038686123,4000,4000,0,0,1,1
149832000,149832000,1310988,1310988,3.9414685e-05,-4.5806322e-05,6.604651e-05,-0.0037787892,-5.6198816e-05,-0.03894469,4000,4000,0,0,1,1
150332000,150332000,1310988,1310988,2.6631602e-05,-2.5566376e-05,1.5978943e-05,-0.003572888,8.745333e-05,-0.03904525,4000,4000,0,0,1,1
150832000,150832000,1310988,1310988,1.065262e-05,-1.9174755e-05,1.2783203e-05,-0.0038266736,3.9569226e-05,-0.038997367,4000,4000,0,0,1,1
151332000,151332000,1310988,1310988,-1.3848454e-05,-3.9414794e-05,3.621899e-05,-0.0039320188,-0.00019506253,-0.03897342,4000,4000,0,0,1,1
151832000,151832000,1310988,1310988,-1.4913701e-05,-4.580638e-05,2.6631606e-05,-0.004099613,-0.00025731174,-0.03884414,4000,4000,0,0,1,1
152332000,152332000,1310988,1310988,-7.4568484e-06,-4.1545332e-05,3.4088447e-05,-0.0041187666,-1.7891622e-05,-0.038973417,4000,4000,0,0,1,1
152832000,152832000,1310988,1310988,-5.3263366e-06,-2.663161e-05,-1.0652626e-06,-0.0039032886,9.703007e-05,-0.038834557,4000,4000,0,0,1,1
153332000,153332000,1310988,1310988,-5.326364e-06,-3.089266e-05,-7.4568493e-06,-0.003922442,-0.0002764654,-0.038810614,4000,4000,0,0,1,1
153832000,153832000,1310988,1310988,-1.3848432e-05,-9.587365e-06,1.704425e-05,-0.0038793467,-1.3103221e-05,-0.03904525,4000,4000,0,0,1,1
154332000,154332000,1310988,1310988,7.456812e-06,-5.5393746e-05,2.2370597e-05,-0.0041570733,-0.00024294658,-0.039030887,4000,4000,0,0,1,1
154832000,154832000,1310988,1310988,1.0213099e-11,-3.9414786e-05,1.0652884e-06,-0.004123555,-5.6198813e-05,-0.03908834,4000,4000,0,0,1,1
155332000,155332000,1310988,1310988,-0.003938283,5.43204e-05,-0.0003110602,-0.00440607,0.00045616043,-0.038963843,4000,4000,0,0,1,1
155832000,155832000,1310988,1310988,-0.002107094,0.0010908287,-0.001267665,-0.0033861406,0.00053756335,-0.043642115,4000,4000,0,0,1,1
156332000,156332000,1310988,1310988,-0.0005613951,0.0016852462,-0.0021976423,-0.002763648,0.0002837781,-0.051873386,4000,4000,0,0,1,1
156832000,156832000,1310988,1310988,0.0033768907,0.00092464016,-0.0019803278,-0.0034962737,-0.00042969416,-0.048167158,4000,4000,0,0,1,1
157332000,157332000,1310988,1310988,0.004971591,0.00056351436,-0.00024181622,-0.004348609,-0.0011431662,-0.044762608,4000,4000,0,0,1,1
157832000,157832000,1310988,1310988,0.0030658331,0.0009629885,0.0016767293,-0.003855404,-0.0008606506,-0.043402698,4000,4000,0,0,1,1
158332000,158332000,1310988,1310988,0.0007861628,0.0019515691,0.0021635492,-0.00063759676,0.00016406816,-0.05710232,4000,4000,0,0,1,1
158832000,158832000,1310988,1310988,-0.00040160233,0.0017001629,0.0015467642,-0.00045084895,0.0002885666,-0.0576482,4000,4000,0,0,1,1
159332000,159332000,1310988,1310988,-0.0012506199,0.0010727203,0.0010599406,-0.00090095896,0.00021195204,-0.051270045,4000,4000,0,0,1,1
159832000,159832000,1310988,1310988,-0.001581915,0.0005592649,0.0010791167,-0.0015330283,-0.00036265654,-0.046586987,4000,4000,0,0,1,1
160332000,160332000,1310988,1310988,-0.0014881749,0.00030892564,0.00079575257,-0.0013893761,0.00034123877,-0.04347453,4000,4000,0,0,1,1
160832000,160832000,1310988,1310988,-0.0011387678,8.8416105e-05,0.00012250661,-0.0010685532,0.0002933547,-0.040974975,4000,4000,0,0,1,1
161332000,161332000,1310988,1310988,-0.0006998792,-1.4913602e-05,-0.00038029865,-0.00073336484,8.2664934e-05,-0.03900694,4000,4000,0,0,1,1
161832000,161832000,1310988,1310988,-0.00038029937,-3.1958773e-06,-0.00041758368,-0.00024015916,0.00035081554,-0.038853712,4000,4000,0,0,1,1
162332000,162332000,1310988,1310988,-0.0001885517,1.2783538e-05,-0.00031531835,6.629855e-05,-9.450607e-05,-0.038978208,4000,4000,0,0,1,1
162832000,162832000,1310988,1310988,-4.1545187e-05,1.8109064e-05,-0.00044101957,0.00050204335,0.00016885618,-0.038901594,4000,4000,0,0,1,1
163332000,163332000,1310988,1310988,5.539342e-05,3.6219215e-05,-0.0005667207,0.0005738694,0.00015449099,-0.03944748,4000,4000,0,0,1,1
163832000,163832000,1310988,1310988,0.00012357063,7.243768e-05,-0.0005390239,0.00081328955,0.00036996914,-0.04039558,4000,4000,0,0,1,1
164332000,164332000,1310988,1310988,0.00022264103,7.3502866e-05,-0.00034940641,0.0007414635,6.050455e-06,-0.040242348,4000,4000,0,0,1,1
164832000,164832000,1310988,1310988,0.00023542339,2.87619e-05,-0.0002641857,0.0007845592,-3.704517e-05,-0.039969414,4000,4000,0,0,1,1
165332000,165332000,1310988,1310988,0.00022796629,2.450109e-05,-0.00027057747,0.00093299965,0.00012576049,-0.040069968,4000,4000,0,0,1,1
165832000,165832000,1310988,1310988,0.00021198757,2.2370694e-05,-0.0002450109,0.0007366751,5.3934495e-05,-0.03961507,4000,4000,0,0,1,1
166332000,166332000,1310988,1310988,0.00017470353,4.367554e-05,-0.00010226529,0.0007749824,-0.00013760169,-0.040103484,4000,4000,0,0,1,1
166832000,166832000,1310988,1310988,0.00016618121,-1.5979009e-05,-3.621916e-05,0.0005642926,-0.00013760172,-0.039600708,4000,4000,0,0,1,1
167332000,167332000,1310988,1310988,9.054749e-05,-2.343569e-05,-4.6871697e-05,0.0005547158,0.00011139528,-0.039600708,4000,4000,0,0,1,1
167832000,167832000,1310988,1310988,7.77643e-05,-2.237053e-05,-2.7696946e-05,0.0008611736,9.703008e-05,-0.039591126,4000,4000,0,0,1,1
168332000,168332000,1310988,1310988,-0.0011121362,6.39152e-05,-9.5860005e-06,0.0017901239,0.00022152865,-0.03985449,4000,4000,0,0,1,1
168832000,168832000,1310988,1310988,-0.00063063664,0.00031531774,-0.00015872525,0.003968848,0.00024068232,-0.044614166,4000,4000,0,0,1,1
169332000,169332000,1310988,1310988,-0.00038775546,0.00025672882,-0.00049108756,0.004241787,0.00016885626,-0.0432782,4000,4000,0,0,1,1
169832000,169832000,1310988,1310988,-0.00020346476,0.0002929475,-0.0006583339,0.0046583777,2.9992489e-05,-0.042440224,4000,4000,0,0,1,1
170332000,170332000,1310988,1310988,-8.522091e-05,0.00026844622,-0.00062318,0.004567398,2.0415748e-05,-0.042354032,4000,4000,0,0,1,1
170832000,170832000,1310988,1310988,-2.3436196e-05,0.00024288004,-0.0005795041,0.0051372186,4.914607e-05,-0.041611835,4000,4000,0,0,1,1
171332000,171332000,1310988,1310988,3.5155663e-05,0.00024394631,-0.00068283424,0.0055011376,0.00035081556,-0.041554373,4000,4000,0,0,1,1
171832000,171832000,1310988,1310988,5.2198397e-05,0.00024394518,-0.0007882958,0.0059943427,-0.00025731174,-0.04141072,4000,4000,0,0,1,1
172332000,172332000,1310988,1310988,9.480835e-05,0.000259924,-0.0007222496,0.00627207,-0.00011844801,-0.041674078,4000,4000,0,0,1,1
172832000,172832000,1310988,1310988,0.00011078708,0.00025353278,-0.00071266206,0.006545009,0.00013533742,-0.04131974,4000,4000,0,0,1,1
173332000,173332000,1310988,1310988,0.000117179174,0.00023542297,-0.0007350328,0.007043003,-9.4506024e-05,-0.041329313,4000,4000,0,0,1,1
173832000,173832000,1310988,1310988,0.00013102696,0.00027696972,-0.00076379447,0.0073973453,-2.7468383e-05,-0.04110426,4000,4000,0,0,1,1
174332000,174332000,1310988,1310988,0.0001608556,0.0002609896,-0.00077231665,0.0075218435,0.000111395304,-0.04077865,4000,4000,0,0,1,1
174832000,174832000,1310988,1310988,0.00014487637,0.00025459865,-0.0007435544,0.007813936,1.2620676e-06,-0.040912725,4000,4000,0,0,1,1
175332000,175332000,1310988,1310988,0.00016085531,0.00026631673,-0.0007382281,0.0071531367,-0.00016633207,-0.040917512,4000,4000,0,0,1,1
175832000,175832000,1310988,1310988,0.00016298442,0.00022264008,-0.00075953384,0.00801026,-0.0001088712,-0.040644575,4000,4000,0,0,1,1
176332000,176332000,1310988,1310988,0.00017363776,0.00022370633,-0.0007648599,0.008043779,-5.6198784e-05,-0.040793013,4000,4000,0,0,1,1
176832000,176832000,1310988,1310988,0.00017576918,0.0002450092,-0.00074781606,0.007895339,0.0001736446,-0.04044346,4000,4000,0,0,1,1
177332000,177332000,1310988,1310988,0.000173638,0.00020879251,-0.0007222492,0.008230527,-0.0002237929,-0.04029502,4000,4000,0,0,1,1
177832000,177832000,1310988,1310988,0.0001778994,0.0002247708,-0.000732902,0.008019838,6.351136e-05,-0.040266287,4000,4000,0,0,1,1
178332000,178332000,1310988,1310988,0.00014381172,0.000227968,-0.00073503196,0.008407698,-8.492922e-05,-0.040208835,4000,4000,0,0,1,1
178832000,178832000,1310988,1310988,0.00017576924,0.00022370515,-0.0007371631,0.008422064,-0.00027646538,-0.040457822,4000,4000,0,0,1,1
179332000,179332000,1310988,1310988,0.00017150764,0.00021092221,-0.0007062705,0.008355026,-0.0001280249,-0.0405536,4000,4000,0,0,1,1
179832000,179832000,1310988,1310988,0.0001715067,0.00020453146,-0.00072331453,0.008532196,-6.577562e-05,-0.040615845,4000,4000,0,0,1,1
180332000,180332000,1310988,1310988,0.00018002956,0.00020985575,-0.00074568554,0.008690214,-0.00011844804,-0.040103484,4000,4000,0,0,1,1
180832000,180832000,1310988,1310988,0.00015872455,0.00021731427,-0.00071798824,0.008728521,-6.0987222e-05,-0.0401801,4000,4000,0,0,1,1
181332000,181332000,1310988,1310988,0.00018109447,0.00020453047,-0.0007339675,0.008278411,0.00013533741,-0.040127426,4000,4000,0,0,1,1
181832000,181832000,1310988,1310988,0.00016724657,-6.817733e-05,-0.0007201188,0.006942446,0.00016406781,-0.03739804,4000,4000,0,0,1,1
182332000,182332000,1310988,1310988,5.859042e-05,-9.480786e-05,-0.0007414241,0.00534312,-0.0002142162,-0.03521931,4000,4000,0,0,1,1
182832000,182832000,1310988,1310988,4.900186e-05,2.343673e-05,-0.00078083895,0.0048068184,0.0003412387,-0.037690133,4000,4000,0,0,1,1
183332000,183332000,1310988,1310988,7.776447e-05,0.00012570148,-0.00082238414,0.0047828765,9.703006e-05,-0.03858077,4000,4000,0,0,1,1
183832000,183832000,1310988,1310988,9.3744515e-05,0.0001438104,-0.0008223841,0.0046918965,0.000116183684,-0.039639015,4000,4000,0,0,1,1
184332000,184332000,1310988,1310988,8.735179e-05,0.0001587239,-0.00081492757,0.004102923,-7.535242e-05,-0.040127426,4000,4000,0,0,1,1
184832000,184832000,1310988,1310988,0.00010652556,0.00018109495,-0.0008106665,0.0040598274,-0.00012802487,-0.040223196,4000,4000,0,0,1,1
185332000,185332000,1310988,1310988,9.267786e-05,0.00019068299,-0.0008032093,0.003470854,0.0001161837,-0.04056796,4000,4000,0,0,1,1
185832000,185832000,1310988,1310988,7.350442e-05,0.00019494336,-0.0007669904,0.0033894507,-0.00020942774,-0.040208835,4000,4000,0,0,1,1
186332000,186332000,1310988,1310988,5.752491e-05,0.00017577036,-0.0007744469,0.0032793176,0.00017364456,-0.04083132,4000,4000,0,0,1,1
186832000,186832000,1310988,1310988,6.817663e-05,0.00019494294,-0.00074462005,0.0030111668,-1.3103193e-05,-0.04066373,4000,4000,0,0,1,1
187332000,187332000,1310988,1310988,6.391581e-05,0.00018535522,-0.00078296964,0.0027430165,-1.7891589e-05,-0.04087921,4000,4000,0,0,1,1
187832000,187832000,1310988,1310988,5.4328484e-05,0.00019600919,-0.000761664,0.0028387844,8.7453365e-05,-0.0405536,4000,4000,0,0,1,1
188332000,188332000,1310988,1310988,6.285045e-05,0.00020453101,-0.00077231665,0.0022354457,1.262065e-06,-0.040759496,4000,4000,0,0,1,1
188832000,188832000,1310988,1310988,4.260987e-05,0.00018002988,-0.0007659253,0.0024892308,-8.492921e-05,-0.040745135,4000,4000,0,0,1,1
189332000,189332000,1310988,1310988,4.0481198e-05,0.0002087923,-0.000745685,0.0020486976,-0.00014239005,-0.04083132,4000,4000,0,0,1,1
189832000,189832000,1310988,1310988,4.2610503e-05,0.0001949431,-0.00079042633,0.0019720835,-0.00025731174,-0.040486556,4000,4000,0,0,1,1
190332000,190332000,1310988,1310988,3.195663e-05,0.00019068243,-0.0007840348,0.002144466,-0.00019506253,-0.040644575,4000,4000,0,0,1,1
190832000,190832000,1310988,1310988,3.7284124e-05,0.0001981397,-0.00074675033,0.002177985,4.435772e-05,-0.040917512,4000,4000,0,0,1,1
191332000,191332000,1310988,1310988,4.900198e-05,0.00022050923,-0.0007744474,0.0018427965,-8.014078e-05,-0.0407164,4000,4000,0,0,1,1
191832000,191832000,1310988,1310988,2.3435387e-05,0.0001949419,-0.0007819046,0.0018619501,-0.00019506253,-0.04108511,4000,4000,0,0,1,1
192332000,192332000,1310988,1310988,9.587465e-06,0.00023542349,-0.0007861653,0.0017709703,-7.0564005e-05,-0.041056376,4000,4000,0,0,1,1
192832000,192832000,1310988,1310988,1.0652795e-05,0.00020240064,-0.0007819041,0.001660837,-6.57756e-05,-0.041042015,4000,4000,0,0,1,1
193332000,193332000,1310988,1310988,2.769608e-05,0.0002119861,-0.000775513,0.001565069,4.9146118e-05,-0.040974975,4000,4000,0,0,1,1
193832000,193832000,1310988,1310988,4.900191e-05,0.00019494294,-0.0007861654,0.0015363386,-0.0002142161,-0.041032434,4000,4000,0,0,1,1
194332000,194332000,1310988,1310988,2.4500556e-05,0.0002119888,-0.0007829692,0.0016704138,-0.0001950625,-0.04107553,4000,4000,0,0,1,1
194832000,194832000,1310988,1310988,1.7044558e-05,0.0001981401,-0.0007616639,0.0016225298,-0.00015675524,-0.040998917,4000,4000,0,0,1,1
195332000,195332000,1310988,1310988,8.521895e-06,0.00022157545,-0.00075633766,0.001517185,-0.00012323646,-0.041032437,4000,4000,0,0,1,1
195832000,195832000,1310988,1310988,3.3023593e-05,0.00025246738,-0.00077018637,0.0014262053,0.0001975866,-0.04111863,4000,4000,0,0,1,1
196332000,196332000,1310988,1310988,3.1954557e-06,0.00021411874,-0.00077018613,0.0012681879,-0.00012802485,-0.04100371,4000,4000,0,0,1,1
196832000,196832000,1310988,1310988,3.941498e-05,0.00024074923,-0.0007627296,0.0012203039,0.00014970261,-0.04109947,4000,4000,0,0,1,1
197332000,197332000,1310988,1310988,1.065256e-05,0.00021411886,-0.0007542072,0.0013112837,6.829978e-05,-0.041396353,4000,4000,0,0,1,1
197832000,197832000,1310988,1310988,9.586868e-06,0.00018961701,-0.0007680558,0.0014836661,3.478086e-05,-0.041037224,4000,4000,0,0,1,1
198332000,198332000,1310988,1310988,9.58645e-06,0.00020133506,-0.0007584683,0.001483666,-0.00030519578,-0.04101807,4000,4000,0,0,1,1
198832000,198832000,1310988,1310988,2.6632637e-05,0.00024181501,-0.0007819042,0.0013160721,-0.00016633207,-0.04120003,4000,4000,0,0,1,1
199332000,199332000,1310988,1310988,3.7285066e-05,0.00021518325,-0.00075953355,0.0016512602,-2.746838e-05,-0.041176084,4000,4000,0,0,1,1
199832000,199832000,1310988,1310988,3.3024426e-05,0.00024181524,-0.00075420726,0.0014118401,-0.00016154368,-0.04101328,4000,4000,0,0,1,1
200332000,200332000,1310988,1310988,3.0892596e-05,0.00021624814,-0.00076379493,0.0013064953,-0.00042490588,-0.04095582,4000,4000,0,0,1,1
200832000,200832000,1310988,1310988,2.1305064e-05,0.00023648895,-0.0007946873,0.001363956,-9.4506024e-05,-0.041314956,4000,4000,0,0,1,1
201332000,201332000,1310988,1310988,-9.586839e-06,0.00020027025,-0.0007648599,0.0014501472,-0.00037223342,-0.04096061,4000,4000,0,0,1,1
201832000,201832000,1310988,1310988,1.59793e-05,0.00019281273,-0.00079788326,0.0011580547,-0.00028604217,-0.041276645,4000,4000,0,0,1,1
202332000,202332000,1310988,1310988,2.5567706e-05,0.00022903229,-0.00080320926,0.0015219734,0.00014970261,-0.04098934,4000,4000,0,0,1,1
202832000,202832000,1310988,1310988,3.6218495e-05,0.00020985749,-0.0007787084,0.0012442459,1.0838928e-05,-0.041037224,4000,4000,0,0,1,1
203332000,203332000,1310988,1310988,4.0479677e-05,0.0002130535,-0.0007797736,0.0013352257,-0.00026210013,-0.04144903,4000,4000,0,0,1,1
203832000,203832000,1310988,1310988,2.2371692e-05,0.00023861945,-0.00077338185,0.0010862286,-0.00023336973,-0.04146818,4000,4000,0,0,1,1
204332000,204332000,1310988,1310988,-1.0651814e-06,0.0002556638,-0.00074994616,0.0012681879,4.914612e-05,-0.04115694,4000,4000,0,0,1,1
204832000,204832000,1310988,1310988,2.8762879e-05,0.00023329286,-0.00076699053,0.0014788777,-0.00015196684,-0.041147355,4000,4000,0,0,1,1
205332000,205332000,1310988,1310988,2.8760995e-05,0.00020559486,-0.00075101195,0.001114959,-4.183355e-05,-0.04104202,4000,4000,0,0,1,1
205832000,205832000,1310988,1310988,3.1955929e-06,0.00024394522,-0.0007488811,0.0010335562,0.00021674026,-0.041310165,4000,4000,0,0,1,1
206332000,206332000,1310988,1310988,1.1718504e-05,0.00021411847,-0.00076379464,0.0014022632,-0.0002142161,-0.04120003,4000,4000,0,0,1,1
206832000,206832000,1310988,1310988,6.3909665e-06,0.00022796771,-0.00076059863,0.0011963618,-0.00015196684,-0.041056376,4000,4000,0,0,1,1
207332000,207332000,1310988,1310988,1.2783394e-05,0.0002215747,-0.00078403484,0.0013831096,-6.0987208e-05,-0.041070744,4000,4000,0,0,1,1
207832000,207832000,1310988,1310988,1.491277e-05,0.00025246752,-0.00077018637,0.0011245358,-5.141035e-05,-0.041003708,4000,4000,0,0,1,1
208332000,208332000,1310988,1310988,2.0240157e-05,0.00023755393,-0.0007701863,0.0015842227,-7.056397e-05,-0.041501705,4000,4000,0,0,1,1
208832000,208832000,1310988,1310988,3.728362e-05,0.00023009669,-0.0007574032,0.0014884545,-0.00020463932,-0.041176084,4000,4000,0,0,1,1
209332000,209332000,1310988,1310988,3.195274e-06,0.00022690155,-0.0007627294,0.0012394575,5.3934524e-05,-0.04131974,4000,4000,0,0,1,1
209832000,209832000,1310988,1310988,2.3435885e-05,0.00020772655,-0.00079468737,0.0011628431,0.000111395304,-0.04098934,4000,4000,0,0,1,1
210332000,210332000,1310988,1310988,2.130614e-05,0.00025033762,-0.00077444705,0.0014501474,-0.00025731174,-0.040855266,4000,4000,0,0,1,1
210832000,210832000,1310988,1310988,1.9173867e-05,0.00024394493,-0.000788296,0.0015507039,-8.01408e-05,-0.040951032,4000,4000,0,0,1,1
211332000,211332000,1310988,1310988,4.5805544e-05,0.00024181465,-0.00077657803,0.0013687444,-0.00019985093,-0.040855266,4000,4000,0,0,1,1
211832000,211832000,1310988,1310988,4.154574e-05,0.0002460751,-0.0007531424,0.0014214169,-0.00017112047,-0.041065954,4000,4000,0,0,1,1
212332000,212332000,1310988,1310988,7.4581885e-06,0.00021411871,-0.00075314194,0.0010527098,-0.00040096385,-0.041334108,4000,4000,0,0,1,1
212832000,212832000,1310988,1310988,3.4089262e-05,0.00024181449,-0.0007595337,0.0013591676,-0.00028125377,-0.041314952,4000,4000,0,0,1,1
213332000,213332000,1310988,1310988,3.5153662e-05,0.00022583466,-0.0007627298,0.0014357821,-0.00019985093,-0.041123416,4000,4000,0,0,1,1
213832000,213832000,1310988,1310988,3.834936e-05,0.00021198657,-0.0007669908,0.0015315502,-1.3103187e-05,-0.041022856,4000,4000,0,0,1,1
214332000,214332000,1310988,1310988,7.456748e-06,0.00018429112,-0.0007595335,0.0013831096,-0.00019027409,-0.040883996,4000,4000,0,0,1,1
214832000,214832000,1310988,1310988,1.917475e-05,0.00022051073,-0.0007595333,0.0014453589,-0.0003339262,-0.04097976,4000,4000,0,0,1,1
215332000,215332000,1310988,1310988,3.5152796e-05,0.00021518258,-0.0007627297,0.00129213,-8.4929205e-05,-0.040965404,4000,4000,0,0,1,1
215832000,215832000,1310988,1310988,2.1305214e-06,0.00023222748,-0.00078510004,0.0013112837,-0.0003243494,-0.041027647,4000,4000,0,0,1,1
216332000,216332000,1310988,1310988,1.8110584e-05,0.00023755527,-0.0007765775,0.0010383446,-0.00014717845,-0.041089896,4000,4000,0,0,1,1
216832000,216832000,1310988,1310988,-0.0019228013,0.0004729763,-0.000944893,0.0017566052,-8.314777e-06,-0.04168366,4000,4000,0,0,1,1
217332000,217332000,1310988,1310988,6.71111e-05,0.00070733525,-0.0012655344,0.001991237,0.00030772,-0.04450403,4000,4000,0,0,1,1
217832000,217832000,1310988,1310988,0.00065940036,0.000597614,-0.0014178661,0.0017805471,-0.00055419275,-0.044446565,4000,4000,0,0,1,1
218332000,218332000,1310988,1310988,0.00086499355,0.00047936986,-0.0010716567,0.0016752022,-0.0005158855,-0.04388154,4000,4000,0,0,1,1
218832000,218832000,1310988,1310988,0.0008309074,0.00023329385,-0.00059654645,0.0014932429,-0.0003722334,-0.041966174,4000,4000,0,0,1,1
219332000,219332000,1310988,1310988,0.00061891886,0.000117178715,-0.00038456038,0.001210727,-0.0005254624,-0.040505715,4000,4000,0,0,1,1
219832000,219832000,1310988,1310988,0.00045380255,2.1305435e-05,-0.00038136487,0.0011101706,-0.0004105407,-0.03955282,4000,4000,0,0,1,1
220332000,220332000,1310988,1310988,0.00030360068,-2.4501034e-05,-0.0002961433,0.001091017,-0.00025731177,-0.0391075,4000,4000,0,0,1,1
220832000,220832000,1310988,1310988,-0.0001715074,-3.1959303e-06,-0.00015978988,0.0012538227,-0.00035307984,-0.039059617,4000,4000,0,0,1,1
221332000,221332000,1310988,1310988,-0.00018002994,-4.1545307e-05,-0.00019387795,0.0012250923,-0.00020463936,-0.03850416,4000,4000,0,0,1,1
221832000,221832000,1310988,1310988,-0.00012037466,-3.195862e-06,-0.00037390794,0.0013256489,5.3934476e-05,-0.03871485,4000,4000,0,0,1,1
