timestamp,timestamp_sample,time_last_fuse,device_id,observation[0],observation[1],observation[2],observation_variance[0],observation_variance[1],observation_variance[2],innovation[0],innovation[1],innovation[2],innovation_variance[0],innovation_variance[1],innovation_variance[2],test_ratio[0],test_ratio[1],test_ratio[2],estimator_instance,fusion_enabled,innovation_rejected,fused
3492000,3368914,0,0,0.02,0.0,-0.02,0.09,0.09,0.20250002,-0.019655615,-0.00035134994,0.0015933998,25.10179,25.10179,10.202646,6.156425e-07,1.9671391e-10,9.953978e-09,0,1,0,0
3892000,3769319,0,0,0.02,0.0,0.0,0.09,0.09,0.20250002,-0.020011626,-0.0016664462,-0.007777363,0.092184275,0.092184216,0.20283672,0.00017376724,1.2049971e-06,1.1928289e-05,0,1,0,0
4292000,4169588,0,0,0.0,-0.01,0.049999997,0.09,0.09,0.20250002,0.0010979362,0.007582808,-0.06893128,0.09687705,0.09687701,0.20500597,4.977294e-07,2.3741019e-05,0.0009270992,0,1,0,0
4692000,4569751,0,0,0.0,0.01,0.04,0.09,0.09,0.20250002,0.00019331326,-0.009453566,-0.065351315,0.091954775,0.09195474,0.20804033,1.6255823e-08,3.8875605e-05,0.0008211474,0,1,0,0
5092000,4969850,0,0,0.0,-0.01,-0.049999997,0.09,0.09,0.20250002,0.0034393966,0.0071264207,0.02501975,0.09146779,0.09146777,0.21023753,5.173165e-06,2.2209297e-05,0.00011910107,0,1,0,0
5492000,5369909,0,0,-0.01,-0.01,-0.01,0.09,0.09,0.20250002,0.009496351,0.011237262,-0.0109503325,0.091349214,0.09134915,0.21102764,3.9488325e-05,5.5293807e-05,2.2728735e-05,0,1,0,0
5892000,5769945,0,0,0.01,0.0,0.0,0.09,0.09,0.20250002,-0.010128915,0.001177839,-0.019048892,0.0912158,0.091215745,0.21090573,4.4989978e-05,6.083619e-07,6.881943e-05,0,1,0,0
6292000,6169967,0,0,0.0,0.01,0.02,0.09,0.09,0.20250002,0.00069859356,-0.008886824,-0.038170297,0.09108307,0.09108304,0.21041064,2.1432434e-07,3.468292e-05,0.0002769768,0,1,0,0
6684000,6565980,0,0,0.02,0.01,0.04,0.09,0.09,0.20250002,-0.018728785,-0.014634454,-0.052308105,0.0909444,0.090944394,0.20978332,0.00015427773,9.4197e-05,0.0005217074,0,1,0,0
7092000,6969988,0,0,-0.01,0.01,-0.01,0.09,0.09,0.20250002,0.007279096,-0.012673743,0.0027566943,0.090874165,0.09087416,0.2092697,2.3322465e-05,7.070162e-05,1.4525492e-06,0,1,0,0
7492000,7369993,0,0,0.01,-0.01,-0.04,0.09,0.09,0.20250002,-0.017448097,0.011501076,0.0328125,0.09081341,0.09081337,0.20993666,0.000134093,5.826223e-05,0.00020513998,0,1,0,0
7892000,7769996,0,0,0.0,0.0,0.02,0.09,0.09,0.20250002,-0.0013807502,0.0015853747,-0.023373235,0.090746485,0.09074649,0.20936939,8.403504e-07,1.1078832e-06,0.000104372106,0,1,0,0
8292000,8169998,0,0,-0.01,0.0,0.02,0.09,0.09,0.20250002,0.012003186,-0.002997281,-0.02164932,0.090689726,0.090689674,0.2089197,6.354699e-05,3.9623887e-06,8.9736495e-05,0,1,0,0
8684000,8569999,8604000,0,0.0,0.01,-0.02,0.09,0.09,0.20250002,0.0013362077,-0.015858341,0.017971437,0.091095224,0.09109517,0.20854476,7.8399324e-07,0.00011042824,6.194786e-05,0,1,0,0
9084000,8966000,9004000,0,0.01,0.01,-0.01,0.09,0.09,0.20250002,-0.013726455,0.0013575088,-0.007772049,0.18065721,0.18065721,0.40476558,4.1717805e-05,4.0802803e-07,5.9693557e-06,0,1,0,1
9492000,9370000,9412000,0,0.0,0.0,-0.02,0.09,0.09,0.20250002,0.00039088156,0.009733151,0.0063722096,0.13604502,0.136045,0.30287844,4.492289e-08,2.785379e-05,5.362555e-06,0,1,0,1
9884000,9770000,9804000,0,0.0,0.01,0.01,0.09,0.09,0.20250002,-0.004909082,-0.0031825174,-0.023188973,0.12169376,0.121693656,0.2685836,7.921222e-06,3.329152e-06,8.008359e-05,0,1,0,1
10292000,10170000,10212000,0,0.04,0.01,-0.01,0.09,0.09,0.20250002,-0.047850408,-0.0047673048,0.006757887,0.11529962,0.11529945,0.25139514,0.00079433445,7.884581e-06,7.2664957e-06,0,1,0,1
10692000,10570000,10612000,0,0.01,0.03,0.0,0.09,0.09,0.20250002,-0.0077523934,-0.027551334,-0.0026380792,0.11222111,0.11222088,0.24117896,2.1421853e-05,0.00027056498,1.1542404e-06,0,1,0,1
11092000,10970000,11012000,0,0.02,0.0,0.049999997,0.09,0.09,0.20250002,-0.016659588,0.009519347,-0.046749182,0.11100617,0.111005895,0.23431602,0.00010000952,3.265339e-05,0.0003730835,0,1,0,1
11492000,11370000,11412000,0,-0.01,-0.01,0.0,0.09,0.09,0.20250002,0.019181747,0.011844608,0.013956919,0.110947795,0.11094747,0.22951654,0.00013265316,5.0580602e-05,3.3948854e-05,0,1,0,1
11892000,11770000,11812000,0,0.01,-0.01,-0.049999997,0.09,0.09,0.20250002,0.00036086515,0.0047194287,0.070088506,0.11159483,0.11159441,0.2261633,4.6677307e-08,7.983556e-06,0.0008688234,0,1,0,1
12284000,12170000,12204000,0,-0.01,0.02,0.01,0.09,0.09,0.20250002,0.019305073,-0.032101046,0.0036054607,0.11248917,0.112488866,0.22358333,0.00013252327,0.0003664282,2.325638e-06,0,1,0,1
12692000,12570000,12612000,0,0.02,0.0,0.01,0.09,0.09,0.20250002,-0.009056098,-0.009608282,0.005427925,0.11376539,0.113764875,0.22175302,2.88358e-05,3.2459608e-05,5.314447e-06,0,1,0,1
13092000,12970000,13012000,0,-0.01,0.0,-0.04,0.09,0.09,0.20250002,0.015972964,-0.008174788,0.05926296,0.11473821,0.11473794,0.2204628,8.894529e-05,2.329732e-05,0.0006372229,0,1,0,1
13492000,13370000,13412000,0,-0.01,-0.02,0.049999997,0.09,0.09,0.20250002,0.0098551065,0.010458257,-0.03162332,0.11546287,0.1154626,0.21945915,3.364653e-05,3.7891106e-05,0.00018227252,0,1,0,1
13884000,13766000,13804000,0,0.0,0.0,-0.04,0.09,0.09,0.20250002,-0.0039449693,-0.010081195,0.06328861,0.11573666,0.115736306,0.21870723,5.378687e-06,3.5124845e-05,0.000732568,0,1,0,1
14292000,14170000,14212000,0,0.0,0.0,-0.01,0.09,0.09,0.20250002,-0.00030673825,-0.012631287,0.03430701,0.11605276,0.116052136,0.21834272,3.242951e-08,5.4992324e-05,0.000215619,0,1,0,1
14692000,14570000,14612000,0,0.01,0.0,0.02,0.09,0.09,0.20250002,-0.00791236,-0.010022194,0.0047730394,0.11591804,0.115917176,0.21801646,2.1603348e-05,3.4660738e-05,4.1798507e-06,0,1,0,1
15092000,14970000,15012000,0,0.0,-0.01,0.02,0.09,0.09,0.20250002,0.0048984,0.0038334122,0.0028977804,0.11559176,0.115590885,0.21781495,8.303126e-06,5.0851927e-06,1.5420669e-06,0,1,0,1
15484000,15370000,15404000,0,0.0,-0.01,-0.02,0.09,0.09,0.20250002,0.0049630194,0.00101713,0.048707515,0.1149825,0.11498165,0.21773128,8.568803e-06,3.599021e-07,0.00043584403,0,1,0,1
15892000,15770000,15812000,0,0.0,0.0,0.0,0.09,0.09,0.20250002,0.0053527327,-0.010722149,0.030407615,0.11458812,0.11458737,0.21773212,1.0001647e-05,4.0131643e-05,0.00016986433,0,1,0,1
16284000,16166000,16204000,0,0.01,0.0,0.0,0.09,0.09,0.20250002,-0.0051505705,-0.0075731277,0.030341081,0.11385331,0.1138528,0.21766809,9.320195e-06,2.0149619e-05,0.00016917154,0,1,0,1
16692000,16570000,16612000,0,0.01,-0.01,0.04,0.09,0.09,0.20250002,-0.00037358608,0.0052932766,-0.005787164,0.1133707,0.11337021,0.21780062,4.924255e-08,9.885764e-06,6.1508117e-06,0,1,0,1
17092000,16970000,17012000,0,0.0,-0.01,0.0,0.09,0.09,0.20250002,0.010628318,0.003450449,0.043420125,0.112728484,0.11272808,0.21780732,4.008256e-05,4.224537e-06,0.00034623395,0,1,0,1
17492000,17370000,17412000,0,0.0,0.0,-0.049999997,0.09,0.09,0.20250002,0.012494031,-0.0073669674,0.09461965,0.11211985,0.11211928,0.21781135,5.5690696e-05,1.936231e-05,0.0016441526,0,1,0,1
17892000,17770000,17812000,0,0.01,0.01,0.0,0.09,0.09,0.20250002,-0.0019692443,-0.018228529,0.036431678,0.11155155,0.11155105,0.2178843,1.3905402e-06,0.00011914878,0.00024366459,0,1,0,1
18292000,18170000,18212000,0,0.0,0.0,0.03,0.09,0.09,0.20250002,0.012061551,-0.0041784626,0.007269142,0.11101379,0.111013085,0.21786873,5.2419076e-05,6.290988e-06,9.701333e-06,0,1,0,1
18684000,18566000,18604000,0,0.0,-0.02,0.03,0.09,0.09,0.20250002,0.016594905,0.019695986,0.012376932,0.110423505,0.11042245,0.21779263,9.9758065e-05,0.00014052645,2.8134738e-05,0,1,0,1
19092000,18970000,19012000,0,0.0,0.0,-0.02,0.09,0.09,0.20250002,0.02190331,-0.0049968413,0.06544765,0.110085845,0.11008434,0.21788943,0.00017432032,9.072471e-06,0.0007863429,0,1,0,1
19492000,19370000,19412000,0,0.01,0.0,0.0,0.09,0.09,0.20250002,0.009487288,-0.011661197,0.044903334,0.109665655,0.10966441,0.21783528,3.28302e-05,4.9599872e-05,0.0003702448,0,1,0,1
19884000,19766000,19804000,0,0.0,-0.02,0.02,0.09,0.09,0.20250002,0.023818264,0.0110919215,0.020063814,0.109208584,0.10920718,0.21772546,0.0002077894,4.5063236e-05,7.395674e-05,0,1,0,1
20292000,20170000,20212000,0,0.0,0.0,-0.02,0.09,0.09,0.20250002,0.025207715,-0.010550159,0.061746426,0.10897598,0.10897448,0.21779595,0.00023323632,4.0855753e-05,0.00070021895,0,1,0,1
20692000,20570000,20612000,0,0.0,0.0,0.01,0.09,0.09,0.20250002,0.023378577,-0.013036412,0.028181033,0.10866889,0.10866779,0.21772139,0.00020118283,6.2556916e-05,0.00014590585,0,1,0,1
21084000,20970000,21004000,0,-0.01,0.01,0.02,0.09,0.09,0.20250002,0.03225266,-0.027480148,0.021636397,0.10831316,0.108312406,0.21759796,0.00038415793,0.00027888163,8.605479e-05,0,1,0,1
21492000,21370000,21412000,0,0.0,0.01,-0.01,0.09,0.09,0.20250002,0.017400034,-0.029176582,0.05373378,0.1081693,0.108169034,0.21766125,0.00011195827,0.00031479358,0.0005306079,0,1,0,1
21892000,21770000,21812000,0,-0.03,-0.01,-0.01,0.09,0.09,0.20250002,0.048783243,-0.009638559,0.051188223,0.10795173,0.10795157,0.21758568,0.00088180334,3.442352e-05,0.0004816924,0,1,0,1
22284000,22170000,22204000,0,0.0,0.0,0.0,0.09,0.09,0.20250002,0.011474734,-0.026465354,0.03960374,0.10768413,0.10768452,0.21746624,4.890954e-05,0.00026017294,0.0002884965,0,1,0,1
22692000,22570000,22612000,0,0.0,0.0,0.02,0.09,0.09,0.20250002,0.012324587,-0.029816577,0.023137782,0.107606426,0.107607074,0.21753657,5.6463337e-05,0.00033047204,9.84399e-05,0,1,0,1
23084000,22970000,23004000,0,0.0,0.0,0.02,0.09,0.09,0.20250002,0.015192159,-0.024257876,0.027868535,0.10737616,0.107375786,0.21742459,8.597876e-05,0.0002192094,0.0001428827,0,1,0,1
23484000,23366000,23404000,0,0.0,0.01,0.02,0.09,0.09,0.20250002,0.0145803485,-0.03254532,0.030209683,0.10726031,0.10725983,0.21737403,7.927874e-05,0.00039500263,0.00016793633,0,1,0,1
23892000,23770000,23812000,0,0.01,0.0,0.04,0.09,0.09,0.20250002,0.0029798374,-0.019018633,0.011199255,0.1072298,0.107229374,0.2174548,3.3122997e-06,0.00013492885,2.3071148e-05,0,1,0,1
24284000,24170000,24204000,0,0.0,0.0,0.01,0.09,0.09,0.20250002,0.01569968,-0.017407395,0.04063139,0.107049294,0.107048795,0.21735388,9.2099624e-05,0.0001132259,0.00030381972,0,1,0,1
24684000,24570000,24604000,0,-0.02,0.01,-0.01,0.09,0.09,0.20250002,0.039812304,-0.033753008,0.05924304,0.1069708,0.10697082,0.21731408,0.00059269235,0.00042600982,0.0006460212,0,1,0,1
25092000,24970000,25012000,0,-0.01,-0.02,0.04,0.09,0.09,0.20250002,0.028460538,-0.002015058,0.010201372,0.10696691,0.106966816,0.2173242,0.00030289823,1.5183994e-06,1.9154424e-05,0,1,0,1
25484000,25370000,25404000,0,-0.01,-0.01,-0.03,0.09,0.09,0.20250002,0.026594263,-0.01701635,0.08364985,0.10681143,0.10681152,0.21731892,0.0002648611,0.00010843629,0.0012879316,0,1,0,1
25892000,25770000,25812000,0,0.0,0.0,0.0,0.09,0.09,0.20250002,0.011540001,-0.030771788,0.0513349,0.10682431,0.10682474,0.2173379,4.9865666e-05,0.00035456318,0.0004850091,0,1,0,1
26292000,26170000,26212000,0,-0.01,0.0,-0.01,0.09,0.09,0.20250002,0.015489299,-0.033844117,0.060995527,0.1067529,0.106754035,0.21730074,8.989671e-05,0.00042918255,0.00068484887,0,1,0,1
26684000,26570000,26604000,0,0.01,-0.01,0.03,0.09,0.09,0.20250002,-0.007491054,-0.02134754,0.023293054,0.1066185,0.106619254,0.21730167,2.1052965e-05,0.00017097003,9.987339e-05,0,1,0,1
27084000,26966000,27004000,0,0.0,0.0,0.0,0.09,0.09,0.20250002,0.0004913936,-0.0351421,0.057804696,0.10657729,0.10657845,0.21728314,9.0626315e-08,0.00046349608,0.00061512046,0,1,0,1
27492000,27370000,27412000,0,0.01,0.0,0.0,0.09,0.09,0.20250002,-0.013280828,-0.03426733,0.059415326,0.106607534,0.10660881,0.21730906,6.617933e-05,0.00044058266,0.0006497991,0,1,0,1
27892000,27770000,27812000,0,0.0,-0.01,-0.03,0.09,0.09,0.20250002,-0.0064931563,-0.026703963,0.09946114,0.106546685,0.10654834,0.21727723,1.5828207e-05,0.0002677101,0.001821179,0,1,0,1
28292000,28170000,28212000,0,0.0,-0.01,-0.01,0.09,0.09,0.20250002,-0.009047479,-0.029781284,0.081487134,0.10649714,0.10649879,0.21732737,3.0745196e-05,0.00033312108,0.0012221476,0,1,0,1
28692000,28570000,28612000,0,0.0,-0.01,-0.02,0.09,0.09,0.20250002,-0.011073336,-0.031067135,0.091189355,0.106454685,0.10645617,0.21729684,4.60736e-05,0.00036265326,0.0015307169,0,1,0,1
29092000,28970000,29012000,0,-0.01,0.0,0.0,0.09,0.09,0.20250002,-0.002090536,-0.04541306,0.07574606,0.106412515,0.10641403,0.21726687,1.6427922e-06,0.00077521574,0.0010562983,0,1,0,1
29492000,29370000,29412000,0,0.0,0.0,0.02,0.09,0.09,0.20250002,-0.013797483,-0.042433143,0.05769657,0.106376916,0.106377766,0.21731855,7.15834e-05,0.0006770481,0.0006127216,0,1,0,1
29892000,29770000,29812000,0,0.0,0.01,0.0,0.09,0.09,0.20250002,-0.010263766,-0.048787773,0.08047929,0.10634515,0.10634506,0.2172894,3.962377e-05,0.00089529186,0.0011923113,0,1,0,1
30292000,30170000,30212000,0,0.01,0.0,0.0,0.09,0.09,0.20250002,-0.019904573,-0.042349644,0.07997441,0.1063169,0.106316954,0.21726254,0.00014906078,0.0006747719,0.0011775444,0,1,0,1
30692000,30570000,30612000,0,0.0,0.01,-0.02,0.09,0.09,0.20250002,0.00040640813,-0.051122397,0.09885441,0.106292024,0.10629056,0.21731955,6.215614e-08,0.0009835303,0.0017986774,0,1,0,1
31092000,30970000,31012000,0,0.0,0.01,0.01,0.09,0.09,0.20250002,0.0010407055,-0.048672706,0.0687914,0.10626578,0.1062638,0.2172956,4.0768265e-07,0.00089175516,0.0008711186,0,1,0,1
31492000,31370000,31412000,0,0.0,0.0,-0.03,0.09,0.09,0.20250002,0.004686754,-0.03769951,0.11182521,0.106241286,0.10623852,0.2172702,8.270105e-06,0.00053511775,0.00230218,0,1,0,1
31892000,31770000,31812000,0,-0.01,-0.01,0.0,0.09,0.09,0.20250002,0.020366456,-0.028164884,0.07885707,0.10622191,0.10621789,0.2173249,0.0001561985,0.0002987296,0.0011445421,0,1,0,1
32292000,32170000,32212000,0,0.0,0.02,-0.01,0.09,0.09,0.20250002,0.011510671,-0.06043037,0.088575915,0.10620222,0.106197625,0.21729897,4.990312e-05,0.0013754845,0.0014442209,0,1,0,1
32684000,32570000,32604000,0,0.0,0.0,0.01,0.09,0.09,0.20250002,0.01956065,-0.036545355,0.068822816,0.10611763,0.10611099,0.2172253,0.0001442245,0.00050345884,0.00087219675,0,1,0,1
33092000,32970000,33012000,0,-0.01,0.0,0.01,0.09,0.09,0.20250002,0.033827234,-0.031836927,0.069915965,0.10618256,0.10617419,0.21733497,0.00043106207,0.00038185925,0.00089966966,0,1,0,1
33484000,33370000,33404000,0,0.01,0.0,0.049999997,0.09,0.09,0.20250002,0.014833137,-0.037168365,0.025849625,0.106099725,0.10609104,0.21726143,8.294912e-05,0.00052086863,0.00012302287,0,1,0,1
33892000,33770000,33812000,0,0.0,0.0,0.01,0.09,0.09,0.20250002,0.031835344,-0.03660673,0.062730834,0.10616925,0.10615876,0.21729392,0.00038183903,0.000504924,0.00072439347,0,1,0,1
34284000,34170000,34204000,0,0.0,-0.02,0.0,0.09,0.09,0.20250002,0.03429998,-0.017738137,0.07250634,0.1060821,0.106071085,0.21730037,0.00044361444,0.00011865308,0.0009677239,0,1,0,1
34692000,34570000,34612000,0,0.0,-0.02,-0.03,0.09,0.09,0.20250002,0.03770754,-0.0256374,0.091396086,0.106152534,0.106141746,0.21732968,0.00053577946,0.00024769755,0.0015374329,0,1,0,1
35084000,34970000,35004000,0,0.0,0.0,0.02,0.09,0.09,0.20250002,0.03308389,-0.050585583,0.031525075,0.10606681,0.10605842,0.21725342,0.0004127752,0.0009650912,0.00018298085,0,1,0,1
35492000,35370000,35412000,0,0.0,0.0,-0.06,0.09,0.09,0.20250002,0.029412754,-0.05308838,0.10877546,0.106128514,0.106122375,0.21727963,0.00032606133,0.0010623116,0.0021782254,0,1,0,1
35892000,35770000,35812000,0,0.0,0.01,0.01,0.09,0.09,0.20250002,0.026563963,-0.06539257,0.032422364,0.10610508,0.10610087,0.21732949,0.0002660171,0.0016121217,0.0001934776,0,1,0,1
36292000,36170000,36212000,0,0.0,0.0,0.0,0.09,0.09,0.20250002,0.026539354,-0.053244855,0.038991787,0.10608686,0.106083125,0.217299,0.00026557007,0.0010689786,0.00027986497,0,1,0,1
36692000,36570000,36612000,0,0.01,0.0,0.01,0.09,0.09,0.20250002,0.013353836,-0.057919193,0.024433801,0.106070265,0.10606842,0.21726866,6.724785e-05,0.0012650826,0.00010991197,0,1,0,1
37084000,36970000,37004000,0,-0.01,0.01,0.0,0.09,0.09,0.20250002,0.03044489,-0.073328465,0.03045798,0.10599054,0.10599068,0.21727346,0.00034980156,0.0020292592,0.00017078729,0,1,0,1
37484000,37370000,37404000,0,-0.01,0.0,0.02,0.09,0.09,0.20250002,0.026917271,-0.06211175,0.00890428,0.10599259,0.10599322,0.2172541,0.00027343025,0.0014558928,1.4597875e-05,0,1,0,1
37884000,37770000,37804000,0,0.0,0.0,0.0,0.09,0.09,0.20250002,0.013005889,-0.060104653,0.03228604,0.105989724,0.10599042,0.2172369,6.3837564e-05,0.001363357,0.00019193579,0,1,0,1
38284000,38170000,38204000,0,0.0,0.0,-0.01,0.09,0.09,0.20250002,0.012777069,-0.0581826,0.046326622,0.10598406,0.1059844,0.21729925,6.161435e-05,0.0012776277,0.00039506,0,1,0,1
38692000,38570000,38612000,0,0.01,0.0,-0.04,0.09,0.09,0.20250002,0.0007734718,-0.055543832,0.08004061,0.1060421,0.10604192,0.21732599,2.2566832e-07,0.0011637349,0.0011791502,0,1,0,1
39092000,38970000,39012000,0,0.02,0.0,0.0,0.09,0.09,0.20250002,-0.0029950384,-0.05646103,0.042672776,0.10601911,0.1060184,0.21729475,3.384392e-06,0.0012027527,0.0003352066,0,1,0,1
39492000,39370000,39412000,0,0.01,0.01,0.0,0.09,0.09,0.20250002,0.014260815,-0.06413961,0.054087825,0.105995,0.10599382,0.21734443,7.674734e-05,0.0015525017,0.0005384068,0,1,0,1
39892000,39770000,39812000,0,0.0,-0.01,0.0,0.09,0.09,0.20250002,0.024521904,-0.043258667,0.059607346,0.10597822,0.10597696,0.21731424,0.00022696126,0.0007063091,0.00065399037,0,1,0,1
40284000,40166000,40204000,0,0.01,0.0,0.01,0.09,0.09,0.20250002,0.0107576065,-0.052135933,0.058496132,0.10589719,0.10589579,0.21723768,4.3712625e-05,0.0010267285,0.00063005596,0,1,0,1
40692000,40570000,40612000,0,-0.01,0.0,0.049999997,0.09,0.09,0.20250002,0.03363026,-0.04821306,0.02556701,0.105966106,0.10596445,0.21734516,0.0004269268,0.0008774638,0.00012030118,0,1,0,1
41092000,40970000,41012000,0,0.01,-0.01,-0.03,0.09,0.09,0.20250002,0.008158876,-0.039889634,0.117112145,0.105950594,0.105948985,0.21731466,2.513143e-05,0.0006007355,0.0025244968,0,1,0,1
41492000,41370000,41412000,0,0.0,0.0,0.04,0.09,0.09,0.20250002,0.017758466,-0.055704366,0.054844365,0.105936244,0.105934516,0.21728498,0.00011907657,0.0011716583,0.00055372523,0,1,0,1
41884000,41770000,41804000,0,0.01,-0.01,0.01,0.09,0.09,0.20250002,0.000799329,-0.04379169,0.092367865,0.10586296,0.10586129,0.21728931,2.4141661e-07,0.00072461314,0.0015705923,0,1,0,1
42284000,42170000,42204000,0,0.0,0.0,0.0,0.09,0.09,0.20250002,0.008955279,-0.049236335,0.10358156,0.105873965,0.105872646,0.21727,3.0299056e-05,0.0009158991,0.001975264,0,1,0,1
42692000,42570000,42612000,0,0.02,0.0,0.03,0.09,0.09,0.20250002,-0.014923135,-0.045402598,0.073021546,0.1059481,0.10594725,0.2173009,8.4078885e-05,0.0007782726,0.0009815231,0,1,0,1
43092000,42970000,43012000,0,0.0,-0.01,0.0,0.09,0.09,0.20250002,-0.00017641584,-0.03224629,0.10543579,0.10593825,0.10593793,0.21727349,1.1751204e-08,0.00039261606,0.002046583,0,1,0,1
43492000,43370000,43412000,0,0.0,-0.02,0.01,0.09,0.09,0.20250002,-0.0014975622,-0.017502133,0.10050379,0.105926104,0.105927184,0.21724637,8.4688946e-07,0.000115673676,0.001859826,0,1,0,1
43892000,43770000,43812000,0,-0.01,0.0,-0.01,0.09,0.09,0.20250002,0.0047703017,-0.030578634,0.12183777,0.105918705,0.10592217,0.21730451,8.593677e-06,0.00035310938,0.0027324683,0,1,0,1
44292000,44170000,44212000,0,0.0,0.0,-0.06,0.09,0.09,0.20250002,-0.016942395,-0.027530726,0.17399757,0.10591191,0.10591624,0.21728037,0.00010840886,0.00028624161,0.0055734725,0,1,0,1
44684000,44570000,44604000,0,0.02,0.0,0.02,0.09,0.09,0.20250002,-0.039664596,-0.025769006,0.092237204,0.1058414,0.1058467,0.21728875,0.00059458025,0.0002509447,0.0015661559,0,1,0,1
45092000,44970000,45012000,0,0.01,-0.02,0.01,0.09,0.09,0.20250002,-0.027201837,-0.003400445,0.09773696,0.10592257,0.10592948,0.21731974,0.00027942672,4.3663113e-06,0.0017582414,0,1,0,1
45484000,45370000,45404000,0,-0.02,0.01,0.0,0.09,0.09,0.20250002,0.0010312311,-0.030432912,0.10810756,0.10585099,0.105860144,0.2172445,4.018622e-07,0.00034995686,0.002151906,0,1,0,1
45884000,45766000,45804000,0,0.0,0.0,0.02,0.09,0.09,0.20250002,-0.023918176,-0.01966561,0.086198464,0.10586223,0.10587154,0.21730584,0.00021615988,0.00014611526,0.00136769,0,1,0,1
46292000,46170000,46212000,0,0.0,-0.01,-0.03,0.09,0.09,0.20250002,-0.020408373,-0.0050838673,0.13430427,0.10593607,0.10594693,0.21733241,0.00015726531,9.757982e-06,0.0033198248,0,1,0,1
46692000,46570000,46612000,0,0.0,0.0,-0.06,0.09,0.09,0.20250002,-0.016879303,-0.014653455,0.1626315,0.105923414,0.10593477,0.21730052,0.00010759127,8.107771e-05,0.0048686503,0,1,0,1
47084000,46970000,47004000,0,0.0,0.0,0.0,0.09,0.09,0.20250002,-0.008514617,-0.013916331,0.09117729,0.105854526,0.105865546,0.21730325,2.7395596e-05,7.317368e-05,0.0015302668,0,1,0,1
47484000,47370000,47404000,0,0.0,0.0,-0.01,0.09,0.09,0.20250002,-0.008359255,-0.014184126,0.093140475,0.10586859,0.1058793,0.2172828,2.6401463e-05,7.600709e-05,0.0015970243,0,1,0,1
47892000,47770000,47812000,0,0.0,0.0,0.01,0.09,0.09,0.20250002,-0.01135473,-0.013663721,0.0719954,0.10593836,0.10594886,0.2173072,4.8681104e-05,7.048581e-05,0.0009541033,0,1,0,1
48284000,48170000,48204000,0,0.0,0.0,-0.04,0.09,0.09,0.20250002,-0.011873752,-0.01675132,0.121932104,0.10586156,0.105870716,0.21730822,5.3271833e-05,0.00010601863,0.0027366546,0,1,0,1
48684000,48570000,48604000,0,0.01,0.0,0.0,0.09,0.09,0.20250002,-0.022864848,-0.01628884,0.0816533,0.10586564,0.10587452,0.21729125,0.0001975339,0.00010024179,0.0012273409,0,1,0,1
49092000,48970000,49012000,0,-0.02,0.01,-0.02,0.09,0.09,0.20250002,0.008558674,-0.033351064,0.10432193,0.10593152,0.10593832,0.21731941,2.7659718e-05,0.00041997776,0.0020031463,0,1,0,1
49492000,49370000,49412000,0,0.01,0.0,0.0,0.09,0.09,0.20250002,-0.027312182,-0.017249575,0.08554083,0.10591655,0.10592413,0.21728863,0.00028171434,0.00011236263,0.0013470072,0,1,0,1
49892000,49770000,49812000,0,0.0,-0.01,-0.02,0.09,0.09,0.20250002,-0.020345131,-0.010183379,0.110204175,0.10590261,0.10590909,0.21733919,0.0001563415,3.9166123e-05,0.0022352086,0,1,0,1
50284000,50170000,50204000,0,0.0,0.0,0.0,0.09,0.09,0.20250002,-0.030613456,-0.018693808,0.08866623,0.105830625,0.105837226,0.21726272,0.00035422022,0.00013207394,0.0014474092,0,1,0,1
50692000,50570000,50612000,0,0.0,0.01,0.03,0.09,0.09,0.20250002,-0.03821377,-0.028830713,0.0563521,0.10590647,0.1059123,0.2172892,0.00055154035,0.0003139239,0.00058457744,0,1,0,1
51092000,50970000,51012000,0,0.0,-0.01,0.01,0.09,0.09,0.20250002,-0.04054588,-0.01110954,0.08017432,0.10589655,0.10590093,0.21733928,0.0006209715,4.6617864e-05,0.0011830206,0,1,0,1
51492000,51370000,51412000,0,0.0,0.0,0.0,0.09,0.09,0.20250002,-0.039397273,-0.022519015,0.09098073,0.105889544,0.10589366,0.21730962,0.0005863261,0.00019155293,0.0015236313,0,1,0,1
51884000,51770000,51804000,0,0.0,0.0,0.0,0.09,0.09,0.20250002,-0.038071986,-0.020863274,0.0904484,0.10581978,0.10582382,0.21723323,0.00054790365,0.00016452864,0.0015063835,0,1,0,1
52284000,52170000,52204000,0,-0.01,-0.01,0.0,0.09,0.09,0.20250002,-0.028097773,-0.010773964,0.09035442,0.10583109,0.10583467,0.2172944,0.0002983943,4.387156e-05,0.0015028316,0,1,0,1
52684000,52570000,52604000,0,0.0,0.0,0.0,0.09,0.09,0.20250002,-0.03883295,-0.019829389,0.0868244,0.10584257,0.1058463,0.21727394,0.0005699023,0.00014859458,0.001387829,0,1,0,1
53092000,52970000,53012000,0,0.01,0.0,-0.01,0.09,0.09,0.20250002,-0.04672449,-0.015501325,0.1007335,0.10591051,0.10591434,0.21729836,0.00082453684,9.0749214e-05,0.0018678906,0,1,0,1
53492000,53370000,53412000,0,0.0,0.0,0.01,0.09,0.09,0.20250002,-0.033663783,-0.01019009,0.08041355,0.10589898,0.10590308,0.21734667,0.0004280496,3.9219987e-05,0.0011900507,0,1,0,1
53892000,53770000,53812000,0,0.03,0.0,-0.03,0.09,0.09,0.20250002,-0.06060269,-0.01193803,0.11718317,0.10589272,0.10589567,0.21731557,0.0013873235,5.3832817e-05,0.0025275494,0,1,0,1
54284000,54170000,54204000,0,0.02,0.0,-0.02,0.09,0.09,0.20250002,-0.046606507,-0.007487736,0.106730655,0.10582009,0.10582288,0.2172378,0.000821079,2.1192463e-05,0.0020975047,0,1,0,1
54692000,54570000,54612000,0,0.0,-0.01,-0.03,0.09,0.09,0.20250002,-0.026347606,0.0021597259,0.11614202,0.10589413,0.10589616,0.2173449,0.00026222275,1.7618829e-06,0.0024825002,0,1,0,1
55092000,54970000,55012000,0,-0.01,0.0,0.02,0.09,0.09,0.20250002,-0.01705442,-0.004124414,0.064422816,0.10588666,0.105889015,0.21731417,0.00010987342,6.425895e-06,0.00076392613,0,1,0,1
55492000,55370000,55412000,0,-0.02,0.0,-0.01,0.09,0.09,0.20250002,-0.0137164,-0.0058165076,0.09543983,0.105881065,0.105882764,0.21728368,7.107583e-05,1.2780839e-05,0.0016768422,0,1,0,1
55884000,55766000,55804000,0,0.0,0.01,0.0,0.09,0.09,0.20250002,-0.03486935,-0.013601654,0.08360917,0.10581339,0.105814844,0.21728814,0.00045962867,6.993537e-05,0.0012868616,0,1,0,1
56284000,56170000,56204000,0,-0.01,0.0,-0.02,0.09,0.09,0.20250002,-0.022835033,-0.0018184276,0.10452333,0.10582481,0.10582586,0.21726915,0.00019709507,1.2498567e-06,0.0020113534,0,1,0,1
56692000,56570000,56612000,0,0.0,-0.01,-0.01,0.09,0.09,0.20250002,-0.032842107,0.0057617836,0.09234828,0.10589944,0.10589976,0.21729498,0.0004074069,1.2539462e-05,0.0015698853,0,1,0,1
57084000,56970000,57004000,0,0.0,0.0,-0.049999997,0.09,0.09,0.20250002,-0.033718906,-0.005260693,0.13121551,0.10582733,0.10582754,0.21729742,0.0004297433,1.0460373e-05,0.0031693908,0,1,0,1
57492000,57370000,57412000,0,0.0,0.0,-0.02,0.09,0.09,0.20250002,-0.03146955,-0.0056797527,0.0952484,0.10590277,0.10590248,0.2173235,0.00037405352,1.2184641e-05,0.0016698163,0,1,0,1
57892000,57770000,57812000,0,0.0,-0.01,0.02,0.09,0.09,0.20250002,-0.029186577,0.0091914795,0.05488116,0.10589338,0.10589302,0.21729137,0.00032177885,3.1912696e-05,0.0005544521,0,1,0,1
58284000,58166000,58204000,0,0.01,0.02,0.0,0.09,0.09,0.20250002,-0.039265,-0.01872869,0.072109215,0.10582496,0.10582483,0.21729432,0.000582751,0.0001325828,0.000957179,0,1,0,1
58692000,58570000,58612000,0,0.0,0.01,-0.01,0.09,0.09,0.20250002,-0.024170855,-0.0036736582,0.08237519,0.10589869,0.10589829,0.21732092,0.00022067514,5.0976323e-06,0.0012489681,0,1,0,1
59092000,58970000,59012000,0,-0.01,0.01,-0.01,0.09,0.09,0.20250002,-0.017531343,-0.0038786447,0.075213246,0.105894715,0.10589465,0.21728928,0.000116095674,5.682585e-06,0.0010413828,0,1,0,1
59492000,59370000,59412000,0,0.0,0.0,-0.04,0.09,0.09,0.20250002,-0.02819538,0.005803391,0.098071754,0.10589192,0.10589157,0.21733963,0.00030029842,1.2722201e-05,0.0017701455,0,1,0,1
59892000,59770000,59812000,0,-0.02,0.0,0.03,0.09,0.09,0.20250002,-0.003587693,0.010705763,0.02310863,0.105887294,0.105886675,0.21731023,4.862355e-06,4.3296608e-05,9.829427e-05,0,1,0,1
60284000,60170000,60204000,0,0.0,0.0,0.03,0.09,0.09,0.20250002,-0.022579048,0.012532489,0.019762585,0.105822586,0.10582155,0.21723412,0.00019270496,5.936911e-05,7.1915e-05,0,1,0,1
60692000,60570000,60612000,0,-0.01,-0.03,-0.01,0.09,0.09,0.20250002,-0.0055103786,0.04268519,0.06013365,0.10590129,0.10589907,0.21726324,1.1468896e-05,0.00068821193,0.00066574645,0,1,0,1
61092000,60970000,61012000,0,-0.01,0.01,0.0,0.09,0.09,0.20250002,-0.0012318045,0.0027974285,0.049320176,0.10589716,0.10589403,0.21731903,5.7313804e-07,2.956014e-06,0.00044772512,0,1,0,1
61492000,61370000,61412000,0,-0.01,0.0,-0.01,0.09,0.09,0.20250002,0.005662489,0.013566313,0.06119045,0.105893284,0.10588835,0.21729366,1.2111735e-05,6.952412e-05,0.0006892555,0,1,0,1
61892000,61770000,61812000,0,0.0,0.0,0.02,0.09,0.09,0.20250002,0.004570625,0.010796656,0.03406308,0.105890326,0.10588338,0.21726722,7.8914145e-06,4.4036293e-05,0.00021361592,0,1,0,1
62292000,62170000,62212000,0,-0.02,0.01,0.0,0.09,0.09,0.20250002,0.036133725,0.0013204133,0.05584082,0.105891354,0.10588258,0.21732163,0.0004932022,6.586509e-07,0.00057393225,0,1,0,1
62692000,62570000,62612000,0,-0.02,-0.03,-0.14,0.09,0.09,0.20250002,0.035489973,0.012214443,0.009638235,0.1060313,0.10603032,0.21729515,0.00047515708,5.6283e-05,1.7100348e-05,0,1,0,1
63092000,62970000,63012000,0,-0.01,-0.01,-0.58,0.09,0.09,0.20250002,0.008875065,-0.005086325,0.03577417,0.10640098,0.10639999,0.21726768,2.9611296e-05,9.725829e-06,0.00023561559,0,1,0,1
63492000,63370000,63412000,0,-0.04,0.0,-0.87,0.09,0.09,0.20250002,0.04346949,0.019219503,0.048038244,0.10660693,0.106602184,0.21732141,0.00070899574,0.00013860477,0.00042474837,0,1,0,1
63884000,63770000,63804000,0,-0.02,0.01,-1.1,0.09,0.09,0.20250002,0.02564254,0.013481554,0.03596723,0.1066624,0.106655106,0.21725239,0.00024658733,6.8164496e-05,0.00023818229,0,1,0,1
64292000,64170000,64212000,0,0.0,0.0,-1.28,0.09,0.09,0.20250002,0.018792309,0.018481132,0.08494747,0.10668813,0.10667865,0.21728551,0.00013240494,0.0001280677,0.0013284037,0,1,0,1
64692000,64570000,64612000,0,0.0,0.0,-1.27,0.09,0.09,0.20250002,0.02942411,0.016560433,0.032552242,0.10885532,0.10884552,0.21725966,0.00031813906,0.00010078429,0.00019509347,0,1,0,1
65092000,64970000,65012000,0,-0.02,0.0,-1.3399999,0.09,0.09,0.20250002,0.042293962,0.017121278,0.05721271,0.12587528,0.12586144,0.21731865,0.00056842907,9.316218e-05,0.00060248753,0,1,0,1
65492000,65370000,65412000,0,-0.04,0.0,-1.38,0.09,0.09,0.20250002,0.05199954,0.009118628,0.05607879,0.14456448,0.14455119,0.21729796,0.000748165,2.3008977e-05,0.0005788975,0,1,0,1
65892000,65770000,65812000,0,0.0,0.0,-1.4,0.09,0.09,0.20250002,0.012318476,0.014744363,0.0406363,0.15195563,0.15194707,0.21727736,3.9944516e-05,5.7229463e-05,0.0003040002,0,1,0,1
66284000,66166000,66204000,0,0.06,0.01,-1.4599999,0.09,0.09,0.20250002,-0.013396591,-0.0024148333,0.07296884,0.1491661,0.14916465,0.2172884,4.8125854e-05,1.5637539e-06,0.0009801631,0,1,0,1
66692000,66570000,66612000,0,0.049999997,0.01,-1.4399999,0.09,0.09,0.20250002,0.012002323,0.01127254,0.025895238,0.14407751,0.1440717,0.2173212,3.999396e-05,3.5279703e-05,0.00012342347,0,1,0,1
67092000,66970000,67012000,0,0.03,0.02,-1.5,0.09,0.09,0.20250002,-0.00541416,-0.00704211,0.06767523,0.13776343,0.13776281,0.21729349,8.51115e-06,1.4399042e-05,0.00084308774,0,1,0,1
67492000,67370000,67412000,0,-0.01,0.02,-1.51,0.09,0.09,0.20250002,0.009320972,-0.008325969,0.064012885,0.13219213,0.1321926,0.21726534,2.628916e-05,2.097599e-05,0.00075440464,0,1,0,1
67892000,67770000,67812000,0,0.01,0.01,-1.4699999,0.09,0.09,0.20250002,-0.011731944,-0.0027267197,0.010278225,0.12752041,0.12751678,0.21731813,4.3173797e-05,2.3322423e-06,1.9444655e-05,0,1,0,1
68292000,68170000,68212000,0,0.04,0.02,-1.48,0.09,0.09,0.20250002,-0.021823028,-0.025945134,0.014600158,0.12364778,0.123643346,0.21728969,0.0001540649,0.00021777152,3.924063e-05,0,1,0,1
68692000,68570000,68612000,0,0.04,0.0,-1.49,0.09,0.09,0.20250002,-0.020606752,-0.0048024263,0.013236523,0.12045001,0.12044206,0.21726125,0.00014101726,7.659549e-06,3.2257118e-05,0,1,0,1
69084000,68970000,69004000,0,0.0,-0.03,-1.53,0.09,0.09,0.20250002,0.0042411005,0.0107084755,0.01808393,0.11769186,0.11767292,0.2172674,6.113229e-06,3.8979724e-05,6.0207567e-05,0,1,0,1
69492000,69370000,69412000,0,-0.04,-0.03,-1.4599999,0.09,0.09,0.20250002,0.021941273,8.85129e-05,-0.053176522,0.11562386,0.115600504,0.21729843,0.00016654674,2.7108993e-09,0.000520527,0,1,0,1
69892000,69770000,69812000,0,-0.01,-0.02,-1.53,0.09,0.09,0.20250002,-0.010067215,0.0038140342,0.01687324,0.11372628,0.11371537,0.21727325,3.564658e-05,5.116936e-06,5.2414412e-05,0,1,0,1
70292000,70170000,70212000,0,0.01,-0.01,-1.49,0.09,0.09,0.20250002,-0.005025073,-0.0004322715,-0.024165988,0.112133875,0.11213032,0.21725194,9.0075755e-06,6.665768e-08,0.000107524,0,1,0,1
70692000,70570000,70612000,0,0.02,-0.02,-1.9599999,0.09,0.09,0.20250002,0.0005112849,0.020951841,-0.100845456,0.111113146,0.11111136,0.2173105,9.410669e-08,0.00015803233,0.0018719401,0,1,0,1
71092000,70970000,71012000,0,0.0,-0.01,-2.78,0.09,0.09,0.20250002,0.010487632,0.01314444,-0.06672692,0.11050192,0.110499516,0.21728718,3.9814848e-05,6.254373e-05,0.0008196494,0,1,0,1
71484000,71370000,71404000,0,-0.01,-0.01,-2.82,0.09,0.09,0.20250002,0.0137260035,0.012505151,-0.04427457,0.10930543,0.10930322,0.21729566,6.8945585e-05,5.7227524e-05,0.00036084244,0,1,0,1
71892000,71770000,71812000,0,0.01,-0.01,-2.86,0.09,0.09,0.20250002,-0.0102401925,0.013084676,-0.011769533,0.10847975,0.10847779,0.21732658,3.8665847e-05,6.313136e-05,2.5495621e-05,0,1,0,1
72292000,72170000,72212000,0,0.01,-0.03,-2.83,0.09,0.09,0.20250002,0.002355895,0.034977224,-0.071148396,0.10775353,0.1077519,0.21729861,2.0603468e-06,0.00045415672,0.00093182264,0,1,0,1
72692000,72570000,72612000,0,0.0,0.0,-2.8999999,0.09,0.09,0.20250002,0.0132768685,0.0071075144,0.016544819,0.107156456,0.10715549,0.2172699,6.580107e-05,1.8857369e-05,5.0394658e-05,0,1,0,1
73092000,72970000,73012000,0,0.0,-0.01,-2.85,0.09,0.09,0.20250002,-0.0020000602,0.018591298,0.0017893314,0.106686965,0.106687665,0.21732254,1.4998049e-06,0.00012958814,5.893005e-07,0,1,0,1
73484000,73366000,73404000,0,0.03,0.0,-2.86,0.09,0.09,0.20250002,-0.02640882,0.008825453,-0.0127334595,0.10631201,0.106313065,0.21724771,0.00026240715,2.9305382e-05,2.9853662e-05,0,1,0,1
73684000,73566000,73604000,0,0.01,0.0,-2.84,0.09,0.09,0.20250002,-0.0008986611,0.011960546,-0.04330325,0.10459958,0.104600936,0.21638142,3.0883172e-07,5.4704924e-05,0.00034664187,0,1,0,1
74084000,73970000,74004000,0,0.0,0.02,-2.8899999,0.09,0.09,0.20250002,-0.00096833025,-0.0033343304,-0.014358044,0.10483401,0.10483857,0.21658325,3.577707e-07,4.2418583e-06,3.807375e-05,0,1,0,1
74492000,74370000,74412000,0,-0.04,0.01,-2.8999999,0.09,0.09,0.20250002,0.024037156,-0.00025212672,-0.023691416,0.10511994,0.10512555,0.21678878,0.0002198574,2.4187417e-08,0.00010356314,0,1,0,1
74892000,74770000,74812000,0,-0.03,0.0,-2.87,0.09,0.09,0.20250002,0.015807707,-0.0010739381,-0.06492901,0.10531961,0.10532271,0.21697715,9.490486e-05,4.3802254e-07,0.0007771834,0,1,0,1
75292000,75170000,75212000,0,-0.03,0.02,-2.9099998,0.09,0.09,0.20250002,0.027655087,-0.022459498,-0.031012535,0.10551217,0.10551417,0.21706022,0.00028993958,0.00019122704,0.00017723696,0,1,0,1
75692000,75570000,75612000,0,-0.03,0.0,-2.9299998,0.09,0.09,0.20250002,0.03429033,-0.007368097,-0.021893978,0.10569997,0.10570078,0.2171148,0.00044496765,2.0544354e-05,8.831204e-05,0,1,0,1
76084000,75970000,76004000,0,-0.03,0.0,-2.9299998,0.09,0.09,0.20250002,0.037675492,-0.01142841,-0.031126022,0.105811074,0.10581188,0.21717858,0.0005365952,4.9373873e-05,0.0001784392,0,1,0,1
76492000,76370000,76412000,0,0.0,0.0,-3.08,0.09,0.09,0.20250002,0.017654147,-0.010119396,0.007449627,0.106129,0.106130056,0.21724904,0.00011746796,3.859498e-05,1.0218125e-05,0,1,0,1
76892000,76770000,76812000,0,0.02,0.0,-2.9399998,0.09,0.09,0.20250002,0.0031952057,-0.01657944,-0.016850471,0.10617985,0.106182575,0.21724626,3.8460553e-06,0.00010354912,5.2279545e-05,0,1,0,1
77292000,77170000,77212000,0,0.03,-0.02,-3.11,0.09,0.09,0.20250002,-0.010185834,-0.0011395924,0.043373346,0.10638708,0.106390536,0.21731372,3.900895e-05,4.882655e-07,0.00034627304,0,1,0,1
77684000,77570000,77604000,0,0.01,-0.01,-3.1299999,0.09,0.09,0.20250002,0.0006914688,-0.0057215393,0.07343078,0.106410116,0.106411554,0.21724667,1.7973072e-07,1.2305435e-05,0.000992803,0,1,0,1
78092000,77970000,78012000,0,-0.02,-0.01,-3.07,0.09,0.09,0.20250002,0.01552389,-0.0045412816,0.02320838,0.106575705,0.10657604,0.21727684,9.044882e-05,7.74029e-06,9.915993e-05,0,1,0,1
78492000,78370000,78412000,0,-0.01,-0.02,-3.05,0.09,0.09,0.20250002,0.002597286,0.00353406,0.015104055,0.10663756,0.10663801,0.21732731,2.5304007e-06,4.6848513e-06,4.1988736e-05,0,1,0,1
78892000,78770000,78812000,0,0.01,-0.01,-3.06,0.09,0.09,0.20250002,-0.00677172,0.00042051915,0.03234434,0.10668957,0.1066909,0.21729548,1.719238e-05,6.629857e-08,0.00019257767,0,1,0,1
79292000,79170000,79212000,0,0.02,0.0,-3.03,0.09,0.09,0.20250002,-0.011817786,-0.010378365,0.007395029,0.10672985,0.106731646,0.21726264,5.2341522e-05,4.0366835e-05,1.0068266e-05,0,1,0,1
79692000,79570000,79612000,0,0.0,-0.03,-3.05,0.09,0.09,0.20250002,0.0028185807,0.027182993,0.02751565,0.10676256,0.10676366,0.21731174,2.976473e-06,0.00027684143,0.00013935943,0,1,0,1
80092000,79970000,80012000,0,0.0,-0.03,-3.05,0.09,0.09,0.20250002,-0.009513078,0.020029642,0.033120632,0.106778614,0.106778756,0.2172807,3.390142e-05,0.00015028703,0.00020194637,0,1,0,1
80484000,80370000,80404000,0,0.01,-0.02,-3.03,0.09,0.09,0.20250002,-0.01942003,0.016226353,0.01584506,0.106713854,0.10671508,0.21728395,0.00014136404,9.8690645e-05,4.6218956e-05,0,1,0,1
80892000,80770000,80812000,0,0.0,-0.03,-2.99,0.09,0.09,0.20250002,-0.002862901,0.03789084,-0.020275593,0.106798194,0.10680123,0.21731126,3.0697904e-06,0.0005377151,7.56702e-05,0,1,0,1
81292000,81170000,81212000,0,0.01,-0.01,-3.03,0.09,0.09,0.20250002,-0.023560949,0.020666648,0.022646666,0.106785424,0.10679271,0.2172814,0.00020793786,0.00015997734,9.4416086e-05,0,1,0,1
81684000,81566000,81604000,0,-0.03,0.0,-3.03,0.09,0.09,0.20250002,0.017838746,0.0135379,0.06804228,0.10666083,0.10667145,0.21728595,0.00011933936,6.872494e-05,0.0008522874,0,1,0,1
82092000,81970000,82012000,0,-0.06,0.0,-2.82,0.09,0.09,0.20250002,0.036857292,0.021157375,0.09779048,0.10654996,0.10656585,0.21731465,0.0005099805,0.00016802174,0.0017602086,0,1,0,1
82484000,82370000,82404000,0,-0.06,-0.03,-2.31,0.09,0.09,0.20250002,0.035813432,0.04394453,0.018740177,0.106208004,0.1062185,0.21723913,0.00048305286,0.00072722614,6.4665e-05,0,1,0,1
82884000,82766000,82804000,0,-0.04,-0.01,-2.0,0.09,0.09,0.20250002,0.03660874,0.025927309,0.04450953,0.10608804,0.10608706,0.21730065,0.0005053161,0.0002534618,0.00036467414,0,1,0,1
83284000,83170000,83204000,0,0.0,0.0,-1.5899999,0.09,0.09,0.20250002,0.022252481,0.026693316,0.016375184,0.10598692,0.105972245,0.21728106,0.00018688077,0.00026895085,4.936402e-05,0,1,0,1
83684000,83566000,83604000,0,0.01,0.0,-1.3399999,0.09,0.09,0.20250002,0.023343096,0.025840878,0.03343916,0.10595094,0.10593344,0.2172603,0.00020571791,0.0002521398,0.00020586871,0,1,0,1
84084000,83970000,84004000,0,0.0,0.0,-1.11,0.09,0.09,0.20250002,0.026138455,0.025159936,0.03512013,0.1059267,0.10591483,0.21731864,0.0002579968,0.00023906847,0.00022702581,0,1,0,1
84492000,84370000,84412000,0,0.0,0.01,-0.95,0.09,0.09,0.20250002,0.015813416,0.010868274,0.07058376,0.10598573,0.10597877,0.21734281,9.4376526e-05,4.4582277e-05,0.0009169049,0,1,0,1
84892000,84770000,84812000,0,-0.02,-0.01,-0.75,0.09,0.09,0.20250002,0.035820365,0.026521213,0.0458346,0.10597316,0.10596706,0.2173098,0.0004843108,0.00026550694,0.00038669413,0,1,0,1
85292000,85170000,85212000,0,-0.01,-0.01,-0.59999996,0.09,0.09,0.20250002,0.024501443,0.020308897,0.036347568,0.10598116,0.10597513,0.21727744,0.00022657639,0.00015567853,0.00024321821,0,1,0,1
85684000,85570000,85604000,0,-0.02,0.0,-0.48999998,0.09,0.09,0.20250002,0.03792903,0.016198732,0.04018575,0.105939925,0.10593163,0.2172807,0.00054318,9.908236e-05,0.00029729184,0,1,0,1
86092000,85970000,86012000,0,0.03,0.0,-0.45,0.09,0.09,0.20250002,0.02247416,-0.011256706,0.080069095,0.10606655,0.106068246,0.21730673,0.00019047962,4.7785623e-05,0.0011800941,0,1,0,1
86492000,86370000,86412000,0,0.45,-0.56,-0.38,0.09,0.09,0.20250002,0.099003255,-0.07921046,0.0025537312,0.10631549,0.109100185,0.21726403,0.0036877578,0.0023003798,1.2006669e-06,0,1,0,1
86892000,86770000,86812000,0,1.22,-1.8299999,-0.29,0.09,0.09,0.20250002,0.0338943,-0.09246528,0.038685292,0.108294934,0.12487285,0.21749716,0.00042433143,0.002738731,0.00027523152,0,1,0,1
87292000,87170000,87212000,0,1.8399999,-3.1,-0.21,0.09,0.09,0.20250002,0.0526855,-0.07725263,0.05696903,0.11164543,0.1408478,0.2177702,0.0009944919,0.0016948702,0.0005961276,0,1,0,1
87692000,87570000,87612000,0,2.3999999,-4.18,-0.11,0.09,0.09,0.20250002,0.044840336,0.0107393265,0.056646265,0.112932265,0.14256465,0.21778858,0.00071216346,3.235953e-05,0.00058934203,0,1,0,1
88084000,87970000,88004000,0,2.84,-4.5099998,-0.049999997,0.09,0.09,0.20250002,0.010869026,0.04345703,0.013946749,0.11056702,0.13090469,0.21761021,4.2738146e-05,0.0005770652,3.5754172e-05,0,1,0,1
88492000,88370000,88412000,0,2.73,-4.2799997,-0.14,0.09,0.09,0.20250002,-0.051161528,0.06621456,0.06645516,0.1088168,0.11696806,0.21745837,0.00096216827,0.0014993387,0.0008123466,0,1,0,1
88892000,88770000,88812000,0,2.33,-3.98,-0.17,0.09,0.09,0.20250002,-0.039911985,0.048513174,0.07981635,0.10818721,0.110096596,0.21733731,0.00058896665,0.00085507747,0.0011724908,0,1,0,1
89292000,89170000,89212000,0,1.87,-3.59,-0.14,0.09,0.09,0.20250002,-0.027996302,0.09359193,0.04141683,0.10823945,0.10752434,0.21739493,0.00028965148,0.003258592,0.00031561987,0,1,0,1
89692000,89570000,89612000,0,1.54,-2.95,-0.07,0.09,0.09,0.20250002,0.022996306,0.07977986,-0.001498282,0.10857542,0.1079628,0.21752572,0.00019482498,0.0023581556,4.12797e-07,0,1,0,1
90092000,89970000,90012000,0,1.29,-2.25,-0.099999994,0.09,0.09,0.20250002,0.041103482,0.07702327,0.041488163,0.109286904,0.11026642,0.21779077,0.000618371,0.002152091,0.00031613235,0,1,0,1
90492000,90370000,90412000,0,0.89,-1.1,-0.13,0.09,0.09,0.20250002,-0.003744185,0.09399688,0.050032564,0.11140033,0.1161901,0.21860889,5.0337094e-06,0.0030417095,0.00045803396,0,1,0,1
90892000,90770000,90812000,0,0.31,0.13,-0.04,0.09,0.09,0.20250002,0.024900317,0.06576522,0.040737413,0.113701954,0.12302517,0.21952116,0.00021812318,0.0014062371,0.00030239215,0,1,0,1
91284000,91166000,91204000,0,-0.28,1.22,0.03,0.09,0.09,0.20250002,0.044845253,0.042309284,0.011468308,0.115051046,0.12683378,0.22019993,0.00069920154,0.0005645422,2.3891394e-05,0,1,0,1
91692000,91570000,91612000,0,-0.85999995,2.26,0.01,0.09,0.09,0.20250002,0.059105456,0.031018496,0.033532165,0.11584543,0.12801215,0.22095466,0.001206247,0.00030064242,0.00020355417,0,1,0,1
92092000,91970000,92012000,0,-1.38,3.29,0.04,0.09,0.09,0.20250002,0.047614574,-0.023682594,0.008439183,0.115875125,0.12685473,0.22140923,0.00078261754,0.00017685277,1.286664e-05,0,1,0,1
92484000,92366000,92404000,0,-1.9399999,3.86,0.11,0.09,0.09,0.20250002,0.09529805,-0.045012236,0.0090236515,0.11424051,0.12302473,0.22101831,0.0031798591,0.0006587623,1.4736569e-05,0,1,0,1
92892000,92770000,92812000,0,-2.19,3.99,0.13,0.09,0.09,0.20250002,0.119991064,-0.036524296,-0.013257392,0.11181887,0.117814586,0.22013956,0.0051504206,0.00045292324,3.1935822e-05,0,1,0,1
93284000,93170000,93204000,0,-1.8499999,3.98,0.049999997,0.09,0.09,0.20250002,0.14388144,-0.031938314,0.030134968,0.109592065,0.11261223,0.21922724,0.0075559733,0.0003623251,0.00016569407,0,1,0,1
93692000,93570000,93612000,0,-1.3199999,3.26,-0.07,0.09,0.09,0.20250002,0.12609994,-0.13083267,-0.012497097,0.10835571,0.10901593,0.21853483,0.0058699986,0.006280619,2.8586279e-05,0,1,0,1
94092000,93970000,94012000,0,-0.90999997,1.64,0.17999999,0.09,0.09,0.20250002,0.124036014,-0.114857435,-0.038342997,0.1082266,0.10783196,0.21795966,0.0056861932,0.004893625,0.00026980875,0,1,0,1
94492000,94370000,94412000,0,-0.35999998,-0.16,0.19,0.09,0.09,0.20250002,0.10141197,-0.07253493,-0.05041334,0.11034384,0.11007747,0.21785723,0.0037281236,0.0019118596,0.00046663676,0,1,0,1
94892000,94770000,94812000,0,0.26,-1.0799999,0.14,0.09,0.09,0.20250002,0.11358565,0.07111859,-0.032897986,0.11108658,0.11153394,0.21769238,0.0046456377,0.0018139248,0.00019886365,0,1,0,1
95292000,95170000,95212000,0,0.52,-0.97999996,0.0,0.09,0.09,0.20250002,0.006968856,0.09512669,-0.033901878,0.110142715,0.110591434,0.21735355,1.76371e-05,0.0032729793,0.0002115148,0,1,0,1
95684000,95570000,95604000,0,0.17,-0.71999997,-0.03,0.09,0.09,0.20250002,0.049297825,0.07808173,-0.026573906,0.10898647,0.1088569,0.21711352,0.000891955,0.002240283,0.00013010198,0,1,0,1
96084000,95966000,96004000,0,0.0,-0.19999999,-0.08,0.09,0.09,0.20250002,0.04787749,0.047395274,-0.048672616,0.108019955,0.10785589,0.21694514,0.00084882614,0.00083307904,0.00043679684,0,1,0,1
96484000,96370000,96404000,0,0.089999996,0.0,0.049999997,0.09,0.09,0.20250002,0.06922718,0.036573358,0.02072423,0.106974386,0.10695839,0.21682186,0.0017919814,0.0005002359,7.923439e-05,0,1,0,1
96892000,96770000,96812000,0,0.19,0.32,0.12,0.09,0.09,0.20250002,0.05468221,0.052568883,-0.01806023,0.106150344,0.10636787,0.2167947,0.0011267582,0.0010392189,6.0180788e-05,0,1,0,1
97292000,97170000,97212000,0,0.38,0.96999997,0.03,0.09,0.09,0.20250002,0.0815883,0.06784397,0.04771643,0.10594009,0.10638228,0.21685584,0.0025133642,0.0017306659,0.0004199763,0,1,0,1
97684000,97566000,97604000,0,0.81,2.0,0.089999996,0.09,0.09,0.20250002,0.059980094,0.08475876,-0.042681526,0.10660853,0.10696054,0.2169367,0.0013498401,0.0026866158,0.00033589758,0,1,0,1
98092000,97970000,98012000,0,1.41,3.58,0.0,0.09,0.09,0.20250002,0.07011497,0.09222317,0.0028420985,0.108707674,0.10824897,0.2174637,0.0018089281,0.0031427967,1.4857695e-06,0,1,0,1
98484000,98370000,98404000,0,2.11,5.5699997,0.47,0.09,0.09,0.20250002,0.0804193,0.05698967,0.040791243,0.11147714,0.10917194,0.21845476,0.0023205706,0.0011899843,0.00030467185,0,1,0,1
98892000,98770000,98812000,0,2.8999999,8.0,0.95,0.09,0.09,0.20250002,0.05915618,0.08459282,-0.034523666,0.11568414,0.110729426,0.22009896,0.0012100029,0.0025850201,0.00021660866,0,1,0,1
99284000,99170000,99204000,0,3.6299999,10.65,1.17,0.09,0.09,0.20250002,0.04386568,0.052184105,-0.04723537,0.1193146,0.11215859,0.22197855,0.0006450838,0.00097118947,0.0004020533,0,1,0,1
99684000,99566000,99604000,0,4.24,13.41,1.3299999,0.09,0.09,0.20250002,0.06810713,0.0037994385,-0.12463021,0.12171903,0.11347136,0.22376813,0.0015243568,5.088767e-06,0.0027765688,0,1,0,1
100092000,99970000,100012000,0,4.71,15.679999,1.17,0.09,0.09,0.20250002,-0.02812481,-0.0814209,-0.122226715,0.120939456,0.11364392,0.22437856,0.00026162012,0.0023333805,0.0026632438,0,1,0,1
100492000,100370000,100412000,0,4.75,16.76,0.56,0.09,0.09,0.20250002,-0.043903828,-0.16516304,-0.15662241,0.11681782,0.11208758,0.2229685,0.00066001783,0.009734827,0.0044007255,0,1,0,1
100892000,100770000,100812000,0,4.62,16.93,-0.12,0.09,0.09,0.20250002,-0.07333946,-0.2009182,-0.16541019,0.11261203,0.11012493,0.22095135,0.0019105158,0.014662663,0.004953223,0,1,0,1
101284000,101166000,101204000,0,4.47,16.66,-0.42,0.09,0.09,0.20250002,-0.06680918,-0.14743423,-0.07388443,0.10959041,0.10843479,0.21903922,0.0016291448,0.008018405,0.0009968824,0,1,0,1
101684000,101566000,101604000,0,4.35,16.3,-0.62,0.09,0.09,0.20250002,-0.073792934,-0.15342522,-0.10100627,0.10800126,0.10762161,0.21777286,0.0020167902,0.00874891,0.0018739279,0,1,0,1
102084000,101970000,102004000,0,4.2599998,15.83,-0.78999996,0.09,0.09,0.20250002,-0.10071182,-0.11433792,-0.014785767,0.107296616,0.10732877,0.21687219,0.0037812453,0.004872192,4.0322164e-05,0,1,0,1
102492000,102370000,102412000,0,4.17,15.389999,-0.72999996,0.09,0.09,0.20250002,-0.10662699,-0.111590385,-0.020988047,0.10723681,0.1074485,0.21639608,0.004240825,0.004635677,8.142441e-05,0,1,0,1
102892000,102770000,102812000,0,4.13,14.98,-0.61,0.09,0.09,0.20250002,-0.14116716,-0.076519966,0.0036826134,0.10737853,0.107632905,0.21615954,0.0074235206,0.002176028,2.5095615e-06,0,1,0,1
103292000,103170000,103212000,0,4.04,14.66,-0.42,0.09,0.09,0.20250002,-0.09910774,-0.051894188,-0.0046260953,0.10761389,0.10784318,0.21610866,0.003650958,0.0009988603,3.9611105e-06,0,1,0,1
103692000,103570000,103612000,0,4.0099998,14.429999,-0.22999999,0.09,0.09,0.20250002,-0.104640484,-0.03588295,-0.0044943094,0.10782293,0.107996486,0.21623954,0.004062079,0.00047689927,3.736378e-06,0,1,0,1
104092000,103970000,104012000,0,4.0099998,14.28,-0.08,0.09,0.09,0.20250002,-0.119515896,-0.004114151,0.004864238,0.107940115,0.108053945,0.21634693,0.0052933237,6.265848e-06,4.374606e-06,0,1,0,1
104484000,104370000,104404000,0,4.0,14.21,0.04,0.09,0.09,0.20250002,-0.10760474,0.012869835,0.0026055425,0.10788995,0.10794641,0.21649638,0.0042928117,6.1375875e-05,1.2543123e-06,0,1,0,1
104892000,104770000,104812000,0,4.0,14.2,0.12,0.09,0.09,0.20250002,-0.105484724,0.021766663,0.018512495,0.107916154,0.10793068,0.21667032,0.004124323,0.0001755896,6.3268926e-05,0,1,0,1
105292000,105170000,105212000,0,4.0099998,14.25,0.19,0.09,0.09,0.20250002,-0.10469794,0.0018062592,-0.0043742955,0.10779771,0.10777153,0.21677431,0.0040674927,1.2109217e-06,3.5307617e-06,0,1,0,1
105692000,105570000,105612000,0,4.02,14.2699995,0.17999999,0.09,0.09,0.20250002,-0.10615802,0.024409294,0.024076208,0.10766215,0.10760172,0.21686254,0.004186996,0.00022148852,0.0001069182,0,1,0,1
106084000,105970000,106004000,0,4.0499997,14.299999,0.17999999,0.09,0.09,0.20250002,-0.08302808,0.020874023,0.0029281825,0.1074726,0.107400574,0.2169598,0.0025657373,0.00016228028,1.5808001e-06,0,1,0,1
106492000,106370000,106412000,0,4.87,14.11,0.22999999,0.09,0.09,0.20250002,0.06028509,-0.042607307,0.070253104,0.107578814,0.10810837,0.21699171,0.0013513041,0.00067169,0.00090980413,0,1,0,1
106884000,106770000,106804000,0,7.08,13.33,0.71999997,0.09,0.09,0.20250002,0.0761714,-0.11377716,-0.02342993,0.10803167,0.11137226,0.21693383,0.0021482895,0.0046493597,0.00010122195,0,1,0,1
107292000,107170000,107212000,0,10.0199995,11.57,1.0,0.09,0.09,0.20250002,0.11342049,-0.21519756,-0.018559992,0.11012326,0.119814,0.2176867,0.004672657,0.015460627,6.3297084e-05,0,1,0,1
107692000,107570000,107612000,0,12.92,8.59,1.04,0.09,0.09,0.20250002,0.056337357,-0.28017426,-0.039069057,0.114293486,0.12980534,0.21992269,0.0011107887,0.02418933,0.0002776232,0,1,0,1
108084000,107970000,108004000,0,15.08,4.48,0.96999997,0.09,0.09,0.20250002,-0.13532639,-0.14176512,-0.15060139,0.12054358,0.13436025,0.22353354,0.006076883,0.005983123,0.0040585906,0,1,0,1
108492000,108370000,108412000,0,15.849999,-0.03,0.71,0.09,0.09,0.20250002,-0.15622997,-0.15806937,-0.122380495,0.12719107,0.13265575,0.22796614,0.007675949,0.007534065,0.0026279318,0,1,0,1
108892000,108770000,108812000,0,15.37,-4.22,0.55,0.09,0.09,0.20250002,-0.14904976,-0.016981602,-0.1527847,0.12999967,0.12746301,0.23103237,0.0068356576,9.049678e-05,0.0040415404,0,1,0,1
109292000,109170000,109212000,0,14.03,-7.7,0.31,0.09,0.09,0.20250002,-0.16524315,-0.0031394958,-0.11339775,0.13008288,0.12312511,0.2328433,0.008396277,3.2020873e-06,0.0022090478,0,1,0,1
109684000,109570000,109604000,0,12.11,-10.469999,0.02,0.09,0.09,0.20250002,-0.09493542,0.12053108,-0.10720414,0.12875766,0.120274305,0.23348922,0.002799906,0.004831536,0.0019688664,0,1,0,1
110092000,109970000,110012000,0,9.96,-12.34,-0.42,0.09,0.09,0.20250002,-0.038576126,0.08949852,-0.04947102,0.12786904,0.119127676,0.23307271,0.00046551297,0.0026895464,0.0004200203,0,1,0,1
110492000,110370000,110412000,0,8.15,-13.38,-0.81,0.09,0.09,0.20250002,0.022655487,0.11938095,-0.016476214,0.12676078,0.11831729,0.23092875,0.00016196526,0.004818167,4.702154e-05,0,1,0,1
110884000,110766000,110804000,0,6.8799996,-13.7699995,-0.97999996,0.09,0.09,0.20250002,0.08625507,0.09189224,-0.045653403,0.1256687,0.11756805,0.22792168,0.0023681116,0.002872952,0.00036578058,0,1,0,1
111292000,111170000,111212000,0,6.1299996,-13.84,-1.05,0.09,0.09,0.20250002,0.075416565,0.07038784,-0.025426745,0.12524107,0.117336005,0.22482666,0.0018165474,0.0016889779,0.00011502539,0,1,0,1
111684000,111566000,111604000,0,5.7599998,-13.719999,-1.0799999,0.09,0.09,0.20250002,0.08865929,0.033429146,0.07140589,0.12410842,0.11686352,0.22201918,0.00253342,0.00038250015,0.00091862347,0,1,0,1
112084000,111966000,112004000,0,5.67,-13.5,-0.95,0.09,0.09,0.20250002,0.091982365,-0.020709038,0.09044385,0.123066336,0.1166541,0.21993466,0.002749982,0.000147055,0.001487731,0,1,0,1
112484000,112370000,112404000,0,5.8399997,-13.309999,-0.74,0.09,0.09,0.20250002,0.05323744,-0.004473686,0.06529379,0.1218213,0.11641334,0.21857679,0.00093061716,6.87683e-06,0.00078018877,0,1,0,1
112892000,112770000,112812000,0,6.12,-13.08,-0.56,0.09,0.09,0.20250002,0.07612896,-0.014745712,0.067227215,0.12064181,0.11619257,0.21769245,0.0019215953,7.485368e-05,0.00083043735,0,1,0,1
113284000,113170000,113204000,0,6.54,-12.849999,-0.38,0.09,0.09,0.20250002,0.030554295,-0.023804665,0.045401394,0.11902378,0.11550771,0.21712634,0.00031374063,0.00019623351,0.00037973962,0,1,0,1
113692000,113570000,113612000,0,6.99,-12.62,-0.29,0.09,0.09,0.20250002,0.025963306,-0.026299477,0.06665856,0.11782031,0.1150312,0.21693093,0.00022885468,0.000240513,0.0008193139,0,1,0,1
114092000,113970000,114012000,0,7.47,-12.389999,-0.22999999,0.09,0.09,0.20250002,-0.010324955,-0.040637016,0.08024256,0.11644822,0.11427659,0.21692863,3.6618745e-05,0.0005780246,0.0011872785,0,1,0,1
114492000,114370000,114412000,0,7.8799996,-12.179999,-0.16,0.09,0.09,0.20250002,0.008303642,-0.03361702,0.059029274,0.11516023,0.11345416,0.2169371,2.3949406e-05,0.00039843548,0.00064248213,0,1,0,1
114892000,114770000,114812000,0,8.3,-12.0,-0.17999999,0.09,0.09,0.20250002,-0.02217102,-0.018618584,0.10819887,0.11393461,0.11259377,0.2169827,0.00017257415,0.00012315127,0.0021581438,0,1,0,1
115292000,115170000,115212000,0,8.62,-11.82,-0.089999996,0.09,0.09,0.20250002,0.0010461807,-0.01783657,0.017986193,0.112814926,0.11174002,0.21711348,3.8806715e-07,0.00011388694,5.9600752e-05,0,1,0,1
115684000,115570000,115604000,0,8.929999,-11.639999,-0.13,0.09,0.09,0.20250002,-0.030574799,-0.03937626,0.055541612,0.11169689,0.110827245,0.2171135,0.00033476966,0.000559606,0.0005683425,0,1,0,1
116092000,115970000,116012000,0,9.139999,-11.5199995,-0.14,0.09,0.09,0.20250002,-0.011543274,-0.02101326,0.055457868,0.11089168,0.11016713,0.21720088,4.8063903e-05,0.00016032263,0.000566402,0,1,0,1
116492000,116370000,116412000,0,9.29,-11.429999,-0.19,0.09,0.09,0.20250002,-0.0030126572,-0.010137558,0.10313947,0.11005706,0.10946038,0.21721788,3.2986898e-06,3.7555168e-05,0.0019589087,0,1,0,1
116884000,116766000,116804000,0,9.42,-11.32,-0.19,0.09,0.09,0.20250002,-0.026190758,-0.04386425,0.08490897,0.109278165,0.10878658,0.21725549,0.00025108614,0.0007074668,0.0013273833,0,1,0,1
117284000,117170000,117204000,0,9.45,-11.3,-0.19999999,0.09,0.09,0.20250002,0.02670288,-0.0044546127,0.093936704,0.108708456,0.108307414,0.21725945,0.00026236923,7.328612e-06,0.0016246206,0,1,0,1
117692000,117570000,117612000,0,9.51,-11.2699995,-0.16,0.09,0.09,0.20250002,0.008730888,-0.0004014969,0.04914005,0.108322896,0.108000785,0.21729897,2.8148586e-05,5.9703176e-08,0.0004445018,0,1,0,1
118084000,117966000,118004000,0,9.5199995,-11.25,-0.12,0.09,0.09,0.20250002,0.016687393,-0.00496006,0.007704377,0.10787014,0.107621945,0.21730843,0.00010326086,9.143932e-06,1.0925932e-05,0,1,0,1
118492000,118370000,118412000,0,9.51,-11.25,-0.14999999,0.09,0.09,0.20250002,0.03368187,0.0004787445,0.046273746,0.10767483,0.10748923,0.21733749,0.00042144238,8.529089e-08,0.00039408932,0,1,0,1
118884000,118766000,118804000,0,9.48,-11.259999,-0.14999999,0.09,0.09,0.20250002,0.05055046,0.0032949448,0.057900377,0.10738747,0.10725867,0.21733911,0.00095182395,4.048777e-06,0.0006169996,0,1,0,1
119292000,119170000,119212000,0,9.469999,-11.28,-0.099999994,0.09,0.09,0.20250002,0.0398283,0.007332802,0.016877465,0.10733323,0.10725276,0.2173633,0.00059116585,2.0053556e-05,5.2418935e-05,0,1,0,1
119692000,119570000,119612000,0,9.429999,-11.3,-0.11,0.09,0.09,0.20250002,0.05708599,0.007431984,0.03459484,0.10724014,0.10720038,0.21732886,0.0012155188,2.0609772e-05,0.00022027505,0,1,0,1
120092000,119970000,120012000,0,9.41,-11.33,-0.04,0.09,0.09,0.20250002,0.057743073,0.01976204,-0.019653976,0.107183725,0.10717507,0.2172939,0.0012443167,0.0001457571,7.1107155e-05,0,1,0,1
120484000,120370000,120404000,0,9.38,-11.349999,-0.049999997,0.09,0.09,0.20250002,0.06959152,0.015277863,0.0023579225,0.107089184,0.10710363,0.21729404,0.001808952,8.71728e-05,1.0234608e-06,0,1,0,1
120892000,120770000,120812000,0,9.349999,-11.389999,-0.04,0.09,0.09,0.20250002,0.0807066,0.025815964,0.005106181,0.10717433,0.10720536,0.2173169,0.002431013,0.00024866816,4.7990898e-06,0,1,0,1
121292000,121170000,121212000,0,9.26,-11.49,-0.01,0.09,0.09,0.20250002,0.091264725,0.04461384,-0.015833236,0.107175775,0.10721799,0.2172815,0.0031086314,0.00074255996,4.615052e-05,0,1,0,1
121692000,121570000,121612000,0,9.12,-11.62,-0.06,0.09,0.09,0.20250002,0.06920719,0.03580761,0.045907695,0.10718506,0.10723603,0.21733092,0.0017874265,0.00047826648,0.00038789076,0,1,0,1
122092000,121970000,122012000,0,8.87,-11.759999,0.0,0.09,0.09,0.20250002,0.08889961,-0.016282082,-0.015195593,0.10721024,0.107270956,0.21730264,0.0029486513,9.885478e-05,4.2504053e-05,0,1,0,1
122492000,122370000,122412000,0,8.58,-11.98,0.0,0.09,0.09,0.20250002,0.087184906,-0.008784294,-0.0078956485,0.10723301,0.10730788,0.21727555,0.0028353985,2.8763525e-05,1.1476904e-05,0,1,0,1
122884000,122770000,122804000,0,8.2699995,-12.259999,-0.01,0.09,0.09,0.20250002,0.07573223,0.043743134,-0.0012518074,0.107186094,0.107278146,0.21728434,0.0021403413,0.00071345817,2.8847396e-07,0,1,0,1
123292000,123170000,123212000,0,7.97,-12.469999,-0.01,0.09,0.09,0.20250002,0.035428524,0.020098686,-0.0059804823,0.10728698,0.1074024,0.21731783,0.00046797117,0.00015044624,6.5832005e-06,0,1,0,1
123684000,123566000,123604000,0,7.62,-12.65,0.0,0.09,0.09,0.20250002,0.07295084,0.0022563934,-0.021590412,0.10719509,0.1073292,0.21725291,0.0019858466,1.8974562e-06,8.582548e-05,0,1,0,1
124084000,123966000,124004000,0,7.31,-12.84,0.0,0.09,0.09,0.20250002,0.07573366,0.017983437,-0.027736552,0.10717197,0.10732126,0.21724747,0.0021407043,0.00012053679,0.00014164792,0,1,0,1
124492000,124370000,124412000,0,7.0299997,-12.98,0.03,0.09,0.09,0.20250002,0.08173752,0.0039224625,-0.062432192,0.10719337,0.107346326,0.2172831,0.0024930728,5.7331113e-06,0.0007175484,0,1,0,1
124884000,124766000,124804000,0,6.79,-13.11,0.0,0.09,0.09,0.20250002,0.088116646,0.014763832,-0.025589846,0.10702718,0.107169524,0.21729176,0.002901896,8.1355494e-05,0.000120545796,0,1,0,1
125292000,125170000,125212000,0,6.6099997,-13.19,0.03,0.09,0.09,0.20250002,0.06625843,-0.008952141,-0.050214015,0.10701336,0.1071367,0.21731976,0.0016409837,2.992096e-05,0.00046409905,0,1,0,1
125692000,125570000,125612000,0,6.46,-13.259999,0.02,0.09,0.09,0.20250002,0.058666706,-0.014165878,-0.039291006,0.10691222,0.10700822,0.21728726,0.001287704,7.501185e-05,0.00028419212,0,1,0,1
126092000,125970000,126012000,0,6.35,-13.33,0.01,0.09,0.09,0.20250002,0.052467346,0.009188652,-0.02712849,0.106812194,0.10688035,0.21733436,0.0010309019,3.1598447e-05,0.00013545119,0,1,0,1
126484000,126366000,126404000,0,6.2799997,-13.349999,0.03,0.09,0.09,0.20250002,0.04500532,-0.0090818405,-0.04517579,0.106653616,0.106695965,0.2172527,0.0007596476,3.092144e-05,0.00037575638,0,1,0,1
126884000,126770000,126804000,0,6.23,-13.389999,0.089999996,0.09,0.09,0.20250002,0.043420315,0.0036058426,-0.10139703,0.106591456,0.10661411,0.21730813,0.0007074953,4.8781912e-06,0.0018924938,0,1,0,1
127284000,127166000,127204000,0,6.18,-13.41,0.04,0.09,0.09,0.20250002,0.060792923,0.0014724731,-0.041298978,0.10653478,0.106545426,0.21728264,0.001387633,8.139916e-07,0.00031398836,0,1,0,1
127692000,127570000,127612000,0,6.19,-13.42,0.049999997,0.09,0.09,0.20250002,0.034787178,0.00014400482,-0.0504487,0.10655621,0.10656309,0.21730249,0.00045427584,7.784079e-09,0.0004684845,0,1,0,1
128084000,127970000,128004000,0,6.2,-13.41,0.07,0.09,0.09,0.20250002,0.0319767,-0.019257545,-0.06999399,0.106433555,0.10644425,0.21729967,0.0003842808,0.00013936049,0.0009018252,0,1,0,1
128484000,128366000,128404000,0,6.24,-13.42,0.07,0.09,0.09,0.20250002,0.0011134148,-0.017810822,-0.061000735,0.106398776,0.1064176,0.2172753,4.6605516e-07,0.00011923793,0.00068504596,0,1,0,1
128892000,128770000,128812000,0,6.24,-13.4,0.049999997,0.09,0.09,0.20250002,0.02379322,-0.044750214,-0.029756695,0.106433794,0.106464736,0.21729687,0.0002127585,0.00075239246,0.00016299561,0,1,0,1
129292000,129170000,129212000,0,6.2599998,-13.429999,0.02,0.09,0.09,0.20250002,0.024834633,-0.010389328,-0.0072437115,0.106401466,0.10644552,0.21726212,0.0002318611,4.056089e-05,9.660471e-06,0,1,0,1
129692000,129570000,129612000,0,6.2599998,-13.42,0.06,0.09,0.09,0.20250002,0.04343605,-0.019207954,-0.051541436,0.106370084,0.10642553,0.21731059,0.0007094816,0.00013866804,0.00048898114,0,1,0,1
130092000,129970000,130012000,0,6.29,-13.429999,0.03,0.09,0.09,0.20250002,0.027353287,-0.0037231445,-0.020554429,0.10634187,0.10640545,0.21727931,0.00028143282,5.210938e-06,7.777722e-05,0,1,0,1
