timestamp,rollspeed_integ,pitchspeed_integ,yawspeed_integ,wheel_rate_integ
3564000,0.0,0.0,0.0,0.0
3568000,0.0,0.0,0.0,0.0
3764000,0.0,0.0,0.0,0.0
3964000,0.0,0.0,0.0,0.0
4164000,0.0,0.0,0.0,0.0
4364000,0.0,0.0,0.0,0.0
4564000,0.0,0.0,0.0,0.0
4760000,0.0,0.0,0.0,0.0
4964000,0.0,0.0,0.0,0.0
5164000,0.0,0.0,0.0,0.0
5364000,0.0,0.0,0.0,0.0
5564000,0.0,0.0,0.0,0.0
5764000,0.0,0.0,0.0,0.0
5964000,0.0,0.0,0.0,0.0
6164000,0.0,0.0,0.0,0.0
6364000,0.0,0.0,0.0,0.0
6564000,0.0,0.0,0.0,0.0
6764000,0.0,0.0,0.0,0.0
6964000,0.0,0.0,0.0,0.0
7164000,0.0,0.0,0.0,0.0
7364000,0.0,0.0,0.0,0.0
7564000,0.0,0.0,0.0,0.0
7764000,0.0,0.0,0.0,0.0
7964000,0.0,0.0,0.0,0.0
8164000,0.0,0.0,0.0,0.0
8364000,0.0,0.0,0.0,0.0
8564000,0.0,0.0,0.0,0.0
8764000,0.0,0.0,0.0,0.0
8964000,0.0,0.0,0.0,0.0
9164000,0.0,0.0,0.0,0.0
9364000,0.0,0.0,0.0,0.0
9560000,0.0,0.0,0.0,0.0
9764000,0.0,0.0,0.0,0.0
9960000,0.0,0.0,0.0,0.0
10160000,0.0,0.0,0.0,0.0
10364000,0.0,0.0,0.0,0.0
10564000,0.0,0.0,0.0,0.0
10764000,0.0,0.0,0.0,0.0
10964000,0.0,0.0,0.0,0.0
11164000,0.0,0.0,0.0,0.0
11364000,0.0,0.0,0.0,0.0
11564000,0.0,0.0,0.0,0.0
11764000,0.0,0.0,0.0,0.0
11964000,0.0,0.0,0.0,0.0
12164000,0.0,0.0,0.0,0.0
12364000,0.0,0.0,0.0,0.0
12564000,0.0,0.0,0.0,0.0
12764000,0.0,0.0,0.0,0.0
12964000,0.0,0.0,0.0,0.0
13164000,0.0,0.0,0.0,0.0
13364000,0.0,0.0,0.0,0.0
13564000,0.0,0.0,0.0,0.0
13764000,0.0,0.0,0.0,0.0
13964000,0.0,0.0,0.0,0.0
14164000,0.0,0.0,0.0,0.0
14364000,0.0,0.0,0.0,0.0
14564000,0.0,0.0,0.0,0.0
14764000,0.0,0.0,0.0,0.0
14960000,0.0,0.0,0.0,0.0
15164000,0.0,0.0,0.0,0.0
15360000,0.0,0.0,0.0,0.0
15564000,0.0,0.0,0.0,0.0
15760000,0.0,0.0,0.0,0.0
15964000,0.0,0.0,0.0,0.0
16164000,0.0,0.0,0.0,0.0
16364000,0.0,0.0,0.0,0.0
16564000,0.0,0.0,0.0,0.0
16764000,0.0,0.0,0.0,0.0
16964000,0.0,0.0,0.0,0.0
17164000,0.0,0.0,0.0,0.0
17360000,0.0,0.0,0.0,0.0
17560000,0.0,0.0,0.0,0.0
17760000,0.0,0.0,0.0,0.0
17964000,0.0,0.0,0.0,0.0
18160000,0.0,0.0,0.0,0.0
18364000,0.0,0.0,0.0,0.0
18564000,0.0,0.0,0.0,0.0
18764000,0.0,0.0,0.0,0.0
18960000,0.0,0.0,0.0,0.0
19164000,0.0,0.0,0.0,0.0
19364000,0.0,0.0,0.0,0.0
19564000,0.0,0.0,0.0,0.0
19764000,0.0,0.0,0.0,0.0
19964000,0.0,0.0,0.0,0.0
20164000,0.0,0.0,0.0,0.0
20364000,0.0,0.0,0.0,0.0
20560000,0.0,0.0,0.0,0.0
20764000,0.0,0.0,0.0,0.0
20964000,0.0,0.0,0.0,0.0
21164000,0.0,0.0,0.0,0.0
21360000,0.0,0.0,0.0,0.0
21564000,0.0,0.0,0.0,0.0
21764000,0.0,0.0,0.0,0.0
21964000,0.0,0.0,0.0,0.0
22164000,0.0,0.0,0.0,0.0
22364000,0.0,0.0,0.0,0.0
22564000,0.0,0.0,0.0,0.0
22764000,0.0,0.0,0.0,0.0
22964000,0.0,0.0,0.0,0.0
23164000,0.0,0.0,0.0,0.0
23364000,0.0,0.0,0.0,0.0
23564000,0.0,0.0,0.0,0.0
23764000,0.0,0.0,0.0,0.0
23964000,0.0,0.0,0.0,0.0
24164000,0.0,0.0,0.0,0.0
24364000,0.0,0.0,0.0,0.0
24564000,0.0,0.0,0.0,0.0
24764000,0.0,0.0,0.0,0.0
24964000,0.0,0.0,0.0,0.0
25164000,0.0,0.0,0.0,0.0
25364000,0.0,0.0,0.0,0.0
25564000,0.0,0.0,0.0,0.0
25764000,0.0,0.0,0.0,0.0
25960000,0.0,0.0,0.0,0.0
26164000,0.0,0.0,0.0,0.0
26364000,0.0,0.0,0.0,0.0
26564000,0.0,0.0,0.0,0.0
26760000,0.0,0.0,0.0,0.0
26964000,0.0,0.0,0.0,0.0
27164000,0.0,0.0,0.0,0.0
27364000,0.0,0.0,0.0,0.0
27564000,0.0,0.0,0.0,0.0
27764000,0.0,0.0,0.0,0.0
27964000,0.0,0.0,0.0,0.0
28164000,0.0,0.0,0.0,0.0
28364000,0.0,0.0,0.0,0.0
28560000,0.0,0.0,0.0,0.0
28764000,0.0,0.0,0.0,0.0
28964000,0.0,0.0,0.0,0.0
29160000,0.0,0.0,0.0,0.0
29364000,0.0,0.0,0.0,0.0
29564000,0.0,0.0,0.0,0.0
29764000,0.0,0.0,0.0,0.0
29964000,0.0,0.0,0.0,0.0
30164000,0.0,0.0,0.0,0.0
30364000,0.0,0.0,0.0,0.0
30564000,0.0,0.0,0.0,0.0
30764000,0.0,0.0,0.0,0.0
30960000,0.0,0.0,0.0,0.0
31164000,0.0,0.0,0.0,0.0
31364000,0.0,0.0,0.0,0.0
31564000,0.0,0.0,0.0,0.0
31764000,0.0,0.0,0.0,0.0
31964000,0.0,0.0,0.0,0.0
32164000,0.0,0.0,0.0,0.0
32364000,0.0,0.0,0.0,0.0
32564000,0.0,0.0,0.0,0.0
32760000,0.0,0.0,0.0,0.0
32964000,0.0,0.0,0.0,0.0
33164000,0.0,0.0,0.0,0.0
33360000,0.0,0.0,0.0,0.0
33564000,0.0,0.0,0.0,0.0
33764000,0.0,0.0,0.0,0.0
33964000,0.0,0.0,0.0,0.0
34160000,0.0,0.0,0.0,0.0
34364000,0.0,0.0,0.0,0.0
34564000,0.0,0.0,0.0,0.0
34764000,0.0,0.0,0.0,0.0
34960000,0.0,0.0,0.0,0.0
35164000,0.0,0.0,0.0,0.0
35364000,0.0,0.0,0.0,0.0
35560000,0.0,0.0,0.0,0.0
35764000,0.0,0.0,0.0,0.0
35964000,0.0,0.0,0.0,0.0
36164000,0.0,0.0,0.0,0.0
36364000,0.0,0.0,0.0,0.0
36564000,0.0,0.0,0.0,0.0
36764000,0.0,0.0,0.0,0.0
36964000,0.0,0.0,0.0,0.0
37164000,0.0,0.0,0.0,0.0
37364000,0.0,0.0,0.0,0.0
37564000,0.0,0.0,0.0,0.0
37760000,0.0,0.0,0.0,0.0
37964000,0.0,0.0,0.0,0.0
38164000,0.0,0.0,0.0,0.0
38364000,0.0,0.0,0.0,0.0
38564000,0.0,0.0,0.0,0.0
38764000,0.0,0.0,0.0,0.0
38964000,0.0,0.0,0.0,0.0
39164000,0.0,0.0,0.0,0.0
39364000,0.0,0.0,0.0,0.0
39564000,0.0,0.0,0.0,0.0
39764000,0.0,0.0,0.0,0.0
39960000,0.0,0.0,0.0,0.0
40160000,0.0,0.0,0.0,0.0
40364000,0.0,0.0,0.0,0.0
40560000,0.0,0.0,0.0,0.0
40760000,0.0,0.0,0.0,0.0
40964000,0.0,0.0,0.0,0.0
41164000,0.0,0.0,0.0,0.0
41364000,0.0,0.0,0.0,0.0
41564000,0.0,0.0,0.0,0.0
41764000,0.0,0.0,0.0,0.0
41964000,0.0,0.0,0.0,0.0
42164000,0.0,0.0,0.0,0.0
42364000,0.0,0.0,0.0,0.0
42564000,0.0,0.0,0.0,0.0
42760000,0.0,0.0,0.0,0.0
42964000,0.0,0.0,0.0,0.0
43164000,0.0,0.0,0.0,0.0
43364000,0.0,0.0,0.0,0.0
43564000,0.0,0.0,0.0,0.0
43764000,0.0,0.0,0.0,0.0
43964000,0.0,0.0,0.0,0.0
44164000,0.0,0.0,0.0,0.0
44364000,0.0,0.0,0.0,0.0
44560000,0.0,0.0,0.0,0.0
44764000,0.0,0.0,0.0,0.0
44964000,0.0,0.0,0.0,0.0
45164000,0.0,0.0,0.0,0.0
45364000,0.0,0.0,0.0,0.0
45564000,0.0,0.0,0.0,0.0
45764000,0.0,0.0,0.0,0.0
45964000,0.0,0.0,0.0,0.0
46164000,0.0,0.0,0.0,0.0
46364000,0.0,0.0,0.0,0.0
46564000,0.0,0.0,0.0,0.0
46760000,0.0,0.0,0.0,0.0
46960000,0.0,0.0,0.0,0.0
47160000,0.0,0.0,0.0,0.0
47364000,0.0,0.0,0.0,0.0
47564000,0.0,0.0,0.0,0.0
47764000,0.0,0.0,0.0,0.0
47964000,0.0,0.0,0.0,0.0
48160000,0.0,0.0,0.0,0.0
48364000,0.0,0.0,0.0,0.0
48560000,0.0,0.0,0.0,0.0
48760000,0.0,0.0,0.0,0.0
48964000,0.0,0.0,0.0,0.0
49164000,0.0,0.0,0.0,0.0
49364000,0.0,0.0,0.0,0.0
49564000,0.0,0.0,0.0,0.0
49760000,0.0,0.0,0.0,0.0
49960000,0.0,0.0,0.0,0.0
50164000,0.0,0.0,0.0,0.0
50364000,0.0,0.0,0.0,0.0
50564000,0.0,0.0,0.0,0.0
50764000,0.0,0.0,0.0,0.0
50964000,0.0,0.0,0.0,0.0
51164000,0.0,0.0,0.0,0.0
51364000,0.0,0.0,0.0,0.0
51560000,0.0,0.0,0.0,0.0
51764000,0.0,0.0,0.0,0.0
51964000,0.0,0.0,0.0,0.0
52164000,0.0,0.0,0.0,0.0
52364000,0.0,0.0,0.0,0.0
52564000,0.0,0.0,0.0,0.0
52764000,0.0,0.0,0.0,0.0
52964000,0.0,0.0,0.0,0.0
53164000,0.0,0.0,0.0,0.0
53364000,0.0,0.0,0.0,0.0
53560000,0.0,0.0,0.0,0.0
53764000,0.0,0.0,0.0,0.0
53964000,0.0,0.0,0.0,0.0
54164000,0.0,0.0,0.0,0.0
54364000,0.0,0.0,0.0,0.0
54564000,0.0,0.0,0.0,0.0
54764000,0.0,0.0,0.0,0.0
54960000,0.0,0.0,0.0,0.0
55164000,0.0,0.0,0.0,0.0
55364000,0.0,0.0,0.0,0.0
55560000,0.0,0.0,0.0,0.0
55764000,0.0,0.0,0.0,0.0
55964000,0.0,0.0,0.0,0.0
56164000,0.0,0.0,0.0,0.0
56360000,0.0,0.0,0.0,0.0
56564000,0.0,0.0,0.0,0.0
56764000,0.0,0.0,0.0,0.0
56964000,0.0,0.0,0.0,0.0
57164000,0.0,0.0,0.0,0.0
57360000,0.0,0.0,0.0,0.0
57564000,0.0,0.0,0.0,0.0
57764000,0.0,0.0,0.0,0.0
57964000,0.0,0.0,0.0,0.0
58164000,0.0,0.0,0.0,0.0
58364000,0.0,0.0,0.0,0.0
58564000,0.0,0.0,0.0,0.0
58764000,0.0,0.0,0.0,0.0
58960000,0.0,0.0,0.0,0.0
59160000,0.0,0.0,0.0,0.0
59364000,0.0,0.0,0.0,0.0
59564000,0.0,0.0,0.0,0.0
59764000,0.0,0.0,0.0,0.0
59960000,0.0,0.0,0.0,0.0
60160000,0.0,0.0,0.0,0.0
60364000,-9.8385235e-06,1.3409401e-05,-5.9365414e-07,0.0
60564000,-7.322697e-06,1.0619508e-05,-1.5651352e-06,0.0
60764000,-5.8974165e-06,1.2968681e-05,7.1056735e-07,0.0
60964000,-5.4267134e-06,1.0363895e-05,1.0247625e-06,0.0
61164000,-9.154649e-06,1.1408655e-05,-1.99484e-06,0.0
61364000,-8.380791e-06,1.2395726e-05,-1.5131419e-06,0.0
61564000,-2.8487013e-06,1.0698457e-05,6.499855e-07,0.0
61764000,-6.8083216e-07,1.1570465e-05,-2.51671e-07,0.0
61964000,4.5921147e-06,1.266889e-05,-8.583858e-07,0.0
62164000,1.039431e-05,1.0974876e-05,1.7640256e-06,0.0
62364000,1.4424216e-05,-3.228716e-05,-4.571819e-07,0.0
62564000,1.6356537e-06,-2.9903686e-05,-1.0056146e-06,0.0
62764000,-6.919632e-07,-1.0123341e-05,1.2050893e-06,0.0
62964000,4.2387064e-06,-5.8904757e-06,9.575724e-07,0.0
63164000,6.2751246e-06,-8.753055e-06,-3.9275855e-07,0.0
63364000,4.8484258e-06,-7.2789435e-06,1.8331737e-06,0.0
63564000,9.754887e-07,-9.453585e-06,-1.8593076e-07,0.0
63764000,2.7641868e-06,-4.9596547e-06,-1.6162816e-06,0.0
63964000,-1.1525675e-06,-5.8088285e-06,6.1299033e-07,0.0
64164000,3.2927128e-06,-2.8517636e-06,-1.070099e-06,0.0
64364000,-4.0444755e-07,-2.6746748e-06,2.8573885e-07,0.0
64564000,1.6884712e-06,-2.220154e-06,1.830245e-07,0.0
64764000,-1.8927433e-06,-1.9098595e-06,-5.6557036e-07,0.0
64964000,2.2577992e-06,1.4279049e-06,-1.4910799e-07,0.0
65164000,-2.0813739e-06,-3.5806236e-06,1.2831981e-06,0.0
65364000,1.3079916e-06,1.3777939e-06,-9.1515346e-08,0.0
65564000,-3.0764147e-06,-5.6182002e-06,1.0318594e-06,0.0
65764000,4.489693e-06,-1.3101004e-06,5.305982e-07,0.0
65960000,3.7632566e-07,-3.373403e-06,-3.3731612e-07,0.0
66164000,1.313964e-06,-1.2527212e-06,-2.0538876e-06,0.0
66364000,4.217721e-06,3.0210692e-06,4.0410546e-07,0.0
66564000,-8.085817e-07,-2.6559119e-06,-1.9015394e-08,0.0
66764000,-4.4521166e-06,-3.0759177e-06,-9.194973e-07,0.0
66964000,-2.2255997e-06,1.3027296e-06,-2.747876e-06,0.0
67164000,-1.3082166e-06,5.6933175e-07,-8.143304e-07,0.0
67364000,-1.5193505e-06,1.4383991e-06,-1.0102908e-06,0.0
67564000,4.1937085e-08,3.0443502e-07,2.5799166e-06,0.0
67764000,1.1244546e-06,-1.4940632e-06,-7.625847e-07,0.0
67964000,6.7007495e-06,-2.023189e-06,-9.402384e-07,0.0
68164000,8.446566e-07,-2.6126393e-06,2.005113e-07,0.0
68364000,1.5131299e-06,3.992322e-06,-1.3850943e-06,0.0
68564000,-7.572051e-07,-1.7721478e-06,-1.6775003e-06,0.0
68764000,-2.253432e-07,1.9352344e-06,7.3850487e-07,0.0
68964000,-3.465596e-06,9.3911973e-07,-5.5531245e-07,0.0
69164000,-1.7659187e-06,7.86582e-07,1.675383e-06,0.0
69364000,-2.658879e-06,2.4192689e-06,8.0203574e-07,0.0
69564000,3.1579586e-07,1.1843164e-06,-1.5703177e-06,0.0
69764000,3.3216195e-06,2.2380516e-06,3.7722646e-07,0.0
69964000,2.9705434e-06,8.5310876e-07,-7.901955e-07,0.0
70164000,6.2942803e-07,-2.1651094e-06,2.673531e-07,0.0
70364000,-5.944819e-09,-8.013435e-08,-6.9227036e-07,0.0
70564000,-2.2060756e-06,-4.0575264e-06,-1.375264e-07,0.0
70764000,-7.0995293e-07,9.056182e-09,1.5540435e-06,0.0
70964000,9.0468734e-07,4.068088e-06,-1.3187506e-06,0.0
71164000,6.8848186e-07,-9.699017e-08,2.488808e-06,0.0
71364000,-6.2907094e-07,8.044637e-07,5.4492693e-07,0.0
71564000,-1.7902062e-06,-3.651704e-06,-6.497195e-07,0.0
71760000,-1.502324e-07,-8.852764e-07,1.8294857e-06,0.0
71964000,1.1586118e-06,1.4117411e-06,-1.951347e-06,0.0
72164000,1.517338e-06,8.728427e-07,-5.7264396e-07,0.0
72364000,-1.1024183e-06,2.2608415e-07,6.1313574e-07,0.0
72560000,-1.0501577e-06,9.422039e-07,2.3005721e-07,0.0
72764000,-5.2949224e-07,-1.3666883e-05,-1.0892832e-06,0.0
72960000,-7.2273906e-07,-4.7190715e-06,2.5909508e-06,0.0
73164000,-2.6843364e-07,-4.391761e-06,2.0089226e-07,0.0
73360000,2.905615e-06,-2.8217175e-06,1.5238381e-06,0.0
73560000,1.8822141e-06,-1.2808447e-06,1.9288993e-06,0.0
73764000,1.3092534e-06,-5.080196e-06,6.0859776e-07,0.0
73964000,-6.84556e-07,-7.522672e-07,9.872961e-07,0.0
74164000,-2.2730251e-07,-2.3290422e-06,1.5008384e-06,0.0
74364000,2.7341503e-06,-1.5031114e-06,-8.454674e-08,0.0
74564000,1.205604e-06,2.044181e-06,-8.9166474e-07,0.0
74764000,1.3131089e-06,-2.0959721e-06,1.7979082e-07,0.0
74964000,-1.0690587e-06,-1.4075493e-06,1.9595457e-07,0.0
75164000,-2.1134572e-06,1.7124537e-06,-9.395594e-07,0.0
75360000,-1.5197722e-06,-3.5644803e-07,2.4889454e-07,0.0
75564000,1.8105997e-07,-4.4210785e-07,1.5799284e-06,0.0
75760000,-3.3603267e-06,1.7327274e-06,-1.0969089e-06,0.0
75960000,-3.3800129e-07,-3.1945817e-06,-3.4926924e-07,0.0
76164000,-9.797544e-07,4.365357e-07,-1.1015409e-06,0.0
76364000,4.415182e-06,1.9329082e-05,9.562808e-07,0.0
76560000,-2.1689414e-06,4.7730787e-06,3.560466e-07,0.0
76764000,1.281613e-06,-1.4399263e-05,1.5295743e-06,0.0
76964000,-2.0607124e-06,5.818367e-06,1.3461652e-06,0.0
77160000,-4.514176e-06,1.3201977e-05,-2.3659177e-06,0.0
77360000,1.85874e-06,4.153777e-06,-1.8476533e-07,0.0
77564000,-1.7276141e-06,3.6271483e-06,-8.4054514e-09,0.0
77764000,-2.7222925e-06,4.2666134e-06,1.2491749e-06,0.0
77964000,7.8968407e-07,1.0577346e-06,-8.947578e-07,0.0
78160000,-2.133753e-06,3.0777824e-06,4.3159082e-07,0.0
78364000,1.8496141e-07,1.2216681e-07,7.1611527e-07,0.0
78564000,-1.2439444e-06,-6.0277806e-08,5.928361e-07,0.0
78764000,1.504274e-06,-1.8264001e-07,-1.18383575e-07,0.0
78964000,9.848141e-08,-2.8134243e-06,-7.2367484e-08,0.0
79164000,-2.1678936e-07,3.4092236e-06,-6.0778135e-08,0.0
79364000,1.0039399e-06,1.707032e-07,-1.083151e-06,0.0
79564000,-2.6712867e-06,-1.9503535e-07,-1.1216483e-06,0.0
79760000,1.4328705e-07,-4.612984e-06,-8.304203e-07,0.0
79964000,2.6426503e-07,1.5502378e-06,7.6788854e-07,0.0
80160000,2.3151474e-06,-1.2817098e-06,3.427287e-07,0.0
80364000,-3.6126103e-06,7.4635466e-07,2.9671407e-06,0.0
80564000,2.3940759e-06,1.1487843e-06,9.081858e-07,0.0
80764000,-1.469192e-06,2.1258118e-06,7.401069e-07,0.0
80964000,-4.0657262e-08,-2.6287623e-06,4.3028788e-08,0.0
81164000,-3.2543749e-06,3.6936806e-06,8.306539e-08,0.0
81364000,2.1696294e-06,-2.3465363e-06,1.9913738e-07,0.0
81560000,4.0024855e-07,1.6117091e-06,-1.0480325e-06,0.0
81764000,-3.844049e-06,1.381418e-06,-2.353184e-06,0.0
81960000,-1.1005826e-06,-3.4325192e-06,7.6608006e-07,0.0
82160000,-3.6020663e-06,-1.6775068e-05,1.8380261e-07,0.0
82364000,2.6371554e-06,-4.55025e-06,6.4594775e-07,0.0
82564000,-4.7185722e-07,6.6421485e-06,7.592774e-07,0.0
82764000,1.09590786e-07,4.4868893e-06,-3.7811503e-07,0.0
82964000,-1.3598093e-07,3.7153552e-07,5.364985e-07,0.0
83164000,-1.37582425e-08,-6.7154297e-06,-4.7265297e-07,0.0
83360000,2.4032335e-07,-4.849842e-06,-1.017853e-07,0.0
83564000,1.1456414e-06,-7.17251e-07,4.3697634e-07,0.0
83764000,3.5777634e-07,-1.2677027e-06,4.0507953e-07,0.0
83964000,-1.1753104e-06,2.054761e-06,-4.0981112e-07,0.0
84164000,-2.0390319e-06,3.0989004e-06,-7.0935124e-07,0.0
84364000,1.8215936e-06,2.8801846e-06,4.462223e-07,0.0
84560000,3.833496e-07,-1.2443195e-06,-4.797362e-07,0.0
84764000,2.6410391e-06,1.4890051e-07,6.782489e-07,0.0
84964000,-1.2322588e-06,4.414251e-07,2.7072522e-07,0.0
85164000,6.085262e-09,4.6833605e-08,8.5396255e-07,0.0
85364000,-2.191387e-06,3.7345674e-06,1.1931272e-06,0.0
85564000,2.7924036e-06,-2.1908952e-06,9.3671326e-07,0.0
85764000,-1.4649004e-05,1.74304e-05,1.1855242e-06,0.0
85964000,-2.2623199e-05,3.675512e-05,-2.478029e-05,0.0
86164000,5.2808442e-05,-8.047819e-07,-3.1858326e-05,0.0
86364000,4.2440613e-05,-3.3564287e-05,-2.4097011e-05,0.0
86564000,-1.3594984e-06,-3.0556086e-05,-1.4171904e-05,0.0
86764000,-8.168943e-06,-7.789947e-06,-1.0471716e-05,0.0
86960000,-8.709372e-06,1.0508869e-05,6.2810825e-05,0.0
87160000,-2.5418858e-06,1.33306985e-05,3.8069447e-05,0.0
87360000,1.4577594e-06,-5.316306e-05,1.6577986e-05,0.0
87564000,-1.7233417e-05,1.4245474e-05,5.7330963e-06,0.0
87764000,4.047129e-05,3.477281e-05,6.824057e-06,0.0
87964000,1.1834743e-05,2.1841766e-05,1.0544716e-05,0.0
88164000,-9.160339e-05,7.162727e-05,4.2215456e-06,0.0
88364000,1.6514097e-05,-8.094457e-05,1.6037791e-06,0.0
88560000,-2.0459584e-06,1.541968e-05,-5.4561665e-06,0.0
88764000,-2.022391e-05,-2.8137852e-05,1.7504166e-06,0.0
88960000,-5.5235632e-06,4.3253567e-06,4.381351e-06,0.0
89160000,-5.254686e-07,3.0758846e-07,2.5866873e-06,0.0
89364000,5.5820396e-06,4.3564236e-07,5.79144e-06,0.0
89564000,5.913474e-07,4.9924313e-07,5.9547647e-06,0.0
89764000,-1.6525036e-07,4.8645586e-07,5.736821e-06,0.0
89964000,4.557705e-06,-5.0879805e-07,6.2837958e-06,0.0
90160000,-3.0832132e-05,-6.797044e-06,5.2951767e-05,0.0
90364000,-1.7180244e-05,-5.1243046e-06,3.2351145e-05,0.0
90560000,-6.764195e-06,-1.6211936e-06,1.6877406e-05,0.0
90764000,-3.0659648e-06,-1.4207025e-06,1.7326588e-06,0.0
90964000,-2.072245e-07,-4.118553e-06,-1.121084e-05,0.0
91160000,1.7237659e-06,-2.205323e-06,-1.583693e-05,0.0
91360000,5.692477e-06,-3.2567796e-06,-1.8705163e-05,0.0
91560000,3.7939808e-06,-2.394279e-06,-2.443861e-05,0.0
91764000,2.179364e-05,-8.4843515e-07,-5.9147736e-05,0.0
91964000,2.6905678e-05,-2.9702737e-06,-4.6805926e-05,0.0
92164000,1.2919279e-05,-4.918364e-06,-3.9246206e-05,0.0
92364000,-2.5600042e-05,1.846983e-06,-3.6315287e-05,0.0
92564000,-2.15847e-05,3.850517e-06,-3.554627e-05,0.0
92764000,-4.2910833e-06,6.4061433e-06,-3.324148e-05,0.0
92964000,5.5793465e-05,-0.00014448295,-3.166433e-05,0.0
93164000,3.999419e-05,0.000160349,-1.3436207e-05,0.0
93364000,1.8614133e-05,-4.5068417e-05,-1.0853183e-05,0.0
93564000,-2.8392646e-05,-7.793345e-05,-3.2600196e-06,0.0
93764000,-1.1202805e-05,-9.942292e-06,1.6671045e-06,0.0
93960000,4.8666197e-06,-3.3940803e-05,4.0756495e-06,0.0
94160000,-6.1269975e-06,-2.4759636e-05,3.672275e-06,0.0
94364000,-1.0000765e-06,-1.3606441e-05,-1.03619195e-05,0.0
94564000,1.8735192e-05,5.0579624e-06,-1.9712417e-05,0.0
94760000,4.8647984e-05,1.7212691e-05,1.9268025e-05,0.0
94964000,7.3466394e-06,0.0001716381,5.638241e-05,0.0
95164000,-7.103278e-05,-4.555192e-05,5.9272854e-05,0.0
95364000,-6.710404e-05,-1.0566667e-05,3.1351727e-05,0.0
95560000,6.9712087e-06,-2.5002118e-06,1.1091314e-05,0.0
95760000,5.0571638e-05,-1.1357066e-05,-0.00021082563,0.0
95964000,6.604314e-07,5.96872e-06,-0.00026041374,0.0
96164000,5.4948287e-05,-2.6610055e-06,-1.8791827e-05,0.0
96364000,4.4368062e-07,0.000116132804,0.011019196,0.0
96564000,-0.0022525585,-0.00029476383,0.019922553,0.0
96760000,-0.0034773245,-0.0006510214,0.025559328,0.0
96964000,-0.004093855,-0.00082179194,0.029072527,0.0
97160000,-0.004441513,-0.00089710945,0.03102511,0.0
97364000,-0.0046381657,-0.0009698859,0.032210078,0.0
97564000,-0.004827056,-0.0010233555,0.03282721,0.0
97764000,-0.0050677895,-0.0010698392,0.033113744,0.0
97960000,-0.005312074,-0.0011044742,0.033208538,0.0
98160000,-0.005619636,-0.0011522145,0.03319238,0.0
98364000,-0.006049748,-0.00059042114,0.033153128,0.0
98564000,-0.0066173724,0.001707589,0.033148956,0.0
98760000,-0.007090346,0.004463655,0.033148956,0.0
98964000,-0.0076045464,0.0076943818,0.033142947,0.0
99164000,-0.008216123,0.011439303,0.033118278,0.0
99360000,-0.008797599,0.015366138,0.03297897,0.0
99564000,-0.009454338,0.019685522,0.032730043,0.0
99764000,-0.010030373,0.02357001,0.032449357,0.0
99964000,-0.0104706045,0.027283229,0.032059766,0.0
100160000,-0.010719468,0.030809755,0.03155262,0.0
100364000,-0.010868366,0.034553885,0.030931579,0.0
100564000,-0.010850918,0.03786405,0.030458147,0.0
100764000,-0.010637672,0.040852923,0.03020269,0.0
100964000,-0.0103367185,0.043670204,0.030109173,0.0
101164000,-0.010006121,0.04643753,0.030075725,0.0
101360000,-0.009704573,0.04917841,0.030071871,0.0
101564000,-0.00937925,0.051972814,0.030071497,0.0
101760000,-0.009062627,0.05464536,0.030071057,0.0
101964000,-0.008767607,0.057347126,0.03006607,0.0
102164000,-0.008469563,0.059992988,0.030062536,0.0
102364000,-0.008168622,0.06256913,0.030054806,0.0
102564000,-0.00790495,0.06518386,0.030054806,0.0
102764000,-0.007638388,0.06774124,0.030054806,0.0
102964000,-0.007420662,0.07029529,0.030054806,0.0
103164000,-0.007197864,0.072841436,0.030054806,0.0
103364000,-0.0070020156,0.075404294,0.030054685,0.0
103564000,-0.006828817,0.07800352,0.030054685,0.0
103764000,-0.006657343,0.08061538,0.030054111,0.0
103960000,-0.006512156,0.08310548,0.03005174,0.0
104164000,-0.0063888757,0.08570184,0.030050656,0.0
104364000,-0.006258111,0.08816203,0.030037215,0.0
104564000,-0.0061523803,0.0906574,0.030034324,0.0
104764000,-0.0060587004,0.09315238,0.030027723,0.0
104964000,-0.005983984,0.09559488,0.030025745,0.0
105164000,-0.005906664,0.09804145,0.0300228,0.0
105364000,-0.0058393944,0.100474715,0.0300228,0.0
105564000,-0.005787067,0.10285584,0.030021548,0.0
105764000,-0.005712569,0.10520096,0.03001997,0.0
105964000,-0.007586654,0.107557096,0.030010208,0.0
106164000,-0.008635602,0.10984635,0.029736826,0.0
106364000,-0.0085499035,0.112131685,0.029736826,0.0
106564000,-0.0065059946,0.11428369,0.029736826,0.0
106764000,-0.005318399,0.11644561,0.02978279,0.0
106964000,-0.0045920135,0.11882544,0.031263538,0.0
107164000,-0.004121079,0.12157198,0.035007272,0.0
107364000,-0.0037738502,0.124523334,0.04066297,0.0
107560000,-0.0034966576,0.12777443,0.047375113,0.0
107764000,-0.0032591433,0.13129835,0.05130663,0.0
107964000,-0.0030391018,0.13464025,0.05130663,0.0
108164000,-0.0028724228,0.13789442,0.05130663,0.0
108364000,-0.0027529544,0.14095177,0.053507946,0.0
108564000,-0.0026554551,0.14384441,0.056442935,0.0
108764000,-0.002596212,0.14642903,0.05947588,0.0
108964000,-0.0025070545,0.1488663,0.059544943,0.0
109164000,-0.002414035,0.15120573,0.059544943,0.0
109360000,-0.0022793591,0.15342733,0.059544943,0.0
109564000,-0.0021282744,0.15562558,0.059544943,0.0
109764000,-0.0019818665,0.15768683,0.059544943,0.0
109964000,-0.0018829822,0.15955345,0.059544943,0.0
110164000,-0.0018802057,0.16124348,0.059544943,0.0
110364000,-0.0019636687,0.16275981,0.059544943,0.0
110564000,-0.0021355874,0.16412237,0.059544943,0.0
110764000,-0.0023467767,0.16539589,0.059544943,0.0
110964000,-0.0025550143,0.16657926,0.059544943,0.0
111164000,-0.002758963,0.16769166,0.059544943,0.0
111364000,-0.0029559336,0.1687506,0.059544943,0.0
111564000,-0.003134369,0.1697457,0.059544943,0.0
111764000,-0.0033128953,0.1706817,0.059544943,0.0
111964000,-0.0034933265,0.17163192,0.059544943,0.0
112164000,-0.0036839624,0.17255148,0.059409495,0.0
112364000,-0.003873091,0.17345545,0.05898894,0.0
112564000,-0.00404404,0.17436406,0.058398634,0.0
112764000,-0.0042200643,0.17530434,0.05775418,0.0
112960000,-0.0043918826,0.17628713,0.057210058,0.0
113160000,-0.0045231027,0.17727171,0.056873,0.0
113364000,-0.0046445723,0.17831463,0.056748778,0.0
113560000,-0.0047551165,0.17928575,0.056733128,0.0
113764000,-0.0048403502,0.1803194,0.056732632,0.0
113964000,-0.0049222093,0.18130076,0.05671355,0.0
114160000,-0.0050101723,0.18225159,0.056616616,0.0
114364000,-0.0050650896,0.18321395,0.056302965,0.0
114560000,-0.005141813,0.18416746,0.05586404,0.0
114764000,-0.0051894872,0.18508148,0.0553071,0.0
114964000,-0.005232824,0.18600969,0.054705426,0.0
115164000,-0.005296312,0.18692484,0.05414212,0.0
115364000,-0.005323279,0.18777539,0.053709526,0.0
115564000,-0.0053369524,0.18865834,0.053390477,0.0
115764000,-0.005348896,0.18946737,0.05319976,0.0
115964000,-0.0053412872,0.1902936,0.053069837,0.0
116160000,-0.005330532,0.19105418,0.05294451,0.0
116360000,-0.0053162915,0.19190161,0.052808996,0.0
116560000,-0.0053060334,0.19261868,0.052630432,0.0
116764000,-0.0052890163,0.19333059,0.05242532,0.0
116964000,-0.005273083,0.1940725,0.052163314,0.0
117164000,-0.005263908,0.19477932,0.051912606,0.0
117364000,-0.0052661537,0.19547574,0.05168717,0.0
117564000,-0.0052209483,0.19618101,0.051541243,0.0
117764000,-0.005191751,0.19684681,0.05147815,0.0
117964000,-0.005157891,0.19743907,0.051476486,0.0
118164000,-0.0051336777,0.19809544,0.05147579,0.0
118364000,-0.0050915596,0.19869378,0.051475763,0.0
118564000,-0.005068186,0.19928329,0.051466364,0.0
118764000,-0.005011039,0.1999087,0.05144886,0.0
118964000,-0.0049746344,0.2005028,0.051434662,0.0
119164000,-0.0049775206,0.20107538,0.051387943,0.0
119364000,-0.0049555786,0.20160449,0.051344298,0.0
119564000,-0.0049347226,0.20215246,0.0512962,0.0
119764000,-0.004920492,0.20271307,0.051281363,0.0
119964000,-0.0048941886,0.20323229,0.05127092,0.0
120164000,-0.004865368,0.20373262,0.05125975,0.0
120364000,-0.004846366,0.20422633,0.051255785,0.0
120564000,-0.004835582,0.20474991,0.05125177,0.0
120764000,-0.0049997116,0.20520662,0.051239427,0.0
120964000,-0.004997425,0.20569086,0.051168308,0.0
121164000,-0.004961855,0.20616768,0.051011294,0.0
121364000,-0.0049129273,0.2066839,0.050838403,0.0
121564000,-0.004842734,0.20716763,0.050654944,0.0
121764000,-0.004772098,0.2076215,0.05056997,0.0
121964000,-0.004700772,0.20807111,0.050558284,0.0
122164000,-0.004626158,0.20850077,0.050558284,0.0
122364000,-0.0045240507,0.20894252,0.050558284,0.0
122564000,-0.004454537,0.20934683,0.050558284,0.0
122764000,-0.004386686,0.20979042,0.050558284,0.0
122964000,-0.004325632,0.2101926,0.050558284,0.0
123164000,-0.004264051,0.2106456,0.05055809,0.0
123364000,-0.0042130086,0.21106839,0.050556313,0.0
123564000,-0.0041864864,0.21148048,0.050548077,0.0
123764000,-0.0041413354,0.21187225,0.05054164,0.0
123960000,-0.0041202325,0.21227711,0.050541442,0.0
124164000,-0.004104349,0.21262622,0.050541442,0.0
124364000,-0.004087101,0.21300595,0.050541442,0.0
124564000,-0.004057243,0.21336482,0.050541442,0.0
124764000,-0.004049291,0.21370588,0.050541442,0.0
124964000,-0.0040484522,0.21406156,0.050541442,0.0
125164000,-0.0040350864,0.21441647,0.050541442,0.0
125364000,-0.004039746,0.2147145,0.05054142,0.0
125564000,-0.0040488592,0.21505196,0.05053735,0.0
125760000,-0.004068725,0.21535216,0.050523672,0.0
125964000,-0.004091994,0.21567887,0.050507072,0.0
126164000,-0.0041015255,0.21601643,0.05048867,0.0
126364000,-0.004110405,0.21631515,0.050477233,0.0
126564000,-0.0041327244,0.21662384,0.050471395,0.0
126764000,-0.0041500167,0.2169218,0.050471395,0.0
126960000,-0.0041706194,0.21719144,0.050461758,0.0
127164000,-0.0041844826,0.21749659,0.05045344,0.0
127364000,-0.0041966406,0.21775113,0.050445333,0.0
127564000,-0.004209483,0.21802765,0.05042917,0.0
127764000,-0.0042267307,0.21825038,0.050396737,0.0
127964000,-0.004253073,0.21847622,0.050315525,0.0
128164000,-0.0042726547,0.21873082,0.050217528,0.0
128364000,-0.004299582,0.21895581,0.05013573,0.0
128564000,-0.0043106587,0.21923263,0.05007256,0.0
128760000,-0.004330423,0.21947919,0.050032206,0.0
128964000,-0.0043311142,0.21969846,0.04998741,0.0
129164000,-0.004348505,0.21988736,0.049937066,0.0
129360000,-0.004379007,0.22010171,0.049882863,0.0
129564000,-0.0043877545,0.22032556,0.049844816,0.0
129764000,-0.004384651,0.22048284,0.049802046,0.0
129964000,-0.0044087907,0.2206582,0.049752653,0.0
130164000,-0.004410292,0.220838,0.049701117,0.0
130364000,-0.0044128858,0.22103968,0.0496488,0.0
130564000,-0.0022721237,0.2212166,0.04961444,0.0
130764000,-0.001315731,0.22145057,0.04961444,0.0
130964000,-0.002309281,0.22170453,0.04961444,0.0
131164000,-0.0039372896,0.2218738,0.04961444,0.0
131364000,-0.004956196,0.22212103,0.04961444,0.0
131564000,-0.0056704585,0.2226083,0.049380273,0.0
131764000,-0.0061974623,0.22344087,0.047348835,0.0
131964000,-0.0066586984,0.22446443,0.043837,0.0
132164000,-0.0070760674,0.225634,0.039396465,0.0
132360000,-0.007425887,0.22684202,0.03515636,0.0
132560000,-0.0077547,0.22798647,0.031811584,0.0
132764000,-0.007984611,0.22905496,0.029767819,0.0
132964000,-0.008155724,0.2299477,0.028949669,0.0
133164000,-0.008234472,0.23060496,0.028723344,0.0
133364000,-0.0083200475,0.23116797,0.028367741,0.0
133564000,-0.008372879,0.23159447,0.027273975,0.0
133764000,-0.008444296,0.23196748,0.02526567,0.0
133964000,-0.008535934,0.23235059,0.02242591,0.0
134164000,-0.0086373715,0.23266801,0.019229934,0.0
134364000,-0.008682516,0.23292753,0.016229,0.0
134564000,-0.008691234,0.233098,0.013902811,0.0
134764000,-0.008617136,0.23318759,0.01241472,0.0
134964000,-0.008477933,0.23317838,0.011666636,0.0
135164000,-0.008307749,0.23313971,0.011387002,0.0
135364000,-0.00810239,0.23311688,0.011213049,0.0
135564000,-0.007879108,0.23301467,0.010856723,0.0
135764000,-0.0076758405,0.23288794,0.010196721,0.0
135964000,-0.0074916733,0.232757,0.009234827,0.0
136164000,-0.007317863,0.23263164,0.00809576,0.0
136364000,-0.0071556503,0.23253603,0.0070704585,0.0
136564000,-0.006999301,0.2324474,0.0066171787,0.0
136764000,-0.006822861,0.23231414,0.0065392843,0.0
136964000,-0.00666098,0.23222117,0.006537954,0.0
137164000,-0.004874941,0.23195429,0.006537954,0.0
137364000,-0.0033020864,0.23164207,0.006537954,0.0
137560000,-0.0025375804,0.2314438,0.006537954,0.0
137764000,-0.004379868,0.23119602,0.006537954,0.0
137964000,-0.005524205,0.23092619,0.006537954,0.0
138164000,-0.0062028114,0.23093206,0.006537954,0.0
138360000,-0.006643429,0.2312727,0.006269407,0.0
138564000,-0.0070374613,0.23225473,0.0031863684,0.0
138764000,-0.007424256,0.23347251,-0.0022835867,0.0
138964000,-0.007834808,0.2349553,-0.008036226,0.0
139164000,-0.0082246335,0.23650253,-0.013242951,0.0
139364000,-0.008568749,0.2378175,-0.016811991,0.0
139564000,-0.008778322,0.23875059,-0.017749872,0.0
139760000,-0.008846663,0.2393703,-0.017749872,0.0
139964000,-0.008829953,0.23975606,-0.017749872,0.0
140164000,-0.008801812,0.24000116,-0.01777192,0.0
140364000,-0.008773255,0.24018896,-0.018638387,0.0
140564000,-0.00874987,0.2403465,-0.020912342,0.0
140764000,-0.008735768,0.24056023,-0.024263922,0.0
140964000,-0.008739828,0.24073423,-0.027994704,0.0
141164000,-0.008705254,0.24084723,-0.03135843,0.0
141364000,-0.008617618,0.24090515,-0.033872135,0.0
141564000,-0.008406887,0.24086504,-0.03534236,0.0
141764000,-0.008151324,0.24071997,-0.03579797,0.0
141964000,-0.007846331,0.24055238,-0.035786107,0.0
142164000,-0.007500972,0.24035771,-0.035769735,0.0
142364000,-0.0071293535,0.24010465,-0.035769735,0.0
142564000,-0.006783286,0.23986566,-0.035769735,0.0
142764000,-0.0064821914,0.2396907,-0.035769735,0.0
142964000,-0.00618612,0.23948066,-0.035769735,0.0
143164000,-0.005923769,0.23926353,-0.035769735,0.0
143364000,-0.005662724,0.2390643,-0.035769735,0.0
143564000,-0.00540766,0.23891553,-0.03576701,0.0
143760000,-0.0051451162,0.2387565,-0.035602774,0.0
143964000,-0.0048760623,0.2386237,-0.03505523,0.0
144164000,-0.004597207,0.23846221,-0.034337793,0.0
144360000,-0.004335759,0.23830573,-0.033641502,0.0
144564000,-0.00407433,0.23823456,-0.033089466,0.0
144764000,-0.0038407035,0.23812199,-0.03284303,0.0
144964000,-0.0036420708,0.23800424,-0.032823566,0.0
145164000,-0.0034697608,0.2378848,-0.032823566,0.0
145364000,-0.0032999844,0.23779953,-0.032823566,0.0
145560000,-0.0031620432,0.23774503,-0.032823566,0.0
145764000,-0.0030300447,0.23772292,-0.03280982,0.0
145964000,-0.0028813218,0.23766023,-0.03263519,0.0
146164000,-0.0027616394,0.2375987,-0.032241166,0.0
146360000,-0.0026393645,0.2375331,-0.031687252,0.0
146564000,-0.0025090976,0.23748362,-0.031116853,0.0
146764000,-0.0023949654,0.23742121,-0.030596523,0.0
146964000,-0.0022806255,0.23735562,-0.03023945,0.0
147160000,-0.0022026417,0.2372886,-0.030048547,0.0
147364000,-0.0021283801,0.23720008,-0.030001026,0.0
147564000,-0.0020765506,0.23713095,-0.02999508,0.0
147764000,-0.0020226887,0.23702903,-0.029993514,0.0
147964000,-0.0019622815,0.23696314,-0.029975053,0.0
148164000,-0.0019294905,0.23685078,-0.029922342,0.0
148364000,-0.0018712736,0.23671369,-0.029742893,0.0
148560000,-0.0018207924,0.23661627,-0.029468492,0.0
148764000,-0.0017733882,0.23648104,-0.029169833,0.0
148964000,-0.0017207444,0.23638397,-0.028947296,0.0
149160000,-0.0016789827,0.23625347,-0.02884803,0.0
149364000,-0.0016299891,0.23615913,-0.028816134,0.0
149564000,-0.0015865116,0.23603743,-0.028813243,0.0
149764000,-0.0015663214,0.23594159,-0.028811032,0.0
149960000,-0.0015479927,0.23580374,-0.028811032,0.0
150164000,-0.0015229096,0.23571344,-0.028809818,0.0
150360000,-0.0014926867,0.23556897,-0.028795045,0.0
150564000,-0.0014530385,0.23545443,-0.028752657,0.0
150764000,-0.0014347156,0.23537382,-0.028680785,0.0
150960000,-0.0014112992,0.23525698,-0.028555168,0.0
151164000,-0.0013761052,0.235169,-0.028422972,0.0
151364000,-0.001347949,0.23504671,-0.028376786,0.0
151564000,-0.0013055664,0.23494492,-0.028355805,0.0
151764000,-0.0012907096,0.2348126,-0.028348558,0.0
151964000,-0.0012567439,0.23469235,-0.028341938,0.0
152164000,-0.0012369413,0.23459688,-0.028341938,0.0
152364000,-0.0012262446,0.23448703,-0.028341806,0.0
152564000,-0.0011945299,0.23435757,-0.028337786,0.0
152764000,-0.0011641082,0.23429446,-0.028316712,0.0
152964000,-0.0011334221,0.2341814,-0.028253445,0.0
153164000,-0.0011099314,0.23405027,-0.028194014,0.0
153364000,-0.001099514,0.23393716,-0.028119477,0.0
153564000,-0.0010774877,0.23387082,-0.028076136,0.0
153764000,-0.0010513611,0.23374811,-0.028052464,0.0
153960000,-0.0010233562,0.23361135,-0.028043289,0.0
154160000,-0.001000833,0.23350939,-0.02803884,0.0
154364000,-0.0009816523,0.23339096,-0.028027026,0.0
154564000,-0.00094314973,0.23331812,-0.028016668,0.0
154764000,-0.0009383314,0.23319188,-0.028005125,0.0
154964000,-0.0009517177,0.23310404,-0.027976308,0.0
155164000,-0.0030021712,0.23299988,-0.027953343,0.0
155364000,-0.004042157,0.23294988,-0.027953343,0.0
155564000,-0.0035206168,0.2330044,-0.027953343,0.0
155764000,-0.001718089,0.23290242,-0.027953343,0.0
155964000,-0.0006497796,0.23293297,-0.027953343,0.0
156160000,5.5608007e-06,0.23323496,-0.027786937,0.0
156364000,0.0004391886,0.23380284,-0.025830563,0.0
156560000,0.0014502803,0.23443997,-0.021998841,0.0
156760000,0.0035832815,0.2347725,-0.014259403,0.0
156964000,0.0046184915,0.23516934,-0.0120285535,0.0
157164000,0.004875284,0.23562494,-0.010546903,0.0
157364000,0.004559154,0.23551182,-0.008918632,0.0
157564000,0.0040900595,0.23518899,-0.009027699,0.0
157764000,0.002280972,0.23468807,-0.010400327,0.0
157964000,0.0006213718,0.23448077,-0.013030867,0.0
158164000,-0.0005361409,0.23490852,-0.017121492,0.0
158364000,-0.0014815623,0.23592336,-0.022647142,0.0
158564000,-0.0023093272,0.2370301,-0.027719498,0.0
158764000,-0.0030342983,0.23819943,-0.032110304,0.0
158964000,-0.0036296037,0.23909336,-0.03541738,0.0
159164000,-0.0040962603,0.23975717,-0.037754096,0.0
159364000,-0.004413183,0.24023351,-0.039684642,0.0
159564000,-0.0046204575,0.24055097,-0.04158294,0.0
159764000,-0.0047783256,0.24080954,-0.0416286,0.0
159964000,-0.004827335,0.24101706,-0.0416286,0.0
160160000,-0.0048288982,0.24116786,-0.0416286,0.0
160364000,-0.0047879233,0.24122335,-0.0416286,0.0
160560000,-0.0046755527,0.24117912,-0.0416286,0.0
160764000,-0.004523686,0.24104989,-0.0416286,0.0
160964000,-0.004293039,0.2408617,-0.041411992,0.0
161164000,-0.004064218,0.24063359,-0.04062193,0.0
161364000,-0.0038079703,0.24033359,-0.03956646,0.0
161560000,-0.0035586013,0.24008785,-0.038570814,0.0
161764000,-0.0033556977,0.23988828,-0.037902337,0.0
161964000,-0.0031862399,0.23966552,-0.037740536,0.0
162164000,-0.003054063,0.23948763,-0.037740536,0.0
162360000,-0.0029490443,0.23933022,-0.037740536,0.0
162560000,-0.0028948744,0.23913942,-0.037740536,0.0
162764000,-0.0028416151,0.23896961,-0.037740536,0.0
162964000,-0.002788679,0.23883958,-0.037740536,0.0
163164000,-0.002750232,0.23875317,-0.037659522,0.0
163360000,-0.0026879201,0.23866893,-0.03726269,0.0
163564000,-0.0026161254,0.23858638,-0.036629543,0.0
163760000,-0.0025735567,0.23852646,-0.035993222,0.0
163964000,-0.002515913,0.23843545,-0.035463855,0.0
164160000,-0.0025138957,0.23840542,-0.035122845,0.0
164364000,-0.002503906,0.23829238,-0.035028767,0.0
164564000,-0.00254716,0.23824595,-0.03501858,0.0
164760000,-0.0025951832,0.23815855,-0.035017565,0.0
164964000,-0.0026399968,0.23805319,-0.034991354,0.0
165164000,-0.00269265,0.23800728,-0.03484906,0.0
165360000,-0.0027400493,0.23790117,-0.0345461,0.0
165564000,-0.0027759515,0.2378005,-0.034123417,0.0
165764000,-0.0028324903,0.23771977,-0.033637047,0.0
165964000,-0.0028813803,0.23766649,-0.03315537,0.0
166164000,-0.0029284928,0.23758295,-0.032801457,0.0
166364000,-0.0029916235,0.23745678,-0.032606483,0.0
166564000,-0.0030541264,0.23733267,-0.032542825,0.0
166764000,-0.0031201818,0.23717816,-0.032521375,0.0
166964000,-0.00318635,0.23706627,-0.03251644,0.0
167164000,-0.0032452652,0.23696041,-0.032501873,0.0
167364000,-0.0033195994,0.23683959,-0.032460447,0.0
167560000,-0.0033777363,0.23669294,-0.032376178,0.0
167760000,-0.0034278454,0.23655286,-0.03224711,0.0
167964000,-0.0034689999,0.23642212,-0.032151923,0.0
168164000,-0.00352635,0.23633428,-0.032107603,0.0
168364000,-0.0044819517,0.23640355,-0.03208122,0.0
168564000,-0.004309429,0.23666556,-0.03208122,0.0
168764000,-0.0042542927,0.23702951,-0.03208122,0.0
168960000,-0.0042159734,0.23733489,-0.03208122,0.0
169164000,-0.0042339545,0.23758541,-0.032076295,0.0
169364000,-0.0042441073,0.23776062,-0.031887684,0.0
169564000,-0.004272094,0.23784895,-0.031405065,0.0
169764000,-0.0042813295,0.23794678,-0.030726945,0.0
169960000,-0.0042860275,0.23796646,-0.030092053,0.0
170164000,-0.004322849,0.23802775,-0.029594367,0.0
170360000,-0.004360376,0.23804033,-0.029379515,0.0
170564000,-0.0044070715,0.2380236,-0.0293559,0.0
170764000,-0.004479813,0.23797767,-0.0293559,0.0
170964000,-0.0045491313,0.23793454,-0.0293559,0.0
171164000,-0.004635015,0.23786567,-0.0293559,0.0
171364000,-0.0047074393,0.23775025,-0.02935477,0.0
171564000,-0.00476786,0.23765823,-0.029260678,0.0
171764000,-0.0048176926,0.23758358,-0.02902718,0.0
171964000,-0.0048662825,0.23754631,-0.028746465,0.0
172164000,-0.0049182097,0.23746124,-0.028498469,0.0
172364000,-0.004984401,0.23739031,-0.028340809,0.0
172560000,-0.0050580725,0.23731452,-0.028325679,0.0
172764000,-0.0051136683,0.23721868,-0.028324172,0.0
172964000,-0.005199472,0.2371416,-0.028324172,0.0
173164000,-0.005304748,0.23703934,-0.028324172,0.0
173364000,-0.0053945784,0.2369477,-0.028324172,0.0
173564000,-0.0054732743,0.23683782,-0.028307153,0.0
173764000,-0.0055453232,0.23674633,-0.028259046,0.0
173964000,-0.005615851,0.23665003,-0.02818299,0.0
174164000,-0.0056874324,0.23656183,-0.028117124,0.0
174364000,-0.0057496238,0.23644015,-0.028065717,0.0
174564000,-0.005846023,0.23631914,-0.02804785,0.0
174764000,-0.0059197377,0.23622844,-0.028042667,0.0
174960000,-0.0060044406,0.23612173,-0.028042322,0.0
175164000,-0.006074109,0.23598976,-0.02803975,0.0
175360000,-0.006157564,0.23588799,-0.02803946,0.0
175564000,-0.006228241,0.23575109,-0.028029412,0.0
175760000,-0.00629738,0.23564017,-0.02801392,0.0
175964000,-0.0063795946,0.23552091,-0.027985275,0.0
176164000,-0.006445301,0.23537107,-0.027956681,0.0
176364000,-0.006520634,0.23523337,-0.027938006,0.0
176564000,-0.006564287,0.23508969,-0.027910827,0.0
176764000,-0.006620584,0.23496263,-0.027896246,0.0
176964000,-0.006688509,0.23482952,-0.027889267,0.0
177164000,-0.0067418953,0.23466852,-0.027884455,0.0
177364000,-0.0067936396,0.23454167,-0.027867226,0.0
177564000,-0.006847104,0.234355,-0.027862392,0.0
177760000,-0.0069263815,0.23418732,-0.02785734,0.0
177964000,-0.0069832024,0.2340443,-0.027853712,0.0
178164000,-0.007050585,0.23391657,-0.027822865,0.0
178364000,-0.0070868884,0.2338074,-0.027791096,0.0
178564000,-0.007133495,0.23366594,-0.027746666,0.0
178764000,-0.007174536,0.23351417,-0.027736543,0.0
178964000,-0.0072281486,0.23337427,-0.027715303,0.0
179164000,-0.0072833947,0.23326696,-0.02768733,0.0
179364000,-0.0073365835,0.23308145,-0.027672546,0.0
179564000,-0.007390783,0.23293097,-0.027656563,0.0
179764000,-0.0074204667,0.23283602,-0.027631583,0.0
179960000,-0.0074564624,0.23269229,-0.027618088,0.0
180164000,-0.0074789086,0.2325464,-0.027596928,0.0
180360000,-0.0075166775,0.23241423,-0.0275686,0.0
180560000,-0.007553495,0.23228288,-0.027539868,0.0
180764000,-0.0075792153,0.23214826,-0.027517471,0.0
180964000,-0.007631655,0.23202851,-0.027496846,0.0
181164000,-0.007662744,0.2319005,-0.027464569,0.0
181364000,-0.0076870136,0.23176609,-0.027452383,0.0
181564000,-0.0077014235,0.2315959,-0.02743577,0.0
181764000,-0.007705708,0.23119532,-0.02743577,0.0
181964000,-0.007684683,0.23066416,-0.02743577,0.0
182164000,-0.007612749,0.2301109,-0.02743577,0.0
182364000,-0.0075426614,0.22960731,-0.02743577,0.0
182564000,-0.007432304,0.22920619,-0.02743577,0.0
182764000,-0.0072960956,0.22888039,-0.02743577,0.0
182964000,-0.007175241,0.22859797,-0.02743577,0.0
183164000,-0.007046838,0.22844481,-0.02743577,0.0
183364000,-0.0069293887,0.22834863,-0.02743577,0.0
183564000,-0.0067971586,0.22831361,-0.02743577,0.0
183760000,-0.006674385,0.22827037,-0.02743577,0.0
183964000,-0.0065571615,0.22823606,-0.02743577,0.0
184164000,-0.006443446,0.22823265,-0.02743577,0.0
184364000,-0.0063279443,0.22823778,-0.027434345,0.0
184564000,-0.006232795,0.2282279,-0.027434345,0.0
184764000,-0.006117639,0.22827314,-0.027433353,0.0
184964000,-0.006038543,0.22831817,-0.027433353,0.0
185160000,-0.0059396764,0.22831975,-0.02743247,0.0
185364000,-0.0058314223,0.22834298,-0.0274285,0.0
185564000,-0.0057399715,0.22837105,-0.027425643,0.0
185764000,-0.005648333,0.22835489,-0.02741593,0.0
185964000,-0.005576681,0.22837692,-0.027407464,0.0
186164000,-0.0055055767,0.22839406,-0.027401647,0.0
186364000,-0.0054330966,0.22843504,-0.0273958,0.0
186564000,-0.005349042,0.2284303,-0.02739289,0.0
186764000,-0.005264598,0.2284602,-0.027391607,0.0
186964000,-0.0051839477,0.22848903,-0.027389606,0.0
187164000,-0.005111945,0.22850111,-0.0273866,0.0
187364000,-0.0050267186,0.22849691,-0.027383577,0.0
187564000,-0.0049612573,0.22849716,-0.027380278,0.0
187764000,-0.004888202,0.22850358,-0.027360676,0.0
187964000,-0.004814345,0.2285783,-0.02733366,0.0
188164000,-0.00473055,0.2285658,-0.027330596,0.0
188364000,-0.004666268,0.22857521,-0.027330322,0.0
188564000,-0.0046037915,0.22859092,-0.02732727,0.0
188764000,-0.0045475485,0.22862017,-0.027325481,0.0
188964000,-0.004474589,0.22863615,-0.027324446,0.0
189164000,-0.0044022216,0.22866872,-0.027324446,0.0
189364000,-0.0043532546,0.22864476,-0.027323028,0.0
189564000,-0.004281029,0.22867483,-0.027318388,0.0
189760000,-0.0042356313,0.2286844,-0.027313923,0.0
189964000,-0.0041730725,0.22869776,-0.027305923,0.0
190164000,-0.0041039167,0.22873294,-0.027297474,0.0
190360000,-0.004065021,0.22878012,-0.027286075,0.0
190564000,-0.0040114857,0.22877964,-0.027272504,0.0
190764000,-0.003941174,0.22879797,-0.027261494,0.0
190964000,-0.003915755,0.22881766,-0.027250892,0.0
191164000,-0.0038481145,0.22885577,-0.027235234,0.0
191364000,-0.003799794,0.22884959,-0.02722552,0.0
191564000,-0.0037494043,0.22888795,-0.027217664,0.0
191764000,-0.0037072552,0.22890182,-0.02720704,0.0
191964000,-0.003644419,0.22891942,-0.027185552,0.0
192164000,-0.003600878,0.22891009,-0.027177313,0.0
192360000,-0.003570989,0.22889635,-0.027169516,0.0
192564000,-0.0035280462,0.22893882,-0.0271496,0.0
192764000,-0.0034975957,0.22893338,-0.027142715,0.0
192960000,-0.003472893,0.2289061,-0.02713475,0.0
193164000,-0.003416617,0.22890416,-0.02713304,0.0
193364000,-0.0033823152,0.22892277,-0.027117576,0.0
193564000,-0.0033459074,0.22892863,-0.027107501,0.0
193764000,-0.0033014088,0.22892092,-0.027100483,0.0
193964000,-0.0032679457,0.22896075,-0.02707163,0.0
194164000,-0.0032506506,0.22895074,-0.027059969,0.0
194364000,-0.0032463914,0.22895408,-0.027042301,0.0
194564000,-0.0032119132,0.2289576,-0.02702458,0.0
194764000,-0.0031889256,0.22892414,-0.027020765,0.0
194964000,-0.0031662514,0.22894832,-0.027003193,0.0
195164000,-0.0031366672,0.22897093,-0.02698,0.0
195360000,-0.0031219774,0.22898625,-0.026962793,0.0
195564000,-0.0030969784,0.22899157,-0.026941936,0.0
195764000,-0.0030709004,0.22903521,-0.026916709,0.0
195964000,-0.0030466719,0.22902343,-0.026902087,0.0
196164000,-0.0030345595,0.2290052,-0.026890956,0.0
196360000,-0.003004344,0.22901519,-0.026880654,0.0
196564000,-0.0029990666,0.22902057,-0.026872661,0.0
196764000,-0.0029774187,0.22901876,-0.026857786,0.0
196960000,-0.002958844,0.22899523,-0.026845602,0.0
197160000,-0.002955386,0.22896923,-0.026832795,0.0
197364000,-0.0029415244,0.22896051,-0.02682466,0.0
197564000,-0.0029252751,0.22896948,-0.026811777,0.0
197764000,-0.002914881,0.22894815,-0.026800578,0.0
197960000,-0.002900633,0.22900061,-0.02678742,0.0
198164000,-0.0028658072,0.22902563,-0.026758535,0.0
198364000,-0.002851865,0.22904773,-0.026735172,0.0
198564000,-0.0028303917,0.22900863,-0.02672246,0.0
198760000,-0.0028171483,0.22904839,-0.026708342,0.0
198960000,-0.0027919551,0.22905892,-0.02666029,0.0
199164000,-0.0027804526,0.22909914,-0.026624238,0.0
199364000,-0.002766536,0.2291609,-0.026596393,0.0
199560000,-0.0027555467,0.22915266,-0.026574438,0.0
199764000,-0.0027383782,0.22919793,-0.02655251,0.0
199964000,-0.0027285693,0.22921939,-0.026522644,0.0
200164000,-0.0027302655,0.2292426,-0.026499111,0.0
200364000,-0.0027013735,0.22927666,-0.02647865,0.0
200564000,-0.002686381,0.22924356,-0.026469247,0.0
200764000,-0.0026711586,0.22926776,-0.02644084,0.0
200964000,-0.0026616843,0.22929554,-0.026410425,0.0
201164000,-0.002650627,0.22926693,-0.026395008,0.0
201360000,-0.0026420564,0.22930554,-0.026357463,0.0
201564000,-0.0026275076,0.22932552,-0.02633432,0.0
201764000,-0.002615463,0.22931696,-0.02629605,0.0
201964000,-0.002600571,0.22932507,-0.02626694,0.0
202164000,-0.002585854,0.22934398,-0.02625287,0.0
202364000,-0.0025713649,0.22935426,-0.02621442,0.0
202564000,-0.0025626519,0.22931853,-0.026181437,0.0
202764000,-0.0025724142,0.22935562,-0.026148763,0.0
202964000,-0.0025443833,0.22937801,-0.026111558,0.0
203160000,-0.0025415116,0.22940703,-0.026090378,0.0
203364000,-0.0025295806,0.22939481,-0.026061196,0.0
203564000,-0.0025235363,0.22939897,-0.026042879,0.0
203764000,-0.0024973443,0.22943203,-0.026012817,0.0
203964000,-0.0025116536,0.22946812,-0.025990365,0.0
204164000,-0.0024894122,0.22945283,-0.025965836,0.0
204364000,-0.0024811898,0.22945471,-0.025932796,0.0
204560000,-0.002482488,0.22947146,-0.025911868,0.0
204764000,-0.0024731269,0.22950603,-0.02587871,0.0
204964000,-0.002468519,0.22951837,-0.025853954,0.0
205164000,-0.002472839,0.22955583,-0.025822813,0.0
205364000,-0.0024707052,0.22958177,-0.025779078,0.0
205560000,-0.002455228,0.22958758,-0.02576553,0.0
205764000,-0.0024533072,0.2296322,-0.025749655,0.0
205964000,-0.002461797,0.22965798,-0.02572301,0.0
206164000,-0.0024561735,0.2296824,-0.025708862,0.0
206364000,-0.0024519905,0.2297018,-0.025703482,0.0
206564000,-0.0024603875,0.22968417,-0.025694149,0.0
206764000,-0.0024512839,0.22970879,-0.025680797,0.0
206964000,-0.0024446882,0.22974056,-0.025663596,0.0
207164000,-0.0024490023,0.22976388,-0.025647053,0.0
207364000,-0.0024293254,0.22977725,-0.025633244,0.0
207564000,-0.0024424398,0.22979778,-0.02561848,0.0
207764000,-0.002431692,0.22983502,-0.02558788,0.0
207964000,-0.0024311286,0.22983271,-0.025583154,0.0
208164000,-0.0024458438,0.22984025,-0.025573477,0.0
208364000,-0.0024363361,0.22985177,-0.025569756,0.0
208564000,-0.0024439942,0.22984691,-0.025567023,0.0
208764000,-0.0024490813,0.22988273,-0.025551224,0.0
208964000,-0.0024503926,0.22986539,-0.025545161,0.0
209164000,-0.0024540396,0.22988267,-0.025528455,0.0
209364000,-0.0024508855,0.22986656,-0.025526108,0.0
209564000,-0.0024549074,0.22986586,-0.025513934,0.0
209764000,-0.002445229,0.22985776,-0.02549327,0.0
209964000,-0.0024414358,0.22986275,-0.025478207,0.0
210160000,-0.0024461246,0.22989368,-0.025455361,0.0
210364000,-0.002447347,0.22994068,-0.02543498,0.0
210564000,-0.0024378372,0.22996715,-0.02541074,0.0
210764000,-0.002427953,0.2299973,-0.02538925,0.0
210964000,-0.0024392195,0.23002458,-0.025365988,0.0
211160000,-0.0024276152,0.23000385,-0.025349936,0.0
211364000,-0.002433506,0.23003156,-0.025341123,0.0
211564000,-0.0024463132,0.23004118,-0.025324825,0.0
211764000,-0.0024353163,0.2300503,-0.025311941,0.0
211960000,-0.002426368,0.23005156,-0.02529695,0.0
212164000,-0.0024113294,0.23007822,-0.025265552,0.0
212364000,-0.0024246017,0.2301014,-0.025238596,0.0
212564000,-0.002431017,0.23013182,-0.025222346,0.0
212764000,-0.002439339,0.23013254,-0.025212653,0.0
212964000,-0.0024456864,0.2301342,-0.025202882,0.0
213164000,-0.002448018,0.23011431,-0.025200808,0.0
213364000,-0.0024565675,0.23012201,-0.025188094,0.0
213560000,-0.002464554,0.23011956,-0.02518384,0.0
213764000,-0.002457012,0.23011993,-0.025158143,0.0
213964000,-0.0024473127,0.23015518,-0.02513317,0.0
214160000,-0.002449285,0.23020245,-0.025102334,0.0
214360000,-0.0024415134,0.23019746,-0.025082503,0.0
214564000,-0.0024593717,0.23019691,-0.025064256,0.0
214764000,-0.0024522198,0.23022129,-0.025036432,0.0
214964000,-0.0024385585,0.23025835,-0.025000716,0.0
215164000,-0.0024290395,0.23026524,-0.02496239,0.0
215364000,-0.0024266539,0.23029363,-0.024930047,0.0
215564000,-0.0024362993,0.23032796,-0.024886297,0.0
215764000,-0.0024398258,0.23039159,-0.024863815,0.0
215964000,-0.0024429362,0.23039815,-0.02483431,0.0
216160000,-0.0024484731,0.23043357,-0.0248027,0.0
216364000,-0.002456764,0.23047405,-0.024766052,0.0
216564000,-0.0031655252,0.23050135,-0.024714477,0.0
216764000,-0.004181038,0.23055334,-0.024711642,0.0
216964000,-0.003013612,0.23062912,-0.024711642,0.0
217164000,-0.0023350762,0.23070882,-0.024711642,0.0
217364000,-0.0019152096,0.23083453,-0.024710491,0.0
217564000,-0.0016696496,0.23096178,-0.024044003,0.0
217764000,-0.0015280314,0.23112081,-0.022243647,0.0
217964000,-0.0014302882,0.23132022,-0.019763216,0.0
218164000,-0.0014074858,0.23155321,-0.01710682,0.0
218364000,-0.0013994958,0.2317006,-0.014790126,0.0
218564000,-0.0014752867,0.23177731,-0.013082852,0.0
218764000,-0.0015910635,0.2318037,-0.012078472,0.0
218964000,-0.0017622503,0.23182532,-0.011582446,0.0
219164000,-0.001931981,0.23179086,-0.011358484,0.0
219364000,-0.0021199037,0.23171681,-0.011126839,0.0
219564000,-0.0022822614,0.2316554,-0.010675708,0.0
219764000,-0.002408873,0.23153637,-0.009952171,0.0
219960000,-0.0025276595,0.2314111,-0.009083163,0.0
220164000,-0.002642823,0.23128626,-0.008124137,0.0
220364000,-0.0027388546,0.23116419,-0.007335548,0.0
220564000,-0.0030826745,0.23102672,-0.006957045,0.0
220764000,-0.003178793,0.2309169,-0.0069401064,0.0
220964000,-0.0032584155,0.23075373,-0.0069401064,0.0
221164000,-0.0033037683,0.23064004,-0.0069401064,0.0
221364000,-0.0033394853,0.23058319,-0.0069401064,0.0
221564000,-0.0033661297,0.23045962,-0.0069401064,0.0
221760000,-0.0033557818,0.23035389,-0.0069184275,0.0
221964000,-0.0033317816,0.23026276,-0.006690972,0.0
222164000,-0.0033090946,0.23018129,-0.00625515,0.0
222364000,-0.003264207,0.23014112,-0.0057530818,0.0
222564000,-0.0032214685,0.23009592,-0.0053344727,0.0
222764000,-0.0031877626,0.2300442,-0.0050669643,0.0
222964000,-0.0031918394,0.23000173,-0.004964227,0.0
223164000,-0.0032001957,0.2299608,-0.004957926,0.0
223364000,-0.00321839,0.22993271,-0.004956027,0.0
223564000,-0.0032401143,0.2298857,-0.0049507036,0.0
223764000,-0.0032641562,0.22982933,-0.0048764716,0.0
223964000,-0.0033024105,0.22981447,-0.004614571,0.0
224160000,-0.0033287858,0.22974196,-0.0042379005,0.0
224364000,-0.0033607993,0.22964685,-0.0037455012,0.0
224564000,-0.0033834486,0.22960643,-0.003263736,0.0
224764000,-0.0034032061,0.22957836,-0.0027986283,0.0
224964000,-0.003428307,0.22951184,-0.002485205,0.0
225164000,-0.0034773522,0.22944866,-0.0022774842,0.0
225364000,-0.0035109725,0.22939424,-0.0021290532,0.0
225564000,-0.0035740258,0.22929133,-0.00203064,0.0
225764000,-0.0036378307,0.22926173,-0.0019359246,0.0
225964000,-0.0036938197,0.22919,-0.0017538329,0.0
226164000,-0.003733433,0.22910225,-0.0015091017,0.0
226364000,-0.0037900768,0.22905962,-0.0012509989,0.0
226564000,-0.003842376,0.22904405,-0.0009549101,0.0
226760000,-0.0038854822,0.22901113,-0.0007111199,0.0
226964000,-0.0038286024,0.228961,-0.00055024814,0.0
227164000,-0.0036245133,0.22927295,-0.00047568727,0.0
227364000,-0.0034423259,0.22984673,-0.00049030076,0.0
227564000,-0.003268516,0.23078316,-0.000502648,0.0
227764000,-0.0031239202,0.23178943,-0.00051067845,0.0
227964000,-0.0029746578,0.23294051,-0.0005194898,0.0
228164000,-0.0028489616,0.23401895,-0.0005217288,0.0
228364000,-0.0027925896,0.23503573,-0.00052306795,0.0
228564000,-0.0027586413,0.23593794,-0.00052497216,0.0
228764000,-0.002763005,0.23679088,-0.00052497216,0.0
228964000,-0.002796811,0.2375594,-0.0005264234,0.0
229164000,-0.0028732566,0.23838203,-0.00053139473,0.0
229364000,-0.0029773077,0.23906122,-0.00054689596,0.0
229564000,-0.0031450775,0.23970057,-0.00056729873,0.0
229764000,-0.0033221506,0.2402714,-0.0006315081,0.0
229964000,-0.0034607411,0.24076986,-0.00068415975,0.0
230164000,-0.0036199165,0.24129069,-0.0007630311,0.0
230364000,-0.003735119,0.24184442,-0.00080104143,0.0
230564000,-0.0038547695,0.24238878,-0.0008532368,0.0
230764000,-0.003945469,0.24286525,-0.0008657223,0.0
230964000,-0.0040296493,0.24328752,-0.00086008036,0.0
231164000,-0.004087488,0.24359165,-0.00085356476,0.0
231364000,-0.00412489,0.24375455,-0.00084405596,0.0
231564000,-0.004149592,0.24377841,-0.0008137651,0.0
231760000,-0.004148605,0.24366368,-0.0007886472,0.0
231960000,-0.0041554063,0.24336515,-0.00074144034,0.0
232164000,4.7218724e-05,-0.00017465302,-9.80682e-06,0.0
232364000,3.2238262e-05,2.7154667e-05,-6.455323e-06,0.0
232560000,5.7337343e-06,0.00020222623,2.554255e-06,0.0
232760000,-7.841013e-06,-8.8563895e-05,1.0735461e-05,0.0
232964000,-2.3370238e-05,-1.9787556e-05,1.0314968e-05,0.0
233164000,-3.8727685e-06,-1.27187295e-05,5.055811e-06,0.0
233364000,-4.5649663e-06,-1.3177592e-05,3.0291804e-07,0.0
233564000,-7.1203176e-06,-1.0925327e-05,-2.9518649e-06,0.0
233764000,2.0743614e-06,-5.4519132e-06,-3.979898e-06,0.0
233964000,-2.6423588e-06,-6.086174e-06,-3.5585033e-06,0.0
234164000,5.9008602e-09,-2.776279e-06,-6.348957e-06,0.0
234364000,6.8114437e-06,0.00012827579,-3.4810953e-06,0.0
234564000,9.935163e-06,9.694603e-06,-2.9848757e-06,0.0
234764000,1.3493805e-06,-4.622833e-05,2.705378e-07,0.0
234964000,-3.2405796e-06,4.048256e-06,1.8683648e-06,0.0
235164000,-6.1448973e-06,-2.530521e-05,5.4554707e-06,0.0
235364000,4.7432736e-06,-4.748307e-05,2.8272304e-06,0.0
235564000,-4.3688674e-06,-6.379158e-05,3.0519743e-06,0.0
235764000,3.1046181e-06,-1.2896359e-05,1.791447e-06,0.0
235964000,-4.136753e-06,-2.9233427e-06,3.6283421e-07,0.0
236160000,6.6338807e-06,1.295025e-05,-1.2638939e-06,0.0
236364000,-4.7739195e-06,1.246941e-06,1.944412e-06,0.0
236564000,-8.841957e-06,-9.230841e-06,-3.0038323e-06,0.0
236760000,1.0549756e-05,1.0413617e-06,-2.6131775e-06,0.0
236964000,8.465445e-06,-1.0720165e-05,-1.1841202e-06,0.0
237164000,-2.2330136e-07,-1.3888731e-05,-1.7754572e-06,0.0
237364000,4.6364185e-06,-8.64432e-06,-6.501546e-07,0.0
237564000,-1.3046054e-05,6.208645e-05,-1.3398995e-06,0.0
237764000,3.4306552e-06,-3.0437008e-05,-3.6733815e-07,0.0
237964000,5.92383e-07,-9.678007e-06,-6.940564e-07,0.0
238164000,1.1267125e-06,7.891325e-06,-1.3471873e-06,0.0
238364000,-6.1353575e-08,-3.947398e-06,2.3169223e-07,0.0
238564000,1.2456086e-05,-8.043483e-05,5.762351e-07,0.0
238764000,-2.233348e-05,6.946244e-05,-9.727574e-07,0.0
238964000,6.1020532e-06,4.4096767e-05,-1.9748763e-06,0.0
239160000,-1.0993076e-06,-1.7128894e-05,-2.0306585e-07,0.0
239364000,2.3740672e-06,-3.5964667e-06,-2.6217365e-06,0.0
239564000,-8.0065865e-07,-4.8740444e-06,1.9139643e-06,0.0
239760000,2.0930586e-06,4.297272e-06,-9.737527e-07,0.0
239964000,3.2022953e-07,-5.6096883e-06,-5.3796657e-07,0.0
240164000,1.0270271e-05,-5.296873e-06,-2.538834e-07,0.0
240364000,-5.4187086e-07,-1.8217103e-06,5.2301374e-07,0.0
240564000,8.089848e-07,5.354604e-07,1.3169765e-06,0.0
240764000,-9.484894e-07,1.9647073e-06,-9.767557e-07,0.0
240960000,5.6174813e-06,4.338693e-06,5.675059e-07,0.0
241164000,2.8191303e-07,-1.3423775e-06,1.5116461e-08,0.0
241364000,4.1225385e-06,-8.544736e-08,-8.0240653e-07,0.0
241564000,2.0114837e-06,-1.6889983e-07,5.973999e-07,0.0
241764000,3.0724418e-06,8.371891e-06,5.877887e-07,0.0
241964000,-3.7686489e-06,-4.930072e-06,6.6340664e-07,0.0
242164000,9.744074e-07,-1.9762495e-06,-7.8970936e-07,0.0
242360000,-1.429126e-06,-3.442527e-06,1.5438525e-06,0.0
242564000,3.054586e-06,1.9460956e-06,-9.4442373e-07,0.0
242760000,1.4433422e-06,1.4526747e-06,-5.804431e-08,0.0
242964000,4.4829085e-06,2.8238394e-06,-8.95263e-07,0.0
243164000,-2.3072332e-06,-3.617503e-07,-2.2692738e-07,0.0
243364000,4.1308595e-06,1.126634e-07,4.216782e-07,0.0
243564000,-2.2996746e-06,-1.6648511e-06,-1.1803297e-06,0.0
243764000,1.966431e-06,6.2668805e-06,1.4913688e-06,0.0
243964000,-2.870022e-06,-4.889484e-06,-5.512367e-07,0.0
244164000,1.6207247e-06,5.6526537e-06,-1.228922e-06,0.0
244364000,1.4008948e-06,-2.4673586e-06,2.6361695e-07,0.0
244564000,1.0735673e-06,3.5718258e-06,-6.9232846e-07,0.0
244764000,3.872812e-07,-2.2331353e-06,5.167666e-07,0.0
244964000,7.6237397e-06,2.9842954e-06,4.1951688e-07,0.0
245164000,-9.725484e-07,-5.3937056e-06,-1.6647261e-06,0.0
245364000,8.396768e-08,5.8243245e-06,-1.649916e-07,0.0
245564000,-3.3037946e-07,-1.9544045e-06,1.727739e-07,0.0
245764000,3.1737466e-06,6.2380573e-06,3.559522e-07,0.0
245964000,-2.662696e-06,-2.233714e-06,3.8601033e-07,0.0
246160000,5.958687e-07,3.4310501e-06,-6.542267e-07,0.0
246360000,-1.2695299e-06,3.3902895e-06,2.1344471e-07,0.0
246564000,5.5577567e-07,-4.5775396e-06,1.1571813e-06,0.0
246764000,-6.784907e-07,4.730915e-06,1.6623442e-06,0.0
246964000,-4.0158748e-06,-3.8591843e-06,-1.1983317e-06,0.0
247164000,2.807919e-06,3.246701e-06,3.947923e-07,0.0
247364000,-4.4192274e-07,-4.890846e-06,-6.8627264e-07,0.0
247564000,-4.476474e-05,-1.8531447e-05,-7.490139e-09,0.0
247760000,-1.4787615e-07,-4.6948517e-06,4.199946e-07,0.0
247964000,-1.9579388e-06,7.6837387e-07,2.5466505e-08,0.0
248164000,-2.9119901e-06,-3.6318058e-06,-2.6670548e-06,0.0
248364000,3.6418862e-06,8.53353e-07,1.7855767e-06,0.0
248564000,-3.4281575e-07,-7.902797e-07,1.0322393e-06,0.0
248764000,-3.953605e-07,3.812043e-06,-1.9444052e-07,0.0
248964000,-2.7360852e-06,-4.6135174e-06,-4.412504e-07,0.0
249164000,8.8939885e-07,1.9816969e-06,2.1425706e-08,0.0
249364000,-5.6134854e-07,-1.1959768e-06,-1.1816318e-06,0.0
249564000,9.932521e-07,4.5247198e-06,-3.4280074e-08,0.0
249764000,-8.145087e-08,-2.4558262e-06,-1.6148479e-06,0.0
249964000,7.696103e-07,-1.9026436e-07,5.128352e-07,0.0
250164000,-1.9661934e-06,1.2511687e-07,7.397278e-07,0.0
250364000,2.3985592e-06,4.518229e-06,-1.5151196e-06,0.0
250564000,-1.4996194e-06,-2.8815612e-06,-2.780128e-07,0.0
250764000,-2.666046e-06,5.257076e-06,1.5748043e-06,0.0
250964000,-1.3808174e-06,-1.92631e-06,6.96341e-07,0.0
251164000,3.4041564e-06,1.3065142e-06,-8.666322e-07,0.0
251364000,-1.3698553e-06,-5.252398e-06,8.222793e-07,0.0
251564000,4.8125066e-06,7.6363585e-06,-1.3841188e-07,0.0
251764000,-1.1856354e-06,-6.538567e-06,-6.694079e-07,0.0
251964000,-1.0802294e-06,4.954255e-06,2.3312064e-06,0.0
252164000,-3.7944622e-07,-2.002812e-07,-1.4606417e-07,0.0
252364000,2.7619706e-06,2.6471478e-06,1.0806768e-06,0.0
252564000,-2.1131245e-06,-3.6840925e-06,-4.402723e-07,0.0
252764000,1.4745855e-06,9.397932e-06,6.867237e-07,0.0
252964000,1.2475911e-06,-5.087599e-06,1.5784305e-07,0.0
253164000,2.0275982e-06,-1.5655481e-06,-1.2033963e-06,0.0
253364000,-2.97961e-06,-1.4241285e-06,-4.6677025e-07,0.0
253560000,9.297962e-07,1.0123937e-05,-7.588234e-07,0.0
253764000,-9.3678705e-07,-3.8560815e-06,-1.905014e-06,0.0
253960000,4.267036e-06,6.043894e-07,-2.24151e-07,0.0
254164000,1.096766e-06,-1.7410875e-06,-1.4011322e-07,0.0
254364000,1.5120775e-06,-1.2804509e-06,1.2817088e-06,0.0
254564000,-3.7715214e-08,-7.359748e-06,1.4573139e-07,0.0
254760000,2.4373794e-06,3.1867216e-06,2.6761354e-06,0.0
254964000,-1.2715568e-06,-3.7116286e-06,1.2818167e-06,0.0
255164000,-3.6795507e-06,1.4476911e-06,-5.925252e-07,0.0
255364000,7.07563e-07,1.1629847e-06,1.7516435e-06,0.0
255564000,4.7095608e-07,4.4590893e-06,4.2214535e-07,0.0
255764000,3.915197e-06,-1.7550104e-06,-9.244e-07,0.0
255964000,1.1554941e-06,1.6287293e-06,8.1931444e-07,0.0
256164000,8.6549045e-07,-2.625684e-06,5.730408e-07,0.0
256360000,1.0312131e-06,1.4854852e-06,2.3449454e-06,0.0
256564000,-1.8791426e-06,2.6752953e-06,-1.0446848e-06,0.0
